~Version ---------------------------------------------------
VERS.      2.0 : CWLS log ASCII Standard -VERSION 2.0
WRAP.      YES : Multiple lines per depth step
CREA. 08/18/12 : LAS Creation Date
~Well ------------------------------------------------------
STRT.FT                 2900.0 : START DEPTH
STOP.FT                17850.0 : STOP DEPTH
STEP.FT               50.00000 : STEP LENGTH
NULL.                  -999.25 : NULL VALUE
COMP. AMOCO PRODUCTION COMPANY : COMPANY
WELL.   JIMMY HILL GAS UNIT #1 : WELL
FLD .                  WILDCAT : FIELD
LOC .                          : LOCATION
CNTY.                     LEON : COUNTY
STAT.                    TEXAS : STATE
CTRY. UNITED STATES OF AMERICA : COUNTRY
SRVC.             Schlumberger : SERVICE COMPANY
DATE.              04-Jun-1996 : LOGDATE
API .           42289312310000 : API NUMBER
UWI .           42289312310000 : UNIQUE WELL ID
SLAT.WGS84       31.2538599246 : SURFACE LATITUDE
SLON.WGS84      -96.2196025838 : SURFACE LONGITUDE
~Curve Information -----------------------------------------
DEPT    .FT                                                                                                : DEPTH FEET
AO10ED  .OHMM                                                                                              : ARRAY INDUCTION ONE FOOT RESISTIVITY A10 FROM AIT-PI-DITE-LDT-CNT LOG
AO20ED  .OHMM                                                                                              : ARRAY INDUCTION ONE FOOT RESISTIVITY A20 FROM AIT-PI-DITE-LDT-CNT LOG
AO30ED  .OHMM                                                                                              : ARRAY INDUCTION ONE FOOT RESISTIVITY A30 FROM AIT-PI-DITE-LDT-CNT LOG
AO60ED  .OHMM                                                                                              : ARRAY INDUCTION ONE FOOT RESISTIVITY A60 FROM AIT-PI-DITE-LDT-CNT LOG
AO90ED  .OHMM                                                                                              : ARRAY INDUCTION ONE FOOT RESISTIVITY A90 FROM AIT-PI-DITE-LDT-CNT LOG
CALSED  .IN                                                                                                : CALIPER FROM BCS-CALIPER-GR LOG [ADJ. TO GRRED]
CALWS   .IN                                                                                                : CALIPER [DCALED+BITS]
CONDWS  .MMHO                                                                                              : CONDUCTIVITY [1000/DRESWS]
DCALED  .IN                                                                                                : DIFFERENTIAL CALIPER FROM AIT-PI-DITE-LDT-CNT LOG
DCORWS  .G/C3                                                                                              : DENSITY CORRECTION [DRHED SPL. TO DRHOED @ 10860']
DENWS   .G/C3 :   FORMATION BULK DENSITY [RHOMED, DENWS CALCULATED FROM DPOWS FROM 7004'-10889'] [M:2.71,F : 1.0]
DPHILSED.V/V                                                      :   DENSITY POROSITY LIMESTONE [M:2.71,F : 1.0] FROM AIT-PI-DITE-LDT-CNT LOG
DPOLSED .V/V                                                                                               : DENSITY POROSITY LIMESTONE FROM HOSTILE LDL-CN-GR LOG
DPOWS   .V/V                                                                                               : DENSITY POROSITY [DPHILSED SPL. TO DPOLSED @ 10852']
DRESWS  .OHMM                                                                                              : DEEP RESISTIVITY [AO30ED SPL. TO IDPHED]
DRHED   .G/C3                                                                                              : BULK DENSITY CORRECTION FROM HOSTILE LDL-CN-GR LOG
DRHOED  .G/C3                                                                                              : BULK DENSITY CORRECTION FROM AIT-PI-DITE-LDT-CNT LOG
DTED    .US/F                                                                                              : DELTA T FROM BCS-CALIPER-GR LOG [ADJ. TO GRRED/NPHILSED]
DTLFED  .US/F                                                                                              : DELTA-T LONG SPACING FAR FROM AIT-PI-DITE-LDT-CNT-PI-LSS-GR LOG
DTLNED  .US/F                                                                                              : DELTA-T LONG SPACING NEAR FROM AIT-PI-DITE-LDT-CNT-PI-LSS-GR LOG
DTWS    .US/F                                                                                              : COMPRESSIONAL SONIC [DTED SPL. TO DTLNED @ 10865.5'-15946.5']
GRRED   .GAPI                                                                                              : GAMMA RAY FROM AIT-PI-DITE-LDT-CNT LOG
GRSED   .GAPI                                                                                              : GAMMA RAY FROM BCS-CALIPER-GR-PI-LSS LOG [ADJ. TO GRRED]
GRWS    .GAPI                                                                                              : GAMMA RAY [GRRED]
IDPHED  .OHMM                                                                                              : DEEP INDUCTION PHASOR FROM AIT-PI-DITE-LDT-CNT- PI-LSS-GR LOG
LCALED  .IN                                                                                                : LOWER CALIPER FROM HOSTILE LDL-CN-GR LOG
MRESWS  .OHMM                                                                                              : MEDIUM RESISTIVITY [AO30ED]
NPHILSED.V/V                                                                                               : NEUTRON POROSITY LIMESTONE FROM AIT-PI-DITE-LDT-CNT LOG
NPOWS   .V/V                                                                                               : NEUTRON POROSITY [NPHILSED]
PEFED   .B/E                                                                                               : PHOTOELECTRIC FACTOR FROM AIT-PI-DITE-LDT-CNT LOG
PEFLED  .B/E                                                                                               : HLDT PEF LONG SPACING FROM HOSTILE LDL-CN-GR LOG
PEFSED  .B/E                                                                                               : SHORT SPACED CORRECTED PHOTOELECTRIC FACTOR FROM HOSTILE LDL-CN-GR LOG
PEFWS   .B/E                                                                                               : PHOTOELECTRIC FACTOR [PEFED SPL. TO PEFSED @ 10847.5']
RHOMED  .G/C3                                                                                              : CORRECTED BULK DENSITY FROM HOSTILE LDL-CN-GR LOG
SPRED   .MV                                                                                                : SPONTANEOUS POTENTIAL  FROM AIT-PI-DITE-LDT-CNT LOG
SPWS    .MV                                                                                                : SPONTANEOUS POTENTIAL [BASELINE 0, MV SPRED]
SRESWS  .OHMM                                                                                              : SHALLOW RESISTIVITY [AO10ED]
TENDED  .LBF                                                                                               : DIFFERENTIAL TENSION FROM HOSTILE LDL-CN-GR LOG
TENRED  .LBF                                                                                               : TENSION FROM AIT-PI-DITE-LDT-CNT LOG
TENSED  .LBF                                                                                               : TOTAL TENSION FROM BCS-CALIPER-GR LOG [ADJ. TO GRRED]
~Params ----------------------------------------------------
PD  .                     GL : PERMANENT DATUM
EPD .FT                 3759 : ELEVATION PERMANENT DATUM
LMF .                     KB : LOG MEASURED FROM
DAPD.FT                 37.2 : FEET ABOVE PERMANENT DATUM
DMF .                     KB : DRILLING MEASURED FROM
EKB .FT                 4131 : KELLY BUSHING
EDF .FT                 4121 : DRILLING FLOOR
EGL .FT                 3759 : GROUND LEVEL
DATE.               06/04/96 : RUN DATE
RUN .                      4 : RUN NUMBER
DD  .FT                17800 : DEPTH DRILLER
DL  .FT                17800 : DEPTH LOGGER
BLI .FT                17797 : BOTTOM LOG INTERVAL
TLI .FT                15944 : TOP LOG INTERVAL
CS  .IN                    7 : CASING SIZE
CBD .FT                15950 : CASING BOTTOM DRILLER
CBL .FT                15944 : CASING BOTTOM LOGGER
BS  .IN                5.875 : BIT SIZE
BSD .FT                17800 : BIT SIZE AT DEPTH
DFT .              OIL BASED : DRILLING FLUID TYPE
DFD .                     18 : DRILLING FLUID DENSITY
DFV .                     88 : DRILLING FLUID VISCOSITY
RMC .OHMM      OIL BASED MUD : RESISTIVITY MUD CAKE
MCST.DEGF      OIL BASED MUD : MUD CAKE SAMPLE TEMPERATURE
TCS .HRS                2100 : TIME CIRCULATED STOPPED
TLAB.HRS                1500 : TIME LOGGER AT BOTTOM
LUN .                   2019 : LOGGING UNIT NUMBER
LUL .                  TYLER : LOGGING UNIT LOCATION
ENGI.                 FERRIS : RECORDING ENGINEER
WITN.              MCGINNUSS : WITNESSED BY
CLNT.                A2DTECH : CLIENT CODE
ORIG.               5' PRINT : ORIGIN OF DATA
UWI .         42289312310000 : UNIQUE WELL ID
DICO. A2D Technologies, Inc. : DIGITIZING COMPANY
~Other -----------------------------------------------------
~ASCII -----------------------------------------------------
# ...
 14600.00000    -999.25    -999.25    -999.25    -999.25    -999.25    -999.25    8.84190   85.81920    0.34190    0.00670    2.56770    -999.25    0.08240    0.08240   11.65240    0.00670    -999.25    -999.25   63.57380   63.53280   63.53280   44.15090    -999.25   44.15090   11.65240    8.79440    -999.25    0.01510    0.01510    -999.25    3.72840    3.67770    3.67770    2.56770    -999.25    -999.25    -999.25 5237.63530 5211.06540    -999.25
 14650.00000    -999.25    -999.25    -999.25    -999.25    -999.25    -999.25    8.84370  176.11520    0.34370    0.00430    2.66990    -999.25    0.02080    0.02080    5.67810    0.00430    -999.25    -999.25   71.24580   70.87270   70.87270  115.34350    -999.25  115.34350    5.67810    8.78560    -999.25    0.11470    0.11470    -999.25    5.41750    5.04360    5.04360    2.66990    -999.25    -999.25    -999.25 5226.74320 5147.74610    -999.25
 14700.00000    -999.25    -999.25    -999.25    -999.25    -999.25    -999.25    8.89330  268.52850    0.39330    0.02420    2.64870    -999.25    0.02950    0.02950    3.72400    0.02420    -999.25    -999.25   73.10890   76.68320   76.68320  113.31340    -999.25  113.31340    3.72400    8.85560    -999.25    0.13910    0.13910    -999.25    5.97540    8.64380    8.64380    2.64870    -999.25    -999.25    -999.25 5460.50780 5484.61870    -999.25
 14750.00000    -999.25    -999.25    -999.25    -999.25    -999.25    -999.25    8.89840  361.49370    0.39840    0.01520    2.62710    -999.25    0.04570    0.04570    2.76630    0.01520    -999.25    -999.25   77.76830   77.60330   77.60330  110.26030    -999.25  110.26030    2.76630    8.83610    -999.25    0.12870    0.12870    -999.25    5.88820    5.67080    5.67080    2.62710    -999.25    -999.25    -999.25 5367.79590 5290.94340    -999.25
 14800.00000    -999.25    -999.25    -999.25    -999.25    -999.25    -999.25    8.88860  268.66550    0.38860    0.00060    2.63770    -999.25    0.04240    0.04240    3.72210    0.00060    -999.25    -999.25   69.41830   69.15440   69.15440   81.42840    -999.25   81.42840    3.72210    8.83440    -999.25    0.10710    0.10710    -999.25    5.04660    4.43840    4.43840    2.63770    -999.25    -999.25    -999.25 5346.41500 5333.59180    -999.25
 14850.00000    -999.25    -999.25    -999.25    -999.25    -999.25    -999.25    8.89670  369.37170    0.39670   -0.00700    2.60920    -999.25    0.05740    0.05740    2.70730   -0.00700    -999.25    -999.25   78.17270   77.86290   77.86290  108.84450    -999.25  108.84450    2.70730    8.82860    -999.25    0.16540    0.16540    -999.25    5.75990    4.47810    4.47810    2.60920    -999.25    -999.25    -999.25 5291.29740 5289.59280    -999.25
 14900.00000    -999.25    -999.25    -999.25    -999.25    -999.25    -999.25    8.85820  288.29240    0.35820    0.00350    2.66130    -999.25    0.02810    0.02810    3.46870    0.00350    -999.25    -999.25   75.24380   75.00780   75.00780  106.55050    -999.25  106.55050    3.46870    8.82600    -999.25    0.13620    0.13620    -999.25    5.38220    4.86290    4.86290    2.66130    -999.25    -999.25    -999.25 5419.44480 5451.39600    -999.25
 14950.00000    -999.25    -999.25    -999.25    -999.25    -999.25    -999.25    8.85400  215.23430    0.35400   -0.00300    2.60590    -999.25    0.05920    0.05920    4.64610   -0.00300    -999.25    -999.25   70.46480   69.06990   69.06990   84.04230    -999.25   84.04230    4.64610    8.80170    -999.25    0.09910    0.09910    -999.25    5.16990    4.11040    4.11040    2.60590    -999.25    -999.25    -999.25 5377.85790 5352.84470    -999.25
 15000.00000    -999.25    -999.25    -999.25    -999.25    -999.25    -999.25    8.97950  340.94780    0.47950   -0.01440    2.64920    -999.25    0.03140    0.03140    2.93300   -0.01440    -999.25    -999.25   78.75300   78.58620   78.58620  112.78490    -999.25  112.78490    2.93300    8.94830    -999.25    0.16760    0.16760    -999.25    5.85860    4.12230    4.12230    2.64920    -999.25    -999.25    -999.25 5319.71000 5341.12010    -999.25
 15050.00000    -999.25    -999.25    -999.25    -999.25    -999.25    -999.25    8.86280   51.87640    0.36280   -0.00900    2.59140    -999.25    0.06590    0.06590   19.27660   -0.00900    -999.25    -999.25   58.79250   58.63900   58.63900   27.10570    -999.25   27.10570   19.27660    8.78290    -999.25    0.00330    0.00330    -999.25    3.91840    3.18300    3.18300    2.59140    -999.25    -999.25    -999.25 5418.41650 5399.99170    -999.25
 15100.00000    -999.25    -999.25    -999.25    -999.25    -999.25    -999.25    8.98420  169.75330    0.48420   -0.02470    2.66100    -999.25    0.02710    0.02710    5.89090   -0.02470    -999.25    -999.25   70.37920   70.10880   70.10880  106.28270    -999.25  106.28270    5.89090    8.96960    -999.25    0.09070    0.09070    -999.25    7.11240    4.09630    4.09630    2.66100    -999.25    -999.25    -999.25 5690.45800 5673.02250    -999.25
 15150.00000    -999.25    -999.25    -999.25    -999.25    -999.25    -999.25    9.08590  142.66350    0.58590   -0.01490    2.63000    -999.25    0.04390    0.04390    7.00950   -0.01490    -999.25    -999.25   69.21820   69.41720   69.41720   81.21240    -999.25   81.21240    7.00950    8.99480    -999.25    0.10000    0.10000    -999.25    5.68540    3.77460    3.77460    2.63000    -999.25    -999.25    -999.25 7643.78910 7633.58840    -999.25
 15200.00000    -999.25    -999.25    -999.25    -999.25    -999.25    -999.25    9.14270  166.40870    0.64270   -0.01760    2.66290    -999.25    0.02930    0.02930    6.00930   -0.01760    -999.25    -999.25   82.78900   82.16590   82.16590   96.50630    -999.25   96.50630    6.00930    9.11960    -999.25    0.10940    0.10940    -999.25    5.63810    4.12280    4.12280    2.66290    -999.25    -999.25    -999.25 5503.64400 5501.56150    -999.25
 15250.00000    -999.25    -999.25    -999.25    -999.25    -999.25    -999.25    9.18150  365.21680    0.68150   -0.00430    2.62460    -999.25    0.04790    0.04790    2.73810   -0.00430    -999.25    -999.25   90.43860   90.26970   90.26970  115.71660    -999.25  115.71660    2.73810    9.14530    -999.25    0.17780    0.17780    -999.25    5.20740    3.69990    3.69990    2.62460    -999.25    -999.25    -999.25 5459.02440 5484.15190    -999.25
 15300.00000    -999.25    -999.25    -999.25    -999.25    -999.25    -999.25    9.31450   30.24290    0.81450   -0.01000    2.59400    -999.25    0.06850    0.06850   33.06560   -0.01000    -999.25    -999.25   91.55850   91.39900   91.39900  105.98410    -999.25  105.98410   33.06560    9.24760    -999.25    0.19140    0.19140    -999.25    6.32140    4.35110    4.35110    2.59400    -999.25    -999.25    -999.25 5532.40140 5512.74610    -999.25
 15350.00000    -999.25    -999.25    -999.25    -999.25    -999.25    -999.25    9.41340  364.61750    0.91340   -0.01550    2.59380    -999.25    0.06700    0.06700    2.74260   -0.01550    -999.25    -999.25   90.48640   90.31970   90.31970  110.36990    -999.25  110.36990    2.74260    9.32640    -999.25    0.19200    0.19200    -999.25    5.42990    3.94260    3.94260    2.59380    -999.25    -999.25    -999.25 5461.66360 5461.62010    -999.25
 15400.00000    -999.25    -999.25    -999.25    -999.25    -999.25    -999.25    9.46040  260.38950    0.96040   -0.01220    2.60990    -999.25    0.05830    0.05830    3.84040   -0.01220    -999.25    -999.25   93.12190   93.12270   93.12270  115.04600    -999.25  115.04600    3.84040    9.34560    -999.25    0.20330    0.20330    -999.25    5.13390    4.27580    4.27580    2.60990    -999.25    -999.25    -999.25 5538.65970 5519.20170    -999.25
 15450.00000    -999.25    -999.25    -999.25    -999.25    -999.25    -999.25    9.39800  115.41610    0.89800   -0.01090    2.59610    -999.25    0.06530    0.06530    8.66430   -0.01090    -999.25    -999.25   91.23300   90.89190   90.89190  102.45850    -999.25  102.45850    8.66430    9.32570    -999.25    0.15390    0.15390    -999.25    5.88880    4.30370    4.30370    2.59610    -999.25    -999.25    -999.25 5507.41460 5492.85350    -999.25
