~Version ---------------------------------------------------
VERS. 2.0 : CWLS log ASCII Standard -VERSION 2.0
WRAP.  NO : ONE LINE PER DEPTH STEP
~Well ------------------------------------------------------
STRT.F                     3000.0 : START DEPTH
STOP.F                     6900.0 : STOP DEPTH
STEP.F                   50.00000 : STEP LENGTH
NULL.                     -999.25 : NULL VALUE
COMP. COBRA OIL & GAS CORPORATION : COMPANY
WELL.              YERGER HILL #1 : WELL
FLD .                  SMITHVILLE : FIELD
LOC .                             : LOCATION
CNTY.                     BASTROP : COUNTY
STAT.                       TEXAS : STATE
CTRY.    UNITED STATES OF AMERICA : COUNTRY
SRVC.                Schlumberger : SERVICE COMPANY
DATE.                 12-Dec-1977 : LOGDATE
API .              42021301990000 : API NUMBER
UWI .              42021301990000 : UNIQUE WELL ID
SLAT.WGS84          30.0110308891 : SURFACE LATITUDE
SLON.WGS84         -97.1278845561 : SURFACE LONGITUDE
~Curve Information -----------------------------------------
DEPT   .F    0   1   0  0 : 1 MEASURED DEPTH
ILD    .OHMM 07 120 46 00 : INDUCTION DEEP RESISTIVITY
ILM    .OHMM 07 120 44 00 : INDUCTION MEDIUM RESISTIVITY
LL8    .OHMM 07 220 08 00 : LATEROLOG 8
SPR    .MV   07 010 01 00 : SPONTANEOUS POTENTIAL FROM RESISTIVITY LOG
NPHI_SS.DEC  42 890 03 00 : NEUTRON POROSITY SANDSTONE
DPHI_SS.DEC  45 890 12 00 : DENSITY POROSITY SANDSTONE
DPHI_LS.DEC  45 890 10 00 : DENSITY POROSITY LIMESTONE
NPHI_LS.DEC  42 890 01 00 : NEUTRON POROSITY LIMESTONE
CALD   .IN   45 280 60 00 : CALIPER FROM DENSITY LOG
GRD    .GAPI 45 310 01 00 : GAMMA RAY FROM DENSITY LOG
CORR   .G/C3 45 356 01 00 : DENSITY CORRECTION
RHOB   .G/C3 45 350 01 00 : BULK DENSITY
~Params ----------------------------------------------------
PD  .                     GL : PERMANENT DATUM
EPD .FT                  308 : ELEVATION PERMANENT DATUM
LMF .                     KB : LOG MEASURED FROM
DAPD.FT                   14 : FEET ABOVE PERMANENT DATUM
DMF .                     KB : DRILLING MEASURED FROM
EKB .FT                  322 : KELLY BUSHING
EDF .FT                  321 : DRILLING FLOOR
EGL .FT                  308 : GROUND LEVEL
DATE.               12/12/77 : RUN DATE
RUN .                      1 : RUN NUMBER
DD  .FT                 6910 : DEPTH DRILLER
DL  .FT                 6926 : DEPTH LOGGER
BLI .FT                 6920 : BOTTOM LOG INTERVAL
TLI .FT                 3015 : TOP LOG INTERVAL
CS  .IN                8.625 : CASING SIZE
CBD .FT                 3022 : CASING BOTTOM DRILLER
CBL .FT                 3015 : CASING BOTTOM LOGGER
BS  .IN                7.875 : BIT SIZE
BSD .FT                 6910 : BIT SIZE AT DEPTH
DFT .         LIGNOSULFONATE : DRILLING FLUID TYPE
DFD .                   10.2 : DRILLING FLUID DENSITY
DFV .                     60 : DRILLING FLUID VISCOSITY
DFPH.                    9.8 : DRILLING FLUID PH
DFL .                    5.6 : DRILLING FLUID LOSS
MSS .                    PIT : MUD SAMPLE SOURCE
RMS .OHMM                1.4 : RESISTIVITY MUD SAMPLE
MST .DEGF                 75 : MUD SAMPLE TEMPERATURE
RMF .OHMM                1.3 : RESISTIVITY MUD FILTRATE SAMPLE
MFST.DEGF                 75 : MUD FILTRATE SAMPLE TEMPERATURE
RMC .OHMM                1.3 : RESISTIVITY MUD CAKE
MCST.DEGF                 75 : MUD CAKE SAMPLE TEMPERATURE
MFSS.                   MEAS : MUD FILTRATE SAMPLE SOURCE
MCSS.                  CHART : MUD CAKE SAMPLE SOURCE
RMB .OHMM               0.64 : RESISTIVITY MUD AT BHT
TCS .HRS                1230 : TIME CIRCULATED STOPPED
TLAB.HRS                1700 : TIME LOGGER AT BOTTOM
LUN .                   7676 : LOGGING UNIT NUMBER
LUL .                  PLEAS : LOGGING UNIT LOCATION
ENGI.                 POWELL : RECORDING ENGINEER
WITN.                  BAIRD : WITNESSED BY
CLNT.                A2DTECH : CLIENT CODE
ORIG.            2" 5" PRINT : ORIGIN OF DATA
UWI .         42021301990000 : UNIQUE WELL ID
DICO. A2D Technologies, Inc. : DIGITIZING COMPANY
~Other -----------------------------------------------------
~ASCII -----------------------------------------------------
 3000.00000    -999.25    -999.25    -999.25    -999.25    0.57780    -999.25    -999.25    -999.25    -999.25   51.40130    -999.25    -999.25
 3050.00000   27.80610   22.47680   63.24940  -47.65140    -999.25    0.64480    -999.25    -999.25   10.87150   36.84780    0.04310    1.51050
 3100.00000    3.28760    2.99950    3.02960  -49.49060    0.47980    0.21440    -999.25    -999.25    9.50700  111.13460    0.11070    2.32050
 3150.00000    2.62880    2.71710    2.49400  -48.21300    0.49700    0.19820    -999.25    -999.25    8.96660   96.02080    0.16490    2.30510
 3200.00000    3.20130    2.89420    2.75280  -47.94360    0.47350    0.22700    -999.25    -999.25    8.99530  108.59780    0.14440    2.31720
 3250.00000    2.23220    1.91170    1.80090  -43.81410    0.59930    0.38290    -999.25    -999.25    8.54900   75.71850    0.04620    1.81450
 3300.00000    3.20830    3.69360    5.45250  -78.80040    0.39400    0.34090    -999.25    -999.25    7.65680   54.32860    0.02160    2.09250
 3350.00000    2.84020    3.35990    5.52750  -80.68110    0.42610    0.33160    -999.25    -999.25    7.59480   59.08100    0.04070    2.09250
 3400.00000    3.26220    3.41930    3.38700  -60.99050    0.42060    0.24930    -999.25    -999.25    7.65700   65.60140    0.06000    2.23000
 3450.00000    3.68920    4.26890    6.25380  -73.57420    0.39250    0.30990    -999.25    -999.25    7.73140   56.44130    0.03890    2.13070
 3500.00000    2.69040    2.36100    2.21300  -46.75900    0.51980    0.34390    -999.25    -999.25    8.06340   86.70010    0.14570    2.19260
 3550.00000    3.97730    4.45960    6.23910  -68.54870    0.38420    0.31150    -999.25    -999.25    7.64360   60.50720    0.03160    2.11570
 3600.00000    4.08570    4.27220    5.99410  -49.03170    0.36110    0.20180    -999.25    -999.25    7.78050   95.25790    0.04990    2.32590
 3650.00000    3.59610    3.76250    4.31740  -41.70080    0.40490    0.16970    -999.25    -999.25    7.94810  109.33050    0.04780    2.33900
 3700.00000    3.44740    3.89530    5.96930  -74.54950    0.40300    0.31690    -999.25    -999.25    7.65980   64.46340    0.05300    2.14120
 3750.00000    2.62970    2.73590    2.33860  -41.17410    0.45640    0.19540    -999.25    -999.25    8.32300  102.76670    0.09190    2.30410
 3800.00000    3.29330    3.95360    7.79280  -77.47960    0.37820    0.23330    -999.25    -999.25    7.58360   66.80970    0.03290    2.24160
 3850.00000    2.51310    2.60760    2.75250  -36.94230    0.41120    0.18110    -999.25    -999.25    8.66520  104.29310    0.11050    2.34840
 3900.00000    2.99430    3.26330    2.87580  -46.27150    0.40470    0.20540    -999.25    -999.25    8.01130  103.78880    0.13230    2.39450
 3950.00000    2.76260    3.04320    3.13490  -46.88510    0.40970    0.19320    -999.25    -999.25    7.85330   96.87510    0.09150    2.37220
 4000.00000    2.30940    2.42850    2.51840  -37.87030    0.45380    0.18590    -999.25    -999.25    8.59190  101.92450    0.11570    2.37500
 4050.00000    2.37910    2.47510    2.65390  -36.33980    0.42020    0.16260    -999.25    -999.25    8.89440   99.41300    0.11610    2.43210
 4100.00000    2.22880    2.31200    2.33060  -34.56270    0.42620    0.13580    -999.25    -999.25    9.10060  100.37600    0.06250    2.40830
 4150.00000    1.94560    2.01920    2.12160  -33.95950    0.42580    0.11890    -999.25    -999.25    8.75620  101.19420    0.09420    2.47630
 4200.00000    1.74940    1.81440    1.94660  -34.20090    0.45350    0.13620    -999.25    -999.25    9.69430  108.39340    0.04150    2.36310
 4250.00000    1.57740    1.63570    1.76710  -33.00470    0.43420    0.12690    -999.25    -999.25    9.83070  103.13510    0.07990    2.42600
 4300.00000    1.49900    1.55690    1.70770  -33.81340    0.44180    0.14560    -999.25    -999.25    9.81110  117.92870    0.07570    2.44190
 4350.00000    1.45940    1.51360    1.70280  -34.75460    0.42500    0.13490    -999.25    -999.25   10.74200   97.52600    0.07710    2.41790
 4400.00000    1.47620    1.53100    1.69590  -34.28620    0.43590    0.14450    -999.25    -999.25   10.60360  110.89590    0.05630    2.39790
 4450.00000    1.42870    1.48800    1.63580  -32.91020    0.45430    0.18070    -999.25    -999.25   10.11700  104.52710    0.15150    2.33160
 4500.00000    1.05210    1.09200    1.14120  -31.07940    0.44770    0.27570    -999.25    -999.25    9.87550   89.98500    0.15920    2.16040
 4550.00000    1.97540    2.07490    2.06570  -31.93040    0.33980    0.14350    -999.25    -999.25    8.06600   82.09650    0.03340    2.40620
 4600.00000    1.57460    1.63300    1.63680  -31.05220    0.40310    0.14440    -999.25    -999.25    8.56690   88.62290    0.12180    2.42420
 4650.00000    1.61060    1.67820    1.99920  -30.21510    0.31550    0.14650    -999.25    -999.25    8.25710   88.13190    0.04370    2.40020
 4700.00000    2.44100    2.53170    2.85090  -38.76530    0.30220    0.11550    -999.25    -999.25    8.04840   72.02050    0.02140    2.42340
 4750.00000    1.64420    1.71970    1.98570  -35.41410    0.40040    0.17180    -999.25    -999.25    9.38240   81.50860    0.19920    2.35280
 4800.00000    1.27180    1.32510    1.39600  -32.45000    0.43010    0.16670    -999.25    -999.25   10.20690   90.09900    0.16680    2.35710
 4850.00000    1.45400    1.50810    1.59750  -36.57220    0.44210    0.14910    -999.25    -999.25    9.71140   82.00270    0.12690    2.40140
 4900.00000    1.53750    1.59460    1.74890  -37.30240    0.37620    0.16000    -999.25    -999.25   10.43100   81.73750    0.17180    2.41340
 4950.00000    1.30810    1.35680    1.52370  -37.07970    0.44150    0.28670    -999.25    -999.25   12.30580   77.47740    0.16740    2.26390
 5000.00000    0.93840    0.97460    1.13170  -35.99500    0.44750    0.20040    -999.25    -999.25   10.92420   91.38190    0.10820    2.31980
 5050.00000    1.53910    1.59740    1.74450  -38.28310    0.40830    0.16220    -999.25    -999.25    9.60660   92.86100    0.20550    2.40730
 5100.00000    1.22910    1.27500    1.42940  -35.80280    0.41730    0.16790    -999.25    -999.25   10.69600   97.04350    0.17260    2.38320
 5150.00000    1.35190    1.40230    1.51420  -37.39170    0.41540    0.15150    -999.25    -999.25   10.34610   87.43830    0.14940    2.40610
 5200.00000    1.21170    1.25960    1.39570  -37.05550    0.42450    0.14870    -999.25    -999.25   10.83060   96.26860    0.14210    2.40020
 5250.00000    1.29310    1.34190    1.43150  -33.70860    0.42330    0.19760    -999.25    -999.25    9.68700   90.70690    0.11790    2.33600
 5300.00000    0.87660    0.79900    0.88000  -33.93450    0.52660    0.27890    -999.25    -999.25   10.03440  128.86380    0.13100    2.22240
 5350.00000    1.67070    1.73620    1.86790  -34.65510    0.34570    0.14410    -999.25    -999.25    9.68600   88.00270    0.05780    2.41640
 5400.00000    0.96510    1.00110    1.14670  -32.11450    0.46820    0.20080    -999.25    -999.25    9.87000  126.95640    0.03970    2.29340
 5450.00000    1.24970    1.30920    1.55810  -35.83750    0.43190    0.16430    -999.25    -999.25    9.27740  113.33410    0.03680    2.33540
 5500.00000    1.11800    1.15980    1.24690  -36.73150    0.46820    0.15510    -999.25    -999.25   10.29430  104.17110    0.09860    2.36010
 5550.00000    1.63740    1.70240    1.79910  -37.84060    0.37660    0.17720    -999.25    -999.25   10.59210  110.06050    0.18390    2.37100
 5600.00000    1.10490    1.15870    1.57330  -35.54590    0.35780    0.14170    -999.25    -999.25    9.94270  107.13130    0.19450    2.45690
 5650.00000    1.23820    1.28480    1.46560  -37.55490    0.41280    0.20000    -999.25    -999.25   10.92470  103.90620    0.16080    2.39900
 5700.00000    1.16380    1.23360    1.39050  -36.82310    0.42080    0.14840    -999.25    -999.25   11.43330  108.43750    0.13280    2.42330
 5750.00000    1.17710    1.22520    1.37830  -36.98240    0.38650    0.10650    -999.25    -999.25   10.63450  106.04640    0.06370    2.44670
