~Version ---------------------------------------------------
VERS. 2.0 : CWLS log ASCII Standard -VERSION 2.0
WRAP. YES : Multiple lines per depth step
~Well ------------------------------------------------------
STRT.FT                          550.0 : START DEPTH
STOP.FT                         6150.0 : STOP DEPTH
STEP.FT                       50.00000 : STEP LENGTH
NULL.                          -999.25 : NULL VALUE
COMP.      UNITED PRODUCTION CO., INC. : COMPANY
WELL.                  GUY S. COMBS #3 : WELL
FLD .                          WILDCAT : FIELD
LOC .                                  : LOCATION
CNTY.                         ATASCOSA : COUNTY
STAT.                            TEXAS : STATE
CTRY.         UNITED STATES OF AMERICA : COUNTRY
SRVC. Schlumberger Well Surveying Corp : SERVICE COMPANY
DATE.                      08-Apr-1975 : LOGDATE
API .                   42013302760000 : API NUMBER
UWI .                   42013302760000 : UNIQUE WELL ID
SLAT.WGS84               28.9948086495 : SURFACE LATITUDE
SLON.WGS84              -98.4227720769 : SURFACE LONGITUDE
~Curve Information -----------------------------------------
DEPT    .FT    : DEPTH
CALDED  .IN    : CALIPER FROM DENSITY LOG (ADJ TO RES.)
CALWS   .IN    : CALIPER (CALDED)
CONDWS  .MMHO  : CONDUCTIVITY (1000/DRESWS)
CORRED  .G/C3  : DENSITY CORRECTION (ADJ TO RES.)
DCORWS  .G/C3  : DENSITY CORRECTION (CORRED)
DENWS   .G/C3  : BULK DENSITY  (RHOBED)
DPHILSED.V/V   : DENSITY POROSITY LIMESTONE  (ADJ TO RES.)
DPHISSED.V/V   : DENSITY POROSITY SANDSTONE  (ADJ TO RES.)
DPOWS   .V/V   : DENSITY POROSITY (M=2.71 F=1 FROM DENWS)
DRESWS  .OHMM  : DEEP RESISTIVITY (ILDED)
GRDED   .GAPI  : GAMMA RAY FROM DENSITY LOG (ADJ TO RES.)
GRWS    .GAPI  : GAMMA RAY (GRDED)
ILDED   .OHMM  : DEEP INDUCTION RESISTIVITY
ILMED   .OHMM  : MEDIUM INDUCTION RESISTIVITY
LL8ED   .OHMM  : LATEROLOG-8 RESISTIVITY
MRESWS  .OHMM  : MEDIUM RESISTIVITY (ILMED)
NPHILSED.V/V   : NEUTRON POROSITY LIMESTONE (ADJ TO RES.)
NPHISSED.V/V   : NEUTRON POROSITY SANDSTONE (ADJ TO RES.)
NPOWS   .V/V   : NEUTRON POROSITY LIMESTONE (NPHISSED CONVERTED TO LIMESTONE/NPHILSED)
RHOBED  .G/C3  : BULK DENSITY (ADJ TO RES.)
SPRED   .MV    : SPONTANEOUS POTENTIAL FROM RESISTIVITY
SPWS    .MV    : SPONTANEOUS POTENTIAL BASELINE 0 MV (SPRED)
SRESWS  .OHMM  : SHALLOW RESISTIVITY (LL8ED)
~Params ----------------------------------------------------
PD  .                     GL : PERMANENT DATUM
EPD .FT                  428 : ELEVATION PERMANENT DATUM
LMF .                     KB : LOG MEASURED FROM
DAPD.FT                   14 : FEET ABOVE PERMANENT DATUM
DMF .                     KB : DRILLING MEASURED FROM
EKB .FT                  442 : KELLY BUSHING
EDF .FT                  441 : DRILLING FLOOR
EGL .FT                  428 : GROUND LEVEL
DATE.             04/08/1975 : RUN DATE
RUN .                      1 : RUN NUMBER
DD  .FT                 6175 : DEPTH DRILLER
DL  .FT                 6168 : DEPTH LOGGER
BLI .FT                 6162 : BOTTOM LOG INTERVAL
TLI .FT                  537 : TOP LOG INTERVAL
CS  .IN                8.625 : CASING SIZE
CBD .FT                  536 : CASING BOTTOM DRILLER
CBL .FT                  537 : CASING BOTTOM LOGGER
BS  .IN                7.875 : BIT SIZE
BSD .FT                 6175 : BIT SIZE AT DEPTH
DFT .               SPER TAN : DRILLING FLUID TYPE
DFD .                   10.1 : DRILLING FLUID DENSITY
DFV .                     60 : DRILLING FLUID VISCOSITY
DFPH.                    9.5 : DRILLING FLUID PH
DFL .                    6.2 : DRILLING FLUID LOSS
MSS .               FLOWLINE : MUD SAMPLE SOURCE
RMS .OHMM               1.99 : RESISTIVITY MUD SAMPLE
MST .DEGF                 75 : MUD SAMPLE TEMPERATURE
RMF .OHMM               1.73 : RESISTIVITY MUD FILTRATE SAMPLE
MFST.DEGF                 75 : MUD FILTRATE SAMPLE TEMPERATURE
RMC .OHMM               1.78 : RESISTIVITY MUD CAKE
MCST.DEGF                 75 : MUD CAKE SAMPLE TEMPERATURE
MFSS.                      M : MUD FILTRATE SAMPLE SOURCE
MCSS.                      C : MUD CAKE SAMPLE SOURCE
RMB .OHMM               0.99 : RESISTIVITY MUD AT BHT
TCS .HRS                   3 : TIME CIRCULATED STOPPED
LUN .                   7676 : LOGGING UNIT NUMBER
LUL .                  PLEAS : LOGGING UNIT LOCATION
ENGI.                 ROGERS : RECORDING ENGINEER
WITN.               WILLIAMS : WITNESSED BY
CLNT.                A2DTECH : CLIENT CODE
ORIG.            2" 5" PRINT : ORIGIN OF DATA
UWI .         42013302760000 : UNIQUE WELL ID
DICO. A2D Technologies, Inc. : DIGITIZING COMPANY
~Other -----------------------------------------------------
~ASCII -----------------------------------------------------
# ...
 2100.00000    9.15280    9.15280  154.10460    0.10170    0.10170    2.28310    -999.25    0.23070    0.24960    6.48910   87.40420   87.40420    6.48910    6.28230    9.39690    6.28230    -999.25    0.41670    0.44190    2.28310  -21.66500   -3.35240    9.39690
 2150.00000    8.48290    8.48290   98.09500    0.04640    0.04640    2.29020    -999.25    0.22150    0.24550   10.19420   83.12790   83.12790   10.19420    9.93820   10.55480    9.93820    -999.25    0.39970    0.42970    2.29020  -28.59760  -10.17330   10.55480
 2200.00000    8.12110    8.12110   60.94770    0.01030    0.01030    2.09990    -999.25    0.33050    0.35680   16.40750   65.05570   65.05570   16.40750   17.17350   19.73730   17.17350    -999.25    0.42350    0.44660    2.09990  -29.65110  -11.11520   19.73730
 2250.00000    8.26990    8.26990   78.81650    0.03100    0.03100    2.11820    -999.25    0.32320    0.34610   12.68770   59.68160   59.68160   12.68770   13.41330   15.43830   13.41330    -999.25    0.40500    0.43350    2.11820  -32.18490  -13.53730   15.43830
 2300.00000    8.07710    8.07710   72.56740    0.00740    0.00740    2.05840    -999.25    0.36290    0.38110   13.78030   58.32660   58.32660   13.78030   14.69480   16.94220   14.69480    -999.25    0.42790    0.44970    2.05840  -32.75270  -13.99350   16.94220
 2350.00000    8.39210    8.39210  224.11980    0.01350    0.01350    2.11820    -999.25    0.32170    0.34610    4.46190   81.30180   81.30180    4.46190    4.69620    5.89740    4.69620    -999.25    0.46390    0.47890    2.11820  -34.18960  -15.31870    5.89740
 2400.00000   10.46340   10.46340  345.69780    0.05240    0.05240    2.26740    -999.25    0.22920    0.25880    2.89270   86.78520   86.78520    2.89270    2.97100    3.79430    2.97100    -999.25    0.48000    0.49500    2.26740  -28.52000   -9.53750    3.79430
 2450.00000    8.18940    8.18940  160.11780    0.02880    0.02880    2.11480    -999.25    0.32670    0.34810    6.24540   62.97700   62.97700    6.24540    6.54030    7.71580    6.54030    -999.25    0.43190    0.45250    2.11480  -36.28250  -17.18830    7.71580
 2500.00000    9.70610    9.70610  210.03990    0.06460    0.06460    2.32320    -999.25    0.20110    0.22620    4.76100   89.74080   89.74080    4.76100    4.88130    5.65100    4.88130    -999.25    0.41600    0.44140    2.32320  -30.20250  -10.99670    5.65100
 2550.00000    9.52880    9.52880  262.24690    0.03360    0.03360    2.23820    -999.25    0.25230    0.27590    3.81320   85.89050   85.89050    3.81320    3.97120    5.40660    3.97120    -999.25    0.42920    0.45060    2.23820  -30.30590  -10.98840    5.40660
 2600.00000    9.12220    9.12220  345.76950    0.07090    0.07090    2.22360    -999.25    0.25540    0.28440    2.89210   85.70660   85.70660    2.89210    2.97100    3.81390    2.97100    -999.25    0.49130    0.50630    2.22360  -27.77710   -8.34800    3.81390
 2650.00000    8.78520    8.78520  242.30680    0.03400    0.03400    2.20640    -999.25    0.26450    0.29450    4.12700   87.25950   87.25950    4.12700    4.24590    4.62540    4.24590    -999.25    0.44030    0.45830    2.20640  -28.61180   -9.07100    4.62540
 2700.00000    8.04540    8.04540  174.52920    0.04070    0.04070    2.21780    -999.25    0.26440    0.28780    5.72970   86.26390   86.26390    5.72970    6.21080    5.69700    6.21080    -999.25    0.40800    0.43570    2.21780  -34.02930  -14.37690    5.69700
 2750.00000    8.28650    8.28650  145.92150    0.03180    0.03180    2.08230    -999.25    0.34310    0.36710    6.85300   63.08250   63.08250    6.85300    7.03010    9.17980    7.03010    -999.25    0.44420    0.46100    2.08230  -33.59840  -13.83430    9.17980
 2800.00000    8.00930    8.00930   97.54670    0.03740    0.03740    2.10640    -999.25    0.32240    0.35300   10.25150   56.30520   56.30520   10.25150   10.81510   11.53810   10.81510    -999.25    0.40550    0.43390    2.10640  -36.78990  -16.91420   11.53810
 2850.00000    8.09880    8.09880  116.42800    0.00860    0.00860    2.10700    -999.25    0.33090    0.35260    8.58900   69.84370   69.84370    8.58900    8.95090   10.74210    8.95090    -999.25    0.43110    0.45190    2.10700  -34.53430  -14.54690   10.74210
 2900.00000    7.95030    7.95030   91.52980    0.03640    0.03640    2.09300    -999.25    0.34620    0.36080   10.92540   66.87080   66.87080   10.92540   12.16030   14.04170   12.16030    -999.25    0.40890    0.43630    2.09300  -31.70970  -11.61060   14.04170
 2950.00000    8.05130    8.05130  107.59630    0.05050    0.05050    2.17830    -999.25    0.28640    0.31090    9.29400   67.91720   67.91720    9.29400    9.78780   10.63220    9.78780    -999.25    0.39880    0.42910    2.17830  -33.16710  -12.95640   10.63220
 3000.00000    8.19090    8.19090   80.42330    0.02230    0.02230    2.13930    -999.25    0.31150    0.33370   12.43420   57.90240   57.90240   12.43420   13.06520   14.03620   13.06520    -999.25    0.37830    0.41430    2.13930  -32.00440  -11.68200   14.03620
 3050.00000    8.28050    8.28050  127.96070    0.03560    0.03560    2.17250    -999.25    0.29380    0.31430    7.81490   72.75160   72.75160    7.81490    8.01110    8.93130    8.01110    -999.25    0.40010    0.43000    2.17250  -33.40810  -12.97410    8.93130
 3100.00000    8.07500    8.07500   80.97560    0.03240    0.03240    2.22720    -999.25    0.26880    0.28230   12.34940   62.12850   62.12850   12.34940   13.37120   14.50150   13.37120    -999.25    0.34990    0.39330    2.22720  -31.75590  -11.21020   14.50150
 3150.00000    8.13970    8.13970  129.47160    0.01030    0.01030    2.14050    -999.25    0.31600    0.33300    7.72370   71.98930   71.98930    7.72370    7.95130    8.96650    7.95130    -999.25    0.38210    0.41710    2.14050  -31.13880  -10.48150    8.96650
 3200.00000    7.96860    7.96860   98.76250    0.02580    0.02580    2.12420    -999.25    0.31840    0.34260   10.12530   46.91030   46.91030   10.12530   10.53700   12.32940   10.53700    -999.25    0.37640    0.41290    2.12420  -32.54260  -11.77360   12.32940
 3250.00000    7.91500    7.91500  128.76640    0.04440    0.04440    2.16090    -999.25    0.29230    0.32110    7.76600   44.01400   44.01400    7.76600    8.08510    8.92540    8.08510    -999.25    0.40110    0.43070    2.16090  -32.47700  -11.59640    8.92540
 3300.00000    8.10530    8.10530   57.61730    0.02950    0.02950    2.50500    -999.25    0.09940    0.11990   17.35590   34.31300   34.31300   17.35590   18.27790   19.27070   18.27790    -999.25    0.21740    0.28630    2.50500  -36.69640  -15.70410   19.27070
 3350.00000    8.00130    8.00130  232.05630    0.04800    0.04800    2.25400    -999.25    0.23450    0.26670    4.30930   60.54160   60.54160    4.30930    4.45660    5.27720    4.45660    -999.25    0.38520    0.41930    2.25400  -35.63470  -14.53080    5.27720
 3400.00000    8.31850    8.31850  321.36770    0.13210    0.13210    2.22810    -999.25    0.25200    0.28180    3.11170   75.07790   75.07790    3.11170    3.22770    3.90380    3.22770    -999.25    0.47150    0.48650    2.22810  -26.24110   -5.02550    3.90380
 3450.00000    8.35840    8.35840  245.14610    0.04950    0.04950    2.29800    -999.25    0.21740    0.24090    4.07920   66.33620   66.33620    4.07920    4.25630    4.24810    4.25630    -999.25    0.42900    0.45040    2.29800  -30.22210   -8.89490    4.24810
 3500.00000    8.10150    8.10150  243.26760    0.03770    0.03770    2.29940    -999.25    0.21880    0.24010    4.11070   86.18190   86.18190    4.11070    3.96420    4.92760    3.96420    -999.25    0.38050    0.41590    2.29940  -29.09630   -7.65740    4.92760
 3550.00000    8.09800    8.09800  254.29120    0.05880    0.05880    2.34900    -999.25    0.18630    0.21110    3.93250   78.84100   78.84100    3.93250    4.24800    6.04180    4.24800    -999.25    0.39830    0.42870    2.34900  -30.21620   -8.66570    6.04180
 3600.00000    9.02900    9.02900  427.55140    0.09520    0.09520    2.36670    -999.25    0.17130    0.20080    2.33890   97.85810   97.85810    2.33890    2.38830    3.13290    2.38830    -999.25    0.46890    0.48390    2.36670  -24.03890   -2.37670    3.13290
