~Version ---------------------------------------------------
VERS. 2.0 : CWLS log ASCII Standard -VERSION 2.0
WRAP.  NO : ONE LINE PER DEPTH STEP
~Well ------------------------------------------------------
STRT.F                     750.0 : START DEPTH
STOP.F                    6400.0 : STOP DEPTH
STEP.F                  50.00000 : STEP LENGTH
NULL.                    -999.25 : NULL VALUE
COMP. TEXLARK EXPLORATION CO INC : COMPANY
WELL.              BLUEBONNET #1 : WELL
FLD .            MARCELINA CREEK : FIELD
LOC .                            : LOCATION
CNTY.                     WILSON : COUNTY
STAT.                      TEXAS : STATE
CTRY.   UNITED STATES OF AMERICA : COUNTRY
SRVC.                      Welex : SERVICE COMPANY
DATE.                05-Sep-1985 : LOGDATE
API .             42493317790000 : API NUMBER
UWI .             42493317790000 : UNIQUE WELL ID
SLAT.WGS84         29.0945463551 : SURFACE LATITUDE
SLON.WGS84        -98.1101947989 : SURFACE LONGITUDE
~Curve Information -----------------------------------------
DEPT.F                 : 
GRR .GAPI 07 310 01 00 : GAMMA RAY FROM RESISTIVITY LOG
ILD .OHMM 07 120 46 00 : INDUCTION DEEP RESISTIVITY
ILM .OHMM 07 120 44 00 : INDUCTION MEDIUM RESISTIVITY
SGRD.OHMM 07 221 05 00 : SHALLOW SHORT GUARD RESISTIVITY
SPR .MV   07 010 01 00 : SPONTANEOUS POTENTIAL FROM RESISTIVITY LOG
CALR.IN   07 280 01 00 : CALIPER FROM RESISTIVITY LOG
~Params ----------------------------------------------------
PD  .                     GL : PERMANENT DATUM
EPD .FT                  418 : ELEVATION PERMANENT DATUM
LMF .                    TKB : LOG MEASURED FROM
DAPD.FT                 12.8 : FEET ABOVE PERMANENT DATUM
DMF .                    TKB : DRILLING MEASURED FROM
EKB .FT                430.8 : KELLY BUSHING
EDF .FT                429.8 : DRILLING FLOOR
EGL .FT                  418 : GROUND LEVEL
DATE.               09/05/85 : RUN DATE
RUN .                      1 : RUN NUMBER
DD  .FT                 6428 : DEPTH DRILLER
DL  .FT                 6426 : DEPTH LOGGER
BLI .FT                 6423 : BOTTOM LOG INTERVAL
TLI .FT                  730 : TOP LOG INTERVAL
CS  .IN                8.625 : CASING SIZE
CBD .FT                  771 : CASING BOTTOM DRILLER
CBL .FT                  773 : CASING BOTTOM LOGGER
BS  .IN                7.875 : BIT SIZE
BSD .FT                 6428 : BIT SIZE AT DEPTH
DFT .         LIGNOSULFONATE : DRILLING FLUID TYPE
DFD .                    9.6 : DRILLING FLUID DENSITY
DFV .                     43 : DRILLING FLUID VISCOSITY
DFPH.                    9.5 : DRILLING FLUID PH
DFL .                    7.8 : DRILLING FLUID LOSS
MSS .                   TANK : MUD SAMPLE SOURCE
RMS .OHMM               3.17 : RESISTIVITY MUD SAMPLE
MST .DEGF                 75 : MUD SAMPLE TEMPERATURE
RMF .OHMM               2.98 : RESISTIVITY MUD FILTRATE SAMPLE
MFST.DEGF                 75 : MUD FILTRATE SAMPLE TEMPERATURE
RMC .OHMM               2.54 : RESISTIVITY MUD CAKE
MCST.DEGF                 75 : MUD CAKE SAMPLE TEMPERATURE
MFSS.                   MEAS : MUD FILTRATE SAMPLE SOURCE
MCSS.                   MEAS : MUD CAKE SAMPLE SOURCE
RMB .OHMM               1.45 : RESISTIVITY MUD AT BHT
TCS .HRS                   4 : TIME CIRCULATED STOPPED
TLAB.HRS                 530 : TIME LOGGER AT BOTTOM
LUN .                   1904 : LOGGING UNIT NUMBER
LUL .                   VICT : LOGGING UNIT LOCATION
ENGI.                  PRADO : RECORDING ENGINEER
WITN.               RICKAWAY : WITNESSED BY
CLNT.                A2DTECH : CLIENT CODE
ORIG.               5" PRINT : ORIGIN OF DATA
UWI .         42493317790000 : UNIQUE WELL ID
DICO. A2D Technologies, Inc. : DIGITIZING COMPANY
~Other -----------------------------------------------------
~ASCII -----------------------------------------------------
  750.00000   15.47230    -999.25    -999.25    -999.25    -999.25    -999.25
  800.00000   36.79360    2.63680    2.73110    3.88310  -57.74830   11.99880
  850.00000   32.75100    6.48330    7.06980    9.92740  -67.29400   12.15640
  900.00000   19.21350    6.84430    8.35850    9.42400  -67.60040   11.57660
  950.00000   21.59720    7.68060    9.78760   10.29970  -73.22650   10.41480
 1000.00000   23.87370    3.51340    3.95280    6.04960  -64.43210   10.53990
 1050.00000   25.54860    5.70670    7.94300   11.14470  -84.68620   10.03690
 1100.00000   26.91110    1.98820    1.87300    2.38270  -41.57810   11.70390
 1150.00000   29.94710    2.91870    2.82670    3.91730  -45.00150   11.41430
 1200.00000   30.01630    4.37830    4.48140    5.60560  -46.14040   12.16550
 1250.00000   23.66130    4.27520    4.20200    4.62220  -40.36890   12.77020
 1300.00000   46.37770   27.96890   30.80840   23.57700  -52.51110   12.48300
 1350.00000   39.40040    6.85820    6.05850    8.01500  -36.29920   11.66660
 1400.00000   32.52810    7.02390    6.10720    7.66670  -40.79190   11.52200
 1450.00000   24.00940   34.52400   32.91550   27.99950  -49.11520   11.44780
 1500.00000   24.51710    9.81180    8.14510    9.23110  -38.61170   11.89180
 1550.00000   18.37520   23.56120   22.10640   19.56140  -45.29610   13.28090
 1600.00000   23.69770   13.41480   10.24040   11.34500  -31.96150   14.02750
 1650.00000   17.24050   53.69890   39.54210   31.55730  -51.18030   14.10120
 1700.00000    9.21070   51.95630   32.96120   31.14430  -50.86090   14.11140
 1750.00000   16.05670   42.70800   35.44340   29.83340  -44.95020   13.78520
 1800.00000   14.14450   53.86700   44.73400   35.25520  -44.75900   12.63100
 1850.00000   35.30720   14.42580   15.16620   17.25670  -29.67410   10.50380
 1900.00000   27.13380   33.94210   38.00640   32.36380  -36.45090    9.75390
 1950.00000   19.03740   48.47590   51.18360   38.08340  -39.74110    9.92100
 2000.00000   22.91220   29.01330   35.90170   31.24620  -32.83510   10.36040
 2050.00000   29.23260   11.72440   12.43110   14.81940  -28.76310    9.30750
 2100.00000   23.89890   24.06380   24.85180   21.27490  -33.14960   10.04330
 2150.00000   32.61970    4.22220    4.12630    4.75760  -22.56820    9.31440
 2200.00000   34.31010    6.17560    6.33860    7.75160  -35.49860    8.03430
 2250.00000   39.33320    4.54150    4.76680    6.28770  -29.15280    9.15740
 2300.00000   32.20890    6.80630    6.07390    6.09110  -27.25670    9.08100
 2350.00000   36.80160    3.68160    4.32430    6.28870  -28.75040   10.35860
 2400.00000   39.75420    2.18840    2.28800    2.60040  -20.24810   11.53260
 2450.00000   34.52170    1.59190    1.55110    1.98470  -19.07520   11.28840
 2500.00000   31.68670    4.76480    5.47610    7.28850  -34.06950   10.26260
 2550.00000   20.07750    6.15520    7.09800    8.57520  -35.97800    9.58840
 2600.00000   26.75920    5.20140    5.53260    6.17130  -34.50070    9.67410
 2650.00000   40.05650    8.02060   10.00490   11.33370  -43.28650   10.76100
 2700.00000   30.09140    6.03600    7.09130    9.38710  -35.69680    8.85800
 2750.00000   47.54800    3.15200    3.25510    3.90080  -22.48810   10.33780
 2800.00000   20.63480   11.77890   15.91020   18.02990  -47.90370    8.97280
 2850.00000   25.14980    9.51640   11.31480   12.54170  -42.27880    9.58240
 2900.00000   21.12120   10.89600   12.87580   15.14440  -45.90070    8.81540
 2950.00000   33.69260    6.54920    7.15480    9.37900  -33.72150    9.21370
 3000.00000   29.18570    5.31120    5.44990    6.30930  -34.30360    9.41250
 3050.00000   23.18180   11.30860   14.10790   14.69520  -42.04560    8.49230
 3100.00000   24.89860    4.37520    4.51220    5.81250  -32.09630    9.97290
 3150.00000   30.99260   10.39840   13.73740   16.53340  -43.28290    8.25030
 3200.00000   23.99660    8.72430    9.92080   11.62720  -40.24350    8.74320
 3250.00000   21.81360    5.37240    5.72380    7.78690  -35.44570    8.27470
 3300.00000   26.29220    6.51450    7.21870    9.07760  -39.18210    7.89090
 3350.00000   23.92440   10.35210   11.47500   10.18460  -38.28730    8.31950
 3400.00000   21.67830   11.29580   14.02220   16.55800  -45.91400    7.62150
 3450.00000   27.36210    9.89540   12.30760   14.53580  -44.08020    8.00200
 3500.00000   23.47000   11.31000   15.57040   23.50130  -38.22990    7.71960
 3550.00000   20.62060   10.62870   13.94440   17.67210  -46.35680    7.85620
 3600.00000   20.89200    8.19710   10.22260   13.06110  -45.75180    7.44060
 3650.00000   26.22580   11.65520   15.05650   17.54280  -50.66630    7.37430
 3700.00000   40.62040    1.18720    1.22940    1.56160  -16.43750    7.87610
 3750.00000   55.60560    2.15610    2.23330    2.53530  -18.42840    8.18130
 3800.00000   51.83520    1.85610    1.96570    2.28450  -18.88700    8.11460
 3850.00000   47.98450    2.71730    2.86070    3.61700  -21.27980    7.86620
 3900.00000   46.22530    2.34130    2.42210    2.94020  -20.17290    8.22590
 3950.00000   49.38220    2.57570    2.66350    3.07980  -19.73030    8.04970
 4000.00000   53.13450    2.02610    2.10020    2.49470  -18.03740    7.62340
 4050.00000   40.12880    1.95420    2.02040    2.21130  -17.79900    9.30020
 4100.00000   46.42270    1.93610    2.00090    2.31380  -17.85760    9.36740
 4150.00000   40.77200    1.43810    1.48660    1.74850  -18.25770    9.78190
 4200.00000   42.69280    1.44090    1.48960    1.79960  -18.63420   10.34860
 4250.00000   47.97210    1.33860    1.38330    1.64110  -18.27340   10.75610
 4300.00000   36.53530    1.14660    1.18460    1.48780  -18.62290   11.52560
 4350.00000   38.97930    1.13620    1.17870    1.39060  -26.77050   10.79490
 4400.00000   46.45990    1.08830    1.13100    1.36450  -31.88240   11.09070
 4450.00000   30.98470    0.67360    0.70160    1.06470  -32.50660   13.83070
 4500.00000   36.48560    1.63430    1.69800    1.94360  -36.07910    9.37730
 4550.00000   42.34520    1.66340    1.72660    1.99360  -38.59360    8.25970
 4600.00000   36.76920    1.37560    1.42150    1.71830  -37.78920   10.47970
 4650.00000   33.47640    1.69770    1.76760    2.03760  -37.88210    9.57200
 4700.00000   40.47300    1.21880    1.25990    1.60270  -38.41780    8.31840
 4750.00000   38.82730    1.63960    1.70650    2.10870  -34.80300    8.90760
 4800.00000   41.11470    1.04110    1.11210    1.44590  -38.96350   10.50780
 4850.00000   34.27380    0.92930    0.97640    1.32380  -33.79430   12.39160
 4900.00000   38.89340    1.27030    1.32910    1.69050  -37.16050   10.31160
 4950.00000   37.94160    1.42610    1.47660    1.83330  -38.35390    9.81700
 5000.00000   32.06810    1.52200    1.59040    1.91240  -37.13790    9.66710
 5050.00000   37.73190    1.99600    2.01510    2.51600  -32.23100    7.75320
 5100.00000   32.98340    2.51640    2.65440    3.09100  -32.16260    8.47820
 5150.00000   39.28350    1.29010    1.34330    1.66050  -36.79340   10.00200
 5200.00000   39.11080    1.96910    2.07220    2.57190  -31.60080    8.05480
 5250.00000   45.00370    1.48520    1.52700    1.75210  -32.91910    9.01580
 5300.00000   42.99700    1.06870    1.14920    1.34240  -30.86530    9.39190
 5350.00000   41.14400    1.56620    1.69690    1.94720  -32.75540    8.22630
 5400.00000   46.03570    1.26300    1.36510    1.56030  -32.85180    9.93550
 5450.00000   49.12810    1.33530    1.43110    1.63490  -32.25960    9.67320
 5500.00000   54.49550    1.94050    1.98420    2.28480  -30.95050    8.27110
 5550.00000   40.21100    0.97700    1.03710    1.31840  -31.41490   10.31980
 5600.00000   49.46060    1.07620    1.14790    1.36280  -28.20740    9.80610
 5650.00000   43.54890    1.57520    1.70390    1.99930  -31.99100   10.14750
 5700.00000   44.24090    1.58770    1.68010    2.00230  -32.15160   10.58000
 5750.00000   34.65700    2.31440    2.50130    2.94810  -31.53420    9.72830
 5800.00000   42.16980    1.49770    1.61230    2.02300  -30.89770   11.86630
 5850.00000   38.42480    1.80760    1.96230    2.35940  -27.64140   10.87620
