~Version ---------------------------------------------------
VERS. 2.0 : CWLS log ASCII Standard -VERSION 2.0
WRAP.  NO : ONE LINE PER DEPTH STEP
~Well ------------------------------------------------------
STRT.F                     1650.0 : START DEPTH
STOP.F                     9350.0 : STOP DEPTH
STEP.F                   50.00000 : STEP LENGTH
NULL.                     -999.25 : NULL VALUE
COMP. ASAMERA- TARINA OIL COMPANY : COMPANY
WELL.        BRISCOE RANCH #13-93 : WELL
FLD .                 CATARINA SW : FIELD
LOC .                             : LOCATION
CNTY.                      DIMMIT : COUNTY
STAT.                       TEXAS : STATE
CTRY.    UNITED STATES OF AMERICA : COUNTRY
SRVC.                Schlumberger : SERVICE COMPANY
DATE.                 16-Apr-1977 : LOGDATE
API .              42127311860000 : API NUMBER
UWI .              42127311860000 : UNIQUE WELL ID
SLAT.WGS84          28.3043808828 : SURFACE LATITUDE
SLON.WGS84         -99.7817592367 : SURFACE LONGITUDE
~Curve Information -----------------------------------------
DEPT.F                 : 
NPHI.DEC  42 890 00 00 : NEUTRON POROSITY
DPHI.DEC  45 890 00 00 : DENSITY POROSITY
CALD.IN   45 280 60 00 : CALIPER FROM DENSITY LOG
GRD .GAPI 45 310 01 00 : GAMMA RAY FROM DENSITY LOG
CORR.G/C3 45 356 01 00 : DENSITY CORRECTION
RHOB.G/C3 45 350 01 00 : BULK DENSITY
DT  .US/F 60 500 00 00 : DELTA-T (INTERVAL TRANSIT TIME)
SPR .MV   07 010 01 00 : SPONTANEOUS POTENTIAL FROM RESISTIVITY LOG
ILD .OHMM 07 120 46 00 : INDUCTION DEEP RESISTIVITY
ILM .OHMM 07 120 44 00 : INDUCTION MEDIUM RESISTIVITY
LL8 .OHMM 07 220 08 00 : LATEROLOG 8
~Params ----------------------------------------------------
PD  .                     GL : PERMANENT DATUM
EPD .F                636.13 : ELEVATION PERMANENT DATUM
LMF .                     KB : LOG MEASURED FROM
DAPD.F                 13.13 : FEET ABOVE PERMANENT DATUM
DMF .                     KB : DRILLING MEASURED FROM
EKB .F                   649 : KELLING BUSHING
EDF .F                 647.5 : DRILLING FLOOR
EGL .F                636.13 : GROUND LEVEL
DATE.              4-15-1977 : RUN DATE
RUN .                      2 : RUN NUMBER
DD  .F                  9370 : DEPTH DRILLER
DL  .F                  9374 : DEPTH LOGGER
BLI .F                  9368 : BOTTOM LOG INTERVAL
TLI .F                  4400 : TOP LOG INTERVAL
CS  .IN                8.625 : CASING SIZE
CBD .F                  1600 : CASING BOTTOM DRILLER
BS  .IN                7.875 : BIT SIZE
BSD .F                  9370 : BIT SIZE AT DEPTH
DFT .       CALCIUM CHLORIDE : DRILLING FLUID TYPE
DFD .                   10.2 : DRILLING FLUID DENSITY
DFV .                     37 : DRILLING FLUID VISCOSITY
DFPH.                     10 : DRILLING FLUID PH
DFL .                      6 : DRILLING FLUID LOSS
MSS .                    PIT : MUD SAMPLE SOURCE
RMS .OHMM               0.07 : RESISTIVITY MUD SAMPLE
MST .F                    70 : MUD SAMPLE TEMPERATURE
RMF .OHMM              0.057 : RESISTIVITY MUD FILTRATE SAMPLE
MFST.F                    70 : MUD FILTRATE SAMPLE TEMPERATURE
RMB .OHMM              0.026 : RESISTIVITY MUD AT BHT
TCS .HRS                1300 : TIME CURCULATED STOPPED
TLAB.HRS                1900 : TIME LOGGER AT BOTTOM
LUN .                   7734 : LOGGING UNIT NUMBER
LUL .                 LAREDO : LOGGING UNIT LOCATION
ENGI.                HARTLEY : RECORDING ENGINEER
WITN.                  LYONS : WITNESSED BY
CLNT.                A2DTECH : CLIENT CODE
ORIG.          1" 2.5" PRINT : ORIGIN OF DATA
UWI .         42127311860000 : UNIQUE WELL ID
DICO. A2D Technologies, Inc. : DIGITIZING COMPANY
~Other -----------------------------------------------------
~ASCII -----------------------------------------------------
# ...
 7750.00000    0.14730    0.14150    8.40360   16.71600   -0.00070    2.47400    -999.25  -54.44280   24.63580   56.82220   38.66620
 7800.00000    0.17260    0.18020    8.60310   20.99590    0.00520    2.40600    -999.25  -50.00000   58.21450  257.52640   92.05300
 7850.00000    0.16690    0.18510    8.64090   26.77440    0.00070    2.33310    -999.25  -53.08730   34.73440   78.30470   30.34310
 7900.00000    0.13990    0.13440    8.64090   25.87970    0.01550    2.51040    -999.25  -53.86540   29.50390   23.34270   41.37540
 7950.00000    0.02090    0.05590    8.67060    5.62040    0.14100    2.61790    -999.25  -50.37650  286.97950   33.42320   81.09260
 8000.00000    0.01180    0.02300    8.79880    5.02960    0.09470    2.58230    -999.25  -59.63860 1580.50240   56.16930  133.56590
 8050.00000    0.04140    0.02030    8.10680   14.19880   -0.00590    2.68420    -999.25  -57.58020   36.41050   43.62180   32.06000
 8100.00000    0.20340    0.07910    8.64100   25.68020    0.13340    2.63060    -999.25  -54.51810    2.95010    2.72450    6.58260
 8150.00000    0.20150    0.10050    8.72990   25.44380   -0.02150    2.41250    -999.25  -55.57230    2.60400    1.66890    5.34000
 8200.00000    0.20960    0.18970    8.66440   22.18940    0.01480    2.48530    -999.25  -54.21670    5.28310   39.57550   10.24790
 8250.00000    0.01090    0.03350    9.81310    6.21300    0.17460    2.66990    -999.25  -39.23150   27.09330   60.61490  117.44950
 8300.00000    0.05030    0.10320    8.94630    6.95480    0.10900    2.49450    -999.25  -25.80310  220.30070  661.87280   81.31030
 8350.00000    0.01420    0.08120    9.48680    5.47500    0.14870    2.58230    -999.25  -41.36520 1356.79910  270.31120  905.06110
 8400.00000    0.01740    0.09160    9.58340    6.65790    0.18790    2.55040    -999.25  -52.79440 1000.00000   56.16940   83.14690
 8450.00000    0.01560    0.06530    9.90190    6.06630    0.18170    2.64730    -999.25  -53.59280  100.69600   25.33880  137.30940
 8500.00000    0.01510    0.06310   10.10490    5.62130    0.10800    2.58530    -999.25  -50.44910 1280.35230  224.23390   31.84150
 8550.00000    0.00930    0.12330    9.83550   10.28000    0.16530    2.53030    -999.25  -46.88130  405.90460   45.06180   78.99630
 8600.00000    0.01880    0.06430    8.36350   18.71740    0.12580    2.59050    -999.25  -52.19560  373.59190  157.33000  153.33060
 8650.00000    0.00220   -0.09030    7.89910    4.43790    0.00070    2.91740    -999.25  -60.02990  776.34940 2111.78370 1543.79350
 8700.00000    0.04210    0.09960    9.67950   13.61090    0.13610    2.52080    -999.25  -60.77840   95.92300   19.88720  216.41910
 8750.00000    0.05160    0.02710    8.19580   11.24310   -0.00740    2.65800    -999.25  -57.03590   20.42920   29.91770   41.95220
 8800.00000    0.10280    0.02470    8.06020   14.69740   -0.00150    2.68150    -999.25  -55.38920   10.28130   12.35360   13.13000
 8850.00000    0.01570    0.23840    8.70030   12.37690    0.11390    2.22730    -999.25  -45.25930   70.20790   78.04390   63.44120
 8900.00000    0.03430    0.12620   10.74780   10.94670    0.18640    2.50070    -999.25  -52.69460  398.56460   28.31080  266.16420
 8950.00000   -0.00220   -0.09380    8.01780    3.50120   -0.02370    2.87200    -999.25  -60.42930  711.85680  127.64390 1665.61410
 9000.00000    0.00220   -0.08640    8.21990    5.91720   -0.02070    2.86760    -999.25  -55.68860  303.17320 1811.54320  196.50980
 9050.00000    0.02270    0.03960    8.03270   14.00430    0.00150    2.57090    -999.25  -50.22590 1670.48730 2023.40340 1543.91240
 9100.00000    0.00760    0.06310    8.36390   10.65090    0.03990    2.67260    -999.25  -48.94580  912.36040   49.88840  222.48730
 9150.00000    0.00800    0.02120    8.03260    7.98770    0.01750    2.67710    -999.25  -47.56540  243.14140  369.82810 1847.04220
 9200.00000    0.01190    0.08600    9.76850   11.34120    0.22680    2.75150    -999.25  -57.53010 1248.35130 1666.67180 1735.69090
 9250.00000    0.00800    0.07380    9.45710    7.69140    0.22480    2.62800    -999.25  -66.86750 1741.66240 1214.34890 1627.80290
 9300.00000    0.00170    0.07560    9.72210   10.94580    0.21150    2.58040    -999.25  -63.35340  566.17760  823.97040 1735.88570
 9350.00000    0.00810    0.05650    9.30630    6.50890    0.04590    2.61190    -999.25  -68.07230 1741.66210 1393.15780 1712.11500
