~Version ---------------------------------------------------
VERS. 2.0 : CWLS log ASCII Standard -VERSION 2.0
WRAP. YES : Multiple lines per depth step
~Well ------------------------------------------------------
STRT.FT                   3750.0 : START DEPTH
STOP.FT                   8350.0 : STOP DEPTH
STEP.FT                 50.00000 : STEP LENGTH
NULL.                    -999.25 : NULL VALUE
COMP. CHAMPLIN PETROLEUM COMPANY : COMPANY
WELL.        JOHN W. SPRINGER #1 : WELL
FLD .                   GIDDINGS : FIELD
LOC .                            : LOCATION
CNTY.                   BURLESON : COUNTY
STAT.                      TEXAS : STATE
CTRY.   UNITED STATES OF AMERICA : COUNTRY
SRVC.               Schlumberger : SERVICE COMPANY
DATE.                11-Aug-1980 : LOGDATE
API .             42051308540000 : API NUMBER
UWI .             42051308540000 : UNIQUE WELL ID
SLAT.WGS84         30.3606502248 : SURFACE LATITUDE
SLON.WGS84         -96.747724759 : SURFACE LONGITUDE
~Curve Information -----------------------------------------
DEPT    .FT    : 
CALWS   .IN    : CALIPER [DCALED+8.75]
CONDWS  .MMHO  : CONDUCTIVITY [1000/DRESWS]
DCALED  .IN    : DIFFERENTIAL CALIPER FROM DIL-SFL-CNFD LOG
DCORWS  .G/C3  : DENSITY CORRECTION [DRHOED]
DENWS   .G/C3  : FORMATION BULK DENSITY [CALCULATED FROM DPOWS, M=2.71, F=1.0]
DPHILSED.V/V   : DENSITY POROSITY LIMESTONE [M=2.71, F=1.0] FROM DIL-SFL-CNFD LOG
DPHISSED.V/V   : DENSITY POROSITY SANDSTONE [M=2.65, F=1.0] FROM DIL-SFL-CNFD LOG
DPOWS   .V/V   : DENSITY POROSITY LIMESTONE  [DPHISSED CONVERTED TO LIMESTONE (M=2.71, F=1.0) & SPLICED WITH DPHILSED @ 6503']
DRESWS  .OHMM  : DEEP RESISTIVITY [ILDED]
DRHOED  .G/C3  : BULK DENSITY CORRECTION FROM DIL-SFL-CNFD LOG
GRRED   .GAPI  : GAMMA RAY FROM DIL-SFL-CNFD LOG
GRWS    .GAPI  : GAMMA RAY [GRRED] CSG < 3741'
ILDED   .OHMM  : DEEP INDUCTION RESISTIVITY FROM DIL-SFL-CNFD LOG
ILMED   .OHMM  : MEDIUM INDUCTION RESISTIVITY FROM DIL-SFL-CNFD LOG
MRESWS  .OHMM  : MEDIUM RESISTIVITY [ILMED]
NPHILSED.V/V   : NEUTRON POROSITY LIMESTONE FROM DIL-SFL-CNFD LOG
NPHISSED.V/V   : NEUTRON POROSITY SANDSTONE FROM DIL-SFL-CNFD LOG
NPOWS   .V/V   : NEUTRON POROSITY LIMESTONE [NPHISSED CONVERTED TO LIMESTONE MATRIX & SPLICED WITH NPHILSED @ 6496.5'] CSG < 3741'
SFLUED  .OHMM  : SHALLOW FOCUSED RESISTIVITY (UNAVERAGED) FROM DIL-SFL-CNFD LOG
SPRED   .MV    : SPONTANEOUS POTENTIAL FROM RESISTIVITY LOG FROM DIL-SFL-CNFD LOG
SPWS    .MV    : SPONTANEOUS POTENTIAL [BASELINE 0 MV, SPRED]
SRESWS  .OHMM  : SHALLOW RESISTIVITY [SFLUED]
~Params ----------------------------------------------------
PD  .                     GL : PERMANENT DATUM
EPD .FT                  313 : ELEVATION PERMANENT DATUM
LMF .                     KB : LOG MEASURED FROM
DAPD.FT                   14 : FEET ABOVE PERMANENT DATUM
DMF .                     KB : DRILLING MEASURED FROM
EKB .FT                  327 : KELLY BUSHING
EDF .FT                  326 : DRILLING FLOOR
EGL .FT                  313 : GROUND LEVEL
DATE.               08/11/80 : RUN DATE
RUN .                      1 : RUN NUMBER
DD  .FT                 8396 : DEPTH DRILLER
DL  .FT                 8393 : DEPTH LOGGER
BLI .FT                 8387 : BOTTOM LOG INTERVAL
TLI .FT                 3741 : TOP LOG INTERVAL
CS  .IN                9.625 : CASING SIZE
CBD .FT                 3751 : CASING BOTTOM DRILLER
CBL .FT                 3741 : CASING BOTTOM LOGGER
BS  .IN                 8.75 : BIT SIZE
BSD .FT                 8396 : BIT SIZE AT DEPTH
DFT .                 BEN EX : DRILLING FLUID TYPE
DFD .                    9.7 : DRILLING FLUID DENSITY
DFV .                     41 : DRILLING FLUID VISCOSITY
DFPH.                    8.5 : DRILLING FLUID PH
DFL .                    5.6 : DRILLING FLUID LOSS
MSS .              CIRC TANK : MUD SAMPLE SOURCE
RMS .OHMM               1.94 : RESISTIVITY MUD SAMPLE
MST .DEGF                110 : MUD SAMPLE TEMPERATURE
RMF .OHMM               2.13 : RESISTIVITY MUD FILTRATE SAMPLE
MFST.DEGF                 75 : MUD FILTRATE SAMPLE TEMPERATURE
RMC .OHMM               2.91 : RESISTIVITY MUD CAKE
MCST.DEGF                110 : MUD CAKE SAMPLE TEMPERATURE
MFSS.                      M : MUD FILTRATE SAMPLE SOURCE
MCSS.                      C : MUD CAKE SAMPLE SOURCE
RMB .OHMM               1.03 : RESISTIVITY MUD AT BHT
TCS .HRS                1130 : TIME CIRCULATED STOPPED
TLAB.HRS                1600 : TIME LOGGER AT BOTTOM
LUN .                   8101 : LOGGING UNIT NUMBER
LUL .                BRENHAM : LOGGING UNIT LOCATION
ENGI.                 HARDER : RECORDING ENGINEER
WITN.          SCHELL KRAUHS : WITNESSED BY
CLNT.                A2DTECH : CLIENT CODE
ORIG.            2" 5" PRINT : ORIGIN OF DATA
UWI .         42051308540000 : UNIQUE WELL ID
DICO. A2D Technologies, Inc. : DIGITIZING COMPANY
~Other -----------------------------------------------------
~ASCII -----------------------------------------------------
# ...
 5350.00000   10.91310  517.17000    2.16310    0.03400    2.47060    -999.25    0.10870    0.14000    1.93360    0.03400   91.74900   91.74900    1.93360    2.00210    2.00210    -999.25    0.24080    0.19700    2.10390    0.40810   -7.22240    2.10390
 5400.00000   11.43080  701.65590    2.68080    0.06460    2.45490    -999.25    0.11830    0.14920    1.42520    0.06460   81.64960   81.64960    1.42520    1.46780    1.46780    -999.25    0.33200    0.28820    1.62680   -7.81760  -15.35590    1.62680
 5450.00000   12.20780  989.31540    3.45780    0.07080    2.43730    -999.25    0.12890    0.15950    1.01080    0.07080  113.28170  113.28170    1.01080    1.07000    1.07000    -999.25    0.42350    0.38110    1.30870    1.29680   -6.14930    1.30870
 5500.00000   10.60760  579.84460    1.85760    0.04160    2.51250    -999.25    0.08330    0.11550    1.72460    0.04160   97.43610   97.43610    1.72460    1.77690    1.77690    -999.25    0.30440    0.26040    1.87890    2.01380   -5.34010    1.87890
 5550.00000   10.58520  533.44710    1.83520    0.04260    2.50620    -999.25    0.08720    0.11920    1.87460    0.04260   95.63800   95.63800    1.87460    2.01560    2.01560    -999.25    0.26830    0.22430    2.16170    1.66090   -5.60090    2.16170
 5600.00000   10.31430  575.97050    1.56430    0.07170    2.35760    -999.25    0.17720    0.20610    1.73620    0.07170   88.42520   88.42520    1.73620    1.79440    1.79440    -999.25    0.34560    0.30190    1.72750   -2.93170  -10.10130    1.72750
 5650.00000   10.98640  804.63470    2.23640    0.05060    2.40070    -999.25    0.15110    0.18090    1.24280    0.05060  104.11680  104.11680    1.24280    1.32610    1.32610    -999.25    0.35080    0.30720    1.42890   -2.58940   -9.66680    1.42890
 5700.00000   11.81350  955.20110    3.06350    0.04510    2.42870    -999.25    0.13410    0.16450    1.04690    0.04510  100.83090  100.83090    1.04690    1.07910    1.07910    -999.25    0.37290    0.32960    1.21900   -1.33390   -8.31910    1.21900
 5750.00000   12.10490  856.53100    3.35490    0.07180    2.47130    -999.25    0.10830    0.13960    1.16750    0.07180  104.64300  104.64300    1.16750    1.19990    1.19990    -999.25    0.33510    0.29130    1.37530   -1.95570   -8.84870    1.37530
 5800.00000   12.02840  799.87200    3.27840    0.06510    2.51390    -999.25    0.08250    0.11470    1.25020    0.06510   97.85940   97.85940    1.25020    1.28470    1.28470    -999.25    0.32780    0.28400    1.53200   -5.56550  -12.36630    1.53200
 5850.00000   11.34850  863.93090    2.59850    0.02840    2.45780    -999.25    0.11650    0.14750    1.15750    0.02840  121.32650  121.32650    1.15750    1.18970    1.18970    -999.25    0.34550    0.30180    1.36830   -1.63770   -8.34630    1.36830
 5900.00000   10.23540  664.76100    1.48540    0.04800    2.46510    -999.25    0.11200    0.14320    1.50430    0.04800  105.73900  105.73900    1.50430    1.54950    1.54950    -999.25    0.27860    0.23460    1.70330   -2.72510   -9.34150    1.70330
 5950.00000   10.50180  616.06700    1.75180    0.09400    2.45860    -999.25    0.11600    0.14700    1.62320    0.09400   92.23130   92.23130    1.62320    1.66860    1.66860    -999.25    0.27770    0.23370    1.75090   -5.18620  -11.71040    1.75090
 6000.00000   10.41230  896.21800    1.66230    0.06170    2.37240    -999.25    0.16820    0.19740    1.11580    0.06170  116.15350  116.15350    1.11580    1.18050    1.18050    -999.25    0.32160    0.27770    1.29270    2.94680   -3.48520    1.29270
 6050.00000   10.45200  551.02490    1.70200    0.06040    2.46310    -999.25    0.11330    0.14440    1.81480    0.06040   90.27370   90.27370    1.81480    1.90580    1.90580    -999.25    0.27150    0.22750    2.04830    0.53090   -5.80900    2.04830
 6100.00000   11.78150  703.43280    3.03150    0.07910    2.46600    -999.25    0.11150    0.14270    1.42160    0.07910  113.19240  113.19240    1.42160    1.46490    1.46490    -999.25    0.29970    0.25570    1.56400    0.78430   -5.46340    1.56400
 6150.00000   12.48500  843.59710    3.73500    0.04030    2.46140    -999.25    0.11430    0.14540    1.18540    0.04030  122.03250  122.03250    1.18540    1.22090    1.22090    -999.25    0.31010    0.26620    1.37800    2.60640   -3.54910    1.37800
 6200.00000   13.48790  593.22540    4.73790    0.07350    2.51570    -999.25    0.08140    0.11360    1.68570    0.07350  112.71360  112.71360    1.68570    1.74880    1.74880    -999.25    0.30050    0.25650    1.84410    1.52400   -4.53930    1.84410
 6250.00000   13.29520  576.23600    4.54520    0.09780    2.53810    -999.25    0.06780    0.10050    1.73540    0.09780  102.57170  102.57170    1.73540    1.79330    1.79330    -999.25    0.27830    0.23430    1.91970   -9.20520  -15.17630    1.91970
 6300.00000   13.59950  784.86770    4.84950    0.04830    2.45850    -999.25    0.11610    0.14710    1.27410    0.04830  113.94870  113.94870    1.27410    1.35400    1.35400    -999.25    0.32480    0.28090    1.41690   -0.73370   -6.61260    1.41690
 6350.00000   12.89090  838.22300    4.14090    0.02580    2.41400    -999.25    0.14300    0.17310    1.19300    0.02580  119.78920  119.78920    1.19300    1.26740    1.26740    -999.25    0.32560    0.28170    1.35780    1.94600   -3.84070    1.35780
 6400.00000   11.51930  528.84870    2.76930    0.05540    2.52500    -999.25    0.07580    0.10820    1.89090    0.05540  104.57400  104.57400    1.89090    1.98490    1.98490    -999.25    0.25320    0.20930    2.06730    0.79800   -4.89650    2.06730
 6450.00000   11.24560  511.03840    2.49560    0.02330    2.52910    -999.25    0.07330    0.10580    1.95680    0.02330  104.82710  104.82710    1.95680    2.03900    2.03900    -999.25    0.24730    0.20340    2.14640    5.13920   -0.45900    2.14640
 6500.00000   12.40400  577.50060    3.65400    0.08280    2.52870    -999.25    0.07350    0.10600    1.73160    0.08280  106.86820  106.86820    1.73160    1.81130    1.81130    0.29770    -999.25    0.29770    1.93100    2.26860   -3.09950    1.93100
 6550.00000   13.45300  638.85520    4.70300    0.06080    2.51510    0.11400    -999.25    0.11400    1.56530    0.06080  109.50570  109.50570    1.56530    1.61390    1.61390    0.23730    -999.25    0.23730    1.93370    0.23850   -4.89960    1.93370
 6600.00000   14.71230  683.48030    5.96230    0.09810    2.42850    0.16460    -999.25    0.16460    1.46310    0.09810  105.37430  105.37430    1.46310    1.52180    1.52180    0.26670    -999.25    0.26670    1.65980   -7.28730  -12.19530    1.65980
 6650.00000   13.56360  551.17680    4.81360    0.10220    2.47030    0.14020    -999.25    0.14020    1.81430    0.10220  107.75450  107.75450    1.81430    1.93070    1.93070    0.24270    -999.25    0.24270    2.07100   -9.85000  -14.52790    2.07100
 6700.00000   12.20560  537.02810    3.45560    0.10130    2.51980    0.11120    -999.25    0.11120    1.86210    0.10130   93.42830   93.42830    1.86210    1.94310    1.94310    0.23060    -999.25    0.23060    1.85960   -5.77860  -10.22650    1.85960
 6750.00000    9.90660  244.85200    1.15660   -0.00990    2.57560    0.07860    -999.25    0.07860    4.08410   -0.00990   54.74590   54.74590    4.08410    3.64700    3.64700    0.11930    -999.25    0.11930    3.47930   -1.22170   -5.43950    3.47930
 6800.00000    9.76730  249.43250    1.01730    0.01140    2.63120    0.04610    -999.25    0.04610    4.00910    0.01140   63.17700   63.17700    4.00910    4.20350    4.20350    0.11220    -999.25    0.11220    5.10220   -1.94580   -5.93360    5.10220
 6850.00000    9.91660  324.82300    1.16660    0.01610    2.59270    0.06860    -999.25    0.06860    3.07860    0.01610   75.82010   75.82010    3.07860    3.24790    3.24790    0.13700    -999.25    0.13700    3.48130    0.81600   -2.94170    3.48130
 6900.00000   12.55030  624.53160    3.80030    0.09330    2.43980    0.15800    -999.25    0.15800    1.60120    0.09330   99.09890   99.09890    1.60120    1.65820    1.65820    0.25700    -999.25    0.25700    1.95220   -5.00350   -8.53110    1.95220
