~Version ---------------------------------------------------
VERS. 2.0 : CWLS log ASCII Standard -VERSION 2.0
WRAP. YES : MULTIPLE LINES PER DEPTH STEP
~Well ------------------------------------------------------
STRT.FT                     600.0 : START DEPTH
STOP.FT                    6950.0 : STOP DEPTH
STEP.FT                  50.00000 : STEP LENGTH
NULL.                     -999.25 : NULL VALUE
COMP. ENCANA OIL & GAS (USA) INC. : COMPANY
WELL.               F. J. WEBB #1 : WELL
FLD .                     WILDCAT : FIELD
LOC .                             : LOCATION
CNTY.                      DIMMIT : COUNTY
STAT.                       TEXAS : STATE
CTRY.    UNITED STATES OF AMERICA : COUNTRY
SRVC.                Baker Hughes : SERVICE COMPANY
DATE.                 05-Jan-2006 : LOGDATE
API .              42127332970000 : API NUMBER
UWI .              42127332970000 : UNIQUE WELL ID
SLAT.WGS84          28.5870102193 : SURFACE LATITUDE
SLON.WGS84         -99.9764767301 : SURFACE LONGITUDE
~Curve Information -----------------------------------------
DEPT    .FT    : DEPTH FEET  [ALL CURVES ARE NULLED AS PER OFFSET FROM TD 6964F]
CALRED  .IN    : CALIPER FROM RESISTIVITY LOG
CALWS   .IN    : CALIPER [CALRED]
CNCFLSED.V/V   : NEUTRON POROSITY LIMESTONE FROM HDI/CD/CN LOG
CONDWS  .MMHO  : CONDUCTIVITY [1000/DRESWS]
DCORWS  .G/C3  : DENSITY CORRECTION [ZCORED]
DENWS   .G/C3  : BULK DENSITY [M=2.71 F=1.0] [CALCULATED FROM DPOWS]
DPOWS   .V/V   : DENSITY POROSITY [M=2.71 F=1.0] [PORZLSED]
DRESWS  .OHMM  : DEEP RESISTIVITY [M1R9ED]
GRRED   .GAPI  : GAMMA RAY FROM RESISTIVITY LOG
GRWS    .GAPI  : GAMMA RAY [594 GRREDNRM 732 GRRED]
M1R1ED  .OHMM  : 10 INCH DOI RESISTIVITY FROM HDI/CD/CN LOG
M1R2ED  .OHMM  : 20 INCH DOI RESISTIVITY FROM HDI/CD/CN LOG
M1R3ED  .OHMM  : 30 INCH DOI RESISTIVITY FROM HDI/CD/CN LOG
M1R6ED  .OHMM  : 60 INCH DOI RESISTIVITY FROM HDI/CD/CN LOG
M1R9ED  .OHMM  : 90 INCH DOI RESISTIVITY FROM HDI/CD/CN LOG
M1RXED  .OHMM  : 120 INCH DOI RESISTIVITY FROM HDI/CD/CN LOG
MRESWS  .OHMM  : MEDIUM RESISTIVITY [M1R3ED]
NPOWS   .V/V   : NEUTRON POROSITY LIMESTONE [CNCFLSED]
PEFED   .B/E   : PHOTOELECTRIC FACTOR FROM DENSITY LOG
PEFWS   .B/E   : PHOTOELECTRIC FACTOR [PEFED]
PORZLSED.V/V   : DENSITY POROSITY [M=2.71 F=1.0] FROM HDI/CD/CN LOG
SPRED   .MV    : SPONTANEOUS POTENTIAL FROM RESISTIVITY LOG
SPWS    .MV    : SPONTANEOUS POTENTIAL [BASELINE 0 MV] [SPRED]
SRESWS  .OHMM  : SHALLOW RESISTIVITY [594 M1R1ED 777 M1R2ED 791 M1R1ED 957 M1R2ED 962.5 M1R1ED 1436.5 M1R2ED 1678 M1R1ED 2193 M1R2ED 3139 M1R1ED 3874 M1R2ED]
TENRED  .LBF   : TENSION FROM RESISTIVITY LOG
ZCORED  .G/C3  : DENSITY CORRECTION FROM HDI/CD/CN LOG
~Params ----------------------------------------------------
PD  .                     GL : PERMANENT DATUM
EPD .F                 697.3 : ELEVATION PERMANENT DATUM
LMF .                     KB : LOG MEASURED FROM
DAPD.F                  12.0 : FEET ABOVE PERMANENT DATUM
DMF .                     KB : DRILLING MEASURED FROM
EKB .F                 709.3 : KELLING BUSHING
EDF .F                 708.3 : DRILLING FLOOR
EGL .F                 697.3 : GROUND LEVEL
DATE.             01/05/2006 : RUN DATE
RUN .                      1 : RUN NUMBER
DD  .F                  6972 : DEPTH DRILLER
DL  .F                  6964 : DEPTH LOGGER
BLI .F                  6956 : BOTTOM LOG INTERVAL
TLI .F                   732 : TOP LOG INTERVAL
CS  .IN                9.625 : CASING SIZE
CBD .F                   732 : CASING BOTTOM DRILLER
CBL .F                   732 : CASING BOTTOM LOGGER
BS  .IN                 8.75 : BIT SIZE
BSD .F                  6972 : BIT SIZE AT DEPTH
DFT .                    WBM : DRILLING FLUID TYPE
DFD .                    9.7 : DRILLING FLUID DENSITY
DFV .                     79 : DRILLING FLUID VISCOSITY
DFPH.                   11.0 : DRILLING FLUID PH
DFL .                    8.4 : DRILLING FLUID LOSS
MSS .               FLOWLINE : MUD SAMPLE SOURCE
RMS .OHMM               0.36 : RESISTIVITY MUD SAMPLE
MST .F                    75 : MUD SAMPLE TEMPERATURE
RMF .OHMM               0.29 : RESISTIVITY MUD FILTRATE SAMPLE
MFST.F                    75 : MUD FILTRATE SAMPLE TEMPERATURE
RMC .OHMM               0.45 : RESISTIVITY MUD CAKE
MCST.F                    75 : MUD CAKE SAMPLE TEMPERATURE
MFSS.                      M : MUD FILTRATE SAMPLE SOURCE
MCSS.                      C : MUD CAKE SAMPLE SOURCE
RMB .OHMM               0.15 : RESISTIVITY MUD AT BHT
TCS .HRS                  10 : TIME CURCULATED STOPPED
LUN .                HL-6540 : LOGGING UNIT NUMBER
LUL .              ALICE, TX : LOGGING UNIT LOCATION
ENGI.              C. MCCANN : RECORDING ENGINEER
WITN.            D. JOHNSTON : WITNESSED BY
CLNT.                A2DTECH : CLIENT CODE
ORIG.            1" 5" PRINT : ORIGIN OF DATA
UWI .         42127332970000 : UNIQUE WELL ID
DICO. A2D Technologies, Inc. : DIGITIZING COMPANY
~Other -----------------------------------------------------
~ASCII -----------------------------------------------------
# ...
 4650.00000    9.50750    9.50750    0.08420   42.00820   -0.00150    2.61530    0.05540   23.80490   19.42770   19.42770 1556.89070   17.97620   18.87950   20.26280   23.80490   24.64090   18.87950    0.08420    5.15060    5.15060    0.05540  -29.35910  -18.89230   17.97620  -67.61250   -0.00150
 4700.00000    9.53860    9.53860    0.10080   46.64010   -0.01050    2.62520    0.04960   21.44080   24.62350   24.62350   41.36570   19.32890   20.13550   22.02170   21.44080   25.11390   20.13550    0.10080    4.82440    4.82440    0.04960  -23.30950  -12.44430   19.32890  -21.08700   -0.01050
 4750.00000    9.65910    9.65910    0.10680   24.25330    0.00150    2.57700    0.07780   41.23150   18.29820   18.29820 1281.39100   28.28240   27.60860   41.82670   41.23150   46.06620   27.60860    0.10680    5.05740    5.05740    0.07780  -29.32200  -18.05830   28.28240   29.09190    0.00150
 4800.00000    9.72090    9.72090    0.10300   53.60210   -0.00450    2.59170    0.06920   18.65600   21.91380   21.91380 1392.61660   14.87130   14.52320   16.52460   18.65600   17.85180   14.52320    0.10300    5.21410    5.21410    0.06920  -28.46530  -16.80320   14.87130   31.81190   -0.00450
 4850.00000    9.41650    9.41650    0.11090   51.40940   -0.02550    2.58930    0.07060   19.45170   32.91060   32.91060 1025.36290   15.47560   15.51140   17.42370   19.45170   18.98290   15.51140    0.11090    5.03010    5.03010    0.07060  -22.74370  -10.68310   15.47560  -83.63310   -0.02550
 4900.00000    9.40990    9.40990    0.11230   19.53570   -0.02120    2.57630    0.07820   51.18840   58.73510   58.73510 1229.24330   28.77530   30.73250   39.99000   51.18840   55.11000   30.73250    0.11230    5.12050    5.12050    0.07820  -13.98520   -1.52620   28.77530    1.70700   -0.02120
 4950.00000    9.61200    9.61200    0.11540   19.39550    0.14550    2.54110    0.09880   51.55840   38.85520   38.85520  491.67560   35.00500   28.71300   40.39270   51.55840   46.66230   28.71300    0.11540    4.79660    4.79660    0.09880  -21.05250  -10.25950   35.00500  -19.41020    0.14550
 5000.00000    9.37440    9.37440    0.08520   10.92190   -0.00580    2.59770    0.06570   91.55890   57.37950   57.37950  439.95990   43.57900   45.30490   75.84180   91.55890  108.68060   45.30490    0.08520    4.51680    4.51680    0.06570  -24.96270  -15.83570   43.57900  -68.33060   -0.00580
 5050.00000    9.53070    9.53070    0.11390   20.86860    0.00120    2.59510    0.06720   47.91880   39.30700   39.30700 1264.54690   33.68420   26.78350   40.60960   47.91880   56.74120   26.78350    0.11390    4.30720    4.30720    0.06720  -11.87970   -4.41870   33.68420   -5.72530    0.00120
 5100.00000    9.98440    9.98440    0.15830   36.67520    0.01210    2.54580    0.09600   27.26640   53.31330   53.31330 1474.31920   17.76690   16.23130   21.15270   27.26640   26.99400   16.23130    0.15830    4.49270    4.49270    0.09600   -7.04030   -1.24530   17.76690  -61.47590    0.01210
 5150.00000    9.92380    9.92380    0.12950   29.59160   -0.00300    2.55660    0.08970   33.79340   44.81270   44.81270 1482.70460   27.79300   27.15810   30.36550   33.79340   34.99560   27.15810    0.12950    4.05360    4.05360    0.08970  -10.52630   -5.94800   27.79300   40.30810   -0.00300
 5200.00000    9.68180    9.68180    0.13210   30.98850   -0.01520    2.54500    0.09650   32.27000   38.85700   38.85700 1410.43840   27.61040   23.30750   28.79640   32.27000   31.89420   23.30750    0.13210    4.48800    4.48800    0.09650   -9.51180   -6.10030   27.61040   28.07240   -0.01520
 5250.00000    9.37970    9.37970    0.23150   75.20660   -0.00610    2.47930    0.13490   13.29670   70.93340   70.93340   19.31730   11.10650   12.81380   13.12900   13.29670   13.65860   12.81380    0.23150    3.75440    3.75440    0.13490   -4.21050   -1.84280   11.10650  -43.43860   -0.00610
 5300.00000    9.56200    9.56200    0.16880   11.17860    0.01870    2.50500    0.11990   89.45640   67.99680   67.99680   99.49470   40.58070   31.21850   49.78330   89.45640   53.96320   31.21850    0.16880    4.15280    4.15280    0.11990   -4.36090   -1.79330   40.58070  -25.55310    0.01870
 5350.00000    9.34950    9.34950    0.20950   34.38100    0.01850    2.46140    0.14540   29.08580   98.47350   98.47350 1432.95840   24.03080   18.91740   27.86370   29.08580   37.83390   18.91740    0.20950    4.02660    4.02660    0.14540   -5.02550   -2.25790   24.03080   47.64780    0.01850
 5400.00000    9.19980    9.19980    0.13650   10.01080   -0.03940    2.47540    0.13720   99.89170   93.29820   93.29820  934.18090   32.26990   29.56170   63.06180   99.89170  138.39880   29.56170    0.13650    4.42760    4.42760    0.13720  -17.58590  -14.61840   32.26990  165.26990   -0.03940
 5450.00000    9.89360    9.89360    0.04830   13.76450    0.24420    2.58600    0.07250   72.65080   17.39310   17.39310  703.28150   38.87080   29.65910   54.00220   72.65080   77.23630   29.65910    0.04830    4.73010    4.73010    0.07250  -29.02310  -25.85570   38.87080   38.59940    0.24420
 5500.00000   11.00980   11.00980    0.06420    4.73040    0.23640    2.57580    0.07850  211.40050   16.49120   16.49120  478.20280  120.71950   91.12560  166.75430  211.40050  234.06260   91.12560    0.06420    4.75900    4.75900    0.07850  -35.93980  -32.57250  120.71950   17.53330    0.23640
 5550.00000    8.83570    8.83570    0.04610    9.20510    0.22420    2.60160    0.06340  108.63500   15.36110   15.36110  881.19560   30.98060   27.93030   65.63790  108.63500  144.63710   27.93030    0.04610    5.30230    5.30230    0.06340  -32.13790  -28.57070   30.98060  -56.61050    0.22420
 5600.00000   12.61400   12.61400    0.26920  400.24010    0.21210    2.25650    0.26520    2.49850   68.97890   68.97890    3.22900    1.69190    3.27720    1.80330    2.49850    1.94930    3.27720    0.26920    3.97590    3.97590    0.26520   -5.11250   -1.34530    1.69190  -40.95480    0.21210
 5650.00000   14.15530   14.15530    0.33670  543.44870    0.10300    2.41660    0.17160    1.84010   80.53560   80.53560    1.58480    1.69630    1.83760    1.90500    1.84010    1.99540    1.83760    0.33670    3.31330    3.31330    0.17160   -6.89760   -2.93050    1.69630   70.32030    0.10300
 5700.00000   14.33690   14.33690    0.32690  615.64980    0.12430    2.39370    0.18500    1.62430   78.84040   78.84040    1.56290    1.91760    1.77680    1.95870    1.62430    2.46190    1.77680    0.32690    3.73800    3.73800    0.18500   -8.58100   -4.07510    1.91760  -60.38910    0.12430
 5750.00000   12.48400   12.48400    0.26670  317.21860    0.20910    2.19200    0.30290    3.15240   70.92280   70.92280    2.87470    2.51560    3.30410    2.74240    3.15240    2.97870    3.30410    0.26670    4.19570    4.19570    0.30290  -12.78250   -7.69580    2.51560  -51.59470    0.20910
 5800.00000    9.14900    9.14900    0.25170  312.01250    0.05450    2.32870    0.22300    3.20500   59.32030   59.32030    3.26360    4.01690    3.56220    4.67450    3.20500    5.40190    3.56220    0.25170    4.91440    4.91440    0.22300  -16.39100  -10.72360    4.01690  -59.66410    0.05450
 5850.00000   11.25130   11.25130    0.04680    9.46410    0.28790    2.47800    0.13570  105.66270   15.58740   15.58740  686.23830   83.20530   66.17100   96.81250  105.66270  124.21240   66.17100    0.04680    5.03000    5.03000    0.13570  -27.37020  -21.12210   83.20530  133.82230    0.28790
 5900.00000    9.85560    9.85560    0.05310   29.92800    0.26340    2.41810    0.17070   33.41350   18.09940   18.09940   10.84480   26.25730   25.67340   39.58370   33.41350   51.82030   25.67340    0.05310    5.41350    5.41350    0.17070  -49.83410  -43.00520   26.25730   51.44960    0.26340
 5950.00000   11.15190   11.15190    0.05790    3.94970    0.26940    2.22400    0.28420  253.18590   14.70570   14.70570   26.78820   95.26150  171.69790  221.82120  253.18590  328.08410  171.69790    0.05790    4.81200    4.81200    0.28420  -27.36050  -19.95090   95.26150  -76.94010    0.26940
