~Version ---------------------------------------------------
VERS. 2.0 : CWLS log ASCII Standard -VERSION 2.0
WRAP.  NO : ONE LINE PER DEPTH STEP
~Well ------------------------------------------------------
STRT.F                    4000.0 : START DEPTH
STOP.F                    8700.0 : STOP DEPTH
STEP.F                  50.00000 : STEP LENGTH
NULL.                    -999.25 : NULL VALUE
COMP. CHAMPLIN PETROLEUM COMPANY : COMPANY
WELL.       ZGABAY MARY ANN A #1 : WELL
FLD .                   GIDDINGS : FIELD
LOC .                            : LOCATION
CNTY.                   BURLESON : COUNTY
STAT.                      TEXAS : STATE
CTRY.   UNITED STATES OF AMERICA : COUNTRY
SRVC.              Dresser Atlas : SERVICE COMPANY
DATE.                19-Jun-1981 : LOGDATE
API .             42051316070000 : API NUMBER
UWI .             42051316070000 : UNIQUE WELL ID
SLAT.WGS84         30.3539804174 : SURFACE LATITUDE
SLON.WGS84        -96.7440246116 : SURFACE LONGITUDE
~Curve Information -----------------------------------------
DEPT     .F                   : 
C-1      .PEC    91 831 00 00 : METHANE
C-2      .PEC    91 832 00 00 : ETHANE
C-3      .PEC    91 833 00 00 : PROPANE
C-4      .PEC    91 835 00 00 : BUTANE
OIL_FLUOR.UNITS  91 000 00 00 : OIL FLUORESCENCE
OIL_SHOW .UNITS  91 827 00 00 : OIL SHOW
ROP      .MIN/FT 91 810 00 00 : RATE OF PENETRATION
TGAS     .UNITS  91 830 00 00 : TOTAL GAS
~Params ----------------------------------------------------
PD  .                     GL : PERMANENT DATUM
EPD .FT                  303 : ELEVATION PERMANENT DATUM
LMF .                     KB : LOG MEASURED FROM
DAPD.FT                   19 : FEET ABOVE PERMANENT DATUM
DMF .                     KB : DRILLING MEASURED FROM
EKB .FT                  321 : KELLY BUSHING
EDF .FT                  320 : DRILLING FLOOR
EGL .FT                  303 : GROUND LEVEL
DATE.               06/19/81 : RUN DATE
RUN .                      1 : RUN NUMBER
DD  .FT                 8702 : DEPTH DRILLER
DL  .FT                    0 : DEPTH LOGGER
BLI .FT                 8674 : BOTTOM LOG INTERVAL
TLI .FT                 3938 : TOP LOG INTERVAL
CS  .IN                9.625 : CASING SIZE
CBD .FT                 3938 : CASING BOTTOM DRILLER
CBL .FT                 3938 : CASING BOTTOM LOGGER
BS  .IN                 8.75 : BIT SIZE
BSD .FT                 8702 : BIT SIZE AT DEPTH
DFT .                 BEN -X : DRILLING FLUID TYPE
DFD .                    9.3 : DRILLING FLUID DENSITY
DFV .                     37 : DRILLING FLUID VISCOSITY
DFPH.                      9 : DRILLING FLUID PH
DFL .                   12.5 : DRILLING FLUID LOSS
MSS .               FLOWLINE : MUD SAMPLE SOURCE
RMS .OHMM               1.93 : RESISTIVITY MUD SAMPLE
MST .DEGF                120 : MUD SAMPLE TEMPERATURE
RMF .OHMM               1.54 : RESISTIVITY MUD FILTRATE SAMPLE
MFST.DEGF                120 : MUD FILTRATE SAMPLE TEMPERATURE
RMC .OHMM               2.31 : RESISTIVITY MUD CAKE
MCST.DEGF                120 : MUD CAKE SAMPLE TEMPERATURE
MFSS.                   MEAS : MUD FILTRATE SAMPLE SOURCE
MCSS.                   MEAS : MUD CAKE SAMPLE SOURCE
RMB .OHMM               1.16 : RESISTIVITY MUD AT BHT
TCS .HRS                   6 : TIME CIRCULATED STOPPED
TLAB.HRS                   0 : TIME LOGGER AT BOTTOM
LUN .                   6245 : LOGGING UNIT NUMBER
LUL .                 LAREDO : LOGGING UNIT LOCATION
ENGI.               FAULKNER : RECORDING ENGINEER
WITN.                  VODAK : WITNESSED BY
CLNT.                A2DTECH : CLIENT CODE
ORIG.            2" 5" PRINT : ORIGIN OF DATA
UWI .         42051316070000 : UNIQUE WELL ID
DICO. A2D Technologies, Inc. : DIGITIZING COMPANY
OS  .                        : OTHER SERVICES
PWI .                        : PRIMARY WELL IDENTIFIER
R1  .                        : REMARKS 1
R2  .                        : REMARKS 2
LSRV.                        : LOG MNEMONIC
~Other -----------------------------------------------------
~ASCII -----------------------------------------------------
 4000.00000    0.06180    -999.25    -999.25    -999.25    -999.25    -999.25    0.48850    7.52410
 4050.00000    0.08380    -999.25    -999.25    -999.25    -999.25    -999.25    0.39490    7.17820
 4100.00000    0.05320    -999.25    -999.25    -999.25    -999.25    -999.25    0.26230    6.30710
 4150.00000    0.06670    -999.25    -999.25    -999.25    -999.25    -999.25    0.60190    6.88060
 4200.00000    0.09770    -999.25    -999.25    -999.25    -999.25    -999.25    0.34550   10.37330
 4250.00000    0.09730    -999.25    -999.25    -999.25    -999.25    -999.25    0.34910   11.57740
 4300.00000    0.09510    -999.25    -999.25    -999.25    -999.25    -999.25    0.43940   11.61140
 4350.00000    0.09970    -999.25    -999.25    -999.25    -999.25    -999.25    0.37040   10.97580
 4400.00000    0.09740    -999.25    -999.25    -999.25    -999.25    -999.25    0.68960   11.49080
 4450.00000    0.09600    -999.25    -999.25    -999.25    -999.25    -999.25    0.44920   11.39870
 4500.00000    0.08900    -999.25    -999.25    -999.25    -999.25    -999.25    1.75590    8.56540
 4550.00000    0.09810    -999.25    -999.25    -999.25    -999.25    -999.25    0.38960   11.11040
 4600.00000    0.05250    -999.25    -999.25    -999.25    -999.25    -999.25    0.94770    6.80360
 4650.00000    0.00460    -999.25    -999.25    -999.25    -999.25    -999.25    0.70810    3.46280
 4700.00000    0.04650    -999.25    -999.25    -999.25    -999.25    -999.25    0.77180    5.68090
 4750.00000    0.04670    -999.25    -999.25    -999.25    -999.25    -999.25    0.93660    5.52740
 4800.00000    0.04060    -999.25    -999.25    -999.25    0.62880    -999.25    0.87390    6.66220
 4850.00000    0.03920    -999.25    -999.25    -999.25    0.07530    -999.25    0.72440    5.51700
 4900.00000    -999.25    -999.25    -999.25    -999.25    0.15150    -999.25    -999.25    -999.25
 4950.00000    -999.25    -999.25    -999.25    -999.25    0.12120    -999.25    -999.25    -999.25
 5000.00000    -999.25    0.00440    0.00440    0.00440    0.05820    -999.25    -999.25    -999.25
 5050.00000    -999.25    0.00440    0.00380    0.00000    0.00410    -999.25    -999.25    -999.25
 5100.00000    -999.25    0.00440    0.00310    0.00000    0.05900    -999.25    -999.25    -999.25
 5150.00000    0.18850    0.00440    0.00250    0.00000    0.11380    -999.25    1.83900   19.31310
 5200.00000    0.14110    0.00440    0.00190    0.00000    0.16860    -999.25    2.08920   14.28390
 5250.00000    0.08960    0.00440    0.00130    0.00100    0.13410    -999.25    1.95680   10.27780
 5300.00000    0.06530    0.00440    0.00060    0.00210    0.09840    -999.25    1.85820    7.96910
 5350.00000    0.08610    0.00440    0.00000    0.00310    0.06270    -999.25    1.75850    8.21510
 5400.00000    0.08380    0.00440    0.00000    0.00410    0.02700    0.00000    2.79540    9.08440
 5450.00000    0.03910    0.00440    0.00000    0.00370    0.00000    0.00320    2.04590    4.48100
 5500.00000    0.04030    0.00440    0.00000    0.00270    0.00000    0.00640    2.02340    4.48350
 5550.00000    0.08280    0.00440    0.00000    0.00160    0.00000    0.00790    1.19320    7.05160
 5600.00000    0.08500    0.00440    0.00000    0.00060    0.00000    0.00650    1.64920    9.09160
 5650.00000    0.08660    0.00440    0.00000    0.00000    0.00000    0.00510    1.69850    9.97870
 5700.00000    0.08210    0.00630    0.00000    0.00000    0.00000    0.00360    1.11740    8.33290
 5750.00000    0.00000    0.01600    0.00000    0.00000    0.00000    0.00220    -999.25    -999.25
 5800.00000    0.10550    0.00840    0.00000    0.00000    0.00000    0.00080    0.83760    9.37960
 5850.00000    0.09590    0.00010    0.00000    0.00000    0.00000    0.00000    0.68730    8.40760
 5900.00000    0.09410   -0.00050    0.00000    0.00000    0.00000    0.00000    0.66980    8.80790
 5950.00000    0.10240    0.00090    0.00000    0.00000    0.00000    0.00000    1.27890    8.74340
 6000.00000    0.09580    0.00230    0.00000    0.00000    0.00000    0.00000    0.87850    9.01370
 6050.00000    0.14310    0.00370    0.00000    0.00000    0.00000    0.00000    0.84490   13.79970
 6100.00000    0.09100    0.00440    0.00000    0.00000    0.00000    0.00000    0.93310    8.79840
 6150.00000    0.14760    0.00440    0.00000    0.00000    0.00000    0.00000    1.26500   14.28150
 6200.00000    0.14390    0.00440    0.00000    0.00000    0.00000    0.00000    0.92580   14.29810
 6250.00000    0.14240    0.00440    0.00000    0.00000    0.00000    0.00000    0.96600   14.35510
 6300.00000    0.19330    0.00420    0.00000    0.00000    0.00000    0.00080    0.84830   16.33300
 6350.00000    0.18870    0.00280    0.00000    0.00000    0.00000    0.00230    1.25910   17.82100
 6400.00000    0.18690    0.00140    0.00000    0.00000    0.00000    0.00370    0.81730   18.79120
 6450.00000    0.19170    0.00000    0.00000    0.00000    0.00000    0.00510    0.98140   22.92500
 6500.00000    0.15750   -0.00130    0.00000    0.00000    0.00000    0.00660    1.04420   14.26720
 6550.00000    0.15700    0.00080    0.00000    0.00000    0.06030    0.00800    1.65490   13.74420
 6600.00000    0.20680    0.00350    0.00000    0.00000    0.12460    0.00420    1.32750   18.46020
 6650.00000    0.37460    0.01070    0.00000    0.00000    0.00000    0.00000    0.93080   38.27480
 6700.00000    0.16970   -0.01610    0.00000    0.00000    0.00000    0.00160    1.23790   13.98950
 6750.00000    0.20400   -0.01430    0.00000    0.00000    0.00000    0.00370    1.29440   18.99370
 6800.00000    0.49970   -0.00650    0.00000    0.00000    0.06700    0.00570    1.67230   47.89080
 6850.00000    0.08980    0.00130    0.00000    0.00000    0.14150    0.00780    1.47550    8.58710
 6900.00000    1.19330    0.19960    0.08720    0.00000    0.00000    0.00000    1.58250  118.76540
 6950.00000    0.51680    0.08150    0.19240    0.00000    0.00000    0.00000    1.79880   58.04320
 7000.00000    0.29240    0.00110    0.01630    0.00000    0.06510    0.00340    1.66950   29.34640
 7050.00000    0.39870   -0.00160    0.01250    0.00000    0.00000    0.00000    1.85420   38.93560
 7100.00000    0.57260   -0.00160    0.00870    0.00000    0.00000    0.00000    1.47630   48.10960
 7150.00000    0.67120   -0.00160    0.00480    0.00000    0.00000    0.00000    2.48810   64.21100
 7200.00000    0.41680   -0.00160    0.00100    0.00000    0.00000    0.00000    1.84860   48.12990
 7250.00000    0.38870   -0.00160    0.00000    0.00000    0.00000    0.00000    1.60200   39.41960
 7300.00000    0.39030   -0.00160    0.00000    0.00000    0.00000    0.00000    1.47910   36.36240
 7350.00000    0.30320   -0.00160    0.00000    0.00000    0.00000    0.00000    1.75470   36.16450
 7400.00000    0.28880   -0.00160    0.00000    0.00000    0.00000    0.00000    1.91410   38.65520
 7450.00000    0.40000   -0.00160    0.00000    0.00000    0.00000    0.00000    1.70800   38.53670
 7500.00000    0.35130   -0.00160    0.00000    0.00000    0.00000    0.00000    2.19510   33.44590
 7550.00000    0.44970   -0.00160    0.00000    0.00000    0.00000    0.00000    3.67660   40.47800
 7600.00000    0.50000   -0.00160    0.00000    0.00000    0.00000    0.00000    4.18830   49.88540
 7650.00000    0.30100   -0.00160    0.00000    0.00000    0.00000    0.00000    4.48240   29.47890
 7700.00000    0.30370   -0.00160    0.00000    0.00000    0.00000    0.00000    3.34300   29.63290
 7750.00000    0.40140   -0.00160    0.00000    0.00000    0.00000    0.00000    3.72050   38.72910
 7800.00000    0.40290    0.00120    0.00860    0.00040    0.00000    0.00000    3.17910   39.41730
 7850.00000    0.18960    0.00000    0.00000    0.00000    0.00960    0.00000    3.21490   18.64480
 7900.00000    0.39940    0.08850    0.00000    0.00380    0.06810    0.00000    3.17110   39.02370
 7950.00000    0.40280    0.09020    0.00440    0.00070    0.12660    0.00000    2.74040   38.69990
