~Version ---------------------------------------------------
VERS. 2.0 : CWLS log ASCII Standard -VERSION 2.0
WRAP. YES : MULTIPLE LINES PER DEPTH STEP
~Well ------------------------------------------------------
STRT.FT                  300.0 : START DEPTH
STOP.FT                 6700.0 : STOP DEPTH
STEP.FT               50.00000 : STEP LENGTH
NULL.                  -999.25 : NULL VALUE
COMP.           FAIR OIL, LTD. : COMPANY
WELL.     FRANK BRACEWELL #B-1 : WELL
FLD .                 PEARSALL : FIELD
LOC .                          : LOCATION
CNTY.                     FRIO : COUNTY
STAT.                    TEXAS : STATE
CTRY. UNITED STATES OF AMERICA : COUNTRY
SRVC.             Schlumberger : SERVICE COMPANY
DATE.              18-May-1976 : LOGDATE
API .           42163304780000 : API NUMBER
UWI .           42163304780000 : UNIQUE WELL ID
SLAT.WGS84       28.8111841725 : SURFACE LATITUDE
SLON.WGS84      -98.9018062562 : SURFACE LONGITUDE
~Curve Information -----------------------------------------
DEPT   .FT    : DEPTH FEET
ALL8ED .OHMM  : AMPLIFIED LATEROLOG 8
CALDED .IN    : CALIPER FROM DENSITY LOG [ADJ TO SPRED]
CALWS  .IN    : CALIPER [CALDED]
CILDED .MMHO  : CONDUCTIVITY FROM RESISTIVITY LOG
CONDWS .MMHO  : CONDUCTIVITY [1000/DRESWS]
CORRED .G/C3  : DENSITY CORRECTION FROM DENSITY LOG [ADJ TO SPRED]
DCORWS .G/C3  : DENSITY CORRECTION [CORRED]
DENWS  .G/C3  : BULK DENSITY [M=2.71 F=1.0] [RHOBED]
DPOWS  .V/V   : DENSITY POROSITY [M=2.71 F=1.0] [CALCULATED FROM DENWS]
DRESWS .OHMM  : DEEP RESISTIVITY [ILDED] IF ILDED<1;1000/CILDED;ELSE ILDED
GRDED  .GAPI  : GAMMA RAY FROM DENSITY LOG [ADJ TO SPRED]
GRNED  .CU    : GAMMA RAY FROM NEUTRON LOG [ADJ TO GRDED]
GRWS   .GAPI  : GAMMA RAY [SPL GRDED <5597F> GRNED <6150F GRDED, CSG @5597F-6150F]
ILDED  .OHMM  : INDUCTION LOG DEEP RESISTIVITY
NEUT1ED.CU    : NEUTRON FROM NEUTRON LOG [ADJ TO GRDED]
NEUTED .CU    : NEUTRON FROM NEUTRON LOG [ADJ TO GRDED]
NEUTWS .CU    : NEUTRON [NEUTED]
RHOBED .G/C3  : BULK DENSITY FROM DENSITY LOG [ADJ TO SPRED]
SPRED  .MV    : SPONTANEOUS POTENTIAL FROM RESISTIVITY LOG
SPWS   .MV    : SPONTANEOUS POTENTIAL [BASELINE 0 MV] [SPRED]
SRESWS .OHMM  : SHALLOW RESISTIVITY [ALL8ED]
~Params ----------------------------------------------------
PD  .                     GL : PERMANENT DATUM
EPD .FT                  468 : ELEVATION PERMANENT DATUM
LMF .                     KB : LOG MEASURED FROM
DAPD.FT                   11 : FEET ABOVE PERMANENT DATUM
DMF .                     KB : DRILLING MEASURED FROM
EKB .FT                  479 : KELLY BUSHING
EDF .FT                  478 : DRILLING FLOOR
EGL .FT                  468 : GROUND LEVEL
DATE.             05/18/1976 : RUN DATE
RUN .                      1 : RUN NUMBER
DD  .FT                 6750 : DEPTH DRILLER
DL  .FT                 6741 : DEPTH LOGGER
BLI .FT                 6735 : BOTTOM LOG INTERVAL
TLI .FT                  239 : TOP LOG INTERVAL
CS  .IN                8.625 : CASING SIZE
CBD .FT                  239 : CASING BOTTOM DRILLER
CBL .FT                  239 : CASING BOTTOM LOGGER
BS  .IN                7.875 : BIT SIZE
BSD .FT                 6750 : BIT SIZE AT DEPTH
DFT .              SPER TANN : DRILLING FLUID TYPE
DFD .                    9.5 : DRILLING FLUID DENSITY
DFV .                     46 : DRILLING FLUID VISCOSITY
DFPH.                     10 : DRILLING FLUID PH
DFL .                      8 : DRILLING FLUID LOSS
MSS .               FLOWLINE : MUD SAMPLE SOURCE
RMS .OHMM               1.35 : RESISTIVITY MUD SAMPLE
MST .DEGF                 98 : MUD SAMPLE TEMPERATURE
RMF .OHMM                1.3 : RESISTIVITY MUD FILTRATE SAMPLE
MFST.DEGF                 98 : MUD FILTRATE SAMPLE TEMPERATURE
RMC .OHMM                  1 : RESISTIVITY MUD CAKE
MCST.DEGF                 98 : MUD CAKE SAMPLE TEMPERATURE
MFSS.                   CALC : MUD FILTRATE SAMPLE SOURCE
MCSS.                   CALC : MUD CAKE SAMPLE SOURCE
RMB .OHMM               0.81 : RESISTIVITY MUD AT BHT
TCS .HRS                   3 : TIME CIRCULATED STOPPED
TLAB.HRS                   0 : TIME LOGGER AT BOTTOM
LUN .                   7720 : LOGGING UNIT NUMBER
LUL .                  PLEAS : LOGGING UNIT LOCATION
ENGI.                 POWELL : RECORDING ENGINEER
WITN.                 NELSON : WITNESSED BY
CLNT.                A2DTECH : CLIENT CODE
ORIG.               1" PRINT : ORIGIN OF DATA
UWI .         42163304780000 : UNIQUE WELL ID
DICO. A2D Technologies, Inc. : DIGITIZING COMPANY
OS  .                        : OTHER SERVICES
PWI .                        : PRIMARY WELL IDENTIFIER
R1  .                        : REMARKS 1
R2  .                        : REMARKS 2
LSRV.                        : LOG MNEMONIC
~Other -----------------------------------------------------
~ASCII -----------------------------------------------------
# ...
 1950.00000   40.13500    -999.25    -999.25   16.31670   19.28770    -999.25    -999.25    -999.25    -999.25   51.84660    -999.25    -999.25    -999.25   51.84660    -999.25    -999.25    -999.25    -999.25  -37.56230  -18.70930   40.13500
 2000.00000    7.31380    -999.25    -999.25  144.33460  140.57980    -999.25    -999.25    -999.25    -999.25    7.11340    -999.25    -999.25    -999.25    7.11340    -999.25    -999.25    -999.25    -999.25  -18.81810   -0.26530    7.31380
 2050.00000   27.78360    -999.25    -999.25   31.88600   30.21630    -999.25    -999.25    -999.25    -999.25   33.09470    -999.25    -999.25    -999.25   33.09470    -999.25    -999.25    -999.25    -999.25  -31.69250  -12.54660   27.78360
 2100.00000   37.19010    -999.25    -999.25   16.21120   19.78380    -999.25    -999.25    -999.25    -999.25   50.54640    -999.25    -999.25    -999.25   50.54640    -999.25    -999.25    -999.25    -999.25  -30.70380  -10.93710   37.19010
 2150.00000   19.80150    -999.25    -999.25   42.04300   45.15020    -999.25    -999.25    -999.25    -999.25   22.14830    -999.25    -999.25    -999.25   22.14830    -999.25    -999.25    -999.25    -999.25  -34.08940  -13.70200   19.80150
 2200.00000   10.02090    -999.25    -999.25  121.21740  111.71940    -999.25    -999.25    -999.25    -999.25    8.95100    -999.25    -999.25    -999.25    8.95100    -999.25    -999.25    -999.25    -999.25  -35.85710  -14.84900   10.02090
 2250.00000    4.05080    -999.25    -999.25  339.57340  300.83330    -999.25    -999.25    -999.25    -999.25    3.32410    -999.25    -999.25    -999.25    3.32410    -999.25    -999.25    -999.25    -999.25  -29.97570   -8.34680    4.05080
 2300.00000   14.52600    -999.25    -999.25   74.70820   71.42910    -999.25    -999.25    -999.25    -999.25   13.99990    -999.25    -999.25    -999.25   13.99990    -999.25    -999.25    -999.25    -999.25  -37.91070  -15.66110   14.52600
 2350.00000   19.29300    -999.25    -999.25   80.04460   68.31210    -999.25    -999.25    -999.25    -999.25   14.63870    -999.25    -999.25    -999.25   14.63870    -999.25    -999.25    -999.25    -999.25  -38.88640  -16.01600   19.29300
 2400.00000   18.29450    -999.25    -999.25   60.62920   59.29020    -999.25    -999.25    -999.25    -999.25   16.86620    -999.25    -999.25    -999.25   16.86620    -999.25    -999.25    -999.25    -999.25  -33.57250  -10.08140   18.29450
 2450.00000   16.99210    -999.25    -999.25   62.74620   62.87840    -999.25    -999.25    -999.25    -999.25   15.90370    -999.25    -999.25    -999.25   15.90370    -999.25    -999.25    -999.25    -999.25  -34.48120  -10.36940   16.99210
 2500.00000    5.42600    -999.25    -999.25  221.83690  218.92380    -999.25    -999.25    -999.25    -999.25    4.56780    -999.25    -999.25    -999.25    4.56780    -999.25    -999.25    -999.25    -999.25  -44.08230  -19.34970    5.42600
 2550.00000    5.66480    -999.25    -999.25  176.84900  191.22290    -999.25    -999.25    -999.25    -999.25    5.22950    -999.25    -999.25    -999.25    5.22950    -999.25    -999.25    -999.25    -999.25  -44.02150  -18.66820    5.66480
 2600.00000    2.97400    -999.25    -999.25  410.45410  421.88750    -999.25    -999.25    -999.25    -999.25    2.37030    -999.25    -999.25    -999.25    2.37030    -999.25    -999.25    -999.25    -999.25  -36.47160  -10.49760    2.97400
 2650.00000   10.91710    -999.25    -999.25  102.27960  104.09840    -999.25    -999.25    -999.25    -999.25    9.60630    -999.25    -999.25    -999.25    9.60630    -999.25    -999.25    -999.25    -999.25  -42.79340  -16.19860   10.91710
 2700.00000    5.14930    -999.25    -999.25  207.19260  218.37400    -999.25    -999.25    -999.25    -999.25    4.57930    -999.25    -999.25    -999.25    4.57930    -999.25    -999.25    -999.25    -999.25  -43.02510  -15.80960    5.14930
 2750.00000    6.27100    -999.25    -999.25  168.40560  180.07640    -999.25    -999.25    -999.25    -999.25    5.55320    -999.25    -999.25    -999.25    5.55320    -999.25    -999.25    -999.25    -999.25  -44.90020  -17.06400    6.27100
 2800.00000   11.81140    9.37790    9.37790  100.52300   93.03880    0.03400    0.03400    2.16280    0.32000   10.74820   51.66870    -999.25   51.66870   10.74820    -999.25    -999.25    -999.25    2.16280  -44.02850  -15.57150   11.81140
 2850.00000   13.70400    9.42870    9.42870   74.28960   77.08730    0.04330    0.04330    2.17360    0.31370   12.97230   60.70500    -999.25   60.70500   12.97230    -999.25    -999.25    -999.25    2.17360  -42.67240  -13.59470   13.70400
 2900.00000    6.27650    9.98030    9.98030  184.69820  187.61370    0.03460    0.03460    2.24140    0.27400    5.33010   78.38910    -999.25   78.38910    5.33010    -999.25    -999.25    -999.25    2.24140  -41.25660  -11.55820    6.27650
 2950.00000   16.10790   10.48180   10.48180   92.79620   81.07340    0.08420    0.08420    2.08400    0.36610   12.33450   52.94670    -999.25   52.94670   12.33450    -999.25    -999.25    -999.25    2.08400  -39.20570   -8.88650   16.10790
 3000.00000    9.61180    9.49980    9.49980   95.87000   95.07870    0.00510    0.00510    2.18460    0.30730   10.51760   54.78290    -999.25   54.78290   10.51760    -999.25    -999.25    -999.25    2.18460  -40.51660   -9.77650    9.61180
 3050.00000   15.84650    9.48900    9.48900   79.00320   78.08720    0.00450    0.00450    2.17780    0.31120   12.80620   61.80710    -999.25   61.80710   12.80620    -999.25    -999.25    -999.25    2.17780  -40.14670   -9.02940   15.84650
 3100.00000   16.17030    9.10120    9.10120   94.85230  101.54350   -0.00050   -0.00050    2.17320    0.31390    9.84800   57.60550    -999.25   57.60550    9.84800    -999.25    -999.25    -999.25    2.17320  -40.25220   -8.75780   16.17030
 3150.00000    6.29480   11.62810   11.62810  157.80610  170.57860    0.12020    0.12020    2.17470    0.31300    5.86240   88.04780    -999.25   88.04780    5.86240    -999.25    -999.25    -999.25    2.17470  -40.84580   -8.97430    6.29480
 3200.00000    9.42390    9.41720    9.41720  122.47370  119.05190    0.05650    0.05650    2.20520    0.29520    8.39970   52.08490    -999.25   52.08490    8.39970    -999.25    -999.25    -999.25    2.20520  -43.01240  -10.76370    9.42390
 3250.00000   25.13140    9.41200    9.41200   71.98130   70.73140    0.03050    0.03050    2.23420    0.27820   14.13800   39.49480    -999.25   39.49480   14.13800    -999.25    -999.25    -999.25    2.23420  -41.65370   -9.02790   25.13140
 3300.00000   12.77220   10.04990   10.04990   92.81050   97.69440    0.10560    0.10560    2.15620    0.32390   10.23600   46.15290    -999.25   46.15290   10.23600    -999.25    -999.25    -999.25    2.15620  -44.27690  -11.27400   12.77220
 3350.00000    4.68300    8.62730    8.62730  203.68940  210.78810    0.14300    0.14300    2.37610    0.19530    4.74410   96.24310    -999.25   96.24310    4.74410    -999.25    -999.25    -999.25    2.37610  -36.63860   -3.25860    4.68300
 3400.00000    3.37020   10.57980   10.57980  298.62560  343.53630    0.19420    0.19420    2.23680    0.27670    2.91090   87.01630    -999.25   87.01630    2.91090    -999.25    -999.25    -999.25    2.23680  -35.11370   -1.81560    3.37020
 3450.00000    4.86180    8.12420    8.12420  227.42900  248.44720    0.02090    0.02090    2.26890    0.25800    4.02500   89.74170    -999.25   89.74170    4.02500    -999.25    -999.25    -999.25    2.26890  -38.71310   -5.52610    4.86180
 3500.00000    2.85300   10.13150   10.13150  371.24650  412.28610    0.02990    0.02990    2.41960    0.16980    2.42550   91.16760    -999.25   91.16760    2.42550    -999.25    -999.25    -999.25    2.41960  -34.44790   -1.37210    2.85300
 3550.00000    2.00190   11.26790   11.26790  647.31480  654.62160    0.03200    0.03200    2.38140    0.19220    1.52760   99.85800    -999.25   99.85800    1.52760    -999.25    -999.25    -999.25    2.38140  -34.56450   -1.59990    2.00190
