~Version ---------------------------------------------------
VERS. 2.0 : CWLS log ASCII Standard -VERSION 2.0
WRAP.  NO : ONE LINE PER DEPTH STEP
~Well ------------------------------------------------------
STRT.F                     2700.0 : START DEPTH
STOP.F                    11400.0 : STOP DEPTH
STEP.F                   50.00000 : STEP LENGTH
NULL.                     -999.25 : NULL VALUE
COMP. AMMEX PETROLEUM CORPORATION : COMPANY
WELL.                 RIT UNIT #1 : WELL
FLD .                    GIDDINGS : FIELD
LOC .                             : LOCATION
CNTY.                     FAYETTE : COUNTY
STAT.                       TEXAS : STATE
CTRY.    UNITED STATES OF AMERICA : COUNTRY
SRVC.                             : SERVICE COMPANY
DATE.                             : LOGDATE
API .              42149304080000 : API NUMBER
UWI .              42149304080000 : UNIQUE WELL ID
SLAT.WGS84          30.0139715869 : SURFACE LATITUDE
SLON.WGS84         -96.8486473934 : SURFACE LONGITUDE
~Curve Information -----------------------------------------
DEPT.F                 : 
CALI.IN   07 280 01 00 : CALIPER
ASN .OHMM 07 041 16 00 : AMPLIFIED SN 16"
NPHI.DEC  42 890 01 00 : LIME-DEC
DRHO.G/C3 45 356 01 00 : 
DCAL.IN   45 280 60 00 : DIFFERENTIAL CALI
DPHI.DEC  45 890 10 00 : LIMESTONE
GR  .GAPI 45 310 01 00 : GAMMA RAY
SFLU.OHMM 07 220 01 00 : SPHERICAL FOCUSED  UNAVERAGED
ILM .OHMM 07 120 44 00 : 
ILD .OHMM 07 120 46 00 : DEEP INDUCTION RESISTIVITY
SP  .MV   07 010 01 00 : 
~Params ----------------------------------------------------
EKB .F                    0.0 : KELLY BUSHING
EGL .F                    0.0 : GROUND LEVEL
EDF .F                    0.0 : DRILLING FLOOR
EPD .F                    416 : ELEVATION PERMANENT DATUM
TD  .F                11425.0 : TOTAL DEPTH
DATE.             05-DEC-1979 : DATE LOGGED
CLNT.                 A2DTECH : CLIENT CODE
SL  . 2850' FSWL & 3900' FNWL : SURFACE LOCATION
PD  .                      GL : PERMANENT DATUM
LMF .                      KB : LOG MEASURED FROM
DMF .                      KB : DRILLING MEASURED FROM
DAPD.F                     15 : FEET ABOVE PERMANENT DATUM
DD  .F                  11425 : DEPTH DRILLER
DL  .F                  11424 : DEPTH LOGGER
BLI .F                  11418 : BOTTOM LOG INTERVAL
TLI .F                   9818 : TOP LOG INTERVAL
CS1 .IN                     7 : CASING SIZE
CBD1.             7" @  9828' : CASING DRILLER 1
CBL1.F                   9818 : CASING LOGGER 1
BS1 .IN                 6.125 : BIT SIZE
BSD1.F                  11425 : DEPTH DRILLED WITH BIT1
DFT .              FW/GEL/LIQ : TYPE FLUID IN HOLE
DFD .                    10.7 : DENSITY
DFV .                      44 : VISCOSITY
DFPH.                     9.5 : PH
DFL .                     8.2 : FLUID LOSS
MSS .                    CIRC : SOURCE OF SAMPLE
RMS .OHMM                1.35 : RM
RMF .OHMM                 1.8 : RMF
RMC .OHMM                 2.0 : RMC
MFSS.                    MEAS : SOURCE RMF.
MCSS.                    CALC : SOURCE RMC.
RMB .OHMM                0.56 : RM. AT BHT
BHT .F                    249 : BHT.
TCS .HRS                 1500 : TIME CIRC. STOPPED
TLAB.                    2100 : TIME LOGGER AT BOTTOM
LUN .                    8101 : LOGGING UNIT NUMBER
LUL .                 BRENHAM : LOGGING UNIT LOCATION
ENGI.                  WRIGHT : RECORDED BY
WITN.             GOFF/BISHOP : WITNESSED BY
ORIG.                5" PRINT : ORIGIN OF DATA
UWI .          42149304080000 : UNIQUE WELL ID
DICO.  A2D TECHNOLOGIES, INC. : DIGITIZING COMPANY
~Other -----------------------------------------------------
~ASCII -----------------------------------------------------
# ...
 8800.00000   13.55700    1.85400    -999.25    -999.25    -999.25    -999.25    -999.25    -999.25    -999.25    1.76300  -15.84600
 8850.00000   15.11800    1.61300    -999.25    -999.25    -999.25    -999.25    -999.25    -999.25    -999.25    1.42300  -14.88000
 8900.00000   15.03600    1.63400    -999.25    -999.25    -999.25    -999.25    -999.25    -999.25    -999.25    1.37800  -19.12400
 8950.00000   14.20300    1.66300    -999.25    -999.25    -999.25    -999.25    -999.25    -999.25    -999.25    1.53000  -14.46800
 9000.00000   11.96900    1.87000    -999.25    -999.25    -999.25    -999.25    -999.25    -999.25    -999.25    1.96000  -11.36800
 9050.00000   12.32900    1.98700    -999.25    -999.25    -999.25    -999.25    -999.25    -999.25    -999.25    1.67500  -13.34400
 9100.00000   14.56600    1.47700    -999.25    -999.25    -999.25    -999.25    -999.25    -999.25    -999.25    1.37500  -30.44400
 9150.00000   13.01900    2.03200    -999.25    -999.25    -999.25    -999.25    -999.25    -999.25    -999.25    1.83200  -21.64600
 9200.00000   13.23600    2.09500    -999.25    -999.25    -999.25    -999.25    -999.25    -999.25    -999.25    2.03900  -27.25600
 9250.00000   11.70700    2.21100    -999.25    -999.25    -999.25    -999.25    -999.25    -999.25    -999.25    2.01800  -22.62200
 9300.00000   13.04000    1.82900    -999.25    -999.25    -999.25    -999.25    -999.25    -999.25    -999.25    1.75400  -35.74200
 9350.00000   10.66500    2.15200    -999.25    -999.25    -999.25    -999.25    -999.25    -999.25    -999.25    1.94600  -14.04400
 9400.00000    9.93200    5.13700    -999.25    -999.25    -999.25    -999.25    -999.25    -999.25    -999.25    5.30200  -22.90600
 9450.00000   10.08100    3.37900    -999.25    -999.25    -999.25    -999.25    -999.25    -999.25    -999.25    3.06700   -8.51200
 9500.00000    9.77600    3.82000    -999.25    -999.25    -999.25    -999.25    -999.25    -999.25    -999.25    3.31100   -6.30000
 9550.00000    9.76000    3.50600    -999.25    -999.25    -999.25    -999.25    -999.25    -999.25    -999.25    3.18800   -9.63200
 9600.00000    9.58800    2.62400    -999.25    -999.25    -999.25    -999.25    -999.25    -999.25    -999.25    2.56400   -9.45400
 9650.00000    9.31400    3.06500    -999.25    -999.25    -999.25    -999.25    -999.25    -999.25    -999.25    2.54700   -3.90200
 9700.00000    9.16300    2.52800    -999.25    -999.25    -999.25    -999.25    -999.25    -999.25    -999.25    2.13100    2.51400
 9750.00000    8.88900    3.43400    -999.25    -999.25    -999.25    -999.25    -999.25    -999.25    -999.25    2.90300    4.30600
 9800.00000    7.58200    7.31500    -999.25    -999.25    -999.25    -999.25    -999.25    -999.25    -999.25    6.73900    3.56400
 9850.00000    -999.25    -999.25    0.06400    0.02400    1.40800    0.04000   33.37700   12.08400    8.84000    8.85800    6.86800
 9900.00000    -999.25    -999.25    0.07300    0.01600    1.19600    0.07600    -999.25   13.55900    9.50000   13.83600   -3.16600
 9950.00000    -999.25    -999.25    0.06500    0.02400    1.33300    0.03300    -999.25    9.58300   10.18800   10.77700   -2.53100
 10000.00000    -999.25    -999.25    0.06300    0.00900    1.38300    0.04700   25.25400   18.62000   14.96900   14.83900   -8.58600
 10050.00000    -999.25    -999.25    0.22500   -0.03900    1.04400    0.22800   39.72400    5.19300    6.09900    6.19200    1.50500
 10100.00000    -999.25    -999.25    0.04900    0.02600    1.01800    0.06000   40.88000    9.37000    7.40500    8.20300    2.94300
 10150.00000    -999.25    -999.25    0.05000    0.00500    1.24500    0.03400   34.30400   12.82700    9.96100   10.43500    0.71000
 10200.00000    -999.25    -999.25    0.06600    0.02100    1.14000    0.03700   45.40200    8.11600    7.09900    6.99500    4.31500
 10250.00000    -999.25    -999.25    0.09000   -0.00500    0.98600    0.10000   52.61300    9.21400    6.25200    5.85800    2.58500
 10300.00000    -999.25    -999.25    0.10500   -0.00100    0.96300    0.07400   39.73000    7.30800    7.73700    8.08100   -1.17700
 10350.00000    -999.25    -999.25    0.05700    0.02700    0.66100    0.02100   47.60600   16.37100   14.07900   12.96600    0.21700
 10400.00000    -999.25    -999.25    0.05000    0.03000    0.17300    0.04100   39.87200   42.07800   25.29200   22.97700   -1.36600
 10450.00000    -999.25    -999.25    0.05000    0.01300    0.18000    0.05500   37.99200  111.86000   37.74900   36.01700    0.96900
 10500.00000    -999.25    -999.25    0.07800    0.01600   -0.06100    0.06000   37.84500   24.21500   19.89000   23.69100   -4.04700
 10550.00000    -999.25    -999.25    0.08000   -0.00200   -0.23800    0.06100   42.88900   43.96100   25.73000   25.84400    2.48700
 10600.00000    -999.25    -999.25    0.38500    0.09600    -999.25    0.28800   82.64900    3.19900    2.08500    2.38600   -0.23000
 10650.00000    -999.25    -999.25    0.32700    0.07800    6.50300    0.23900   91.53900    3.67000    1.96600    2.01900    5.93500
 10700.00000    -999.25    -999.25    0.15100    0.01900    1.48100    0.03800   59.92600    5.86800    4.84200    4.76400    4.22600
 10750.00000    -999.25    -999.25    0.02400    0.00800    1.27900    0.01400   26.53600   56.25100   64.45200   58.06600   -7.33000
 10800.00000    -999.25    -999.25    0.02900    0.04700    1.28700    0.02900   27.33400   36.33600   34.71600   44.19800   -0.80700
 10850.00000    -999.25    -999.25    0.03500    0.06700    0.79900   -0.00300   23.95200   28.83700   25.84400   27.03700   -2.40700
 10900.00000    -999.25    -999.25    0.01500    0.09400    1.71200    0.02400   26.32100   77.11400   87.43000  105.13200  -18.61400
 10950.00000    -999.25    -999.25    0.05600    0.01700    0.84000    0.01000   80.47000   13.77000   12.08600   12.67100    9.90100
 11000.00000    -999.25    -999.25    0.03600    0.02500    0.86500    0.00100   49.30200   16.88800   13.87000   14.26300    4.15600
 11050.00000    -999.25    -999.25    0.03200    0.00800    0.30300    0.01100   44.87000   23.67600   13.25900   14.26400    2.44300
 11100.00000    -999.25    -999.25    0.01100    0.04400    0.53800   -0.02000   33.39100   64.10100   46.37300   59.51600   -6.20100
 11150.00000    -999.25    -999.25    0.04300    0.00400   -0.04900    0.01600   48.63400   19.47100   14.93100   14.64600    6.65300
 11200.00000    -999.25    -999.25    0.03600    0.01800   -0.14600    0.00900   45.56200   19.41800   14.06200   14.27400   -0.32100
 11250.00000    -999.25    -999.25    0.05300    0.02000   -0.19700    0.02100   48.34400   20.09000   15.84900   16.68900   -1.71200
 11300.00000    -999.25    -999.25    0.02600    0.02100   -0.22000   -0.02100   30.70800   72.70700   43.63800   40.38800   10.89100
 11350.00000    -999.25    -999.25    0.02900    0.05000   -0.45900    0.02300   30.15300   41.52500   19.35800   16.13800 -128.24000
 11400.00000    -999.25    -999.25    -999.25    -999.25   -1.17400    0.01800    -999.25   30.82100   32.65400   21.02300  -50.34500
