~Version ---------------------------------------------------
VERS. 2.0 : CWLS log ASCII Standard -VERSION 2.0
WRAP. YES : MULTIPLE LINES PER DEPTH STEP
~Well ------------------------------------------------------
STRT.FT                   950.0 : START DEPTH
STOP.FT                  8250.0 : STOP DEPTH
STEP.FT                50.00000 : STEP LENGTH
NULL.                   -999.25 : NULL VALUE
COMP. PRAIRIE PRODUCING COMPANY : COMPANY
WELL.       SPETTEL BENDELE  #1 : WELL
FLD .                        WC : FIELD
LOC .                           : LOCATION
CNTY.                      FRIO : COUNTY
STAT.                     TEXAS : STATE
CTRY.  UNITED STATES OF AMERICA : COUNTRY
SRVC.              Schlumberger : SERVICE COMPANY
DATE.               05-Sep-1976 : LOGDATE
API .            42163306230000 : API NUMBER
UWI .            42163306230000 : UNIQUE WELL ID
SLAT.WGS84        28.6473106988 : SURFACE LATITUDE
SLON.WGS84       -98.9591866936 : SURFACE LONGITUDE
~Curve Information -----------------------------------------
DEPT    .FT    : DEPTH FEET
CALDED  .IN    : CALIPER FROM DENSITY LOG [DEP ADJ TO SPRED]
CALWS   .IN    : CALIPER [CALDED]
CONDWS  .MMHO  : CONDUCTIVITY [1000/DRESWS]
CORRED  .G/C3  : DENSITY CORRECTION FROM DENSITY LOG [DEP ADJ TO SPRED]
DCORWS  .G/C3  : DENSITY CORRECTION [CORRED]
DENWS   .G/C3  : BULK DENSITY [M=2.71 F=1.0] [RHOBED]
DPHILSED.V/V   : DENSITY POROSITY [M=2.71 F=1.0] FROM DENSITY LOG [DEP ADJ TO SPRED]
DPHISSED.V/V   : DENSITY POROSITY [M=2.65 F=1.0, MIGHT BE 2.68 MIDDLE SECTION] FROM DENSITY LOG [DEP ADJ TO SPRED]
DPOLSWS .V/V   : DENSITY POROSITY [M=2.71 F=1.0] [CAL FR DENWS]
DRESWS  .OHMM  : DEEP RESISTIVITY [ILDED]
GRDED   .GAPI  : GAMMA RAY FROM DENSITY LOG [DEP ADJ TO SPRED]
GRWS    .GAPI  : GAMMA RAY [GRDED]
ILDED   .OHMM  : INDUCTION LOG DEEP RESISTIVITY
ILMED   .OHMM  : INDUCTION LOG MEDIUM RESISTIVITY
LL8ED   .OHMM  : 8 INCH LATEROLOG RESISTIVITY
MRESWS  .OHMM  : MEDIUM RESISTIVITY [ILMED]
NPHILSED.V/V   : NEUTRON POROSITY LIMESTONE FROM DENSITY LOG [DEP ADJ TO SPRED]
NPHISSED.V/V   : NEUTRON POROSITY SANDSTONE FROM DENSITY LOG [DEP ADJ TO SPRED]
NPOLSWS .V/V   : NEUTRON POROSITY LIMESTONE [901 NPOLSCAL 7482 NPHILSED][NPHISSED IS CONVERTED TO NPOLSCAL USING POWERLOG MODULE]
RHOBED  .G/C3  : BULK DENSITY FROM DENSITY LOG [DEP ADJ TO SPRED/DPHIED]
SPRED   .MV    : SPONTANEOUS POTENTIAL FROM RESISTIVITY LOG
SPWS    .MV    : SPONTANEOUS POTENTIAL [BASELINE 0 MV] [SPRED]
SRESWS  .OHMM  : SHALLOW RESISTIVITY [LL8ED]
~Params ----------------------------------------------------
PD  .                     GL : PERMANENT DATUM
EPD .FT                446.5 : ELEVATION PERMANENT DATUM
LMF .                     KB : LOG MEASURED FROM
DAPD.FT                 13.2 : FEET ABOVE PERMANENT DATUM
DMF .                     KB : DRILLING MEASURED FROM
EKB .FT                459.7 : KELLY BUSHING
EDF .FT                458.7 : DRILLING FLOOR
EGL .FT                446.5 : GROUND LEVEL
DATE.               09/05/76 : RUN DATE
RUN .                      1 : RUN NUMBER
DD  .FT                 8269 : DEPTH DRILLER
DL  .FT                 8262 : DEPTH LOGGER
BLI .FT                 8261 : BOTTOM LOG INTERVAL
TLI .FT                  935 : TOP LOG INTERVAL
CS  .IN                9.625 : CASING SIZE
CBD .FT                  925 : CASING BOTTOM DRILLER
CBL .FT                  935 : CASING BOTTOM LOGGER
BS  .IN                  8.5 : BIT SIZE
BSD .FT                 8269 : BIT SIZE AT DEPTH
DFT .              SPER TANN : DRILLING FLUID TYPE
DFD .                   10.2 : DRILLING FLUID DENSITY
DFV .                     43 : DRILLING FLUID VISCOSITY
DFPH.                     10 : DRILLING FLUID PH
DFL .                    5.8 : DRILLING FLUID LOSS
MSS .               FLOWLINE : MUD SAMPLE SOURCE
RMS .OHMM               1.52 : RESISTIVITY MUD SAMPLE
MST .FT                   94 : MUD SAMPLE TEMPERATURE
RMF .OHMM               1.39 : RESISTIVITY MUD FILTRATE SAMPLE
MFST.FT                   78 : MUD FILTRATE SAMPLE TEMPERATURE
RMC .OHMM               1.43 : RESISTIVITY MUD CAKE
MCST.FT                   94 : MUD CAKE SAMPLE TEMPERATURE
MFSS.                   MEAS : MUD FILTRATE SAMPLE SOURCE
MCSS.                  CHART : MUD CAKE SAMPLE SOURCE
RMB .OHMM                0.8 : RESISTIVITY MUD AT BHT
TCS .HRS                2200 : TIME CURCULATED STOPPED
TLAB.HRS                 930 : TIME LOGGER AT BOTTOM
LUN .                   7799 : LOGGING UNIT NUMBER
LUL .                  PLEAS : LOGGING UNIT LOCATION
ENGI.               BREVETTI : RECORDING ENGINEER
WITN.               MR SMITH : WITNESSED BY
CLNT.                A2DTECH : CLIENT CODE
ORIG.           5" 25" PRINT : ORIGIN OF DATA
UWI .         42163306230000 : UNIQUE WELL ID
DICO. A2D Technologies, Inc. : DIGITIZING COMPANY
~Other -----------------------------------------------------
~ASCII -----------------------------------------------------
# ...
 2500.00000    9.89430    9.89430   76.98050    0.12300    0.12300    2.24670    -999.25    0.24270    0.27090   12.99030   63.46950   63.46950   12.99030   10.95580   14.38080   10.95580    -999.25    0.42960    0.38740    2.24670  -18.55030   -7.41390   14.38080
 2550.00000    8.60050    8.60050   28.35430    0.06760    0.06760    2.12780    -999.25    0.32200    0.34050   35.26800   33.48080   33.48080   35.26800   28.54910   24.13610   28.54910    -999.25    0.39120    0.34820    2.12780  -15.64000   -4.14300   24.13610
 2600.00000    9.05230    9.05230  182.01010    0.17020    0.17020    2.35290    -999.25    0.16320    0.20880    5.49420   92.38870   92.38870    5.49420    5.09680    6.03800    5.09680    -999.25    0.43040    0.38820    2.35290  -17.19150   -5.33390    6.03800
 2650.00000    8.54290    8.54290   40.54490    0.07730    0.07730    2.18350    -999.25    0.28500    0.30790   24.66400   45.08520   45.08520   24.66400   20.71740   19.69990   20.71740    -999.25    0.37350    0.33020    2.18350  -20.24380   -8.02560   19.69990
 2700.00000    8.83460    8.83460   90.23970    0.09940    0.09940    2.21920    -999.25    0.26540    0.28700   11.08160   63.14640   63.14640   11.08160   10.11780    9.74170   10.11780    -999.25    0.41020    0.36750    2.21920  -20.91990   -8.34110    9.74170
 2750.00000    8.45030    8.45030   59.75360    0.09600    0.09600    2.19380    -999.25    0.28110    0.30190   16.73540   47.52420   47.52420   16.73540   14.62360   13.17610   14.62360    -999.25    0.36400    0.32050    2.19380  -20.78140   -7.87320   13.17610
 2800.00000    9.13330    9.13330  265.81600    0.02120    0.02120    2.38320    -999.25    0.15870    0.19110    3.76200   83.27640   83.27640    3.76200    3.48300    5.27110    3.48300    -999.25    0.41060    0.36790    2.38320  -18.68120   -5.63500    5.27110
 2850.00000    8.79010    8.79010  245.73650    0.06210    0.06210    2.28970    -999.25    0.22330    0.24580    4.06940   71.51830   71.51830    4.06940    3.68930    4.45520    3.68930    -999.25    0.36650    0.32310    2.28970  -21.93970   -8.75560    4.45520
 2900.00000   10.25560   10.25560  393.34460    0.07030    0.07030    2.29600    -999.25    0.21440    0.24210    2.54230   79.56730   79.56730    2.54230    2.46420    3.05380    2.46420    -999.25    0.42240    0.38000    2.29600  -18.96560   -5.64350    3.05380
 2950.00000    9.07640    9.07640  443.24280    0.07400    0.07400    2.33120    -999.25    0.19410    0.22150    2.25610   66.12000   66.12000    2.25610    2.08580    2.69600    2.08580    -999.25    0.40240    0.35960    2.33120  -23.51380  -10.05370    2.69600
 3000.00000    8.72200    8.72200  143.30340    0.09760    0.09760    2.28300    -999.25    0.22050    0.24970    6.97820   58.94040   58.94040    6.97820    6.66390    6.78860    6.66390    -999.25    0.40750    0.36480    2.28300  -29.33790  -15.73990    6.78860
 3050.00000    9.08290    9.08290  272.48700    0.08810    0.08810    2.29430    -999.25    0.21850    0.24310    3.66990   81.80580   81.80580    3.66990    3.85360    4.40920    3.85360    -999.25    0.38810    0.34500    2.29430  -26.00570  -12.26970    4.40920
 3100.00000    8.70520    8.70520  122.17470    0.04350    0.04350    2.19790    -999.25    0.28740    0.29950    8.18500   44.31710   44.31710    8.18500    8.62610   10.59340    8.62610    -999.25    0.39260    0.34960    2.19790  -37.15320  -23.27930   10.59340
 3150.00000    8.82690    8.82690  215.22040    0.08480    0.08480    2.34870    -999.25    0.18890    0.21130    4.64640   88.05370   88.05370    4.64640    4.40700    5.42410    4.40700    -999.25    0.39920    0.35630    2.34870  -26.24090  -12.22900    5.42410
 3200.00000    9.71470    9.71470  449.45840    0.13120    0.13120    2.34260    -999.25    0.19150    0.21490    2.22490   86.11090   86.11090    2.22490    2.12380    2.61580    2.12380    -999.25    0.43120    0.38900    2.34260  -21.35890   -7.20900    2.61580
 3250.00000    9.26780    9.26780  413.85590    0.11770    0.11770    2.39070    -999.25    0.15840    0.18670    2.41630   89.75700   89.75700    2.41630    2.36660    2.95890    2.36660    -999.25    0.44620    0.40440    2.39070  -18.24310   -3.85060    2.95890
 3300.00000    9.08010    9.08010  306.62620    0.06760    0.06760    2.36730    -999.25    0.17300    0.20040    3.26130   89.84100   89.84100    3.26130    3.46100    4.03320    3.46100    -999.25    0.38770    0.34460    2.36730  -22.20230   -7.54260    4.03320
 3350.00000   10.06530   10.06530  319.92830    0.07880    0.07880    2.38510    -999.25    0.15460    0.19000    3.12570   89.38130   89.38130    3.12570    3.01360    3.98880    3.01360    -999.25    0.38970    0.34660    2.38510  -20.28790   -5.36100    3.98880
 3400.00000    9.29020    9.29020  212.30070    0.06600    0.06600    2.26140    -999.25    0.24150    0.26230    4.71030   69.65020   69.65020    4.71030    5.36120    7.44920    5.36120    -999.25    0.37100    0.32760    2.26140  -39.81820  -24.62420    7.44920
 3450.00000    9.58830    9.58830  351.32100    0.11910    0.11910    2.35160    -999.25    0.19060    0.20960    2.84640   79.90450   79.90450    2.84640    2.60340    3.72560    2.60340    -999.25    0.43400    0.39190    2.35160  -22.43690   -6.97570    3.72560
 3500.00000    9.17960    9.17960  161.10320    0.04990    0.04990    2.26230    -999.25    0.22800    0.26180    6.20720   62.71270   62.71270    6.20720    7.09650    9.76430    7.09650    -999.25    0.37340    0.33010    2.26230  -42.79870  -27.07030    9.76430
 3550.00000    9.22560    9.22560  152.11210    0.17350    0.17350    2.32580    -999.25    0.19300    0.22470    6.57410   62.74150   62.74150    6.57410    6.92320    8.43530    6.92320    -999.25    0.38500    0.34180    2.32580  -36.36000  -20.36440    8.43530
 3600.00000    9.85810    9.85810  285.74690    0.13290    0.13290    2.34410    -999.25    0.18830    0.21400    3.49960   87.04540   87.04540    3.49960    3.78890    4.48200    3.78890    -999.25    0.37180    0.32840    2.34410  -24.44550   -8.18270    4.48200
 3650.00000   10.19370   10.19370  224.86060    0.09280    0.09280    2.39040    -999.25    0.15850    0.18690    4.44720   80.77900   80.77900    4.44720    4.73440    5.80650    4.73440    -999.25    0.35950    0.31600    2.39040  -26.51830  -10.08590    5.80650
 3700.00000    9.08550    9.08550  158.64450    0.13460    0.13460    2.24400    -999.25    0.24470    0.27250    6.30340   66.24850   66.24850    6.30340    6.64700    8.21460    6.64700    -999.25    0.40460    0.36180    2.24400  -39.62380  -23.22920    8.21460
 3750.00000    9.44800    9.44800  152.29050    0.08590    0.08590    2.22080    -999.25    0.26380    0.28610    6.56640   55.71970   55.71970    6.56640    7.61050    9.85040    7.61050    -999.25    0.36430    0.32080    2.22080  -43.81030  -27.45350    9.85040
 3800.00000   10.12880   10.12880  177.02870    0.07370    0.07370    2.32700    -999.25    0.19840    0.22400    5.64880   83.29330   83.29330    5.64880    5.41910    6.48300    5.41910    -999.25    0.39820    0.35530    2.32700  -30.62410  -14.30510    6.48300
 3850.00000    9.57960    9.57960  143.19670    0.06230    0.06230    2.19350    -999.25    0.28180    0.30200    6.98340   61.12200   61.12200    6.98340    8.00090   10.45040    8.00090    -999.25    0.36860    0.32520    2.19350  -43.66750  -27.38630   10.45040
 3900.00000   10.70590   10.70590  304.80370    0.08520    0.08520    2.41220    -999.25    0.14710    0.17420    3.28080   79.80780   79.80780    3.28080    2.96260    4.13470    2.96260    -999.25    0.33920    0.29550    2.41220  -22.58910   -6.34570    4.13470
 3950.00000    9.06610    9.06610  115.42410    0.02960    0.02960    2.21500    -999.25    0.25260    0.28950    8.66370   52.00890   52.00890    8.66370   11.20140   14.78910   11.20140    -999.25    0.36530    0.32180    2.21500  -51.22480  -35.01920   14.78910
 4000.00000    9.27370    9.27370  120.00910    0.13140    0.13140    2.51060    -999.25    0.09850    0.11660    8.33270   64.39890   64.39890    8.33270   11.02260   30.89550   11.02260    -999.25    0.19800    0.15460    2.51060  -41.73830  -25.57050   30.89550
