~Version ---------------------------------------------------
VERS.      2.0 : CWLS log ASCII Standard -VERSION 2.0
WRAP.      YES : Multiple lines per depth step
CREA. 10/06/20 : LAS Creation Date
~Well ------------------------------------------------------
STRT.FT                 3150.0 : START DEPTH
STOP.FT                18400.0 : STOP DEPTH
STEP.FT               50.00000 : STEP LENGTH
NULL.                  -999.25 : NULL VALUE
COMP. AMOCO PRODUCTION COMPANY : COMPANY
WELL.       MARTIN GAS UNIT #1 : WELL
FLD .                  WILDCAT : FIELD
LOC .                          : LOCATION
CNTY.                     LEON : COUNTY
STAT.                    TEXAS : STATE
CTRY. UNITED STATES OF AMERICA : COUNTRY
SRVC.             Schlumberger : SERVICE COMPANY
DATE.              06-Oct-1998 : LOGDATE
API .           42289312900000 : API NUMBER
UWI .           42289312900000 : UNIQUE WELL ID
SLAT.WGS84       31.2448401024 : SURFACE LATITUDE
SLON.WGS84      -96.2384028977 : SURFACE LONGITUDE
~Curve Information -----------------------------------------
DEPT    .FT    : DEPTH FEET
AT20ED  .OHMM  : 20 INCH ARRAY RESISTIVITY TWO FOOT RESOLUTION FROM AIT LOG
AT30ED  .OHMM  : 30 INCH ARRAY RESISTIVITY TWO FOOT RESOLUTION FROM AIT LOG
AT60ED  .OHMM  : 60 INCH ARRAY RESISTIVITY TWO FOOT RESOLUTION FROM AIT LOG
AT90ED  .OHMM  : 90 INCH ARRAY RESISTIVITY TWO FOOT RESOLUTION FROM AIT LOG
BITSED  .IN    : BIT SIZE FROM RUN HEADERS
CALDED  .IN    : CALIPER FROM DENSITY LOG [DSH. TO GRRED]
CALWS   .IN    : CALIPER [TOP CALDED 14108' (DCALDED+BITSED) TD]
CONDWS  .MMHO  : DEEP CONDUCTIVITY [1000/DRESWS]
DCALDED .IN    : DIFFERENTIAL CALIPER FROM DENSITY LOG [DSH. TO GRRED]
DCORWS  .G/C3  : DENSITY CORRECTION [TOP DRHOED 16650' DRHED TD]
DENWS   .G/C3  : BULK DENSITY [CALC. FROM DPOLSWS]
DPHILSED.V/V   : DENSITY POROSITY (LS) [M=2.71 F=1.00] [DSH. TO GRRED]
DPOLSED .V/V   : DENSITY POROSITY (LS) [M=2.71 F=1.00] [DSH. TO GRRED]
DPOLSWS .V/V   : DENSITY POROSITY (LS) [M=2.71 F=1.00] [TOP DPHILSED 16650' DPOLSED TD]
DRESWS  .OHMM  : DEEP RESISTIVITY [TOP AT90ED 14100' ILDED 16650' IDPHED TD]
DRHED   .G/C3  : DENSITY CORRECTION FROM DENSITY LOG [DSH. TO GRRED]
DRHOED  .G/C3  : DENSITY CORRECTION FROM DENSITY LOG [DSH. TO GRRED]
DTCOED  .US/F  : DELTA TIME COMPRESSIONAL FROM SONIC LOG
DTLFED  .US/F  : DELTA TIME LONG SPACING FAR DETECTOR FROM SONIC LOG
DTLNED  .US/F  : DELTA TIME LONG SPACING NEAR DETECTOR FROM SONIC LOG
DTSMED  .US/F  : DELTA TIME SHEAR WAVE FROM SONIC LOG
DTSWS   .US/F  : DELTA TIME SHEAR [DTSMED]
DTWS    .US/F  : DELTA TIME COMPRESSIONAL [TOP DTCOED 16650' DTLNED TD]
GRDED   .GAPI  : GAMMA RAY FROM DENSITY LOG [DSH. TO GRRED]
GRRED   .GAPI  : GAMMA RAY FROM RESISTIVITY LOG
GRWS    .GAPI  : GAMMA RAY [GRRED][RESCALED GRWS IN CSG )14030-14106' & 16606-16645') FROM 0/90-0/150]
IDPHED  .OHMM  : DEEP INDUCTION PHASE RESISTIVITY
ILDED   .OHMM  : DEEP INDUCTION RESISTIVITY
ILMED   .OHMM  : MEDIUM INDUCTION RESISTIVITY
IMPHED  .OHMM  : MEDIUM INDUCTION PHASE RESISTIVITY
MRESWS  .OHMM  : MEDIUM RESISTIVITY [TOP AT30ED 14100' ILMED 16650' IMPHED TD]
NPHILSED.V/V   : NEUTRON POROSITY (LS) [DSH. TO GRRED]
NPOLSWS .V/V   : NEUTRON POROSITY (LS) [NPHILSED]
PEFED   .B/E   : PHOTOELECTRIC FACTOR FROM DENSITY LOG [DSH. TO GRRED]
PEFWS   .B/E   : PHOTOELECTRIC FACTOR [PEFED]
SFLUED  .OHMM  : SPHERICALLY FOCUSED UNAVERAGED RESISTIVITY
SPWS    .MV    : SPONTANEOUS POTENTIAL [BASELINE 0 MV] [SPRED]
SPRED   .MV    : SPONTANEOUS POTENTIAL FROM RESISTIVITY LOG
SRESWS  .OHMM  : SHALLOW RESISTIVITY [TOP AT20ED 14100' SFLUED TD]
TENDED  .LBF   : TENSION FROM DENSITY LOG [DSH. TO GRRED]
TENRED  .LBF   : TENSION FROM RESISTIVITY LOG
~Params ----------------------------------------------------
PD  .                     GL : PERMANENT DATUM
EPD .FT                389.3 : ELEVATION PERMANENT DATUM
LMF .                     KB : LOG MEASURED FROM
DAPD.FT                 33.7 : MEASUREMENT ABOVE PERMANENT DATUM
DMF .                     KB : DRILLING MEASURED FROM
EKB .FT                  423 : KELLY BUSHING
EDF .FT                  422 : DRILLING FLOOR
EGL .FT                389.3 : GROUND LEVEL
DATE.               10/06/98 : RUN DATE
RUN .                      3 : RUN NUMBER
DD  .FT                18400 : DEPTH DRILLER
DL  .FT                18391 : DEPTH LOGGER
BLI .FT                18381 : BOTTOM LOG INTERVAL
TLI .FT                16646 : TOP LOG INTERVAL
CS  .IN                7.625 : CASING SIZE
CBD .FT                16650 : CASING BOTTOM DRILLER
CBL .FT                16646 : CASING BOTTOM LOGGER
BS  .IN                 6.25 : BIT SIZE
BSD .FT                18400 : BIT SIZE AT DEPTH
DFT .             VERSADRILL : DRILLING FLUID TYPE
DFD .                   17.9 : DRILLING FLUID DENSITY
DFV .                     45 : DRILLING FLUID VISCOSITY
MSS .                MUD PIT : MUD SAMPLE SOURCE
MFSS.                   CALC : MUD FILTRATE SAMPLE SOURCE
MCSS.                   CALC : MUD CAKE SAMPLE SOURCE
TCS .HRS                 830 : TIME CIRCULATED STOPPED
TLAB.HRS                2357 : TIME LOGGER AT BOTTOM
LUN .                   2142 : LOGGING UNIT NUMBER
LUL .                  TYLER : LOGGING UNIT LOCATION
ENGI.                SKRBICH : RECORDING ENGINEER
WITN.       WALKER WYSZYNSKI : WITNESSED BY
CLNT.                A2DTECH : CLIENT CODE
ORIG.         1" 2" 5" PRINT : ORIGIN OF DATA
UWI .         42289312900000 : UNIQUE WELL ID
DICO. A2D Technologies, Inc. : DIGITIZING COMPANY
~Other -----------------------------------------------------
1) RESISTIVITY INVALID 14360-14404', 15400-15475 NULLED (REPEAT LOG N/A). PATCHED FROM REPEAT LOG 15950-15980' & 16590-16645'.
2) GRRED PATCHED FROM REPEAT LOG 15400-15500 & 16550-16606'.
3) SONIC NOT LOGGED 14100-16650' AND ERRATIC ON SOME AREAS ABOVE 6300' WITH SOME GAPS AND SPIKES HENCE PATCHED SOME SMALL AREAS.
4) LDL/CNL STICKING TOOL ENTIRE RUN2 - NULLED PEF INVALID @ 15410-15625' & 15730-15410', PATCHED DENSITY@16025-16040', PATCHED NEUTRON@14295-14320' & PATCHED GRDED@VARIOUS DEPTHS BASED ON GRRED. ANY DOUBTS, PLEASE REFER TO ORIGINAL CURVES IN STANDARD LAS. STICKING TOOL MAY SLIGHTLY AFFECT LOG QUALITY ON OTHER AREAS, PLEASE USE WITH CAUTIONS.
~ASCII -----------------------------------------------------
# ...
 4950.00000    2.81300    2.86850    2.93950    3.04050   12.25000   15.17460   15.17460  328.89330    -999.25   -0.01040    2.53060    0.10490    -999.25    0.10490    3.04050    -999.25   -0.01040   88.63740    -999.25    -999.25    -999.25    -999.25   88.63740   44.33840   45.02200   45.02200    -999.25    -999.25    -999.25    -999.25    2.86850    0.17820    0.17820    5.56970    5.56970    -999.25   -8.35420   -8.98800    2.81300 2246.28810 2571.56270
 5000.00000    1.46940    1.59830    1.74040    1.80810   12.25000   16.01890   16.01890  553.06680    -999.25    0.00700    2.47110    0.13970    -999.25    0.13970    1.80810    -999.25    0.00700   97.32630    -999.25    -999.25  156.23300  156.23300   97.32630   68.78360   66.96560   66.96560    -999.25    -999.25    -999.25    -999.25    1.59830    0.27410    0.27410    5.14030    5.14030    -999.25   -4.75610   -4.59010    1.46940 2313.21920 2622.00710
 5050.00000    1.23840    1.30320    1.41240    1.46490   12.25000   16.76880   16.76880  682.64050    -999.25    0.00090    2.42630    0.16590    -999.25    0.16590    1.46490    -999.25    0.00090  103.59130    -999.25    -999.25    -999.25    -999.25  103.59130   80.78700   76.36210   76.36210    -999.25    -999.25    -999.25    -999.25    1.30320    0.36470    0.36470    4.41200    4.41200    -999.25   -3.53560   -2.56970    1.23840 2354.83500 2649.38870
 5100.00000    1.28270    1.40310    1.58950    1.67150   12.25000   17.01100   17.01100  598.26500    -999.25    0.03320    2.26680    0.25920    -999.25    0.25920    1.67150    -999.25    0.03320  102.00630    -999.25    -999.25  120.67110  120.67110  102.00630   59.39190   58.58880   58.58880    -999.25    -999.25    -999.25    -999.25    1.40310    0.30200    0.30200    7.33820    7.33820    -999.25   -3.90030   -2.13460    1.28270 2373.48970 2670.13430
 5150.00000    1.20090    1.35040    1.53990    1.57270   12.25000   16.34350   16.34350  635.84920    -999.25    0.01690    2.38240    0.19160    -999.25    0.19160    1.57270    -999.25    0.01690  101.31640    -999.25    -999.25  134.85580  134.85580  101.31640   56.15800   59.21250   59.21250    -999.25    -999.25    -999.25    -999.25    1.35040    0.29340    0.29340    6.32850    6.32850    -999.25   -3.53810   -0.96930    1.20090 2416.59110 2671.12770
 5200.00000    3.33790    3.45110    3.57060    3.66870   12.25000   13.67810   13.67810  272.57610    -999.25   -0.00340    2.51440    0.11440    -999.25    0.11440    3.66870    -999.25   -0.00340   78.31350    -999.25    -999.25  150.36860  150.36860   78.31350   24.10230   26.24170   26.24170    -999.25    -999.25    -999.25    -999.25    3.45110    0.12510    0.12510    5.50830    5.50830    -999.25  -16.45680  -13.08490    3.33790 2381.75320 2694.25710
 5250.00000    3.04350    3.12830    3.26550    3.31350   12.25000   13.16660   13.16660  301.79570    -999.25   -0.00170    2.55760    0.08910    -999.25    0.08910    3.31350    -999.25   -0.00170   81.16700    -999.25    -999.25  157.25770  157.25770   81.16700   24.71240   30.51990   30.51990    -999.25    -999.25    -999.25    -999.25    3.12830    0.15380    0.15380    5.17890    5.17890    -999.25   -9.70900   -5.53390    3.04350 2477.12920 2733.53390
 5300.00000    3.22600    3.29240    3.37450    3.45740   12.25000   12.87510   12.87510  289.23470    -999.25    0.00350    2.55490    0.09070    -999.25    0.09070    3.45740    -999.25    0.00350   76.44280    -999.25    -999.25  150.14000  150.14000   76.44280   29.46120   26.18090   26.18090    -999.25    -999.25    -999.25    -999.25    3.29240    0.12630    0.12630    4.98090    4.98090    -999.25  -10.64940   -5.67110    3.22600 2542.87450 2731.50050
 5350.00000    2.51910    2.53840    2.64120    2.74480   12.25000   12.78910   12.78910  364.32530    -999.25   -0.00140    2.49610    0.12510    -999.25    0.12510    2.74480    -999.25   -0.00140   81.98070    -999.25    -999.25  114.31620  114.31620   81.98070   36.87660   36.82580   36.82580    -999.25    -999.25    -999.25    -999.25    2.53840    0.15020    0.15020    6.20350    6.20350    -999.25   -4.04740    1.73400    2.51910 2530.39400 2762.55050
 5400.00000    2.29950    2.35560    2.53580    2.76180   12.25000   12.45220   12.45220  362.08270    -999.25    0.02970    2.49570    0.12530    -999.25    0.12530    2.76180    -999.25    0.02970   87.16920    -999.25    -999.25  147.44650  147.44650   87.16920   39.83180   40.51310   40.51310    -999.25    -999.25    -999.25    -999.25    2.35560    0.17920    0.17920    6.63460    6.63460    -999.25   -4.81260    1.77200    2.29950 2565.50150 2773.78250
 5450.00000    3.97010    4.16190    4.28480    4.37100   12.25000   12.27370   12.27370  228.78060    -999.25   -0.00730    2.52550    0.10790    -999.25    0.10790    4.37100    -999.25   -0.00730   72.32150    -999.25    -999.25  132.27840  132.27840   72.32150   17.58600   17.37740   17.37740    -999.25    -999.25    -999.25    -999.25    4.16190    0.13170    0.13170    5.97120    5.97120    -999.25  -23.56510  -16.17730    3.97010 2545.14750 2793.10280
 5500.00000    0.88840    0.96870    1.15660    1.21840   12.25000   15.10680   15.10680  820.74850    -999.25    0.01960    2.10070    0.35630    -999.25    0.35630    1.21840    -999.25    0.01960  130.07110    -999.25    -999.25    -999.25    -999.25  130.07110   73.91940   69.44730   69.44730    -999.25    -999.25    -999.25    -999.25    0.96870    0.39370    0.39370    5.50350    5.50350    -999.25   -4.39040    3.92580    0.88840 2523.83960 2851.22460
 5550.00000    1.87950    2.03040    2.25380    2.34400   12.25000   14.63750   14.63750  426.62120    -999.25    0.06130    2.17960    0.31020    -999.25    0.31020    2.34400    -999.25    0.06130   92.81340    -999.25    -999.25    -999.25    -999.25   92.81340   63.74520   60.84410   60.84410    -999.25    -999.25    -999.25    -999.25    2.03040    0.31120    0.31120    7.84220    7.84220    -999.25  -10.04560    0.21230    1.87950 2514.37790 2839.98170
 5600.00000    1.04180    1.26020    1.49360    1.51860   12.25000   19.30350   19.30350  658.50130    -999.25    0.03600    2.01040    0.40910    -999.25    0.40910    1.51860    -999.25    0.03600   66.97000    -999.25    -999.25   95.08770   95.08770   66.97000   53.63190   49.33610   49.33610    -999.25    -999.25    -999.25    -999.25    1.26020    0.45650    0.45650    5.29730    5.29730    -999.25   -6.88810    4.23180    1.04180 2562.26760 2862.64840
 5650.00000    0.72050    0.80100    0.95800    0.98890   12.25000   17.33440   17.33440 1011.22460    -999.25   -0.01350    -999.25    -999.25    -999.25    -999.25    0.98890    -999.25   -0.01350   86.08070    -999.25    -999.25  137.19730  137.19730   86.08070   65.42310   52.55310   52.55310    -999.25    -999.25    -999.25    -999.25    0.80100    0.46060    0.46060    9.97300    9.97300    -999.25   -1.60530    9.33940    0.72050 2552.94140 2849.77100
 5700.00000    1.73840    1.85930    2.08350    2.15330   12.25000   14.77410   14.77410  464.40350    -999.25    0.07920    2.14980    0.32760    -999.25    0.32760    2.15330    -999.25    0.07920   67.82760    -999.25    -999.25   95.45830   95.45830   67.82760   61.84900   61.61610   61.61610    -999.25    -999.25    -999.25    -999.25    1.85930    0.32410    0.32410    5.13330    5.13330    -999.25   -4.33150    6.43790    1.73840 2550.44090 2880.27560
 5750.00000    1.23590    1.36200    1.50120    1.52650   12.25000   16.49400   16.49400  655.09340    -999.25    0.07310    2.08550    0.36520    -999.25    0.36520    1.52650    -999.25    0.07310   75.20970    -999.25    -999.25   98.35810   98.35810   75.20970   63.08580   63.33270   63.33270    -999.25    -999.25    -999.25    -999.25    1.36200    0.39610    0.39610    6.47160    6.47160    -999.25   -4.15330    6.38600    1.23590 2549.29490 2910.96880
 5800.00000    1.55480    1.69950    1.77790    1.85520   12.25000   16.08010   16.08010  539.02540    -999.25    0.09660    2.37020    0.19870    -999.25    0.19870    1.85520    -999.25    0.09660   93.38390    -999.25    -999.25  130.09800  130.09800   93.38390   65.96660   70.42200   70.42200    -999.25    -999.25    -999.25    -999.25    1.69950    0.33310    0.33310    4.52390    4.52390    -999.25   -3.71920    5.54860    1.55480 2618.61500 2924.26980
