~Version ---------------------------------------------------
VERS. 2.0 : CWLS log ASCII Standard -VERSION 2.0
WRAP. YES : Multiple lines per depth step
~Well ------------------------------------------------------
STRT.FT                    300.0 : START DEPTH
STOP.FT                  19600.0 : STOP DEPTH
STEP.FT                 50.00000 : STEP LENGTH
NULL.                    -999.25 : NULL VALUE
COMP. CITIES SERVICE OIL COMPANY : COMPANY
WELL.          PEELER RANCH A #1 : WELL
FLD .                    WILDCAT : FIELD
LOC .                            : LOCATION
CNTY.                   ATASCOSA : COUNTY
STAT.                      TEXAS : STATE
CTRY.   UNITED STATES OF AMERICA : COUNTRY
SRVC.               Schlumberger : SERVICE COMPANY
DATE.                12-Feb-1972 : LOGDATE
API .             42013301410000 : API NUMBER
UWI .             42013301410000 : UNIQUE WELL ID
SLAT.WGS84         28.6903618688 : SURFACE LATITUDE
SLON.WGS84        -98.4697337546 : SURFACE LONGITUDE
~Curve Information -----------------------------------------
DEPT  .FT    : DEPTH
ALL8ED.OHMM  : LATEROLOG-8 RESISTIVITY AMPLIFIED
ASNED .OHMM  : AMPLIFIED SHORT NORMAL 16 IN.
CALWS .IN    : CALIPER (CALSED)
CALSED.IN    : CALIPER FROM SONIC LOG (ADJ TO RES.)
CILDED.MMHO  : CONDUCTIVITY FROM LOG
CONDWS.MMHO  : CONDUCTIVITY (1000/DRESws)
DCORWS.G/C3  : DENSITY CORRECTION (DRHOED)
DENWS .G/C3  : BULK DENSITY  (RHOBED LS)
DPOWS .V/V   : DENSITY POROSITY (M=2.71 F=1 FROM DENws)
DRESWS.OHMM  : DEEP RESISTIVITY (IF ILDED<1, THEN 1000/CILDED)
DRHOED.G/C3  : DENSITY CORRECTION (ADJ TO RES.)
DTED  .US/F  : DELTA TIME  (ADJ TO RES.)
DTWS  .US/F  : DELTA TIME  (DTED)
GRDED .GAPI  : GAMMA RAY FROM DENSITY LOG (ADJ TO RES.)
GRWS  .GAPI  : GAMMA RAY (GRSED/GRDED @ 8498)
GRSED .GAPI  : GAMMA RAY FROM SONIC LOG (ADJ TO RES.)
ILDED .OHMM  : DEEP INDUCTION RESISTIVITY
NEUTED.CU    : NEUTRON FROM GAMMA RAY NEUTRON LOG (ADJ TO RES.)
NEUTWS.CU    : NEUTRON FROM GAMMA RAY NEUTRON LOG (NEUTED)
NPOWS .V/V   : NEUTRON POROSITY LIMESTONE (SNPED)
RHOBED.G/C3  : BULK DENSITY (ADJ TO RES.)
SNPED .V/V   : SIDEWALL NEUTRON POROSITY (ADJ TO RES.)
SPWS  .MV    : SPONTANEOUS POTENTIAL BASELINE 0 MV (SPRED)
SPRED .MMHO  : SPONTANEOUS POTENTIAL FROM RESISTIVITY
SRESWS.OHMM  : SHALLOW RESISTIVITY (ASNED/ALL8ED @ 12329)
~Params ----------------------------------------------------
PD  .                     GL : PERMANENT DATUM
EPD .F                   297 : ELEVATION PERMANENT DATUM
LMF .                     KB : LOG MEASURED FROM
DAPD.F                  30.5 : FEET ABOVE PERMANENT DATUM
DMF .                     KB : DRILLING MEASURED FROM
EKB .F                 327.5 : KELLING BUSHING
EDF .F                 326.5 : DRILLING FLOOR
EGL .F                   297 : GROUND LEVEL
DATE.             02-12-1972 : RUN DATE
RUN .                      9 : RUN NUMBER
DD  .F                 19629 : DEPTH DRILLER
DL  .F                 19635 : DEPTH LOGGER
BLI .F                 19628 : BOTTOM LOG INTERVAL
TLI .F                 19127 : TOP LOG INTERVAL
BS  .IN                  4.4 : BIT SIZE
BSD .F                 19629 : BIT SIZE AT DEPTH
DFT .       INVERMUL 43% OIL : DRILLING FLUID TYPE
DFD .                   19.1 : DRILLING FLUID DENSITY
DFV .                     88 : DRILLING FLUID VISCOSITY
TCS .HRS                  12 : TIME CURCULATED STOPPED
LUN .                   7504 : LOGGING UNIT NUMBER
LUL .                  PLEAS : LOGGING UNIT LOCATION
ENGI.               CLEMENTS : RECORDING ENGINEER
WITN.         GRIGSBY THOMAS : WITNESSED BY
CLNT.                A2DTECH : CLIENT CODE
ORIG.            2" 5" PRINT : ORIGIN OF DATA
UWI .         42013301410000 : UNIQUE WELL ID
DICO. A2D Technologies, Inc. : DIGITIZING COMPANY
~Other -----------------------------------------------------
~ASCII -----------------------------------------------------
# ...
 10100.00000    -999.25   42.65780   14.62900   14.62900   14.74100   14.74210    0.04030    2.64460    0.03820   67.83300    0.04030   52.62400   52.62400   13.58100   13.58100    -999.25   67.83300    -999.25    -999.25    0.08030    2.64460    0.08030   -9.73930 -125.18290   42.65780
 10150.00000    -999.25   42.41730   14.53600   14.53600   28.28690   33.19610    0.02940    2.39930    0.18170   30.12400    0.02940   50.43700   50.43700   17.24700   17.24700    -999.25   30.12400    -999.25    -999.25    0.06550    2.39930    0.06550   -8.30380 -118.32320   42.41730
 10200.00000    -999.25   45.43350   14.56800   14.56800   15.64020   17.79990    0.02630    2.62480    0.04980   56.18000    0.02630   52.94600   52.94600   14.60000   14.60000    -999.25   56.18000    -999.25    -999.25    0.13090    2.62480    0.13090  -20.89270 -125.48780   45.43350
 10250.00000    -999.25   44.09420   14.63900   14.63900   40.23900   26.94740    0.01090    2.41070    0.17500   37.10930    0.01090   51.94800   51.94800   20.61300   20.61300    -999.25   37.10930    -999.25    -999.25    0.15120    2.41070    0.15120  -43.74640 -142.91730   44.09420
 10300.00000    -999.25   35.78950   14.13300   14.13300   30.38310   33.57060    0.01380    2.53460    0.10260   29.78800    0.01380   59.01100   59.01100   31.41400   31.41400    -999.25   29.78800    -999.25    -999.25    0.08300    2.53460    0.08300   -7.98710 -102.31710   35.78950
 10350.00000    -999.25   22.27330   14.01500   14.01500   58.79340   69.37120    0.04790    2.50920    0.11740   14.41520    0.04790   52.62400   52.62400   19.36200   19.36200    -999.25   14.41520    -999.25    -999.25    0.07150    2.50920    0.07150  -33.10700 -124.92950   22.27330
 10400.00000    -999.25   25.91150   13.81800   13.81800   64.65650   63.34250    0.02000    2.63330    0.04490   15.78720    0.02000   52.46500   52.46500   14.09000   14.09000    -999.25   15.78720    -999.25    -999.25    0.02190    2.63330    0.02190  -59.34350 -148.65850   25.91150
 10450.00000    -999.25   29.33420   14.36700   14.36700   48.55880   53.66680    0.00000    2.56610    0.08420   18.63350    0.00000   47.97200   47.97200   20.97900   20.97900    -999.25   18.63350    -999.25    -999.25    0.15060    2.56610    0.15060  -45.38760 -132.19510   29.33420
 10500.00000    -999.25   23.71000   13.62000   13.62000   80.07310   81.00580    0.01150    2.64530    0.03780   12.34480    0.01150   51.43100   51.43100   22.43900   22.43900    -999.25   12.34480    -999.25    -999.25    0.01510    2.64530    0.01510  -42.40730 -126.70730   23.71000
 10550.00000    -999.25   19.42720   13.81600   13.81600   92.82870  101.02030    0.03120    2.72270   -0.00740    9.89900    0.03120   50.87500   50.87500   14.32600   14.32600    -999.25    9.89900    -999.25    -999.25    0.01390    2.72270    0.01390  -41.86670 -123.65920   19.42720
 10600.00000    -999.25   16.69250   13.75600   13.75600  171.71310  195.14100    0.03710    2.66330    0.02730    5.12450    0.03710   52.14700   52.14700   25.27400   25.27400    -999.25    5.12450    -999.25    -999.25    0.03440    2.66330    0.03440  -63.88570 -143.17070   16.69250
 10650.00000    -999.25   36.85970   13.49700   13.49700   37.21120   38.91250    0.01700    2.67820    0.01860   25.69870    0.01700   53.64100   53.64100   19.75800   19.75800    -999.25   25.69870    -999.25    -999.25    0.09890    2.67820    0.09890  -41.39320 -118.17070   36.85970
 10700.00000    -999.25   25.60380   13.69900   13.69900   53.98080   64.08530    0.02330    2.72800   -0.01050   15.60420    0.02330   50.39800   50.39800   29.25500   29.25500    -999.25   15.60420    -999.25    -999.25    0.01970    2.72800    0.01970  -34.95800 -109.22800   25.60380
 10750.00000    -999.25   43.70750   14.53000   14.53000   35.45820   34.76390    0.05740    2.54880    0.09430   28.76550    0.05740   51.94800   51.94800   22.80100   22.80100    -999.25   28.76550    -999.25    -999.25    0.03610    2.54880    0.03610   -8.45090  -80.21340   43.70750
 10800.00000    -999.25   30.59350   14.04600   14.04600   55.13610   64.83190    0.10720    2.47960    0.13470   15.42450    0.10720   49.68200   49.68200   22.16600   22.16600    -999.25   15.42450    -999.25    -999.25    0.12950    2.47960    0.12950  -14.27540  -87.07320   30.59350
 10850.00000    -999.25   26.99700   13.88000   13.88000   51.39440   49.53730    0.07920    2.68100    0.01700   20.18680    0.07920   50.43700   50.43700   16.41900   16.41900    -999.25   20.18680    -999.25    -999.25    0.00710    2.68100    0.00710  -22.35930  -97.13410   26.99700
 10900.00000    -999.25   32.50280   14.33400   14.33400   43.42630   44.31150    0.05820    2.38250    0.19150   22.56750    0.05820   50.43700   50.43700   21.34900   21.34900    -999.25   22.56750    -999.25    -999.25    0.13490    2.38250    0.13490  -12.15060  -88.90240   32.50280
 10950.00000    -999.25   27.43030   14.27700   14.27700   41.04970   40.75940    0.04590    2.37060    0.19850   24.53420    0.04590   51.00300   51.00300   33.68000   33.68000    -999.25   24.53420    -999.25    -999.25    0.13010    2.37060    0.13010  -17.29380  -95.35560   27.43030
 11000.00000    -999.25   21.52780   14.67300   14.67300   53.78490   53.40170    0.03910    2.13650    0.33540   18.72600    0.03910   51.11300   51.11300   29.57800   29.57800    -999.25   18.72600    -999.25    -999.25    0.12260    2.13650    0.12260  -36.31040 -114.59410   21.52780
 11050.00000    -999.25   14.90450   14.44300   14.44300  103.18730  106.88900    0.04690    2.37530    0.19570    9.35550    0.04690   51.19300   51.19300   24.37300   24.37300    -999.25    9.35550    -999.25    -999.25    0.07450    2.37530    0.07450  -52.36880 -130.87430   14.90450
 11100.00000    -999.25   17.86380   13.70300   13.70300   51.39440   51.65770    0.04010    2.66490    0.02640   19.35820    0.04010   49.52300   49.52300   22.44300   22.44300    -999.25   19.35820    -999.25    -999.25    0.00360    2.66490    0.00360  -47.37030 -126.09760   17.86380
 11150.00000    -999.25   14.70830   13.87800   13.87800  154.98010  160.99950    0.01220    2.64180    0.03990    6.21120    0.01220   53.02200   53.02200   13.23000   13.23000    -999.25    6.21120    -999.25    -999.25    0.02600    2.64180    0.02600  -57.20930 -136.15850   14.70830
 11200.00000    -999.25   16.11050   13.85900   13.85900   78.58290   78.53610    0.01310    2.65810    0.03040   12.73300    0.01310   52.34600   52.34600   10.85300   10.85300    -999.25   12.73300    -999.25    -999.25    0.01520    2.65810    0.01520  -59.73140 -138.90240   16.11050
 11250.00000    -999.25   19.81950   13.85400   13.85400   77.38280   85.01590    0.02150    2.64830    0.03610   11.76250    0.02150   52.50500   52.50500    8.86600    8.86600    -999.25   11.76250    -999.25    -999.25    0.03610    2.64830    0.03610  -64.19920 -143.59200   19.81950
 11300.00000    -999.25   22.86900   13.72100   13.72100  115.82950  111.35610    0.02260    2.67040    0.02320    8.98020    0.02260   52.70400   52.70400   10.04200   10.04200    -999.25    8.98020    -999.25    -999.25    0.02910    2.67040    0.02910  -90.87970 -170.49440   22.86900
 11350.00000    -999.25   23.73850   13.75900   13.75900   51.38770   52.11050    0.07780    2.81200   -0.05960   19.19000    0.07780   47.97200   47.97200   16.87800   16.87800    -999.25   19.19000    -999.25    -999.25    0.02450    2.81200    0.02450  -57.64270 -137.47920   23.73850
 11400.00000    -999.25   16.85750   12.99500   12.99500  110.11680   97.03560    0.02160    2.69410    0.00930   10.30550    0.02160   51.99100   51.99100   17.05600   17.05600    -999.25   10.30550    -999.25    -999.25    0.01020    2.69410    0.01020  -46.03770 -126.09600   16.85750
 11450.00000    -999.25   13.83380   13.16400   13.16400   87.84860   75.76500    0.01770    2.68800    0.01290   13.19870    0.01770   52.05100   52.05100   16.16500   16.16500    -999.25   13.19870    -999.25    -999.25    0.01290    2.68800    0.01290  -24.31010 -105.36590   13.83380
