~Version ---------------------------------------------------
VERS. 2.0 : CWLS log ASCII Standard -VERSION 2.0
WRAP.  NO : ONE LINE PER DEPTH STEP
~Well ------------------------------------------------------
STRT.F                   300.0 : START DEPTH
STOP.F                 18600.0 : STOP DEPTH
STEP.F                50.00000 : STEP LENGTH
NULL.                  -999.25 : NULL VALUE
COMP.        SHELL OIL COMPANY : COMPANY
WELL. PAWELEK BEN A ET AL A #1 : WELL
FLD .    PERSON AREA (WILDCAT) : FIELD
LOC .                          : LOCATION
CNTY.                   KARNES : COUNTY
STAT.                    TEXAS : STATE
CTRY. UNITED STATES OF AMERICA : COUNTRY
SRVC.             Schlumberger : SERVICE COMPANY
DATE.              22-May-1978 : LOGDATE
API .           42255305980000 : API NUMBER
UWI .           42255305980000 : UNIQUE WELL ID
SLAT.WGS84       29.0241796548 : SURFACE LATITUDE
SLON.WGS84      -97.8796797249 : SURFACE LONGITUDE
~Curve Information -----------------------------------------
DEPT   .F    0   1   0  0 : 1 MEASURED DEPTH
ILD    .OHMM 07 120 46 00 : INDUCTION DEEP RESISTIVITY
ILM    .OHMM 07 120 44 00 : INDUCTION MEDIUM RESISTIVITY
SPR    .MV   07 010 01 00 : SPONTANEOUS POTENTIAL FROM RESISTIVITY LOG
SFL    .OHMM 07 220 01 00 : SPHERICALLY FOCUSED LOG
GRR    .GAPI 07 310 01 00 : GAMMA RAY FROM RESISTIVITY LOG
DPHI_SS.DEC  45 890 12 00 : DENSITY POROSITY SANDSTONE
NPHI_SS.DEC  42 890 03 00 : NEUTRON POROSITY SANDSTONE
NPHI_LS.DEC  42 890 01 00 : NEUTRON POROSITY LIMESTONE
DPHI_LS.DEC  45 890 10 00 : DENSITY POROSITY LIMESTONE
GRD    .GAPI 45 310 01 00 : GAMMA RAY FROM DENSITY LOG
RHOB   .G/C3 45 350 01 00 : BULK DENSITY
DRHO   .G/C3 45 356 01 00 : BULK DENSITY CORRECTION
CALD   .IN   45 280 60 00 : CALIPER FROM DENSITY LOG
TEND   .LB   45 635 00 00 : TENSION FROM DENSITY LOG
PROX   .OHMM 21 270 04 00 : PROXIMITY RESISTIVITY (MPT)
MCAL   .IN   15 280 01 00 : MLT (MICROLOG) CALIPER
GRS    .GAPI 60 310 01 00 : GAMMA RAY FROM SONIC LOG
DT     .US/F 60 500 00 00 : DELTA-T (INTERVAL TRANSIT TIME)
CALS   .IN   60 280 50 00 : CALIPER FROM SONIC LOG
~Params ----------------------------------------------------
PD  .                     GL : PERMANENT DATUM
EPD .FT                  335 : ELEVATION PERMANENT DATUM
LMF .                     KB : LOG MEASURED FROM
DAPD.FT                   28 : FEET ABOVE PERMANENT DATUM
DMF .                     KB : DRILLING MEASURED FROM
EKB .FT                  363 : KELLY BUSHING
EDF .FT                  362 : DRILLING FLOOR
EGL .FT                  335 : GROUND LEVEL
DATE.               05/22/78 : RUN DATE
RUN .                      4 : RUN NUMBER
DD  .FT                18626 : DEPTH DRILLER
DL  .FT                18642 : DEPTH LOGGER
BLI .FT                18637 : BOTTOM LOG INTERVAL
TLI .FT                17550 : TOP LOG INTERVAL
CS  .IN                    7 : CASING SIZE
CBD .FT                17544 : CASING BOTTOM DRILLER
CBL .FT                17550 : CASING BOTTOM LOGGER
BS  .IN                    6 : BIT SIZE
BSD .FT                18626 : BIT SIZE AT DEPTH
DFT .               INVERMUL : DRILLING FLUID TYPE
DFD .                   17.6 : DRILLING FLUID DENSITY
DFV .                     70 : DRILLING FLUID VISCOSITY
DFL .                      2 : DRILLING FLUID LOSS
LUN .                   7799 : LOGGING UNIT NUMBER
LUL .                  PLEAS : LOGGING UNIT LOCATION
ENGI.             TURBEVILLE : RECORDING ENGINEER
WITN.                JARRELL : WITNESSED BY
CLNT.                A2DTECH : CLIENT CODE
ORIG.            2" 5" PRINT : ORIGIN OF DATA
UWI .         42255305980000 : UNIQUE WELL ID
DICO. A2D Technologies, Inc. : DIGITIZING COMPANY
~Other -----------------------------------------------------
~ASCII -----------------------------------------------------
# ...
 15100.00000  242.66820   25.76870  -33.63470 1674.56860    -999.25    -999.25    -999.25    0.00370   -0.05000   30.78460    2.78440    0.01940   12.47640 9752.38870    -999.25    -999.25   37.66750   50.84360   12.13130
 15150.00000   45.32340   15.27600  -26.79830 1426.70390    -999.25    -999.25    -999.25    0.00960   -0.05450   37.39230    2.80850    0.01330   12.60620 9784.53610    -999.25    -999.25   43.70000   52.47120   12.14150
 15200.00000  117.04430   22.34370  -27.67510 1698.16170    -999.25    -999.25    -999.25    0.02580   -0.05980   41.37730    2.79300    0.03590   12.92310 9731.41890    -999.25    -999.25   45.03040   51.47440   12.37680
 15250.00000   73.44500   16.35010  -26.71870 1726.86330    -999.25    -999.25    -999.25    0.01710   -0.05720   41.86230    2.80750    0.02870   12.89400 9723.90430    -999.25    -999.25   47.96220   51.50540   12.41180
 15300.00000  108.18470   21.22160  -24.93250 1656.46860    -999.25    -999.25    -999.25    0.03660   -0.02790   42.75260    2.78440    0.01160   12.27200 9728.36040    -999.25    -999.25   47.85410   53.04630   11.81130
 15350.00000   86.07910   24.06940  -24.50050 1677.98910    -999.25    -999.25    -999.25    0.03500   -0.03530   44.94300    2.86930    0.03350   11.23860 9726.28810    -999.25    -999.25   49.58000   51.08190   11.16870
 15400.00000   53.91340   24.51500  -20.48870  402.66800    -999.25    -999.25    -999.25    0.05900   -0.09720   48.20280    2.83540    0.02380   10.47830 9666.61430    -999.25    -999.25   54.63650   50.70210    9.92020
 15450.00000   98.72440   40.32710  -23.90830  152.74460    -999.25    -999.25    -999.25    0.04100   -0.07180   41.04790    2.85280    0.02690   11.08590 9679.01170    -999.25    -999.25   55.36780   50.28740   10.41540
 15500.00000   59.19260    -999.25  -18.51300  381.15570    -999.25    -999.25    -999.25    0.18680    0.21140   59.24070    2.13740   -0.02270   10.74310 9593.35640    -999.25    -999.25   66.40880   53.45810    9.86740
 15550.00000   36.50780   14.74930  -15.61660  144.51980    -999.25    -999.25    -999.25    0.06280   -0.04360   53.49410    2.82750    0.06010   10.21690 9601.87890    -999.25    -999.25   60.27370   58.82850   10.37360
 15600.00000  118.96520   95.92730  -16.96520  119.98320    -999.25    -999.25    -999.25    0.08060    0.06360   68.00890    2.36930   -0.00280   10.47470 9553.52250    -999.25    -999.25   79.12000   58.76470   10.92210
 15650.00000  176.01730  116.65440  -20.38200 1639.99780    -999.25    -999.25    -999.25    0.03920   -0.08250   51.71130    2.82770    0.03270   10.07600 9610.99800    -999.25    -999.25   53.98100   81.62830   10.52690
 15700.00000   40.53560   20.58470  -21.18600  103.51320    -999.25    -999.25    -999.25    0.03250   -0.08270   45.21320    2.87130    0.02050   10.24720 9550.74320    -999.25    -999.25   46.64730   51.21250   10.03430
 15750.00000   54.93890  262.43000  -22.29330  478.16640    -999.25    -999.25    -999.25    0.03480   -0.07970   38.47260    2.91130    0.02790    9.73240 9527.91700    -999.25    -999.25   43.63300   51.94640    9.50250
 15800.00000   18.66710   71.74650  -22.51770   37.64220    -999.25    -999.25    -999.25    0.03340   -0.12040   33.32650    2.90480    0.08430    9.90460 9503.18070    -999.25    -999.25   50.41530   64.09050   11.43450
 15850.00000  236.46760   60.47870  -35.65040  211.10020    -999.25    -999.25    -999.25    0.03330   -0.12620   33.71610    2.89280    0.04320   10.38450 9480.78520    -999.25    -999.25   41.86970   49.29800    9.40370
 15900.00000  755.68150   41.53940  -33.41390   95.96090    -999.25    -999.25    -999.25    0.04090   -0.04630   35.44640    2.78630    0.08430   11.19580 9545.79590    -999.25    -999.25   34.30380   53.45270    9.63470
 15950.00000   40.16390   40.97110  -39.03870   33.69620    -999.25    -999.25    -999.25    0.03170   -0.11390   35.85210    2.87610    0.03190   10.39640 9481.95210    -999.25    -999.25   44.02820   51.10230    9.57740
 16000.00000   12.29950    9.97800  -70.90800   20.77610    -999.25    -999.25    -999.25    0.07460   -0.03980   18.80660    2.85870    0.07590   10.72290 9465.05960    -999.25    -999.25   22.65170   52.84290    9.79480
 16050.00000  342.38720   21.99550  -41.89650  301.47900    -999.25    -999.25    -999.25    0.01450   -0.11090   26.12460    2.89190    0.04810   12.09930 9460.21090    -999.25    -999.25   25.55100   47.82790   10.80580
 16100.00000   58.63420   12.86610  -25.44210  918.49760    -999.25    -999.25    -999.25    0.04630   -0.05620   47.60130    2.84820    0.02060   10.88490 9467.97070    -999.25    -999.25   42.31060   50.79530   10.31640
 16150.00000   15.92010   11.23280  -13.56930   15.01510    -999.25    -999.25    -999.25    0.02120   -0.03770   49.54630    2.76910    0.00310   10.75510 9424.10940    -999.25    -999.25   51.33340   74.35820   12.27040
 16200.00000  160.41790   58.17990  -16.45390  689.76400    -999.25    -999.25    -999.25    0.00370   -0.04500   34.33140    2.80060    0.00030   10.16300 9401.13180    -999.25    -999.25   35.98240   53.06140   10.02720
 16250.00000   49.69820   22.62860  -14.27330  112.02640    -999.25    -999.25    -999.25    0.02750   -0.00750   58.08830    2.72170    0.01670    9.96710 9406.29690    -999.25    -999.25   67.89060   56.90550    9.98730
 16300.00000   17.16980   12.23800  -13.81590   27.53160    -999.25    -999.25    -999.25    0.03500   -0.03180   58.31200    2.77030    0.03350   10.26320 9457.32910    -999.25    -999.25   55.85230   62.60270   10.21220
 16350.00000   13.06270    7.89000  -15.05130   25.58760    -999.25    -999.25    -999.25    0.04230   -0.02420   57.98790    2.78020    0.03560    9.80100 9375.07420    -999.25    -999.25   65.38590   60.77760    9.99490
 16400.00000   26.66480   18.85340  -12.33160   43.15090    -999.25    -999.25    -999.25    0.07730    0.01020   64.06260    2.72280   -0.00120    9.52120 9340.32130    -999.25    -999.25   71.52580   60.05330    9.46680
 16450.00000   79.08010   46.68140  -13.48480  812.58890    -999.25    -999.25    -999.25    0.02560   -0.01650   52.05760    2.74790    0.02290    9.01070 9316.51950    -999.25    -999.25   58.20170   54.80540    8.94870
 16500.00000   67.40970   39.95060  -12.69930   97.54750    -999.25    -999.25    -999.25    0.05640   -0.01690   63.34940    2.73430    0.00900    9.01210 9278.15920    -999.25    -999.25   65.93150   57.23190    8.96700
 16550.00000   50.16070   35.98980  -11.47530   58.23550    -999.25    -999.25    -999.25    0.07630   -0.02110   62.42530    2.74610    0.04080    9.13910 9287.49220    -999.25    -999.25   72.27100   58.38990    8.93180
 16600.00000  107.47910  171.89360  -10.17500  875.08780    -999.25    -999.25    -999.25    0.03890   -0.01480   54.47950    2.74160    0.01820    9.12280 9210.24510    -999.25    -999.25   55.31990   55.42230    8.93000
 16650.00000   37.59100   45.39750   -9.84660   75.95850    -999.25    -999.25    -999.25    0.02090   -0.01470   54.55880    2.71920    0.00870    9.01320 9263.47750    -999.25    -999.25   50.91360   59.25160    8.85200
 16700.00000   70.38130   67.43670  -10.04170  169.82520    -999.25    -999.25    -999.25    0.06640   -0.01830   64.03200    2.73160    0.00960    9.01270 9244.36820    -999.25    -999.25   72.98400   56.69060    8.88020
 16750.00000   21.56600   17.86360   -9.42960   38.37710    -999.25    -999.25    -999.25    0.09870   -0.03300   61.17020    2.72930    0.00320    9.48710 9255.29200    -999.25    -999.25   75.73830   60.97640    9.36110
 16800.00000   30.79300   28.93450  -10.96190   54.57970    -999.25    -999.25    -999.25    0.06700    0.00430   56.45090    2.73590    0.00910    9.29250 9248.06450    -999.25    -999.25   59.71810   57.22800    9.21980
 16850.00000   22.85400   17.95510   -9.00500   36.16760    -999.25    -999.25    -999.25    0.08550   -0.02180   62.83540    2.76230    0.04720    9.54630 9152.83010    -999.25    -999.25   69.80250   60.89820    9.30710
 16900.00000   10.84740    9.66710  -11.29850   10.94160    -999.25    -999.25    -999.25    0.12970   -0.02210   72.17230    2.74770    0.01480    9.98930 9207.99510    -999.25    -999.25   80.62470   64.59400    9.76250
