~Version ---------------------------------------------------
VERS.      2.0 : CWLS log ASCII Standard -VERSION 2.0
WRAP.      YES : MULTIPLE LINES PER DEPTH STEP
CREA. 08/31/18 : LAS CREATION DATE
~Well ------------------------------------------------------
STRT.FT                 2300.0 : START DEPTH
STOP.FT                11300.0 : STOP DEPTH
STEP.FT               50.00000 : STEP LENGTH
NULL.                  -999.25 : NULL VALUE
COMP.         HUNT OIL COMPANY : COMPANY
WELL.          PIPHER L. A. #1 : WELL
FLD .                  WILDCAT : FIELD
LOC .                          : LOCATION
CNTY.                 GONZALES : COUNTY
STAT.                    TEXAS : STATE
CTRY. UNITED STATES OF AMERICA : COUNTRY
SRVC.             Schlumberger : SERVICE COMPANY
DATE.              06-May-1999 : LOGDATE
API .           42177320410000 : API NUMBER
UWI .           42177320410000 : UNIQUE WELL ID
SLAT.WGS84       29.2698822473 : SURFACE LATITUDE
SLON.WGS84      -97.7138948507 : SURFACE LONGITUDE
~Curve Information -----------------------------------------
DEPT    .FT    : DEPTH FEET
AHT10ED .OHMM  : 10 INCH RESISTIVITY TWO FOOT RESOLUTION FROM AIT LOG
AHT20ED .OHMM  : 20 INCH RESISTIVITY TWO FOOT RESOLUTION FROM AIT LOG
AHT30ED .OHMM  : 30 INCH RESISTIVITY TWO FOOT RESOLUTION FROM AIT LOG
AHT60ED .OHMM  : 60 INCH RESISTIVITY TWO FOOT RESOLUTION FROM AIT LOG
AHT90ED .OHMM  : 90 INCH RESISTIVITY TWO FOOT RESOLUTION FROM AIT LOG
CALWS   .IN    : CALIPER [DCALRED+BITED]
CONDWS  .MMHO  : CONDUCTIVITY [1000/DRESWS]
DCALRED .IN    : DIFFERENTIAL CALIPER FROM RES. LOG
DCORWS  .G/C3  : DENSITY CORRECTION [HDRAED]
DENWS   .G/C3  : BULK DENSITY [M=2.71 F=1.0] [CALCULATED FROM DPOLSWS]
DPHZLSED.V/V   : DENSITY POROSITY [M=2.71 F=1.0] FROM DENSITY LOG
DPOLSWS .V/V   : DENSITY POROSITY [M=2.71 F=1.0] [DPHZLSED]
DRESWS  .OHMM  : DEEP RESISTIVITY [AHT90ED]
DTLFED  .US/F  : DELTA TIME LONG SPACING FAR DETECTOR FROM SONIC LOG
DTLNED  .US/F  : DELTA TIME LONG SPACING NEAR DETECTOR FROM SONIC LOG
DTWS    .US/F  : DELTA TIME [DTLNED]
GRRED   .GAPI  : GAMMA RAY FROM RESISTIVITY LOG
GRWS    .GAPI  : GAMMA RAY [GRRED]
HDRAED  .G/C3  : DENSITY CORRECTION FROM DENSITY LOG
MRESWS  .OHMM  : MEDIUM RESISTIVITY [AHT30ED]
NPORLSED.V/V   : NEUTRON POROSITY LIMESTONE FROM DENSITY LOG
NPOLSWS .V/V   : NEUTRON POROSITY LIMESTONE [NPORLSED]
PEFWS   .B/E   : PHOTOELECTRIC FACTOR [PEFZED]
PEFZED  .B/E   : PHOTOELECTRIC FACTOR STANDARD RESOLUTION FROM DENSITY LOG
SPRED   .MV    : SPONTANEOUS POTENTIAL FROM RESISTIVITY LOG
SPWS    .MV    : SPONTANEOUS POTENTIAL [BASELINE 0 MV] [SPRED]
SRESWS  .OHMM  : SHALLOW RESISTIVITY [AHT10ED]
TENRED  .LBF   : TENSION FROM RESISTIVITY LOG
~Params ----------------------------------------------------
PD  .                     GL : PERMANENT DATUM
EPD .FT                  349 : ELEVATION PERMANENT DATUM
LMF .                     KB : LOG MEASURED FROM
DAPD.FT                 14.5 : FEET ABOVE PERMANENT DATUM
DMF .                     KB : DRILLING MEASURED FROM
EKB .FT                363.5 : KELLY BUSHING
EDF .FT                362.5 : DRILLING FLOOR
EGL .FT                  349 : GROUND LEVEL
DATE.               05/06/99 : RUN DATE
RUN .                      1 : RUN NUMBER
DD  .FT                11318 : DEPTH DRILLER
DL  .FT                11300 : DEPTH LOGGER
BLI .FT                11292 : BOTTOM LOG INTERVAL
TLI .FT                 2462 : TOP LOG INTERVAL
CS  .IN                9.625 : CASING SIZE
CBD .FT                 2469 : CASING BOTTOM DRILLER
CBL .FT                 2462 : CASING BOTTOM LOGGER
BS  .IN                 8.75 : BIT SIZE
BSD .FT                11318 : BIT SIZE AT DEPTH
DFT .              FRESH MUD : DRILLING FLUID TYPE
DFD .                   10.2 : DRILLING FLUID DENSITY
DFV .                     42 : DRILLING FLUID VISCOSITY
DFPH.                     11 : DRILLING FLUID PH
DFL .                      6 : DRILLING FLUID LOSS
MSS .              CIRC TANK : MUD SAMPLE SOURCE
RMS .OHMM              0.812 : RESISTIVITY MUD SAMPLE
MST .DEGF                 75 : MUD SAMPLE TEMPERATURE
RMF .OHMM               0.51 : RESISTIVITY MUD FILTRATE SAMPLE
MFST.DEGF                 75 : MUD FILTRATE SAMPLE TEMPERATURE
RMC .OHMM              1.218 : RESISTIVITY MUD CAKE
MCST.DEGF                 75 : MUD CAKE SAMPLE TEMPERATURE
MFSS.                     MP : MUD FILTRATE SAMPLE SOURCE
MCSS.                   CALC : MUD CAKE SAMPLE SOURCE
RMB .OHMM               0.28 : RESISTIVITY MUD AT BHT
TCS .HRS                1930 : TIME CIRCULATED STOPPED
TLAB.HRS                 630 : TIME LOGGER AT BOTTOM
LUN .                   2129 : LOGGING UNIT NUMBER
LUL .               VICTORIA : LOGGING UNIT LOCATION
ENGI.    VORIS WILBECK BOWEN : RECORDING ENGINEER
WITN.     SIMON SKILES BLACK : WITNESSED BY
CLNT.                A2DTECH : CLIENT CODE
ORIG.         1" 2" 5" PRINT : ORIGIN OF DATA
UWI .         42177320410000 : UNIQUE WELL ID
DICO. A2D Technologies, Inc. : DIGITIZING COMPANY
~Other -----------------------------------------------------
~ASCII -----------------------------------------------------
 2300.00000    -999.25    -999.25    -999.25    -999.25    -999.25    -999.25    -999.25    -999.25    -999.25    -999.25    -999.25    -999.25    -999.25    -999.25    -999.25    -999.25   45.47080   45.47080    -999.25    -999.25    0.53910    0.53910    -999.25    -999.25    -999.25    -999.25    -999.25    -999.25
 2350.00000    -999.25    -999.25    -999.25    -999.25    -999.25    -999.25    -999.25    -999.25    -999.25    -999.25    -999.25    -999.25    -999.25    -999.25    -999.25    -999.25   45.47680   45.47680    -999.25    -999.25    0.45000    0.45000    -999.25    -999.25    -999.25    -999.25    -999.25    -999.25
 2400.00000    -999.25    -999.25    -999.25    -999.25    -999.25    -999.25    -999.25    -999.25    -999.25    -999.25    -999.25    -999.25    -999.25    -999.25    -999.25    -999.25   54.30880   54.30880    -999.25    -999.25    0.49730    0.49730    -999.25    -999.25    -999.25    -999.25    -999.25    -999.25
 2450.00000    -999.25    -999.25    -999.25    -999.25    -999.25    -999.25    -999.25    -999.25    -999.25    -999.25    -999.25    -999.25    -999.25    -999.25    -999.25    -999.25   56.18320   56.18320    -999.25    -999.25    0.54640    0.54640    -999.25    -999.25    -999.25    -999.25    -999.25    -999.25
 2500.00000    2.32600    2.87310    3.15190    4.13880    3.86610   12.14500  258.65860    3.39500   -0.00200    2.12690    0.34100    0.34100    3.86610  108.39200  107.25060  107.25060   68.86520   68.86520   -0.00200    3.15190    0.43380    0.43380    3.33030    3.33030 -105.21440  -27.28340    2.32600 1385.97130
 2550.00000    1.97420    2.09490    2.55820    2.75800    2.99800   13.41250  333.55570    4.66250    0.02250    2.16380    0.31940    0.31940    2.99800  115.28770  116.56370  116.56370   70.88460   70.88460    0.02250    2.55820    0.42090    0.42090    3.51090    3.51090  -73.36190   -4.40100    1.97420 1434.44060
 2600.00000    3.02800    3.16860    4.00840    5.06780    6.09500   11.19020  164.06890    2.44020    0.01440    2.17490    0.31290    0.31290    6.09500  131.60140  127.90860  127.90860   62.93840   62.93840    0.01440    4.00840    0.35660    0.35660    1.29800    1.29800  -64.54130   -7.38330    3.02800 1434.32560
 2650.00000    0.92570    1.03560    1.12580    1.40590    1.45880   14.62620  685.49490    5.87620    0.06060    1.90890    0.46850    0.46850    1.45880  124.11590  129.15980  129.15980   53.94780   53.94780    0.06060    1.12580    0.50240    0.50240    4.61330    4.61330  -47.23680   -1.88160    0.92570 1461.72190
 2700.00000    2.13030    2.64520    2.87320    3.21320    3.72340   11.06500  268.57170    2.31500    0.07530    2.11890    0.34570    0.34570    3.72340  100.47110  103.71430  103.71430   74.45340   74.45340    0.07530    2.87320    0.36440    0.36440    4.91680    4.91680  -52.34790  -12.28450    2.13030 1469.27510
 2750.00000    3.04410    3.45880    4.27990    6.72930    7.33760    9.74700  136.28430    0.99700    0.00330    2.09630    0.35890    0.35890    7.33760  111.71240  111.32120  111.32120   63.07470   63.07470    0.00330    4.27990    0.36040    0.36040    2.13730    2.13730  -50.21960  -13.61150    3.04410 1462.64780
 2800.00000    2.73990    2.97720    3.34310    4.00320    4.77520   10.56550  209.41530    1.81550    0.00090    2.21000    0.29240    0.29240    4.77520  116.22010  113.73360  113.73360   74.52240   74.52240    0.00090    3.34310    0.37200    0.37200    2.12140    2.12140  -43.84160  -10.68880    2.73990 1466.68570
 2850.00000    2.96710    3.38360    4.31970    6.60240    7.37530   10.13210  135.58770    1.38210   -0.00590    2.12550    0.34180    0.34180    7.37530  109.65880  109.06440  109.06440   54.31280   54.31280   -0.00590    4.31970    0.30990    0.30990    1.69690    1.69690  -37.61920   -7.92170    2.96710 1457.06690
 2900.00000    1.80870    2.17560    2.79220    3.66360    4.04830    9.33690  247.01730    0.58690    0.00160    2.01160    0.40840    0.40840    4.04830  111.46670  118.36840  118.36840   58.07590   58.07590    0.00160    2.79220    0.38250    0.38250    3.13090    3.13090  -27.43980   -1.19770    1.80870 1514.15370
 2950.00000    3.44580    3.98100    5.92020    8.88840    9.62170    9.75380  103.93170    1.00380   -0.00500    2.10190    0.35560    0.35560    9.62170  106.30600  106.01460  106.01460   68.24000   68.24000   -0.00500    5.92020    0.32270    0.32270    1.93930    1.93930  -31.21590   -8.42910    3.44580 1511.26400
 3000.00000    3.36490    4.16470    5.46100    7.90710    9.40050    9.37010  106.37730    0.62010    0.00110    2.16190    0.32050    0.32050    9.40050  105.29340  107.07200  107.07200   70.14640   70.14640    0.00110    5.46100    0.32150    0.32150    2.10570    2.10570  -30.68870  -11.35720    3.36490 1513.75420
 3050.00000    3.59820    3.87140    4.84290    6.70550    8.85650   10.19840  112.91140    1.44840   -0.00020    2.16430    0.31910    0.31910    8.85650  106.35420  103.39110  103.39110   58.36770   58.36770   -0.00020    4.84290    0.32620    0.32620    1.97250    1.97250  -28.37310  -12.49690    3.59820 1556.97340
 3100.00000    2.94610    3.60910    4.79560    8.79360   10.18080   10.19640   98.22410    1.44640   -0.00640    2.11270    0.34930    0.34930   10.18080  107.71030  107.42610  107.42610   55.01980   55.01980   -0.00640    4.79560    0.32370    0.32370    1.29100    1.29100  -17.10490   -4.68410    2.94610 1532.54020
 3150.00000    3.40790    4.62550    5.91750    8.14420    8.94260    9.76900  111.82430    1.01900   -0.00430    2.07200    0.37310    0.37310    8.94260  107.36650  107.87620  107.87620   64.03220   64.03220   -0.00430    5.91750    0.35110    0.35110    1.73490    1.73490  -18.73750   -9.77200    3.40790 1536.62710
 3200.00000    2.74720    3.41900    4.37390    5.77170    6.48420    9.21040  154.22100    0.46040   -0.00360    2.13650    0.33540    0.33540    6.48420  109.90610  109.62180  109.62180   58.22790   58.22790   -0.00360    4.37390    0.35080    0.35080    1.82080    1.82080  -18.29720  -11.75150    2.74720 1585.10520
 3250.00000    3.53210    4.01280    5.66810    8.84130    9.41530   10.65920  106.21010    1.90920   -0.00620    2.06550    0.37690    0.37690    9.41530  110.99470  109.32880  109.32880   51.64680   51.64680   -0.00620    5.66810    0.33970    0.33970    2.41030    2.41030  -18.55640  -14.43060    3.53210 1598.92500
 3300.00000    2.58220    3.15880    3.88530    5.03470    5.56880    9.17320  179.57190    0.42320   -0.00230    2.12280    0.34340    0.34340    5.56880  106.89100  106.87460  106.87460   52.53820   52.53820   -0.00230    3.88530    0.33350    0.33350    1.51580    1.51580  -29.66990  -27.96390    2.58220 1619.30410
 3350.00000    3.13730    3.86730    4.95030    5.39520    5.93710    9.21130  168.43240    0.46130    0.00220    2.14830    0.32850    0.32850    5.93710   87.09640   94.90160   94.90160   53.39720   53.39720    0.00220    4.95030    0.29300    0.29300    3.13970    3.13970  -21.75540  -22.46930    3.13730 1611.11580
 3400.00000    2.84400    3.61600    4.16260    4.98410    5.42860    8.78290  184.20960    0.03290   -0.00710    2.16760    0.31720    0.31720    5.42860  106.06140  104.87110  104.87110   54.54520   54.54520   -0.00710    4.16260    0.32220    0.32220    2.47480    2.47480  -18.20300  -21.33670    2.84400 1625.72360
 3450.00000    3.82090    5.09680    6.64980    8.83030    9.67600    9.63010  103.34850    0.88010    0.00240    2.09630    0.35890    0.35890    9.67600  102.91540  103.62320  103.62320   31.98940   31.98940    0.00240    6.64980    0.32430    0.32430    2.01130    2.01130   -4.57900  -10.13250    3.82090 1615.93530
 3500.00000    1.20230    1.34370    1.48330    1.81760    1.92270   12.61320  520.10190    3.86320    0.10170    2.02940    0.39800    0.39800    1.92270  116.53440  108.67750  108.67750   70.19100   70.19100    0.10170    1.48330    0.43960    0.43960    3.27900    3.27900   -2.25010   -9.64670    1.20230 1660.98540
