~Version ---------------------------------------------------
VERS. 2.0 : CWLS log ASCII Standard -VERSION 2.0
WRAP. YES : MULTIPLE LINES PER DEPTH STEP
~Well ------------------------------------------------------
STRT.FT                   3750.0 : START DEPTH
STOP.FT                   8050.0 : STOP DEPTH
STEP.FT                 50.00000 : STEP LENGTH
NULL.                    -999.25 : NULL VALUE
COMP. CHAMPLIN PETROLEUM COMPANY : COMPANY
WELL.           ALFONSO BERAN #1 : WELL
FLD .                   GIDDINGS : FIELD
LOC .                            : LOCATION
CNTY.                   BURLESON : COUNTY
STAT.                      TEXAS : STATE
CTRY.   UNITED STATES OF AMERICA : COUNTRY
SRVC.              Dresser Atlas : SERVICE COMPANY
DATE.                19-Mar-1980 : LOGDATE
API .             42051306370000 : API NUMBER
UWI .             42051306370000 : UNIQUE WELL ID
SLAT.WGS84             30.423017 : SURFACE LATITUDE
SLON.WGS84             -96.73979 : SURFACE LONGITUDE
~Curve Information -----------------------------------------
DEPT  .FT    : DEPTH FEET
ACED  .US/F  : DELTA TIME (ACOUSTIC) FROM SONIC LOG
CALDED.IN    : CALIPER FROM DENSITY LOG[DSH TO GRRED]
CALWS .IN    : CALIPER [CALDED]
CONDWS.MMHO  : CONDUCTIVITY [1000/DRESWS]
CORRED.G/C3  : DENSITY CORRECTION FROM DENSITY LOG[DSH TO GRRED]
DCORWS.G/C3  : DENSITY CORRECTION [CORRED]
DENWS .G/C3  : BULK DENSITY [M=2.71 F=1.0] [RHOBED]
DPHIED.V/V   : DENSITY POROSITY [M=2.71 F=1.0]FROM DENSILOG-SONIC
DPOWS .V/V   : DENSITY POROSITY [M=2.71 F=1.0] [DPHIED]
DRESWS.OHMM  : DEEP RESISTIVITY [ILDED]
DTWS  .US/F  : DELTA TIME [ACED]
GRD1ED.GAPI  : GAMMA RAY FROM DENSILOG-SONIC [DSH TO GRRED]
GRDED .GAPI  : GAMMA RAY FROM DENSITY LOG[DSH TO GRRED]
GRNED .GAPI  : GAMMA RAY FROM GR-NEUTRON LOG[DSH TO GRRED]
GRRED .GAPI  : GAMMA RAY FROM RESISTIVITY LOG
GRWS  .GAPI  : GAMMA RAY [GRRED SPLICED TO GRDED AT 5460'/5534']
ILDED .OHMM  : INDUCTION LOG DEEP RESISTIVITY
ILMED .OHMM  : INDUCTION LOG MEDIUM RESISTIVITY
MRESWS.OHMM  : MEDIUM RESISTIVITY [ILMED]
NEUTED.NAPI  : NEUTRON FROM GR-NEUTRON LOG[DSH TO GRRED]
NEUTWS.NAPI  : NEUTRON [NEUTED]
RHOBED.G/C3  : BULK DENSITY FROM DENSITY LOG[DSH TO GRRED]
SFLED .OHMM  : SPHERICALLY FOCUSED LOG RESISTIVITY
SPHIED.V/V   : SONIC POROSITY FROM DENSILOG-SONIC LOG[DSH TO GRRED]
SPOWS .V/V   : SONIC POROSITY [SPHIED]
SPRED .MV    : SPONTANEOUS POTENTIAL FROM RESISTIVITY LOG
SPWS  .MV    : SPONTANEOUS POTENTIAL [BASELINE 0 MV] [SPRED WAS REVERSED]
SRESWS.OHMM  : SHALLOW RESISTIVITY [SFLED]
~Params ----------------------------------------------------
PD  .                     GL : PERMANENT DATUM
EPD .FT                  383 : ELEVATION PERMANENT DATUM
LMF .                     KB : LOG MEASURED FROM
DAPD.FT                 13.6 : FEET ABOVE PERMANENT DATUM
DMF .                     KB : DRILLING MEASURED FROM
EKB .FT                  397 : KELLY BUSHING
EDF .FT                  396 : DRILLING FLOOR
EGL .FT                  383 : GROUND LEVEL
DATE.               03/19/80 : RUN DATE
RUN .                      1 : RUN NUMBER
DD  .FT                 8123 : DEPTH DRILLER
DL  .FT                 8094 : DEPTH LOGGER
BLI .FT                 8092 : BOTTOM LOG INTERVAL
TLI .FT                 3764 : TOP LOG INTERVAL
CS  .IN                9.625 : CASING SIZE
CBD .FT                 3755 : CASING BOTTOM DRILLER
CBL .FT                 3764 : CASING BOTTOM LOGGER
BS  .IN                 8.75 : BIT SIZE
BSD .FT                 8123 : BIT SIZE AT DEPTH
DFT .                SUPER X : DRILLING FLUID TYPE
DFD .                    9.2 : DRILLING FLUID DENSITY
DFV .                     42 : DRILLING FLUID VISCOSITY
DFPH.                      7 : DRILLING FLUID PH
DFL .                    8.2 : DRILLING FLUID LOSS
MSS .               FLOWLINE : MUD SAMPLE SOURCE
RMS .OHMM               0.15 : RESISTIVITY MUD SAMPLE
MST .DEGF                 70 : MUD SAMPLE TEMPERATURE
RMF .OHMM               0.11 : RESISTIVITY MUD FILTRATE SAMPLE
MFST.DEGF                 70 : MUD FILTRATE SAMPLE TEMPERATURE
RMC .OHMM               0.19 : RESISTIVITY MUD CAKE
MCST.DEGF                 70 : MUD CAKE SAMPLE TEMPERATURE
MFSS.                   MEAS : MUD FILTRATE SAMPLE SOURCE
MCSS.                   CALC : MUD CAKE SAMPLE SOURCE
RMB .OHMM               0.05 : RESISTIVITY MUD AT BHT
TCS .HRS                  14 : TIME CIRCULATED STOPPED
LUN .                   6139 : LOGGING UNIT NUMBER
LUL .                  BRYAN : LOGGING UNIT LOCATION
ENGI.                 POWELL : RECORDING ENGINEER
WITN.              WES DAVIS : WITNESSED BY
CLNT.                A2DTECH : CLIENT CODE
ORIG.          1" 2.5" PRINT : ORIGIN OF DATA
UWI .         42051306370000 : UNIQUE WELL ID
DICO. A2D Technologies, Inc. : DIGITIZING COMPANY
~Other -----------------------------------------------------
~ASCII -----------------------------------------------------
 3750.00000    -999.25    -999.25    -999.25    -999.25    -999.25    -999.25    -999.25    -999.25    -999.25    -999.25    -999.25    -999.25   45.69700    -999.25    -999.25    -999.25    -999.25    -999.25    -999.25    -999.25    -999.25    -999.25    -999.25    -999.25    -999.25    -999.25    -999.25    -999.25
 3800.00000   97.69180    9.73050    9.73050  180.24190    0.04250    0.04250    2.34760    0.21610    0.21610    5.54810   97.69180   79.01790   86.04590    -999.25   92.27590   92.27590    5.54810    2.87900    2.87900    -999.25    -999.25    2.34760    3.35930    0.38850    0.38850  -84.17910  -13.62500    3.35930
 3850.00000   95.62080    9.88020    9.88020  204.06080    0.07470    0.07470    2.31110    0.22550    0.22550    4.90050   95.62080   82.18110   85.15800    -999.25   90.54050   90.54050    4.90050    2.95920    2.95920    -999.25    -999.25    2.31110    4.07700    0.39820    0.39820  -54.62450  -39.77050    4.07700
 3900.00000   98.87570    9.31240    9.31240  143.88490    0.03270    0.03270    2.30800    0.23830    0.23830    6.95000   98.87570   98.23390   93.83390    -999.25  101.35300  101.35300    6.95000    4.46990    4.46990    -999.25    -999.25    2.30800    4.19140    0.42790    0.42790  -48.90260  -42.49900    4.19140
 3950.00000  100.05920    9.20760    9.20760  144.56090    0.00420    0.00420    2.16870    0.32130    0.32130    6.91750  100.05920   51.13170   53.49200    -999.25   56.08160   56.08160    6.91750    3.86890    3.86890    -999.25    -999.25    2.16870    4.36890    0.40970    0.40970  -23.95210  -64.45610    4.36890
 4000.00000  101.83360    9.25260    9.25260  233.06760    0.04730    0.04730    2.24500    0.27380    0.27380    4.29060  101.83360   80.37280   84.76330    -999.25   85.19790   85.19790    4.29060    3.25810    3.25810    -999.25    -999.25    2.24500    3.20410    0.39250    0.39250  -40.82040  -44.59440    3.20410
 4050.00000  108.49110    9.95620    9.95620  395.52270    0.12430    0.12430    2.17610    0.31550    0.31550    2.52830  108.49110   96.26220   98.63720    -999.25  114.41440  114.41440    2.52830    2.35870    2.35870    -999.25    -999.25    2.17610    2.36100    0.44590    0.44590  -73.35350   -9.06790    2.36100
 4100.00000   74.31980    9.13280    9.13280  122.51600    0.01200    0.01200    2.38960    0.18790    0.18790    8.16220   74.31980   56.85500   59.61280    -999.25   83.93410   83.93410    8.16220    7.70660    7.70660    -999.25    -999.25    2.38960    6.34670    0.27800    0.27800  -50.89820  -32.46500    6.34670
 4150.00000   98.43200    9.26750    9.26750  332.91160    0.06530    0.06530    2.28060    0.23870    0.23870    3.00380   98.43200   80.83430   77.72040    -999.25   89.41450   89.41450    3.00380    2.14270    2.14270    -999.25    -999.25    2.28060    2.41060    0.30090    0.30090  -62.57410  -22.42530    2.41060
 4200.00000   96.21300    9.51890    9.51890  198.50720    0.03840    0.03840    2.33350    0.22820    0.22820    5.03760   96.21300   84.19880   87.31030    -999.25   94.89500   94.89500    5.03760    3.24440    3.24440    -999.25    -999.25    2.33350    3.78740    0.38840    0.38840  -73.05390  -13.58180    3.78740
 4250.00000   99.17160    9.54880    9.54880  244.09300    0.03390    0.03390    2.34560    0.22090    0.22090    4.09680   99.17160   81.00890   83.99230    -999.25   98.27320   98.27320    4.09680    3.58730    3.58730    -999.25    -999.25    2.34560    3.02840    0.39690    0.39690  -79.34130   -9.15160    3.02840
 4300.00000   98.28400    9.92960    9.92960  379.49220    0.05610    0.05610    2.35330    0.21110    0.21110    2.63510   98.28400   86.25430   89.89000    -999.25  100.14990  100.14990    2.63510    2.65110    2.65110    -999.25    -999.25    2.35330    2.71750    0.40460    0.40460  -88.02400   -2.40380    2.71750
 4350.00000   95.62080    9.63860    9.63860  369.18080    0.04670    0.04670    2.36660    0.20490    0.20490    2.70870   95.62080   89.05170   94.69580    -999.25  101.35130  101.35130    2.70870    2.50920    2.50920    -999.25    -999.25    2.36660    3.75230    0.36240    0.36240  -88.28060   -4.08210    3.75230
 4400.00000   95.62110    9.97110    9.97110  392.78840    0.08900    0.08900    2.30330    0.23710    0.23710    2.54590   95.62110   93.96490   96.18920    -999.25  101.05100  101.05100    2.54590    2.24790    2.24790    -999.25    -999.25    2.30330    2.76800    0.41420    0.41420  -88.62270   -5.67490    2.76800
 4450.00000   92.21870   10.67470   10.67470  384.76340    0.08300    0.08300    2.37010    0.20360    0.20360    2.59900   92.21870   83.94880   89.29010    -999.25   92.34230   92.34230    2.59900    3.48980    3.48980    -999.25    -999.25    2.37010    2.53000    0.38210    0.38210  -92.51500   -3.71750    2.53000
 4500.00000  103.90490   11.31840   11.31840  598.15770    0.11180    0.11180    2.29270    0.24520    0.24520    1.67180  103.90490   89.91100   93.01100    -999.25  101.35080  101.35080    1.67180    1.70750    1.70750    -999.25    -999.25    2.29270    1.70600    0.44310    0.44310  -94.01050   -3.40020    1.70600
 4550.00000   99.46750   10.70460   10.70460  517.54480    0.13310    0.13310    2.28600    0.24390    0.24390    1.93220   99.46750   81.89910   84.06090    -999.25   91.66660   91.66660    1.93220    1.85440    1.85440    -999.25    -999.25    2.28600    1.98610    0.39280    0.39280  -94.95550   -2.81350    1.98610
 4600.00000   99.76380   11.02010   11.02010  528.73680    0.10950    0.10950    2.35350    0.21210    0.21210    1.89130   99.76380   79.45050   81.69750    -999.25   94.14410   94.14410    1.89130    1.82900    1.82900    -999.25    -999.25    2.35350    1.90550    0.41070    0.41070  -96.14200   -1.98530    1.90550
 4650.00000  103.98860   11.44600   11.44600  614.89270    0.10950    0.10950    2.33420    0.21640    0.21640    1.62630  103.98860   79.11710   83.91780    -999.25   91.89190   91.89190    1.62630    1.57240    1.57240    -999.25    -999.25    2.33420    1.64800    0.42800    0.42800  -96.43920   -2.04640    1.64800
 4700.00000  104.37200   12.06590   12.06590  667.95810    0.12410    0.12410    2.35820    0.20930    0.20930    1.49710  104.37200   84.15830   79.88680    -999.25   90.99100   90.99100    1.49710    1.48820    1.48820    -999.25    -999.25    2.35820    2.31290    0.43250    0.43250  -96.73590   -2.10800    2.31290
 4750.00000  105.17860   11.79640   11.79640  756.20080    0.12110    0.12110    2.33130    0.22720    0.22720    1.32240  105.17860   82.28780   82.39230    -999.25   90.54050   90.54050    1.32240    1.31500    1.31500    -999.25    -999.25    2.33130    2.04190    0.44260    0.44260  -97.92480   -1.27740    2.04190
 4800.00000  110.53570   11.88520   11.88520  777.30280    0.13020    0.13020    2.15430    0.33100    0.33100    1.28650  110.53570   82.28190   85.83040    -999.25   95.49550   95.49550    1.28650    1.24470    1.24470    -999.25    -999.25    2.15430    1.72980    0.44840    0.44840  -94.95550   -4.60500    1.72980
 4850.00000  102.94640   11.57080   11.57080  712.30140    0.14870    0.14870    2.32780    0.22280    0.22280    1.40390  102.94640   88.95700   92.37480    -999.25   93.24320   93.24320    1.40390    1.58320    1.58320    -999.25    -999.25    2.32780    2.44410    0.40760    0.40760  -95.54900   -4.36980    2.44410
 4900.00000   99.72270   13.11480   13.11480  756.14370    0.17010    0.17010    2.27470    0.25700    0.25700    1.32250   99.72270   94.29960   95.72270    -999.25   90.87820   90.87820    1.32250    1.37040    1.37040    -999.25    -999.25    2.27470    2.07030    0.43860    0.43860  -96.73300   -3.30120    2.07030
 4950.00000  111.23030   13.45910   13.45910  850.19550    0.16590    0.16590    2.17960    0.33680    0.33680    1.17620  111.23030   82.28000   86.35380    -999.25   87.53750   87.53750    1.17620    0.88480    0.88480    -999.25    -999.25    2.17960    1.25840    0.45000    0.45000  -97.92190   -2.05880    1.25840
