~Version ---------------------------------------------------
VERS. 2.0 : CWLS log ASCII Standard -VERSION 2.0
WRAP.  NO : ONE LINE PER DEPTH STEP
~Well ------------------------------------------------------
STRT.F                  3150.0 : START DEPTH
STOP.F                  8550.0 : STOP DEPTH
STEP.F                50.00000 : STEP LENGTH
NULL.                  -999.25 : NULL VALUE
COMP.      CPC EXPLORATION INC : COMPANY
WELL.    LILLIE LINKENHOGER #1 : WELL
FLD .                       WC : FIELD
LOC .                          : LOCATION
CNTY.                 ATASCOSA : COUNTY
STAT.                    TEXAS : STATE
CTRY. UNITED STATES OF AMERICA : COUNTRY
SRVC.            Dresser Atlas : SERVICE COMPANY
DATE.              02-Oct-1981 : LOGDATE
API .           42013313140000 : API NUMBER
UWI .           42013313140000 : UNIQUE WELL ID
SLAT.WGS84       28.6940503558 : SURFACE LATITUDE
SLON.WGS84      -98.7658627812 : SURFACE LONGITUDE
~Curve Information -----------------------------------------
DEPT.F                 : 
SPR .MV   07 010 01 00 : SPONTANEOUS POTENTIAL FROM RES. LOG
DPHI.DEC  45 890 12 00 : DENSITY POROSITY SANDSTONE
GRS .GAPI 60 310 01 00 : GAMMA RAY FROM SONIC LOG
CALS.IN   60 280 50 00 : CALIPER FROM SONIC LOG
AC  .US/F 60 520 42 00 : ACOUSTIC
SFL .OHMM 07 220 01 00 : SPHERICALLY FOCUSED LOG
RILD.OHMM 07 120 46 00 : INDUCTION LOG DEEP RESISTIVITY
RILM.OHMM 07 120 44 00 : INDUCTION LOG MEDIUM RESISTIVITY
~Params ----------------------------------------------------
PD  .                     GL : PERMANENT DATUM
EPD .FT                  401 : ELEVATION PERMANENT DATUM
LMF .                     KB : LOG MEASURED FROM
DAPD.FT                   10 : FEET ABOVE PERMANENT DATUM
DMF .                     KB : DRILLING MEASURED FROM
EKB .FT                  411 : KELLY BUSHING
EDF .FT                  410 : DRILLING FLOOR
EGL .FT                  402 : GROUND LEVEL
DATE.               10/02/81 : RUN DATE
RUN .                      1 : RUN NUMBER
DD  .FT                 8563 : DEPTH DRILLER
DL  .FT                 8572 : DEPTH LOGGER
BLI .FT                 8570 : BOTTOM LOG INTERVAL
TLI .FT                 3170 : TOP LOG INTERVAL
CS  .IN                9.625 : CASING SIZE
CBD .FT                 3150 : CASING BOTTOM DRILLER
CBL .FT                 3170 : CASING BOTTOM LOGGER
BS  .IN                 8.75 : BIT SIZE
BSD .FT                 8563 : BIT SIZE AT DEPTH
DFD .                    9.3 : DRILLING FLUID DENSITY
DFV .                     44 : DRILLING FLUID VISCOSITY
DFPH.                   11.5 : DRILLING FLUID PH
DFL .                    6.2 : DRILLING FLUID LOSS
MSS .               FLOWLINE : MUD SAMPLE SOURCE
RMS .OHMM               2.07 : RESISTIVITY MUD SAMPLE
MST .FT                   75 : MUD SAMPLE TEMPERATURE
RMF .OHMM               1.56 : RESISTIVITY MUD FILTRATE SAMPLE
MFST.FT                   75 : MUD FILTRATE SAMPLE TEMPERATURE
RMC .OHMM               2.59 : RESISTIVITY MUD CAKE
MCST.FT                   75 : MUD CAKE SAMPLE TEMPERATURE
MFSS.                   CALC : MUD FILTRATE SAMPLE SOURCE
MCSS.                   CALC : MUD CAKE SAMPLE SOURCE
RMB .OHMM              0.839 : RESISTIVITY MUD AT BHT
TCS .HRS                   4 : TIME CURCULATED STOPPED
LUN .                   6116 : LOGGING UNIT NUMBER
LUL .                  ALICE : LOGGING UNIT LOCATION
ENGI.             RUTHERFORD : RECORDING ENGINEER
WITN.                  STAUB : WITNESSED BY
CLNT.                A2DTECH : CLIENT CODE
ORIG.            1" 5" PRINT : ORIGIN OF DATA
UWI .         42013313140000 : UNIQUE WELL ID
DICO. A2D Technologies, Inc. : DIGITIZING COMPANY
~Other -----------------------------------------------------
~ASCII -----------------------------------------------------
 3150.00000    -999.25    -999.25   38.72080    -999.25    -999.25    -999.25    -999.25    -999.25
 3200.00000  -60.78190    0.19410   41.39110   11.70400  108.04060    5.23640    5.88360    6.62560
 3250.00000  -59.09080    0.15850   54.16710    9.14200   98.96650    8.73830    6.47980    6.92550
 3300.00000  -60.80010    0.14650   56.86540    8.77970  104.74410    6.71900    7.15880    7.39760
 3350.00000  -49.73100    0.19430   70.04320   10.20560  105.62070    4.00160    4.55440    5.18840
 3400.00000  -43.87140    0.21760   56.99610   12.14090  115.32430    2.81860    2.29570    2.61870
 3450.00000  -49.05730    0.15840   54.65530   11.60470  108.34990    3.27360    3.30390    3.60440
 3500.00000  -59.18820    0.15860   53.82790    9.51710  107.80200    8.07290    7.49950    8.97040
 3550.00000  -43.64360    0.15120   75.77980   10.35630   98.20570    3.92600    3.35680    3.59770
 3600.00000  -58.56140    0.17620   65.64760    8.65300   89.13020    6.61540    6.24500    7.02470
 3650.00000  -43.72780    0.17400   69.19600    9.82230  103.67720    2.98560    2.97940    3.38780
 3700.00000  -51.90480    0.12960   79.18050    9.54240   99.69180    5.18950    4.19790    5.04700
 3750.00000  -49.21790    0.14910   62.35750   10.01540   94.62230    4.72850    4.02900    4.72130
 3800.00000  -71.35580    0.16260   48.29670    9.11590   88.98500   13.33750    7.50020   10.41080
 3850.00000  -69.09820    0.22300   40.34710    8.59430   96.67820    9.93180    6.53030    8.68950
 3900.00000  -47.75810    0.11890   58.38220    9.19760   92.85260    4.52650    3.93070    4.85800
 3950.00000  -61.68940    0.21990   44.57200    8.89220   96.43110    9.89140    7.64060    9.17920
 4000.00000  -40.17060    0.20930   87.77620   10.07080  107.73990    2.95820    2.18350    2.41250
 4050.00000  -47.27370    0.15560   69.67880    8.97620   99.15450    5.09370    4.15940    4.99550
 4100.00000  -45.51490    0.14410   72.19370    9.36710   93.62330    4.69090    3.65760    4.02750
 4150.00000  -62.82570    0.21470   41.70840    8.72950   99.89070   10.14490    7.70960    9.35230
 4200.00000  -61.65240    0.21230   37.41490    8.67940   94.39620   10.07000    9.07890    9.63410
 4250.00000  -62.05000    0.23530   33.97150    8.79840   90.49790   11.18310    8.86640   10.35190
 4300.00000  -57.41450    0.16780   44.51010    8.67630   94.86590    4.94270    3.90020    4.28560
 4350.00000  -69.77100    0.17870   35.49730    8.59480   93.05360    7.00140    3.97220    4.98890
 4400.00000  -76.42780    0.22400   38.69920    8.44190   93.58620    7.93430    3.67150    4.94060
 4450.00000  -78.80590    0.20630   41.32750    8.24160   87.26640   10.16320    4.46780    6.08390
 4500.00000  -42.06020    0.10780   78.98830    9.16290   93.70600    4.33430    3.90000    4.04010
 4550.00000  -47.59630    0.12700  105.99770    9.50750   92.58800    4.84780    4.01150    4.22730
 4600.00000  -36.05980    0.07490   76.49020   10.08970  103.17100    2.55660    2.00920    2.12200
 4650.00000  -35.72680    0.08730   78.70670   10.05390   96.55900    3.15970    2.73020    3.15030
 4700.00000  -35.07030    0.04590   76.40750   10.07580   97.80150    2.63780    2.67090    3.06030
 4750.00000  -34.23890    0.07440   75.65370    9.71530   97.40560    2.87370    2.51450    2.67320
 4800.00000  -34.88390    0.13420   83.52510    9.85490  105.60140    2.05850    1.68970    1.80140
 4850.00000  -33.35990    0.09990   88.45420    9.98070   99.99820    2.35760    2.05080    2.16890
 4900.00000  -31.92830    0.12790   90.29590    9.75400  101.06470    2.05470    1.69150    1.77150
 4950.00000  -35.35650    0.10390   78.38850    9.16840   90.14640    2.93110    2.57240    2.69030
 5000.00000  -32.85650    0.09990   71.15320    9.25140   94.53510    2.37150    2.19550    2.35620
 5050.00000  -32.49570    0.11160   62.67160    8.90000   87.36580    3.28540    3.04110    3.26160
 5100.00000  -32.41910    0.12960   65.55860    8.99840   88.97320    2.87760    2.39320    2.55290
 5150.00000  -31.66820    0.11770   63.40850    9.47100   90.62290    2.59510    2.32850    2.50630
 5200.00000  -36.19290    0.09160   71.76600    9.36720   83.38800    4.25100    4.94320    5.14080
 5250.00000  -30.46040    0.11970   81.35790    9.99250  101.77930    2.10390    1.51390    1.61510
 5300.00000  -33.43850    0.05150   58.76380    9.35440   84.18130    4.48040    4.03950    4.26690
 5350.00000  -34.03640    0.16380   68.03460   10.97960   94.03660    2.36650    1.92740    1.98190
 5400.00000  -31.80200    0.08780   60.66730   10.01450   92.99330    2.93920    2.45250    2.69070
 5450.00000  -31.24060    0.10770   59.34300   10.36250   99.00820    2.43800    1.91880    2.10390
 5500.00000  -33.03320    0.09920   56.16240   10.07540   88.15050    3.33790    2.71170    2.94470
 5550.00000  -31.47220    0.09720   58.02410   10.89780   92.50130    3.06300    2.87660    3.15890
 5600.00000  -32.80650    0.06500   46.55780   10.15530   75.02040    3.26330    3.04660    3.13480
 5650.00000  -30.41240    0.12640   66.92670   11.15620  100.61630    2.18130    1.81560    1.89500
 5700.00000  -28.19200    0.14760   69.31250   10.14420  104.35790    2.04660    1.49630    1.58120
 5750.00000  -28.37470    0.11590   63.19000   11.56310   95.84090    2.46050    1.95900    2.10670
 5800.00000  -30.30030    0.14030   60.62290   12.87490   99.14770    2.41780    2.15590    2.30200
 5850.00000  -30.68260    0.11150   50.00710   11.43080   85.21600    2.90420    2.77220    2.82130
 5900.00000  -29.69620    0.09480   55.60670   11.51570   91.04480    2.69880    2.35500    2.50050
 5950.00000  -30.21350    0.12320   54.41610   12.16100   87.83260    2.90420    2.45990    2.55780
 6000.00000  -27.83600    0.12360   58.78030   12.97280  100.74930    2.00920    1.58390    1.68930
 6050.00000  -27.06460    0.13110   52.73470   13.05000   99.59250    2.16790    1.78250    1.93080
 6100.00000  -29.30380    0.12250   54.82370   12.25580   96.13740    2.37730    2.20280    2.29360
 6150.00000  -25.92100    0.13230   59.12720    9.97690   92.30860    3.01150    2.34960    2.53800
 6200.00000  -25.22100    0.04110   48.92110   10.25220   85.97520    3.65620    3.32380    3.52400
 6250.00000  -26.54540    0.09850   54.73270   13.87140   96.58060    2.46030    2.05840    2.32820
 6300.00000  -54.48190    0.20380   44.28820   10.03240   89.00210    3.75870    1.80200    2.28580
 6350.00000  -28.40440    0.12100   69.28250   11.20590   87.25600    2.77450    2.35650    2.56400
 6400.00000  -25.18800    0.27080   55.16220   11.61540   86.26640    2.28980    1.93040    2.10390
 6450.00000  -23.83280    0.16620   70.34160   14.49640   99.17660    1.78460    1.49630    1.56690
 6500.00000  -22.66480    0.07540   55.93980   11.75590   78.12130    3.18460    2.66890    2.92010
 6550.00000  -22.82480    0.07700   55.73560   11.63200   77.49560    3.27360    3.18560    3.37180
 6600.00000  -23.80370    0.11660   68.23440   12.64910   84.84170    2.30180    2.39370    2.52840
 6650.00000  -21.80760    0.06360   63.73660   12.15130   80.41450    3.46070    3.69120    3.80640
 6700.00000  -22.79120    0.08770   57.53740    -999.25   82.70480    2.65130    2.51250    2.75750
 6750.00000  -34.31500    0.11750   69.85100    -999.25   83.09150    2.20670    2.05850    2.14300
 6800.00000  -36.21510    0.13600   64.76640   14.10780   81.60040    3.02900    3.07790    3.23220
 6850.00000  -35.36640    0.12990   62.72510    -999.25   82.69380    2.36870    2.47150    2.66380
 6900.00000  -37.04310    0.10340   56.11500    -999.25   83.29700    2.84040    2.95830    3.09760
 6950.00000  -34.32640    0.10630   69.14240   15.02780   84.87600    2.70420    2.78130    3.05870
 7000.00000  -34.88700    0.09140   65.03100   14.85200   84.00860    2.78040    2.85400    3.02460
 7050.00000  -33.11650    0.11710   84.42010   11.52560   92.73360    2.69740    2.55930    2.73910
 7100.00000  -33.43960    0.09930   51.80800   15.57650   86.86860    2.66180    2.46510    2.64790
