~Version ---------------------------------------------------
VERS.      2.0 : CWLS log ASCII Standard -VERSION 2.0
WRAP.      YES : Multiple lines per depth step
CREA. 08/18/12 : LAS Creation Date
~Well ------------------------------------------------------
STRT.FT                 2900.0 : START DEPTH
STOP.FT                17850.0 : STOP DEPTH
STEP.FT               50.00000 : STEP LENGTH
NULL.                  -999.25 : NULL VALUE
COMP. AMOCO PRODUCTION COMPANY : COMPANY
WELL.   JIMMY HILL GAS UNIT #1 : WELL
FLD .                  WILDCAT : FIELD
LOC .                          : LOCATION
CNTY.                     LEON : COUNTY
STAT.                    TEXAS : STATE
CTRY. UNITED STATES OF AMERICA : COUNTRY
SRVC.             Schlumberger : SERVICE COMPANY
DATE.              04-Jun-1996 : LOGDATE
API .           42289312310000 : API NUMBER
UWI .           42289312310000 : UNIQUE WELL ID
SLAT.WGS84       31.2538599246 : SURFACE LATITUDE
SLON.WGS84      -96.2196025838 : SURFACE LONGITUDE
~Curve Information -----------------------------------------
DEPT    .FT                                                                                                : DEPTH FEET
AO10ED  .OHMM                                                                                              : ARRAY INDUCTION ONE FOOT RESISTIVITY A10 FROM AIT-PI-DITE-LDT-CNT LOG
AO20ED  .OHMM                                                                                              : ARRAY INDUCTION ONE FOOT RESISTIVITY A20 FROM AIT-PI-DITE-LDT-CNT LOG
AO30ED  .OHMM                                                                                              : ARRAY INDUCTION ONE FOOT RESISTIVITY A30 FROM AIT-PI-DITE-LDT-CNT LOG
AO60ED  .OHMM                                                                                              : ARRAY INDUCTION ONE FOOT RESISTIVITY A60 FROM AIT-PI-DITE-LDT-CNT LOG
AO90ED  .OHMM                                                                                              : ARRAY INDUCTION ONE FOOT RESISTIVITY A90 FROM AIT-PI-DITE-LDT-CNT LOG
CALSED  .IN                                                                                                : CALIPER FROM BCS-CALIPER-GR LOG [ADJ. TO GRRED]
CALWS   .IN                                                                                                : CALIPER [DCALED+BITS]
CONDWS  .MMHO                                                                                              : CONDUCTIVITY [1000/DRESWS]
DCALED  .IN                                                                                                : DIFFERENTIAL CALIPER FROM AIT-PI-DITE-LDT-CNT LOG
DCORWS  .G/C3                                                                                              : DENSITY CORRECTION [DRHED SPL. TO DRHOED @ 10860']
DENWS   .G/C3 :   FORMATION BULK DENSITY [RHOMED, DENWS CALCULATED FROM DPOWS FROM 7004'-10889'] [M:2.71,F : 1.0]
DPHILSED.V/V                                                      :   DENSITY POROSITY LIMESTONE [M:2.71,F : 1.0] FROM AIT-PI-DITE-LDT-CNT LOG
DPOLSED .V/V                                                                                               : DENSITY POROSITY LIMESTONE FROM HOSTILE LDL-CN-GR LOG
DPOWS   .V/V                                                                                               : DENSITY POROSITY [DPHILSED SPL. TO DPOLSED @ 10852']
DRESWS  .OHMM                                                                                              : DEEP RESISTIVITY [AO30ED SPL. TO IDPHED]
DRHED   .G/C3                                                                                              : BULK DENSITY CORRECTION FROM HOSTILE LDL-CN-GR LOG
DRHOED  .G/C3                                                                                              : BULK DENSITY CORRECTION FROM AIT-PI-DITE-LDT-CNT LOG
DTED    .US/F                                                                                              : DELTA T FROM BCS-CALIPER-GR LOG [ADJ. TO GRRED/NPHILSED]
DTLFED  .US/F                                                                                              : DELTA-T LONG SPACING FAR FROM AIT-PI-DITE-LDT-CNT-PI-LSS-GR LOG
DTLNED  .US/F                                                                                              : DELTA-T LONG SPACING NEAR FROM AIT-PI-DITE-LDT-CNT-PI-LSS-GR LOG
DTWS    .US/F                                                                                              : COMPRESSIONAL SONIC [DTED SPL. TO DTLNED @ 10865.5'-15946.5']
GRRED   .GAPI                                                                                              : GAMMA RAY FROM AIT-PI-DITE-LDT-CNT LOG
GRSED   .GAPI                                                                                              : GAMMA RAY FROM BCS-CALIPER-GR-PI-LSS LOG [ADJ. TO GRRED]
GRWS    .GAPI                                                                                              : GAMMA RAY [GRRED]
IDPHED  .OHMM                                                                                              : DEEP INDUCTION PHASOR FROM AIT-PI-DITE-LDT-CNT- PI-LSS-GR LOG
LCALED  .IN                                                                                                : LOWER CALIPER FROM HOSTILE LDL-CN-GR LOG
MRESWS  .OHMM                                                                                              : MEDIUM RESISTIVITY [AO30ED]
NPHILSED.V/V                                                                                               : NEUTRON POROSITY LIMESTONE FROM AIT-PI-DITE-LDT-CNT LOG
NPOWS   .V/V                                                                                               : NEUTRON POROSITY [NPHILSED]
PEFED   .B/E                                                                                               : PHOTOELECTRIC FACTOR FROM AIT-PI-DITE-LDT-CNT LOG
PEFLED  .B/E                                                                                               : HLDT PEF LONG SPACING FROM HOSTILE LDL-CN-GR LOG
PEFSED  .B/E                                                                                               : SHORT SPACED CORRECTED PHOTOELECTRIC FACTOR FROM HOSTILE LDL-CN-GR LOG
PEFWS   .B/E                                                                                               : PHOTOELECTRIC FACTOR [PEFED SPL. TO PEFSED @ 10847.5']
RHOMED  .G/C3                                                                                              : CORRECTED BULK DENSITY FROM HOSTILE LDL-CN-GR LOG
SPRED   .MV                                                                                                : SPONTANEOUS POTENTIAL  FROM AIT-PI-DITE-LDT-CNT LOG
SPWS    .MV                                                                                                : SPONTANEOUS POTENTIAL [BASELINE 0, MV SPRED]
SRESWS  .OHMM                                                                                              : SHALLOW RESISTIVITY [AO10ED]
TENDED  .LBF                                                                                               : DIFFERENTIAL TENSION FROM HOSTILE LDL-CN-GR LOG
TENRED  .LBF                                                                                               : TENSION FROM AIT-PI-DITE-LDT-CNT LOG
TENSED  .LBF                                                                                               : TOTAL TENSION FROM BCS-CALIPER-GR LOG [ADJ. TO GRRED]
~Params ----------------------------------------------------
PD  .                     GL : PERMANENT DATUM
EPD .FT                 3759 : ELEVATION PERMANENT DATUM
LMF .                     KB : LOG MEASURED FROM
DAPD.FT                 37.2 : FEET ABOVE PERMANENT DATUM
DMF .                     KB : DRILLING MEASURED FROM
EKB .FT                 4131 : KELLY BUSHING
EDF .FT                 4121 : DRILLING FLOOR
EGL .FT                 3759 : GROUND LEVEL
DATE.               06/04/96 : RUN DATE
RUN .                      4 : RUN NUMBER
DD  .FT                17800 : DEPTH DRILLER
DL  .FT                17800 : DEPTH LOGGER
BLI .FT                17797 : BOTTOM LOG INTERVAL
TLI .FT                15944 : TOP LOG INTERVAL
CS  .IN                    7 : CASING SIZE
CBD .FT                15950 : CASING BOTTOM DRILLER
CBL .FT                15944 : CASING BOTTOM LOGGER
BS  .IN                5.875 : BIT SIZE
BSD .FT                17800 : BIT SIZE AT DEPTH
DFT .              OIL BASED : DRILLING FLUID TYPE
DFD .                     18 : DRILLING FLUID DENSITY
DFV .                     88 : DRILLING FLUID VISCOSITY
RMC .OHMM      OIL BASED MUD : RESISTIVITY MUD CAKE
MCST.DEGF      OIL BASED MUD : MUD CAKE SAMPLE TEMPERATURE
TCS .HRS                2100 : TIME CIRCULATED STOPPED
TLAB.HRS                1500 : TIME LOGGER AT BOTTOM
LUN .                   2019 : LOGGING UNIT NUMBER
LUL .                  TYLER : LOGGING UNIT LOCATION
ENGI.                 FERRIS : RECORDING ENGINEER
WITN.              MCGINNUSS : WITNESSED BY
CLNT.                A2DTECH : CLIENT CODE
ORIG.               5' PRINT : ORIGIN OF DATA
UWI .         42289312310000 : UNIQUE WELL ID
DICO. A2D Technologies, Inc. : DIGITIZING COMPANY
~Other -----------------------------------------------------
~ASCII -----------------------------------------------------
# ...
 15500.00000    -999.25    -999.25    -999.25    -999.25    -999.25    -999.25    9.55960   66.58630    1.05960   -0.01170    2.57150    -999.25    0.07680    0.07680   15.01810   -0.01170    -999.25    -999.25  110.12990   92.57850   92.57850  102.52520    -999.25  102.52520   15.01810    9.54600    -999.25    0.16830    0.16830    -999.25    6.52960    4.34420    4.34420    2.57150    -999.25    -999.25    -999.25 5447.21000 5440.16550    -999.25
 15550.00000    -999.25    -999.25    -999.25    -999.25    -999.25    -999.25    9.52570   29.89360    1.02570   -0.01000    2.56040    -999.25    0.08600    0.08600   33.45200   -0.01000    -999.25    -999.25  129.37600  100.95760  100.95760  105.28080    -999.25  105.28080   33.45200    9.42370    -999.25    0.18360    0.18360    -999.25    6.54090    4.75310    4.75310    2.56040    -999.25    -999.25    -999.25 5579.84230 5469.66260    -999.25
 15600.00000    -999.25    -999.25    -999.25    -999.25    -999.25    -999.25    9.10830   44.42210    0.60830   -0.02030    2.55760    -999.25    0.09020    0.09020   22.51130   -0.02030    -999.25    -999.25  102.30980  102.08070  102.08070  114.65560    -999.25  114.65560   22.51130    9.07950    -999.25    0.21090    0.21090    -999.25    6.05720    4.01920    4.01920    2.55760    -999.25    -999.25    -999.25 5608.70650 5620.66940    -999.25
 15650.00000    -999.25    -999.25    -999.25    -999.25    -999.25    -999.25    9.10540  132.85510    0.60540   -0.02040    2.54400    -999.25    0.09820    0.09820    7.52700   -0.02040    -999.25    -999.25  101.84330  101.69480  101.69480  125.93130    -999.25  125.93130    7.52700    9.06050    -999.25    0.16350    0.16350    -999.25    5.94980    4.32530    4.32530    2.54400    -999.25    -999.25    -999.25 5596.40630 5532.28660    -999.25
 15700.00000    -999.25    -999.25    -999.25    -999.25    -999.25    -999.25    9.12230  110.77630    0.62230   -0.01600    2.59570    -999.25    0.06730    0.06730    9.02720   -0.01600    -999.25    -999.25   99.47090   98.85560   98.85560  124.06780    -999.25  124.06780    9.02720    9.08540    -999.25    0.20900    0.20900    -999.25    6.18850    4.08940    4.08940    2.59570    -999.25    -999.25    -999.25 5513.90480 5526.81050    -999.25
 15750.00000    -999.25    -999.25    -999.25    -999.25    -999.25    -999.25    9.15150  338.78780    0.65150   -0.00690    2.57790    -999.25    0.07530    0.07530    2.95170   -0.00690    -999.25    -999.25  102.12900  101.80870  101.80870  120.36230    -999.25  120.36230    2.95170    9.11180    -999.25    0.21020    0.21020    -999.25    6.19230    4.21210    4.21210    2.57790    -999.25    -999.25    -999.25 5636.11080 5650.09280    -999.25
 15800.00000    -999.25    -999.25    -999.25    -999.25    -999.25    -999.25    8.99960   41.44000    0.49960   -0.01220    2.54240    -999.25    0.09340    0.09340   24.13130   -0.01220    -999.25    -999.25  105.55370  104.86980  104.86980  125.21470    -999.25  125.21470   24.13130    8.98690    -999.25    0.20250    0.20250    -999.25    5.90270    4.06750    4.06750    2.54240    -999.25    -999.25    -999.25 5589.48140 5574.39160    -999.25
 15850.00000    -999.25    -999.25    -999.25    -999.25    -999.25    -999.25    8.91820  347.36700    0.41820   -0.01170    2.52690    -999.25    0.10430    0.10430    2.87880   -0.01170    -999.25    -999.25  105.19790  104.65800  104.65800  122.84700    -999.25  122.84700    2.87880    8.87770    -999.25    0.22090    0.22090    -999.25    6.04100    4.21520    4.21520    2.52690    -999.25    -999.25    -999.25 5654.71440 5610.10010    -999.25
 15900.00000    -999.25    -999.25    -999.25    -999.25    -999.25    -999.25    8.71570  329.14230    0.21570   -0.01290    2.54570    -999.25    0.09450    0.09450    3.03820   -0.01290    -999.25    -999.25  105.07010  104.30800  104.30800  122.53880    -999.25  122.53880    3.03820    8.66020    -999.25    0.20420    0.20420    -999.25    7.45280    4.47460    4.47460    2.54570    -999.25    -999.25    -999.25 5735.62060 5721.98440    -999.25
 15950.00000    -999.25    -999.25    -999.25    -999.25    -999.25    -999.25    7.11980  327.00040    1.24480   -0.04520    2.48240    -999.25    0.13130    0.13130    3.05810   -0.04520    -999.25  109.07050  -60.12120    -999.25  109.07050  105.21740   95.54480  105.21740    3.05810    7.00720    -999.25    0.18350    0.18350    -999.25    9.51970    5.95790    5.95790    2.48240    -999.25    -999.25    -999.25 5494.36040 5445.64890 2523.52000
 16000.00000    -999.25    -999.25    -999.25    -999.25    -999.25    -999.25    7.31380  467.85810    1.43880   -0.02780    2.53150    -999.25    0.10530    0.10530    2.13740   -0.02780    -999.25  105.11070  178.77890   87.62210  105.11070  125.34650  116.43420  125.34650    2.13740    7.22290    -999.25    0.17790    0.17790    -999.25    8.66640    5.36130    5.36130    2.53150    -999.25    -999.25    -999.25 4355.66210 4554.11670 2505.19170
 16050.00000    -999.25    -999.25    -999.25    -999.25    -999.25    -999.25    7.30640  391.15980    1.43140   -0.03220    2.51330    -999.25    0.11530    0.11530    2.55650   -0.03220    -999.25  110.46400    -999.25  239.54860  110.46400  123.22670  126.99970  123.22670    2.55650    7.24630    -999.25    0.22100    0.22100    -999.25    8.16060    5.05540    5.05540    2.51330    -999.25    -999.25    -999.25 4350.76900 4624.09670 2474.25980
 16100.00000    -999.25    -999.25    -999.25    -999.25    -999.25    -999.25    7.44670  195.99390    1.57170   -0.02350    2.51970    -999.25    0.11160    0.11160    5.10220   -0.02350    -999.25  105.72180  266.54900    -999.25  105.72180  112.41690  107.74580  112.41690    5.10220    7.34330    -999.25    0.18240    0.18240    -999.25    9.03290    5.97860    5.97860    2.51970    -999.25    -999.25    -999.25 4262.11870 4624.62990 2479.53250
 16150.00000    -999.25    -999.25    -999.25    -999.25    -999.25    -999.25    7.34560  203.25200    1.47060   -0.01630    2.61010    -999.25    0.05950    0.05950    4.92000   -0.01630    -999.25  101.69680  316.47140  239.26050  101.69680  110.64030  126.29130  110.64030    4.92000    7.25990    -999.25    0.19580    0.19580    -999.25    9.98270    5.66990    5.66990    2.61010    -999.25    -999.25    -999.25 4411.09230 4644.56010 2538.68240
 16200.00000    -999.25    -999.25    -999.25    -999.25    -999.25    -999.25    8.09850   39.66520    2.22350   -0.02590    2.62110    -999.25    0.05300    0.05300   25.21100   -0.02590    -999.25   97.75340  108.22710   -8.04550   97.75340  117.15570  112.16370  117.15570   25.21100    8.02490    -999.25    0.19600    0.19600    -999.25    9.38090    6.14040    6.14040    2.62110    -999.25    -999.25    -999.25 4400.74370 4690.48390 4140.17870
 16250.00000    -999.25    -999.25    -999.25    -999.25    -999.25    -999.25    7.59090   27.42010    1.71590   -0.03290    2.60510    -999.25    0.06230    0.06230   36.46960   -0.03290    -999.25   93.56200  239.67020  120.13460   93.56200  105.39980  100.50870  105.39980   36.46960    7.48930    -999.25    0.19950    0.19950    -999.25   10.01360    5.41280    5.41280    2.60510    -999.25    -999.25    -999.25 4421.88430 4743.64550 2537.11750
 16300.00000    -999.25    -999.25    -999.25    -999.25    -999.25    -999.25    7.66900   21.91140    1.79400   -0.02470    2.62980    -999.25    0.04770    0.04770   45.63840   -0.02470    -999.25   93.42850  230.95890  221.21070   93.42850   88.57560  105.40600   88.57560   45.63840    7.57660    -999.25    0.20000    0.20000    -999.25    9.66410    6.17900    6.17900    2.62980    -999.25    -999.25    -999.25 4407.86720 4696.05130 2527.28210
 16350.00000    -999.25    -999.25    -999.25    -999.25    -999.25    -999.25    7.78050  117.45360    1.90550   -0.02400    2.58990    -999.25    0.07150    0.07150    8.51400   -0.02400    -999.25   93.00830    -999.25  171.28020   93.00830   98.16050  100.90130   98.16050    8.51400    7.66350    -999.25    0.18220    0.18220    -999.25    8.16780    5.84570    5.84570    2.58990    -999.25    -999.25    -999.25 4438.30370 4776.41260 2598.62060
