~Version ---------------------------------------------------
VERS. 2.0 : CWLS log ASCII Standard -VERSION 2.0
WRAP. YES : MULTIPLE LINES PER DEPTH STEP
~Well ------------------------------------------------------
STRT.FT                  300.0 : START DEPTH
STOP.FT                15250.0 : STOP DEPTH
STEP.FT               50.00000 : STEP LENGTH
NULL.                  -999.25 : NULL VALUE
COMP.  CONTINENTAL OIL COMPANY : COMPANY
WELL.    HALSELL FOUNDATION #1 : WELL
FLD .                  WILDCAT : FIELD
LOC .                          : LOCATION
CNTY.                 MAVERICK : COUNTY
STAT.                    TEXAS : STATE
CTRY. UNITED STATES OF AMERICA : COUNTRY
SRVC.             Schlumberger : SERVICE COMPANY
DATE.              02-Apr-1972 : LOGDATE
API .           42323300720000 : API NUMBER
UWI .           42323300720000 : UNIQUE WELL ID
SLAT.WGS84       28.6077848095 : SURFACE LATITUDE
SLON.WGS84     -100.3259081005 : SURFACE LONGITUDE
~Curve Information -----------------------------------------
DEPT    .FT    : DEPTH FEET
ALL8ED  .MV    : AMPLIFIED LATARLOG 8 FROM RES. LOG
ASNED   .OHMM  : 16 INCH AMPLIFIED SHORT NORMAL RESISTIVITY FROM IEL
CALDED  .IN    : CALIPER FROM DENSITY LOG, DEPTH ADJUSTED WITH [ILDED]
CALSED  .IN    : CALIPER FROM SONIC LOG, DEPTH ADJUSTED WITH [ILDED]
CALWS   .IN    : CALIPER [CALSED]
CILDED  .MMHO  : CONDUCTIVITY FROM RESISTIVITY LOG
CONDWS  .MMHO  : CONDUCTIVITY [1000/DRESWS]
DENWS   .G/C3  : BULK DENSITY [M=2.71 F=1.0] [CALCULATED FROM DPOWS]
DPHILSED.V/V   : DENSITY POROSITY [M=2.71 F=1.0] FROM DENSITY LOG, DEPTH ADJUSTED WITH [ILDED]
DPOWS   .V/V   : DENSITY POROSITY [DPHILSED]
DRESWS  .OHMM  : DEEP RESISTIVITY [ILDED] IF DRESWS<1;1000/CONDWS
DTED    .US/F  : DELTA TIME FROM SONIC LOG, DEPTH ADJUSTED WITH [ILDED]
DTWS    .US/F  : DELTA TIME [DTED]
GRDED   .GAPI  : GAMMA RAY FROM DENSITY LOG, DEPTH ADJUSTED WITH [ILDED]
GRRED   .GAPI  : GAMMA RAY FROM RESISTIVITY LOG
GRSED   .GAPI  : GAMMA RAY FROM SONIC LOG, DEPTH ADJUSTED WITH [ILDED]
GRWS    .GAPI  : GAMMA RAY [GRSED]
ILDED   .OHMM  : INDUCTION LOG DEEP RESISTIVITY
NPHILSED.V/V   : NEUTRON POROSITY LIMESTONE FROM DENSITY LOG, DEPTH ADJUSTED WITH [ILDED]
NPOWS   .V/V   : NEUTRON POROSITY SANDSTONE [NPHILSED]
SPRED   .MV    : SPONTANEOUS POTENTIAL FROM RESISTIVITY LOG
SPWS    .MV    : SPONTANEOUS POTENTIAL [BASELINE 0 MV] [SPRED]
SRESWS  .OHMM  : SHALLOW RESISTIVITY [ASNED], SPLICED WITH [ALL8ED] AT 8750'
~Params ----------------------------------------------------
PD  .                     GL : PERMANENT DATUM
EPD .F                 749.4 : ELEVATION PERMANENT DATUM
LMF .                     KB : LOG MEASURED FROM
DAPD.F                  25.2 : FEET ABOVE PERMANENT DATUM
DMF .                     KB : DRILLING MEASURED FROM
EKB .F                 775.4 : KELLING BUSHING
EDF .F                 774.6 : DRILLING FLOOR
EGL .F                 749.4 : GROUND LEVEL
DATE.               04/02/72 : RUN DATE
RUN .                      8 : RUN NUMBER
DD  .F                 15250 : DEPTH DRILLER
DL  .F                 15273 : DEPTH LOGGER
BLI .F                 15266 : BOTTOM LOG INTERVAL
TLI .F                 14800 : TOP LOG INTERVAL
CS  .IN                9.625 : CASING SIZE
CBD .F                  8736 : CASING BOTTOM DRILLER
CBL .F                  8748 : CASING BOTTOM LOGGER
BS  .IN                  8.5 : BIT SIZE
BSD .F                 15250 : BIT SIZE AT DEPTH
DFT .             LIGNO SULF : DRILLING FLUID TYPE
DFD .                   14.5 : DRILLING FLUID DENSITY
DFV .                     49 : DRILLING FLUID VISCOSITY
DFPH.                     12 : DRILLING FLUID PH
DFL .                    1.6 : DRILLING FLUID LOSS
MSS .               CIRC PIT : MUD SAMPLE SOURCE
RMS .OHMM               0.55 : RESISTIVITY MUD SAMPLE
MST .F                    75 : MUD SAMPLE TEMPERATURE
RMF .OHMM               0.17 : RESISTIVITY MUD FILTRATE SAMPLE
MFST.F                    75 : MUD FILTRATE SAMPLE TEMPERATURE
RMC .OHMM                1.1 : RESISTIVITY MUD CAKE
MCST.F                    75 : MUD CAKE SAMPLE TEMPERATURE
MFSS.                      M : MUD FILTRATE SAMPLE SOURCE
MCSS.                      C : MUD CAKE SAMPLE SOURCE
RMB .OHMM                0.1 : RESISTIVITY MUD AT BHT
TCS .HRS                 4.5 : TIME CURCULATED STOPPED
LUN .                   7029 : LOGGING UNIT NUMBER
LUL .                   VICT : LOGGING UNIT LOCATION
ENGI.               BRADFORD : RECORDING ENGINEER
CLNT.                A2DTECH : CLIENT CODE
ORIG.            2" 5" PRINT : ORIGIN OF DATA
UWI .         42323300720000 : UNIQUE WELL ID
DICO. A2D Technologies, Inc. : DIGITIZING COMPANY
~Other -----------------------------------------------------
~ASCII -----------------------------------------------------
# ...
 9600.00000    6.71890    -999.25    9.83200    9.49720    9.49720  206.71950  225.70820    2.73790   -0.01630   -0.01630    4.43050   57.60370   57.60370   47.40950    -999.25   42.05460   42.05460    4.43050   -0.00170   -0.00170  -45.49090  -33.54700    6.71890
 9650.00000    4.36370    -999.25   10.62330   10.18830   10.18830  261.21510  397.56690    2.73670   -0.01560   -0.01560    2.51530   65.89890   65.89890   71.66310    -999.25   67.66930   67.66930    2.51530    0.05330    0.05330  -27.76320  -16.61240    4.36370
 9700.00000   10.48680    -999.25   10.49950    9.63610    9.63610  116.80320  115.26180    2.72210   -0.00710   -0.00710    8.67590   61.59200   61.59200   56.54110    -999.25   38.95740   38.95740    8.67590    0.00120    0.00120  -19.21170   -8.85410   10.48680
 9750.00000    8.73230    -999.25   11.12370   10.23710   10.23710  157.80630  176.29530    2.77020   -0.03520   -0.03520    5.67230   61.68230   61.68230   68.95540    -999.25   59.31220   59.31220    5.67230    0.03010    0.03010  -28.60570  -19.04120    8.73230
 9800.00000    4.21030    -999.25   10.55890    9.99630    9.99630  315.95720  509.47630    2.68620    0.01390    0.01390    1.96280   69.69930   69.69930   90.28320    -999.25   81.03090   81.03090    1.96280    0.05920    0.05920  -28.48330  -19.71200    4.21030
 9850.00000    5.36160    -999.25   11.27270   10.40440   10.40440  200.06670  243.09610    2.72660   -0.00970   -0.00970    4.11360   66.50620   66.50620   85.55670    -999.25   71.22680   71.22680    4.11360    0.04290    0.04290  -25.83910  -17.86090    5.36160
 9900.00000    8.23340    -999.25   10.16180    9.62280    9.62280  180.65850  221.98050    2.73500   -0.01460   -0.01460    4.50490   59.07160   59.07160   64.17430    -999.25   58.36500   58.36500    4.50490    0.01290    0.01290  -12.89810   -5.71300    8.23340
 9950.00000    6.41090    -999.25   10.42750    9.72980    9.72980  239.39130  292.10730    2.75000   -0.02340   -0.02340    3.42340   68.59270   68.59270   92.69830    -999.25   73.53920   73.53920    3.42340    0.04220    0.04220  -20.09970  -13.70780    6.41090
 10000.00000   11.13670    -999.25    9.69850    9.16410    9.16410  123.35800  135.10770    2.71190   -0.00110   -0.00110    7.40150   59.22270   59.22270   57.86690    -999.25   51.60450   51.60450    7.40150   -0.01100   -0.01100   -4.84660    0.75220   11.13670
 10050.00000   22.64920    -999.25   10.25250    9.00920    9.00920   65.86270   66.66310    2.67080    0.02290    0.02290   15.00080   58.40010   58.40010   48.22560    -999.25   37.09280   37.09280   15.00080   -0.02320   -0.02320  -24.53330  -19.72770   22.64920
 10100.00000   11.86490    -999.25    9.95970    9.36240    9.36240  110.53060  118.36140    2.72950   -0.01140   -0.01140    8.44870   60.49060   60.49060   74.43970    -999.25   56.78850   56.78850    8.44870    0.01870    0.01870  -11.50910   -7.49660   11.86490
 10150.00000   12.24420    -999.25    9.67040    9.26340    9.26340  160.64690  180.55430    2.75450   -0.02600   -0.02600    5.53850   61.69950   61.69950   85.74360    -999.25   56.37330   56.37330    5.53850    0.03290    0.03290  -16.78130  -13.56190   12.24420
 10200.00000   11.35670    -999.25   10.11810    9.51950    9.51950  137.77550  149.27380    2.76990   -0.03500   -0.03500    6.69910   65.15100   65.15100   85.43570    -999.25   70.10910   70.10910    6.69910    0.06010    0.06010  -10.41240   -7.98620   11.35670
 10250.00000    7.77640    -999.25   10.32890    9.89610    9.89610  174.69360  174.69690    2.83500   -0.07310   -0.07310    5.72420   53.87990   53.87990   40.64160    -999.25   38.78300   38.78300    5.72420    0.01780    0.01780  -17.73260  -16.09950    7.77640
 10300.00000   29.79450    -999.25   10.15010    9.16000    9.16000   53.78400   57.69840    2.70520    0.00280    0.00280   17.33150   56.98210   56.98210   50.68650    -999.25   45.70630   45.70630   17.33150   -0.01300   -0.01300   -9.04010   -8.20020   29.79450
 10350.00000   20.12740    -999.25   10.28270    9.33250    9.33250   83.17950   79.90220    2.74420   -0.02000   -0.02000   12.51530   57.40300   57.40300   62.19400    -999.25   58.15670   58.15670   12.51530    0.00300    0.00300   -3.09090   -3.04410   20.12740
 10400.00000    9.79360    -999.25   10.03450    9.46330    9.46330  123.42950  129.00060    2.75090   -0.02390   -0.02390    7.75190   60.29150   60.29150   82.83380    -999.25   67.10430   67.10430    7.75190    0.04700    0.04700   -8.74470   -9.49110    9.79360
 10450.00000   38.64890    -999.25    9.69160    8.82360    8.82360   37.73990   31.01550    2.73090   -0.01220   -0.01220   32.24190   56.31300   56.31300   43.93910    -999.25   32.85030   32.85030   32.24190   -0.03630   -0.03630  -16.51010  -18.04960   38.64890
 10500.00000   16.85760    -999.25    9.77760    9.15840    9.15840   87.94080   98.13540    2.76560   -0.03250   -0.03250   10.19000   54.12830   54.12830   33.10390    -999.25   26.88830   26.88830   10.19000   -0.01090   -0.01090  -16.46870  -18.80130   16.85760
 10550.00000    5.19830    -999.25    9.88450    9.45710    9.45710  229.94420  300.50790    2.72620   -0.00950   -0.00950    3.32770   69.88860   69.88860  114.69590    -999.25   90.93530   90.93530    3.32770    0.08050    0.08050   -1.92990   -5.05570    5.19830
 10600.00000   11.98090    -999.25   10.18540    9.28890    9.28890  116.61670  122.34360    2.72500   -0.00880   -0.00880    8.17370   64.60930   64.60930   83.67230    -999.25   66.25490   66.25490    8.17370    0.03210    0.03210   -6.87380  -10.79270   11.98090
 10650.00000   30.85910    -999.25    9.65260    9.01850    9.01850   55.74830   52.46450    2.77170   -0.03610   -0.03610   19.06050   58.10070   58.10070   64.22340    -999.25   41.99510   41.99510   19.06050    0.01930    0.01930   -2.49920   -7.21130   30.85910
 10700.00000  115.77750    -999.25   10.19270    8.68780    8.68780    5.81500    9.96730    2.66140    0.02840    0.02840  100.32850   54.64970   54.64970   19.77630    -999.25   18.99280   18.99280  100.32850   -0.05150   -0.05150   -7.80870  -13.31390  115.77750
 10750.00000   46.77840    -999.25   10.36810    8.75220    8.75220   23.98420   22.16370    2.57340    0.07990    0.07990   45.11880   57.03240   57.03240   41.21020    -999.25   42.21320   42.21320   45.11880   -0.02400   -0.02400   -1.41700   -7.71530   46.77840
 10800.00000   30.99900    -999.25    9.66090    8.96530    8.96530   40.86730   37.53980    2.73330   -0.01360   -0.01360   26.63840   57.85490   57.85490   60.38170    -999.25   48.40450   48.40450   26.63840   -0.00340   -0.00340   -3.75930  -10.85080   30.99900
 10850.00000   26.54630    -999.25    9.28270    8.65040    8.65040   38.20320   32.44370    2.63410    0.04440    0.04440   30.82260   58.93490   58.93490   46.31000    -999.25   35.57860   35.57860   30.82260   -0.01860   -0.01860  -21.01780  -28.90240   26.54630
 10900.00000   31.84150    -999.25    9.23380    8.62470    8.62470   30.22050   28.57700    2.68930    0.01210    0.01210   34.99320   58.14270   58.14270   48.17350    -999.25   33.74810   33.74810   34.99320   -0.02990   -0.02990  -21.61360  -30.29140   31.84150
 10950.00000    -999.25    -999.25    9.13240    9.22630    9.22630    -999.25    -999.25    2.70690    0.00180    0.00180    -999.25    -999.25    -999.25   35.90830    -999.25   39.08670   39.08670    -999.25   -0.02510   -0.02510    -999.25    -999.25    -999.25
 11000.00000   16.48330    -999.25    8.98970    9.17410    9.17410   76.37850   83.27090    2.68350    0.01550    0.01550   12.00900   56.95810   56.95810   54.69450    -999.25   31.88240   31.88240   12.00900   -0.02180   -0.02180  -24.07200  -39.55480   16.48330
 11050.00000   33.68300    -999.25    9.09890    9.23620    9.23620   35.48270   26.89540    2.57880    0.07670    0.07670   37.18110   55.46820   55.46820   46.57140    -999.25   25.81130   25.81130   37.18110   -0.02310   -0.02310   -3.76630  -25.97270   33.68300
 11100.00000    9.07820    -999.25    9.03610    9.41630    9.41630   86.74690   71.55690    2.71770   -0.00450   -0.00450   13.97490   58.33750   58.33750   59.20530    -999.25   58.01070   58.01070   13.97490    0.04940    0.04940    9.06690  -19.86300    9.07820
