~Version ---------------------------------------------------
VERS. 2.0 : CWLS log ASCII Standard -VERSION 2.0
WRAP.  NO : ONE LINE PER DEPTH STEP
~Well ------------------------------------------------------
STRT.F                   1900.0 : START DEPTH
STOP.F                  10400.0 : STOP DEPTH
STEP.F                 50.00000 : STEP LENGTH
NULL.                   -999.25 : NULL VALUE
COMP.      ASHER RESOURCES, INC : COMPANY
WELL. C. N. COOKE A GAS UNIT #2 : WELL
FLD .                     COOKE : FIELD
LOC .                           : LOCATION
CNTY.                  LA SALLE : COUNTY
STAT.                     TEXAS : STATE
CTRY.  UNITED STATES OF AMERICA : COUNTRY
SRVC.              Schlumberger : SERVICE COMPANY
DATE.               18-Jun-1993 : LOGDATE
API .            42283315230000 : API NUMBER
UWI .            42283315230000 : UNIQUE WELL ID
SLAT.WGS84         28.314045138 : SURFACE LATITUDE
SLON.WGS84       -99.0804856611 : SURFACE LONGITUDE
~Curve Information -----------------------------------------
DEPT.F                 : 
GRR .GAPI 06 310 01 00 : GAMMA RAY FROM RES.
IDPH.OHMM 06 120 46 00 : INDUCTION DEEP PHASOR RES.
IMPH.OHMM 06 120 44 00 : INDUCTION MEDIUM PHASOR RES.
SFLU.OHMM 06 220 01 00 : SPHERICALLY FOCUSED LOG UNAVERAGED RESISTIVITY
SPR .MV   06 010 01 00 : SPONTANEOUS POTENTIAL FROM RES.
CALD.IN   45 280 60 00 : CALIPER FROM DENSITY LOG
DPHI.DEC  45 890 10 00 : DENSITY POROSITY LIMESTONE
DRHO.G/C3 45 356 01 00 : DENSITY CORRECTION
NPHI.DEC  42 890 01 00 : NEUTRON POROSITY LIMESTONE
~Params ----------------------------------------------------
PD  .                     GL : PERMANENT DATUM
EPD .F                   352 : ELEVATION PERMANENT DATUM
LMF .                     KB : LOG MEASURED FROM
DAPD.F                    14 : FEET ABOVE PERMANENT DATUM
DMF .                     KB : DRILLING MEASURED FROM
DATE.              6-18-1993 : RUN DATE
RUN .                      1 : RUN NUMBER
DD  .F                 10435 : DEPTH DRILLER
DL  .F                 10404 : DEPTH LOGGER
BLI .F                 10396 : BOTTOM LOG INTERVAL
TLI .F                  2007 : TOP LOG INTERVAL
CS  .IN                9.625 : CASING SIZE
CBD .F                  2007 : CASING BOTTOM DRILLER
CBL .F                  2007 : CASING BOTTOM LOGGER
BS  .IN                 8.75 : BIT SIZE
BSD .F                 10435 : BIT SIZE AT DEPTH
DFT .              FRESH MUD : DRILLING FLUID TYPE
DFD .                   10.4 : DRILLING FLUID DENSITY
DFPH.                     10 : DRILLING FLUID PH
DFL .                    5.6 : DRILLING FLUID LOSS
MSS .              CIRC. PIT : MUD SAMPLE SOURCE
RMS .OHMM              0.543 : RESISTIVITY MUD SAMPLE
MST .F                   116 : MUD SAMPLE TEMPERATURE
RMF .OHMM              0.589 : RESISTIVITY MUD FILTRATE SAMPLE
MFST.F                    75 : MUD FILTRATE SAMPLE TEMPERATURE
RMC .OHMM              0.814 : RESISTIVITY MUD CAKE
MCST.F                   116 : MUD CAKE SAMPLE TEMPERATURE
MFSS.               MEASURED : MUD FILTRATE SAMPLE SOURCE
MCSS.             CALCULATED : MUD CAKE SAMPLE SOURCE
RMB .OHMM              0.282 : RESISTIVITY MUD AT BHT
TCS .HRS                 330 : TIME CURCULATED STOPPED
TLAB.HRS                 940 : TIME LOGGER AT BOTTOM
LUN .                   8129 : LOGGING UNIT NUMBER
LUL .             LAREDO, TX : LOGGING UNIT LOCATION
ENGI.              STRUBHART : RECORDING ENGINEER
WITN.                    FOX : WITNESSED BY
CLNT.                A2DTECH : CLIENT CODE
ORIG.               5" PRINT : ORIGIN OF DATA
UWI .         42283315230000 : UNIQUE WELL ID
DICO. A2D Technologies, Inc. : DIGITIZING COMPANY
~Other -----------------------------------------------------
~ASCII -----------------------------------------------------
 1900.00000   32.80580    -999.25    -999.25    -999.25    -999.25    -999.25    -999.25    -999.25    -999.25
 1950.00000   45.92760    -999.25    -999.25    -999.25    -999.25    -999.25    -999.25    -999.25    -999.25
 2000.00000   46.38120    -999.25    -999.25    -999.25    -999.25    -999.25    -999.25    -999.25    -999.25
 2050.00000   65.15840   11.83440    7.40940    7.30740   -9.19820    9.37350    -999.25    -999.25    -999.25
 2100.00000   62.21790    3.03700    3.20740    3.65800  -35.21910   10.71380    -999.25    -999.25    -999.25
 2150.00000   75.11370    3.81420    2.81220    2.77350  -31.89060   11.49700    -999.25    -999.25    -999.25
 2200.00000   51.35750    9.88980    7.51260    6.77160  -22.66210    9.67470    -999.25    -999.25    -999.25
 2250.00000   62.66970   11.19870    8.99380    8.05090  -25.38540   10.29220    -999.25    -999.25    -999.25
 2300.00000   57.23980    8.03960    7.01030    6.02020  -28.86570   10.24700    -999.25    -999.25    -999.25
 2350.00000   59.72930   10.74400    8.27670    7.30740  -20.24210    9.49410    -999.25    -999.25    -999.25
 2400.00000   34.84200    8.91660    6.91390    6.54170  -19.78820    9.65960    -999.25    -999.25    -999.25
 2450.00000   58.37100    5.49930    5.38930    5.38940  -25.53670   10.00620    -999.25    -999.25    -999.25
 2500.00000   41.85520   17.30060   11.61760   11.30050  -10.55950    9.22290    -999.25    -999.25    -999.25
 2550.00000   71.49320   16.48420   11.69830   10.25710  -15.70350    9.04220    -999.25    -999.25    -999.25
 2600.00000   70.36240    7.80950    6.18930    6.06210  -26.59680   10.60850    -999.25    -999.25    -999.25
 2650.00000   74.20810    4.94790    4.85800    6.27540  -27.35220   11.46670    -999.25    -999.25    -999.25
 2700.00000   69.23080    8.25370    6.49640    5.13450  -24.17550   10.90970    -999.25    -999.25    -999.25
 2750.00000   73.52940    8.42670    8.62760    8.39210  -29.47050   11.37660    -999.25    -999.25    -999.25
 2800.00000   73.98190    2.34480    2.00350    1.90870  -28.41150   10.53310    -999.25    -999.25    -999.25
 2850.00000   38.23490   16.36620   12.27900   10.61790  -22.05720   10.09640    -999.25    -999.25    -999.25
 2900.00000   66.51580   21.58060   15.11180   12.79950  -18.57770    9.78010    -999.25    -999.25    -999.25
 2950.00000   38.23530   17.90530   10.99200   11.06830   -4.81090    9.81030    -999.25    -999.25    -999.25
 3000.00000   37.55750   22.80930   12.36420   13.06810    4.41860   11.09040    -999.25    -999.25    -999.25
 3050.00000   62.89610   18.92330   12.45000   13.06780  -13.58550    9.94570    -999.25    -999.25    -999.25
 3100.00000   55.88200   16.14160   11.53760   10.39960  -16.61110   11.66260    -999.25    -999.25    -999.25
 3150.00000   50.45320   14.65280    9.63770   10.61810   -5.26470    9.49410    -999.25    -999.25    -999.25
 3200.00000   45.24890   19.86240   12.45000   12.88830    0.03060    9.46380    -999.25    -999.25    -999.25
 3250.00000   57.01400   12.24060    8.27660    7.35780   -9.95420    9.82530    -999.25    -999.25    -999.25
 3300.00000   35.52110   28.06610   14.19940   15.11200   14.40270    9.32830    -999.25    -999.25    -999.25
 3350.00000   35.74660   25.47620   14.19920   16.42030   11.07410    9.34340    -999.25    -999.25    -999.25
 3400.00000   32.58030   27.68110   14.70030   16.99830   21.36240    9.59940    -999.25    -999.25    -999.25
 3450.00000   70.58820    8.66300    8.33420    8.21980  -11.44250    9.47890    -999.25    -999.25    -999.25
 3500.00000   58.37100   13.48520   11.61760   11.61800   -3.60040    8.89160    -999.25    -999.25    -999.25
 3550.00000   84.16360    4.07720    4.72550    7.51300   -8.13790    9.53910    -999.25    -999.25    -999.25
 3600.00000   84.84160    4.04890    4.00230    4.79120  -11.92130   10.39760    -999.25    -999.25    -999.25
 3650.00000   62.66930    8.08390    7.10790    6.91380  -18.42660    8.92170    -999.25    -999.25    -999.25
 3700.00000   66.06470    8.25380    8.16310    7.99530  -16.46040    8.56020    -999.25    -999.25    -999.25
 3750.00000   54.07240    6.99160    6.49640    5.85590  -18.12410    8.99680    -999.25    -999.25    -999.25
 3800.00000   54.52790    5.05160    5.17010    5.42690  -19.33380    9.16240    -999.25    -999.25    -999.25
 3850.00000   66.06280    6.04650    6.10420    6.40720  -26.44450    9.35840    -999.25    -999.25    -999.25
 3900.00000   62.44310    4.46040    4.59620    5.65670  -20.84720    8.95180    -999.25    -999.25    -999.25
 3950.00000   71.71960    5.68180    5.65680    5.76100  -23.26730    9.58430    -999.25    -999.25    -999.25
 4000.00000   70.81450    4.94780    4.72530    4.66010  -19.03180   10.33730    -999.25    -999.25    -999.25
 4050.00000   54.75150    3.88440    4.56470    5.12200  -36.27840    8.99690    -999.25    -999.25    -999.25
 4100.00000   80.31750    1.81550    1.79340    2.39390  -10.86210    -999.25    -999.25    -999.25    -999.25
 4150.00000   77.60180    3.93840    3.70890    4.64940  -14.34170    -999.25    -999.25    -999.25    -999.25
 4200.00000   80.31670    3.88430    3.94730    4.16260  -32.04270    -999.25    -999.25    -999.25    -999.25
 4250.00000   58.82350    5.84110   10.25710   26.19090  -33.10120    -999.25    -999.25    -999.25    -999.25
 4300.00000   71.49400    3.80460    4.00230    3.91130  -24.02420    -999.25    -999.25    -999.25    -999.25
 4350.00000   87.32960    2.51260    2.53490    2.56530   -8.59230    -999.25    -999.25    -999.25    -999.25
 4400.00000   88.46190    4.55410    4.66040    4.55400  -11.46720    -999.25    -999.25    -999.25    -999.25
 4450.00000   94.34460    3.72640    3.73470    3.33620  -18.12360    -999.25    -999.25    -999.25    -999.25
 4500.00000   94.79710    3.42980    3.41350    3.52600   -9.65250    -999.25    -999.25    -999.25    -999.25
 4550.00000   84.61610    3.02840    3.05570    4.07700   -9.95450    -999.25    -999.25    -999.25    -999.25
 4600.00000   90.95130    3.04950    2.93140    3.11330   -9.65200    -999.25    -999.25    -999.25    -999.25
 4650.00000   90.27150    4.16240    4.23010    5.48870  -26.74700    -999.25    -999.25    -999.25    -999.25
 4700.00000   74.20890    4.61730    4.89180    5.84130  -20.69580    -999.25    -999.25    -999.25    -999.25
 4750.00000   82.35310    4.39920    5.20610    4.77980  -23.11620    -999.25    -999.25    -999.25    -999.25
 4800.00000   60.67630    2.96620    3.88430    5.33900  -47.62050    -999.25    -999.25    -999.25    -999.25
 4850.00000   88.87220    2.01390    2.05610    2.24950  -10.42180    -999.25    -999.25    -999.25    -999.25
 4900.00000   89.54870    3.83100    3.80460    3.85770   -9.96990    -999.25    -999.25    -999.25    -999.25
 4950.00000   73.98380    4.16240    4.30890    5.01690  -22.47010    -999.25    -999.25    -999.25    -999.25
 5000.00000   92.48140    3.67530    3.70080    3.93840   -9.51810    -999.25    -999.25    -999.25    -999.25
 5050.00000   96.76690    2.58310    2.65550    2.73000   -8.31300    -999.25    -999.25    -999.25    -999.25
 5100.00000   91.12780    2.20330    2.20330    2.36100   -5.15060    -999.25    -999.25    -999.25    -999.25
 5150.00000   38.56990    2.90530    3.91130    7.70220  -35.27160    -999.25    -999.25    -999.25    -999.25
 5200.00000   67.66880    3.24520    3.26770    3.67530  -14.78920    -999.25    -999.25    -999.25    -999.25
 5250.00000   37.66880    2.71120    3.45360    5.52680  -48.97590    -999.25    -999.25    -999.25    -999.25
 5300.00000   53.45770    3.29040    3.67530    4.58550  -33.01210    -999.25    -999.25    -999.25    -999.25
 5350.00000   80.07520    4.84640    4.52260    4.74680   -6.73720    -999.25    -999.25    -999.25    -999.25
 5400.00000   75.56320    4.81300    5.76090    7.59660  -15.34740    -999.25    -999.25    -999.25    -999.25
 5450.00000  106.91860    2.88540    2.86550    3.40620   -5.22660    -999.25    -999.25    -999.25    -999.25
 5500.00000  105.56430    3.67510    4.07700    4.02130   -5.22630    -999.25    -999.25    -999.25    -999.25
