~Version ---------------------------------------------------
VERS. 2.0 : CWLS log ASCII Standard -VERSION 2.0
WRAP.  NO : ONE LINE PER DEPTH STEP
~Well ------------------------------------------------------
STRT.F                        1950.0 : START DEPTH
STOP.F                       10600.0 : STOP DEPTH
STEP.F                      50.00000 : STEP LENGTH
NULL.                        -999.25 : NULL VALUE
COMP. QUINTANA PETROLEUM CORPORATION : COMPANY
WELL.                      STOREY #1 : WELL
FLD .                  WHITE KITCHEN : FIELD
LOC .                                : LOCATION
CNTY.                       LA SALLE : COUNTY
STAT.                          TEXAS : STATE
CTRY.       UNITED STATES OF AMERICA : COUNTRY
SRVC.                   Schlumberger : SERVICE COMPANY
DATE.                    11-Nov-1991 : LOGDATE
API .                 42283314670000 : API NUMBER
UWI .                 42283314670000 : UNIQUE WELL ID
SLAT.WGS84             28.3526641266 : SURFACE LATITUDE
SLON.WGS84            -98.9860139829 : SURFACE LONGITUDE
~Curve Information -----------------------------------------
DEPT.F                 : 
SPR .MV   07 010 01 00 : SPONTANEOUS POTENTIAL FROM RES.
GRR .GAPI 07 310 01 00 : GAMMA RAY FROM RES. LOG.
CILD.MMHO 07 110 46 00 : CONDUCTIVITY INDUCTION LOG DEEP
ASFL.OHMM 07 221 06 00 : AMPLIFIED SHALLOW FOCUSED LOG RESISTIVITY
ILD .OHMM 07 120 46 00 : INDUCTION LOG DEEP
CALD.IN   45 280 60 00 : CALIPER FDC LOG
DRHO.G/C3 45 356 01 00 : DENSITY CORRECTION
PEF .B/E  45 358 01 00 : PHOTOELECTRIC FACTOR
DPHI.DEC  45 890 10 00 : DENSITY POROSITY LIMESTONE
NPHI.DEC  42 890 01 00 : NEUTRON POROSITY LIMESTONE
~Params ----------------------------------------------------
PD  .                     GL : PERMANENT DATUM
EPD .F                 448.4 : ELEVATION PERMANENT DATUM
LMF .                     KB : LOG MEASURED FROM
DAPD.F                  17.0 : FEET ABOVE PERMANENT DATUM
DMF .                     KB : DRILLING MEASURED FROM
EKB .F                 465.4 : KELLING BUSHING
EDF .F                 464.4 : DRILLING FLOOR
EGL .F                 448.4 : GROUND LEVEL
DATE.             11-11-1991 : RUN DATE
RUN .                      1 : RUN NUMBER
DD  .F                 10625 : DEPTH DRILLER
DL  .F                 10606 : DEPTH LOGGER
BLI .F                 10600 : BOTTOM LOG INTERVAL
TLI .F                  2024 : TOP LOG INTERVAL
CS  .IN                9.625 : CASING SIZE
CBD .F                  2025 : CASING BOTTOM DRILLER
CBL .F                  2024 : CASING BOTTOM LOGGER
BS  .IN                 8.75 : BIT SIZE
BSD .F                 10625 : BIT SIZE AT DEPTH
DFT .                  LIGNO : DRILLING FLUID TYPE
MSS .               FLOWLINE : MUD SAMPLE SOURCE
RMS .OHMM               1.53 : RESISTIVITY MUD SAMPLE
MST .F                    96 : MUD SAMPLE TEMPERATURE
RMF .OHMM               1.48 : RESISTIVITY MUD FILTRATE SAMPLE
MFST.F                    77 : MUD FILTRATE SAMPLE TEMPERATURE
RMC .OHMM                2.3 : RESISTIVITY MUD CAKE
MCST.F                    96 : MUD CAKE SAMPLE TEMPERATURE
MFSS.                   MEAS : MUD FILTRATE SAMPLE SOURCE
MCSS.                   CALC : MUD CAKE SAMPLE SOURCE
RMB .OHMM              0.676 : RESISTIVITY MUD AT BHT
TCS .HRS                 900 : TIME CURCULATED STOPPED
TLAB.HRS                1915 : TIME LOGGER AT BOTTOM
LUN .                   2024 : LOGGING UNIT NUMBER
LUL .                 LAREDO : LOGGING UNIT LOCATION
ENGI.                  WELLS : RECORDING ENGINEER
WITN.           WARREN EVANS : WITNESSED BY
CLNT.                A2DTECH : CLIENT CODE
ORIG.               1" PRINT : ORIGIN OF DATA
UWI .         42283314670000 : UNIQUE WELL ID
DICO. A2D Technologies, Inc. : DIGITIZING COMPANY
~Other -----------------------------------------------------
~ASCII -----------------------------------------------------
# ...
 8550.00000   -0.06050   72.71300  330.90230    3.28330    3.06310   11.93330    0.01030    3.27240    0.06610    0.23970
 8600.00000   -0.53320  116.28020  390.83530    2.63060    2.50500   10.90420    0.03470    3.04400    0.11470    0.27090
 8650.00000   -2.47980   90.19660  454.45440    2.36640    2.42240   13.51010    0.07230    3.12960    0.09270    0.25360
 8700.00000   -3.48790  109.87420  489.27660    2.11810    2.23420   14.52650    0.09770    3.09290    0.14540    0.26470
 8750.00000   -2.50860   94.27920  395.39540    2.73940    2.61000   15.03900    0.09700    3.12970    0.12950    0.23580
 8800.00000   -2.00940   90.82030  416.41640    2.62000    2.46960   15.44560    0.04430    3.26970    0.07200    0.22130
 8850.00000   -2.60080   90.57460  421.34440    2.54970    2.58120   14.00410    0.09850    3.23410    0.10680    0.23320
 8900.00000   -7.21860   87.26790  306.30630    3.55790    3.26840   12.48780   -0.00290    2.95890    0.04720    0.17730
 8950.00000   -7.03050  128.83060  383.38340    2.35840    2.59380   12.18950    0.02060    3.12580    0.10060    0.24200
 9000.00000   -7.72180   86.03830  330.33030    3.21350    3.13430   12.16710    0.05350    3.29570    0.07400    0.22100
 9050.00000   -6.41130   95.71570  355.10510    3.09510    2.79880   11.80460    0.04230    2.90780    0.05820    0.20180
 9100.00000   -7.61950   82.42820  296.74400    2.95390    3.05570   11.95220    0.09500    3.10330    0.06930    0.20520
 9150.00000   -7.31860   83.01410  353.78230    3.12980    2.88960   12.77240    0.04920    2.99200    0.11120    0.24180
 9200.00000   -3.68950   84.22380    -999.25    -999.25    2.80380   11.98390    0.04590    3.01030    0.13340    0.19740
 9250.00000   -6.16940   54.68750  353.52020    3.26330    2.90290   11.25200    0.07620    3.31790    0.11010    0.21070
 9300.00000   -4.90570   47.04800  298.90820    4.00680    3.34960   10.60680   -0.00090    3.79320    0.06580    0.17870
 9350.00000   -4.25400   35.98790  188.88890    5.83160    4.44290   11.03450   -0.01510    4.01990    0.05680    0.14210
 9400.00000   -5.12410   33.56000  181.22990    6.29770    4.95660   11.15850   -0.01790    3.75460    0.05800    0.12290
 9450.00000   -6.16940   32.35890  147.64760    8.24830    6.25630   10.62160   -0.02030    4.18870    0.04280    0.09660
 9500.00000   -8.18550   25.70570   56.30760   19.33640   16.91690    9.70680   -0.02250    4.39490    0.03720    0.03670
 9550.00000   -5.96770   33.56860  113.51350   10.09010    9.07570   10.72480   -0.00790    4.01430    0.03830    0.07120
 9600.00000   -8.03550   24.98610   77.57760   14.91020   14.31130   10.23760   -0.01600    4.13370    0.03710    0.05030
 9650.00000   -8.40150   26.03330   79.54380   14.07910   12.43740   10.10740   -0.01510    4.48840    0.03580    0.05370
 9700.00000   -5.16590   33.67280  135.39390    8.77570    7.36340   11.08330   -0.01470    4.24970    0.05020    0.10340
 9750.00000   -4.90930   34.21370  149.48280    8.69730    4.56170   11.00000   -0.00370    4.19320    0.08200    0.09520
 9800.00000   -4.97350   32.49350  101.74040   12.24420   13.31330    9.98180   -0.01470    4.21900    0.04560    0.06520
 9850.00000   -2.54030   44.61690  265.26530    4.48450    3.38910   10.86520   -0.00380    3.50580    0.22130    0.19890
 9900.00000   -3.34680   51.07470  314.83060    4.70470    2.90290   10.71340    0.00040    3.85040    0.05340    0.22620
 9950.00000   -3.22730   50.43680  272.67270    4.87490    3.10310   10.62700   -0.01270    3.77500    0.07990    0.17710
 10000.00000   -5.47590   31.35080  144.59220    7.90790   10.92000   10.90430   -0.00990    3.93730    0.04060    0.11520
 10050.00000   -5.96770   37.73520  158.15820    7.27870    5.41450    9.97300   -0.03000    4.41780    0.04330    0.07330
 10100.00000   -9.24950   44.25400   29.58970   56.15620   34.96880   11.30750   -0.01790    4.06300    0.13580    0.14390
 10150.00000  -17.29840   34.10620   12.63760  186.48650   98.99900   10.92440   -0.01640    4.27360    0.10420    0.08620
 10200.00000  -17.08780   42.50900   21.78600   87.16600   48.91570   10.60680   -0.01090    3.72850    0.14630    0.16760
 10250.00000  -28.41400   12.93680    9.10910  156.65670  120.45380   10.40520   -0.00790    4.67370    0.00270    0.00510
 10300.00000   -4.83770   38.15560  126.31300   10.03070    7.82210   12.11770    0.03870    3.95810    0.01250    0.13530
 10350.00000 -101.34900   11.82320    2.94740    -999.25  452.45250   10.51110   -0.00120    4.90460   -0.00820   -0.00270
 10400.00000 -214.00770   11.97020   39.53950  270.57850   25.54700   10.79830   -0.00170    4.79540    0.01480   -0.00090
 10450.00000 -146.49190   18.09480  131.88190   42.14210    6.95700   11.10010    0.00070    4.86380    0.04440    0.01030
 10500.00000 -111.78880   18.04430   19.93220  109.10910   53.05850    9.98180    0.00810    5.10910    0.00410   -0.00030
 10550.00000 -131.86060    3.52820   44.54450   85.25190   33.53350    9.61380    0.00420    4.86390    0.01910   -0.00210
 10600.00000 -193.26610    -999.25    5.50550  617.61760  447.44740    -999.25    -999.25    -999.25    -999.25    -999.25
