~Version ---------------------------------------------------
VERS. 2.0 : CWLS log ASCII Standard -VERSION 2.0
WRAP. YES : MULTIPLE LINES PER DEPTH STEP
~Well ------------------------------------------------------
STRT.FT                                1300.0 : START DEPTH
STOP.FT                               10950.0 : STOP DEPTH
STEP.FT                              50.00000 : STEP LENGTH
NULL.                                 -999.25 : NULL VALUE
COMP. GULF EXPLORATION AND PRODUCTION COMPANY : COMPANY
WELL.                HENDERSON GAS UNIT II #2 : WELL
FLD .                                 FASHING : FIELD
LOC .                                         : LOCATION
CNTY.                                ATASCOSA : COUNTY
STAT.                                   TEXAS : STATE
CTRY.                UNITED STATES OF AMERICA : COUNTRY
SRVC.                                 Unknown : SERVICE COMPANY
DATE.                             06-Jun-1981 : LOGDATE
API .                          42013311740000 : API NUMBER
UWI .                          42013311740000 : UNIQUE WELL ID
SLAT.WGS84                      28.8192769779 : SURFACE LATITUDE
SLON.WGS84                      -98.151364978 : SURFACE LONGITUDE
~Curve Information -----------------------------------------
DEPT    .FT                         : DEPTH FEET
CALDED  .IN                         : CALIPER FROM DENSITY LOG [DEPTH SHIFTED TO RES.]
CALWS   .IN                         : CALIPER [CALDED]
CONDWS  .MMHO                       : CONDUCTIVITY [1000/DRESWS]
DCORWS  .G/C3                       : DENSITY CORRECTION [DRHOED]
DENWS   .G/C3                       : BULK DENSITY [M=2.71 F=1.0] [CALCULATED FROM DPOWS]
DPHILSED.V/V                        : DENSITY POROSITY LIMESTONE FROM DENSITY LOG [DEPTH SHIFTED TO RES.]
DPOWS   .V/V                        : DENSITY POROSITY [M=2.71 F=1.0] [DPHILSED]
DRESWS  .OHMM                       : DEEP RESISTIVITY [ILDED]
DRHOED  .G/C3                       : DENSITY CORRECTION FROM DENSITY LOG [DEPTH SHIFTED TO RES.]
DTED    .US/F                       : DELTA TIME FROM SONIC LOG
DTWS    .US/F                       : DELTA TIME [DTED]
GRDED   .GAPI                       : GAMMA RAY FROM DENSITY LOG [DEPTH SHIFTED TO RES.]
GRNED   .CPS                        : GAMMA RAY FROM NEUTRON LOG [DEPTH SHIFTED TO RES.]
GRRED   .GAPI                       : GAMMA RAY FROM RESISTIVITY LOG
GRWS    .GAPI :   GAMMA RAY [SPLICE : 1294 GRNED 2010 GRRED 9954 GRDED. CASED ABOVE 2020]
ILDED   .OHMM                       : INDUCTION LOG DEEP RESISTIVITY
ILMED   .OHMM                       : INDUCTION LOG MEDIUM RESISTIVITY
MRESWS  .OHMM                       : MEDIUM RESISTIVITY [ILMED]
NEUTED  .CPS                        : NEUTRON FROM CASED HOLE NEUTRON LOG [DEPTH SHIFTED TO RES.]
NEUTWS  .CPS                        : NEUTRON [NEUTED]
NPHILSED.V/V                        : NEUTRON POROSITY LIMESTONE [DEPTH SHIFTED TO RES.]
NPOWS   .V/V                        : NEUTRON POROSITY LIMESTONE [NPHILSED]
RHOBED  .G/C3                       : BULK DENSITY FROM DENSITY LOG [DEPTH SHIFTED TO RES.]
SFLUED  .OHMM                       : SPHERICALLY FOCUSED LOG RESISTIVITY
SPRED   .MV                         : SPONTANEOUS POTENTIAL FROM RESISTIVITY LOG
SPWS    .MV                         : SPONTANEOUS POTENTIAL [BASELINE 0 MV] [SPRED]
SRESWS  .OHMM                       : SHALLOW RESISTIVITY [SFLUED]
TENDED  .LBF                        : TENSION FROM DENSITY LOG
~Params ----------------------------------------------------
DATE.               06/06/81 : RUN DATE
RUN .                      1 : RUN NUMBER
CLNT.                A2DTECH : CLIENT CODE
ORIG.               5" PRINT : ORIGIN OF DATA
UWI .         42013311740000 : UNIQUE WELL ID
DICO. A2D Technologies, Inc. : DIGITIZING COMPANY
~Other -----------------------------------------------------
1. NEUTED AND NPHILSED WERE THE PRIMARY DEPTH SHIFTED CURVES FOR THEIR REPRESENTATIVE LOGS; THEY WERE BOTH DEPTH SHIFTED TO SFLUED AND DTED AS THE PRIMARY DEPTH CONTROL CURVES.
2. GRWS IS COMPRISED OF GRNED DOWN TO 2010.
~ASCII -----------------------------------------------------
# ...
 10050.00000   10.92130   10.92130  175.70680   -0.02930    2.59270    0.06860    0.06860    5.69130   -0.02930   76.67450   76.67450   73.64920   52.79510   71.90320   73.64920    5.69130    6.04410    6.04410  326.46990  326.46990    0.09710    0.09710    2.59070    7.15480    0.43160   -1.13530    7.15480 3764.98050
 10100.00000   10.99380   10.99380  228.38870   -0.01780    2.53400    0.10290    0.10290    4.37850   -0.01780   82.63350   82.63350   78.11490   54.65300   77.09480   78.11490    4.37850    4.48370    4.48370  186.90070  186.90070    0.13770    0.13770    2.53310    4.56590    0.39240   -1.30230    4.56590 3755.37350
 10150.00000   10.48290   10.48290  191.79130   -0.00500    2.49420    0.12620    0.12620    5.21400   -0.00500   75.10390   75.10390   60.94250   45.01420   54.79940   60.94250    5.21400    5.76820    5.76820  269.08200  269.08200    0.08200    0.08200    2.49440    6.51410   -1.67850   -3.52100    6.51410 3803.47440
 10200.00000   10.70110   10.70110  157.96540   -0.02740    2.57780    0.07730    0.07730    6.33050   -0.02740   75.07330   75.07330   56.66090   40.43990   52.09580   56.66090    6.33050    6.42030    6.42030  198.51150  198.51150    0.06540    0.06540    2.57390    4.99520   -2.20200   -4.19230    4.99520 3795.25660
 10250.00000   10.27580   10.27580   67.23010   -0.01330    2.56530    0.08460    0.08460   14.87430   -0.01330   61.37810   61.37810   23.85520   23.50740   21.17800   23.85520   14.87430   17.48550   17.48550  296.45810  296.45810    0.01610    0.01610    2.56450  149.94890   -9.73220  -11.87030  149.94890 3809.83670
 10300.00000   10.55030   10.55030   63.30440   -0.02110    2.58500    0.07310    0.07310   15.79670   -0.02110   66.36850   66.36850   50.00480   35.35200   39.87670   50.00480   15.79670   16.74360   16.74360  430.34910  430.34910    0.03400    0.03400    2.58410   18.91730   -5.27560   -7.56150   18.91730 3816.57540
 10350.00000   11.22500   11.22500   80.41880   -0.01620    2.48770    0.13000    0.13000   12.43490   -0.01620   78.13380   78.13380   50.65770   42.33860   44.30430   50.65770   12.43490   12.65750   12.65750  251.84300  251.84300    0.10930    0.10930    2.48630   15.14380   -0.46360   -2.89730   15.14380 3793.31150
 10400.00000   11.39440   11.39440   36.14400   -0.01640    2.35740    0.20620    0.20620   27.66710   -0.01640   83.63830   83.63830   96.52070   20.46790   97.09000   96.52070   27.66710   26.14560   26.14560    0.34030    0.34030    0.17460    0.17460    2.35640   40.16530   -5.26510   -7.84660   40.16530 3824.40160
 10450.00000   11.51520   11.51520   23.00510   -0.01990    2.47010    0.14030    0.14030   43.46870   -0.01990   80.26160   80.26160   71.38740   58.13590   66.97850   71.38740   43.46870   37.59890   37.59890  166.46880  166.46880    0.15660    0.15660    2.47150   68.03280   -2.05390   -4.78320   68.03280 3826.49980
 10500.00000   10.93360   10.93360    6.12070   -0.01190    2.65190    0.03400    0.03400  163.37900   -0.01190   55.64010   55.64010   24.86430   13.49260   24.88210   24.86430  163.37900   77.60320   77.60320  577.20560  577.20560    0.00020    0.00020    2.64990  166.70190  -12.52060  -15.39770  166.70190 3891.74270
 10550.00000   12.44310   12.44310   70.64140   -0.00800    2.64090    0.04040    0.04040   14.15600   -0.00800   63.95460   63.95460   48.78270   31.41580   40.31400   48.78270   14.15600   16.23070   16.23070  169.57180  169.57180    0.02800    0.02800    2.63500   21.81680    1.75960   -1.26530   21.81680 3910.73850
 10600.00000   10.03950   10.03950    5.06200   -0.03090    2.64830    0.03610    0.03610  197.54950   -0.03090   54.78790   54.78790   24.27140   21.51150   21.73990   24.27140  197.54950   83.81770   83.81770  474.34990  474.34990   -0.00200   -0.00200    2.64970 1537.27690  -14.53530  -17.58680 1537.27690 3897.96920
 10650.00000    9.32350    9.32350   14.66720   -0.01540    2.71750   -0.00440   -0.00440   68.17940   -0.01540   53.95350   53.95350   22.28540   17.35850   22.82760   22.28540   68.17940   60.16040   60.16040  631.27780  631.27780    0.00100    0.00100    2.71540  118.23100    0.25480   -2.79670  118.23100 3927.80050
 10700.00000    8.76650    8.76650    8.59400   -0.02280    2.69600    0.00820    0.00820  116.36030   -0.02280   54.27470   54.27470   31.54110   23.08030   24.27970   31.54110  116.36030   91.28950   91.28950  718.12050  718.12050    0.00390    0.00390    2.69580  138.81660  -51.46630  -54.51780  138.81660 3930.94120
 10750.00000    8.42610    8.42610    3.60910   -0.02470    2.45740    0.14770    0.14770  277.07370   -0.02470   67.44310   67.44310   30.90160   26.06350   30.56570   30.90160  277.07370   97.58470   97.58470  611.46080  611.46080    0.04410    0.04410    2.45510  176.62170 -126.10660 -129.15810  176.62170 3878.18190
 10800.00000    8.33510    8.33510    7.16320   -0.02770    2.47030    0.14020    0.14020  139.60230   -0.02770   65.00660   65.00660   25.53520    -999.25   19.57420   25.53520  139.60230   70.47950   70.47950    -999.25    -999.25    0.04230    0.04230    2.46870  173.96750 -135.35620 -138.40770  173.96750 3868.03710
 10850.00000    8.28490    8.28490    6.78650   -0.01650    2.50630    0.11910    0.11910  147.35030   -0.01650   63.22560   63.22560   18.31790    -999.25   17.60950   18.31790  147.35030  103.35770  103.35770    -999.25    -999.25    0.02690    0.02690    2.50370  216.47460 -128.14420 -131.19570  216.47460 3888.83940
 10900.00000    8.50940    8.50940   49.71660   -0.01260    2.63820    0.04200    0.04200   20.11400   -0.01260   54.73120   54.73120   39.82460    -999.25   39.89720   39.82460   20.11400   26.48290   26.48290    -999.25    -999.25    0.02480    0.02480    2.63670  102.31710 -126.36250 -129.41400  102.31710 3894.83350
 10950.00000    8.37710    8.37710   67.15240    0.00050    2.58480    0.07320    0.07320   14.89150    0.00050    -999.25    -999.25    -999.25    -999.25    -999.25    -999.25   14.89150   16.29850   16.29850    -999.25    -999.25    0.02330    0.02330    2.58330   63.76270  -91.99070  -95.04220   63.76270 3965.80300
