~Version ---------------------------------------------------
VERS. 2.0 : CWLS log ASCII Standard -VERSION 2.0
WRAP. YES : MULTIPLE LINES PER DEPTH STEP
~Well ------------------------------------------------------
STRT.FT                  300.0 : START DEPTH
STOP.FT                18600.0 : STOP DEPTH
STEP.FT               50.00000 : STEP LENGTH
NULL.                  -999.25 : NULL VALUE
COMP.        SHELL OIL COMPANY : COMPANY
WELL. PAWELEK BEN A ET AL A #1 : WELL
FLD .    PERSON AREA (WILDCAT) : FIELD
LOC .                          : LOCATION
CNTY.                   KARNES : COUNTY
STAT.                    TEXAS : STATE
CTRY. UNITED STATES OF AMERICA : COUNTRY
SRVC.             Schlumberger : SERVICE COMPANY
DATE.              22-May-1978 : LOGDATE
API .           42255305980000 : API NUMBER
UWI .           42255305980000 : UNIQUE WELL ID
SLAT.WGS84       29.0241796548 : SURFACE LATITUDE
SLON.WGS84      -97.8796797249 : SURFACE LONGITUDE
~Curve Information -----------------------------------------
DEPT    .FT    : DEPTH FEET
CALDED  .IN    : CALIPER FROM DENSITY LOG [DEP ADJ TO GRSED]
CALMED  .IN    : CALIPER FROM MICROLOG [DEP ADJ TO SFLED]
CALSED  .IN    : CALIPER FROM SONIC LOG
CALWS   .IN    : CALIPER [10 CALDED 4845.5 CALMED 4849 CALDED 17451 CALSED 17577 CALDED]
CONDWS  .MMHO  : CONDUCTIVITY [1000/DRESWS]
DCORWS  .G/C3  : DENSITY CORRECTION [DRHOED]
DENWS   .G/C3  : BULK DENSITY [M=2.71 F=1.0] [RHOBED]
DPHILSED.V/V   : DENSITY POROSITY [M=2.71 F=1.0] FROM DENSITY LOG [DEP ADJ TO GRSED/RHOBED]
DPHISSED.V/V   : DENSITY POROSITY [M=2.65 F=1.0] FROM DENSITY LOG [DEP ADJ TO GRSED/RHOBED]
DPOLSWS .V/V   : DENSITY POROSITY [M=2.71 F=1.0] [CAL FR DENWS]
DRESWS  .OHMM  : DEEP RESISTIVITY [ILDED]
DRHOED  .G/C3  : DENSITY CORRECTION FROM DENSITY LOG [DEP ADJ TO GRSED]
DTED    .US/F  : DELTA TIME FROM SONIC LOG
DTWS    .US/F  : DELTA TIME [DTED]
GRDED   .GAPI  : GAMMA RAY FROM DENSITY LOG
GRRED   .GAPI  : GAMMA RAY FROM RESISTIVITY LOG [DEP ADJ TO GRSED]
GRSED   .GAPI  : GAMMA RAY FROM SONIC LOG
GRWS    .GAPI  : GAMMA RAY [70 GRDED 4800.5 GRDEDNRM [0-100 TO 0-140]4844.5 GRSED 4853.5 GRDED 12903.5 GRSED 12939.5 GRDED 12962 GRSED 17526 GRDED 17550 GRRED 18607 GRDED]
ILDED   .OHMM  : INDUCTION LOG DEEP RESISTIVITY
ILMED   .OHMM  : INDUCTION LOG MEDIUM RESISTIVITY
MRESWS  .OHMM  : MEDIUM RESISTIVITY [ILMED]
NPHILSED.V/V   : NEUTRON POROSITY LISTONE FROM DENSITY LOG [DEP ADJ TO GRSED/RHOBED]
NPHISSED.V/V   : NEUTRON POROSITY SANDSTONE FROM DENSITY LOG [DEP ADJ TO GRSED/RHOBED]
NPOLSWS .V/V   : NEUTRON POROSITY LIMESTONE [10 NPOLSCAL 9446 NPHILSED] [NPHISSED IS CONVERTED TO NPOLSCAL USING POWERLOG MODULE]
PROXED  .OHMM  : PROXIMITY RESISTIVITY FROM MICROLOG [DEP ADJ TO SFLED]
RHOBED  .G/C3  : BULK DENSITY FROM DENSITY LOG [DEP ADJ TO GRSED]
SFLED   .OHMM  : SPHERICALLY FOCUSED LOG RESISTIVITY
SPRED   .MV    : SPONTANEOUS POTENTIAL FROM RESISTIVITY LOG [SHIFTS ARE REMOVED]
SPWS    .MV    : SPONTANEOUS POTENTIAL [BASELINE 0 MV] [SPRED][PL. USE W/ RESERVATIONS]
SRESWS  .OHMM  : SHALLOW RESISTIVITY [SFLED]
TENDED  .LBF   : TENSION FROM DENSITY LOG [DEP ADJ TO GRSED]
~Params ----------------------------------------------------
PD  .                     GL : PERMANENT DATUM
EPD .FT                  335 : ELEVATION PERMANENT DATUM
LMF .                     KB : LOG MEASURED FROM
DAPD.FT                   28 : FEET ABOVE PERMANENT DATUM
DMF .                     KB : DRILLING MEASURED FROM
EKB .FT                  363 : KELLY BUSHING
EDF .FT                  362 : DRILLING FLOOR
EGL .FT                  335 : GROUND LEVEL
DATE.               05/22/78 : RUN DATE
RUN .                      4 : RUN NUMBER
DD  .FT                18626 : DEPTH DRILLER
DL  .FT                18642 : DEPTH LOGGER
BLI .FT                18637 : BOTTOM LOG INTERVAL
TLI .FT                17550 : TOP LOG INTERVAL
CS  .IN                    7 : CASING SIZE
CBD .FT                17544 : CASING BOTTOM DRILLER
CBL .FT                17550 : CASING BOTTOM LOGGER
BS  .IN                    6 : BIT SIZE
BSD .FT                18626 : BIT SIZE AT DEPTH
DFT .               INVERMUL : DRILLING FLUID TYPE
DFD .                   17.6 : DRILLING FLUID DENSITY
DFV .                     70 : DRILLING FLUID VISCOSITY
DFL .                      2 : DRILLING FLUID LOSS
LUN .                   7799 : LOGGING UNIT NUMBER
LUL .                  PLEAS : LOGGING UNIT LOCATION
ENGI.             TURBEVILLE : RECORDING ENGINEER
WITN.                JARRELL : WITNESSED BY
CLNT.                A2DTECH : CLIENT CODE
ORIG.            2" 5" PRINT : ORIGIN OF DATA
UWI .         42255305980000 : UNIQUE WELL ID
DICO. A2D Technologies, Inc. : DIGITIZING COMPANY
~Other -----------------------------------------------------
~ASCII -----------------------------------------------------
# ...
 3750.00000   15.40350    -999.25    -999.25   15.40350  187.35360    0.03710    2.31910    -999.25    -999.25    0.22860    5.33750    0.03710   96.79360   96.79360   48.98990    -999.25   47.04090   48.98990    5.33750    5.60090    5.60090    -999.25    -999.25    -999.25    -999.25    2.31910    6.58130  -79.79510  -13.03250    6.58130    -999.25
 3800.00000   15.44230    -999.25    -999.25   15.44230  151.74510    0.03010    2.18850    -999.25    -999.25    0.30500    6.59000    0.03010  103.56930  103.56930   36.75740    -999.25   26.88610   36.75740    6.59000    6.17560    6.17560    -999.25    -999.25    -999.25    -999.25    2.18850    5.77990  -75.71380   -9.13670    5.77990    -999.25
 3850.00000   15.48710    -999.25    -999.25   15.48710  129.96800    0.09550    2.23750    -999.25    -999.25    0.27630    7.69420    0.09550  105.56990  105.56990   39.03910    -999.25   35.21600   39.03910    7.69420    6.90560    6.90560    -999.25    -999.25    -999.25    -999.25    2.23750    6.65580  -74.92910   -8.53750    6.65580    -999.25
 3900.00000   15.41870    -999.25    -999.25   15.41870   98.87580    0.03980    2.07150    -999.25    -999.25    0.37340   10.11370    0.03980  112.71040  112.71040   29.49250    -999.25   28.86210   29.49250   10.11370    8.07920    8.07920    -999.25    -999.25    -999.25    -999.25    2.07150    7.22310  -70.29330   -4.08720    7.22310    -999.25
 3950.00000   15.00590    -999.25    -999.25   15.00590   85.30530    0.05420    2.13340    -999.25    -999.25    0.33720   11.72260    0.05420  101.53180  101.53180   31.10910    -999.25   29.88960   31.10910   11.72260    8.76100    8.76100    -999.25    -999.25    -999.25    -999.25    2.13340    8.20570  -70.94860   -4.98390    8.20570    -999.25
 4000.00000   15.12800    -999.25    -999.25   15.12800  103.19280    0.04600    2.06010    -999.25    -999.25    0.38010    9.69060    0.04600  103.48350  103.48350   32.58240    -999.25   27.78310   32.58240    9.69060    7.81960    7.81960    -999.25    -999.25    -999.25    -999.25    2.06010    7.60010  -71.78380   -6.14440    7.60010    -999.25
 4050.00000   15.44220    -999.25    -999.25   15.44220  199.38590    0.07580    2.30290    -999.25    -999.25    0.23810    5.01540    0.07580  100.68070  100.68070   54.69950    -999.25   48.27550   54.69950    5.01540    4.84060    4.84060    -999.25    -999.25    -999.25    -999.25    2.30290    4.44260  -75.34040  -10.02640    4.44260    -999.25
 4100.00000   15.46450    -999.25    -999.25   15.46450  100.55410    0.05970    2.20910    -999.25    -999.25    0.29290    9.94490    0.05970  100.37200  100.37200   44.19240    -999.25   36.29140   44.19240    9.94490    7.99860    7.99860    -999.25    -999.25    -999.25    -999.25    2.20910    7.83940  -83.79880  -18.81010    7.83940    -999.25
 4150.00000   16.28300    -999.25    -999.25   16.28300  125.45010    0.01300    2.27110    -999.25    -999.25    0.25670    7.97130    0.01300   96.20200   96.20200   62.01550    -999.25   55.38810   62.01550    7.97130    6.76470    6.76470    -999.25    -999.25    -999.25    -999.25    2.27110    6.54930  -81.26480  -16.60140    6.54930    -999.25
 4200.00000   15.64910    -999.25    -999.25   15.64910   92.96880    0.02770    2.24290    -999.25    -999.25    0.27320   10.75630    0.02770   96.54840   96.54840   50.86310    -999.25   45.07420   50.86310   10.75630    9.07450    9.07450    -999.25    -999.25    -999.25    -999.25    2.24290    8.64000  -85.31730  -20.97920    8.64000    -999.25
 4250.00000   15.77340    -999.25    -999.25   15.77340  154.09980    0.02410    2.35130    -999.25    -999.25    0.20980    6.48930    0.02410   99.05440   99.05440   68.94380    -999.25   57.30800   68.94380    6.48930    6.00460    6.00460    -999.25    -999.25    -999.25    -999.25    2.35130    5.68830  -83.85620  -19.84340    5.68830    -999.25
 4300.00000   15.59500    -999.25    -999.25   15.59500  169.35950    0.04500    2.11150    -999.25    -999.25    0.35000    5.90460    0.04500  107.52900  107.52900   40.95190    -999.25   37.35170   40.95190    5.90460    5.43540    5.43540    -999.25    -999.25    -999.25    -999.25    2.11150    5.28260  -86.94760  -23.26010    5.28260    -999.25
 4350.00000   15.70390    -999.25    -999.25   15.70390  158.66720    0.02470    2.21330    -999.25    -999.25    0.29050    6.30250    0.02470  105.28060  105.28060   51.48010    -999.25   48.92620   51.48010    6.30250    5.94580    5.94580    -999.25    -999.25    -999.25    -999.25    2.21330    5.75250  -83.99160  -20.62950    5.75250    -999.25
 4400.00000   15.24180    -999.25    -999.25   15.24180  216.70350    0.06860    2.23240    -999.25    -999.25    0.27930    4.61460    0.06860  100.76060  100.76060   67.09220    -999.25   59.44020   67.09220    4.61460    4.35660    4.35660    -999.25    -999.25    -999.25    -999.25    2.23240    4.29630  -80.54610  -17.50930    4.29630    -999.25
 4450.00000   15.49510    -999.25    -999.25   15.49510  170.73000    0.03710    2.20130    -999.25    -999.25    0.29750    5.85720    0.03710  100.28580  100.28580   45.75980    -999.25   37.35270   45.75980    5.85720    5.37380    5.37380    -999.25    -999.25    -999.25    -999.25    2.20130    4.98250  -88.15800  -25.44650    4.98250    -999.25
 4500.00000   15.80550    -999.25    -999.25   15.80550  250.55120    0.03310    2.28590    -999.25    -999.25    0.24800    3.99120    0.03310   97.26990   97.26990   63.05940    -999.25   50.03040   63.05940    3.99120    3.79430    3.79430    -999.25    -999.25    -999.25    -999.25    2.28590    3.66390  -76.14330  -13.75710    3.66390    -999.25
 4550.00000   16.26530    -999.25    -999.25   16.26530  612.44490    0.09420    2.38830    -999.25    -999.25    0.18810    1.63280    0.09420  106.01490  106.01490   73.33940    -999.25   56.76510   73.33940    1.63280    1.68240    1.68240    -999.25    -999.25    -999.25    -999.25    2.38830    1.74600  -67.41710   -5.35620    1.74600    -999.25
 4600.00000   16.29980    -999.25    -999.25   16.29980  818.19670    0.02430    2.35200    -999.25    -999.25    0.20940    1.22220    0.02430   97.17370   97.17370   65.30490    -999.25   59.80730   65.30490    1.22220    1.30600    1.30600    -999.25    -999.25    -999.25    -999.25    2.35200    1.35530  -69.42640   -8.29280    1.35530    -999.25
 4650.00000   16.04910    -999.25    -999.25   16.04910  412.28610    0.05350    2.33390    -999.25    -999.25    0.21990    2.42550    0.05350  100.66500  100.66500   65.67650    -999.25   53.79320   65.67650    2.42550    2.48810    2.48810    -999.25    -999.25    -999.25    -999.25    2.33390    2.54880  -70.09150   -9.94470    2.54880    -999.25
 4700.00000   15.91690    -999.25    -999.25   15.91690  495.49110    0.06160    2.29530    -999.25    -999.25    0.24250    2.01820    0.06160  100.98630  100.98630   65.86070    -999.25   57.70150   65.86070    2.01820    2.07010    2.07010    -999.25    -999.25    -999.25    -999.25    2.29530    2.36110  -67.30970   -8.14970    2.36110    -999.25
 4750.00000   16.38310    -999.25    -999.25   16.38310  598.51570    0.04200    2.37870    -999.25    -999.25    0.19370    1.67080    0.04200  111.01890  111.01890   73.99870    -999.25   57.20610   73.99870    1.67080    1.71880    1.71880    -999.25    -999.25    -999.25    -999.25    2.37870    1.92390  -64.93360   -6.76040    1.92390    -999.25
 4800.00000   13.88070    -999.25    -999.25   13.88070  394.78880    0.08640    -999.25    -999.25    -999.25    -999.25    2.53300    0.08640   96.98540   96.98540   69.52260    -999.25    -999.25   65.01420    2.53300    2.76270    2.76270    -999.25    0.56520    -999.25    -999.25    -999.25    2.98260  -93.38470  -36.19840    2.98260    -999.25
 4850.00000   14.61160   13.66440   14.08220   14.61160  797.76620    0.05280    2.23090    -999.25    0.24590    0.28020    1.25350    0.05280  113.74850  113.74850   68.97480    -999.25   76.49130   76.49130    1.25350    1.01340    1.01340    -999.25    0.49770    0.45600    1.72520    2.23090    2.36380  -61.21010   -4.69740    2.36380 9569.57230
