~Version ---------------------------------------------------
VERS. 2.0 : CWLS log ASCII Standard -VERSION 2.0
WRAP. YES : MULTIPLE LINES PER DEPTH STEP
~Well ------------------------------------------------------
STRT.FT                  1500.0 : START DEPTH
STOP.FT                  8000.0 : STOP DEPTH
STEP.FT                50.00000 : STEP LENGTH
NULL.                   -999.25 : NULL VALUE
COMP.  AMOCO PRODUCTION COMPANY : COMPANY
WELL.            LEON F CASH #1 : WELL
FLD . CALDWELL, N.E. GEORGETOWN : FIELD
LOC .                           : LOCATION
CNTY.                    BRAZOS : COUNTY
STAT.                     TEXAS : STATE
CTRY.  UNITED STATES OF AMERICA : COUNTRY
SRVC.             Dresser Atlas : SERVICE COMPANY
DATE.               17-Jul-1984 : LOGDATE
API .            42041311700000 : API NUMBER
UWI .            42041311700000 : UNIQUE WELL ID
SLAT.WGS84        30.6324896391 : SURFACE LATITUDE
SLON.WGS84       -96.5352157138 : SURFACE LONGITUDE
~Curve Information -----------------------------------------
DEPT    .FT        : DEPTH FEET
CALDED  .IN        : CALIPER FROM DENSITY LOG [ADJ TO GRRED]
CALWS   .IN        : CALIPER [CALDED]
CNCED   .V/V       : NEUTRON POROSITY SANDSTONE FROM DENSITY LOG [ADJ TO GRRED]
CNCLSED .V/V       : NEUTRON POROSITY LIMESTONE FROM DENSITY LOG [ADJ TO GRRED]
CONDWS  .MMHO      : CONDUCTIVITY [1000/DRESWS]
CORRED  .G/C3      : DENSITY CORRECTION FROM DENSITY LOG [ADJ TO GRRED]
DCORWS  .G/C3      : DENSITY CORRECTION [CORRED]
DENED   .G/C3      : BULK DENSITY FROM DENSITY LOG [ADJ TO GRRED]
DENWS   .G/C3      : BULK DENSITY [M=2.65 F=1.0] [DENED]
DPOWS   .V/V       : DENSITY POROSITY [M=2.65 F=1.0] [SPL PORDED <7162.5F> PORDLSED]
DRESWS  .OHMM      : DEEP RESISTIVITY [RILDED]
GRDED   .GAPI      : GAMMA RAY FROM DENSITY LOG [ADJ TO GRRED]
GRRED   .GAPI      : GAMMA RAY FROM RESISTIVITY LOG
GRTED   .GAPI      : GAMMA RAY FROM TDT LOG [ADJ TO GRRED]
GRWS    .GAPI      : GAMMA RAY [GRRED, CSG ABOVE 1500F]
MRESWS  .OHMM      : MEDIUM RESISTIVITY [RILMED]
NPOWS   .V/V       : NEUTRON POROSITY [SPL CNCED <7155F> CNCLSED, CSG ABOVE 1500F]
PORDED  .V/V       : DENSITY POROSITY [M=2.65 F=1.0] FROM DENSITY LOG [ADJ TO GRRED]
PORDLSED.V/        : DENSITY POROSITY [M=2.71 F=1.0] FROM DENSITY LOG [ADJ TO GRRED]
RATIOED .UNITLESS  : RATIO FROM TDT LOG [ADJ TO GRRED]
RFOCED  .OHMM      : FOCUSED RESISTIVITY
RILDED  .OHMM      : INDUCTION LOG DEEP RESISTIVITY
RILMED  .OHMM      : INDUCTION LOG MEDIUM RESISTIVITY
SIGMED  .CU        : NEUTRON CAPTURE CROSS SECTION FROM TDT LOG [ADJ TO GRRED]
SPRED   .MV        : SPONTANEOUS POTENTIAL FROM RESISTIVITY LOG
SPWS    .MV        : SPONTANEOUS POTENTIAL [BASELINE 0 MV] [SPRED]
SRESWS  .OHMM      : SHALLOW RESISTIVITY [RFOCED]
TENDED  .LBF       : TENSION FROM DENSITY LOG [ADJ TO GRRED]
TENRED  .LBF       : TENSION FROM RESISTIVITY LOG
TENTED  .LBF       : TENSION FROM TDT LOG [ADJ TO GRRED]
~Params ----------------------------------------------------
PD  .                     GL : PERMANENT DATUM
EPD .FT                244.7 : ELEVATION PERMANENT DATUM
LMF .                     KB : LOG MEASURED FROM
DAPD.FT                23.58 : FEET ABOVE PERMANENT DATUM
DMF .                     KB : DRILLING MEASURED FROM
EKB .FT               268.29 : KELLY BUSHING
EDF .FT               267.28 : DRILLING FLOOR
EGL .FT                244.7 : GROUND LEVEL
DATE.               07/17/84 : RUN DATE
RUN .                      1 : RUN NUMBER
DD  .FT                 8835 : DEPTH DRILLER
DL  .FT                 8824 : DEPTH LOGGER
BLI .FT                 8822 : BOTTOM LOG INTERVAL
TLI .FT                 1500 : TOP LOG INTERVAL
CS  .IN                8.625 : CASING SIZE
CBD .FT                 1500 : CASING BOTTOM DRILLER
CBL .FT                 1500 : CASING BOTTOM LOGGER
BS  .IN                7.875 : BIT SIZE
BSD .FT                 8825 : BIT SIZE AT DEPTH
DFT .                 LO SOL : DRILLING FLUID TYPE
DFD .                    9.2 : DRILLING FLUID DENSITY
DFV .                     47 : DRILLING FLUID VISCOSITY
DFPH.                    8.9 : DRILLING FLUID PH
DFL .                    9.2 : DRILLING FLUID LOSS
MSS .               FLOWLINE : MUD SAMPLE SOURCE
RMS .OHMM               3.38 : RESISTIVITY MUD SAMPLE
MST .DEGF                 75 : MUD SAMPLE TEMPERATURE
RMF .OHMM               2.74 : RESISTIVITY MUD FILTRATE SAMPLE
MFST.DEGF                 75 : MUD FILTRATE SAMPLE TEMPERATURE
RMC .OHMM               4.23 : RESISTIVITY MUD CAKE
MCST.DEGF                 75 : MUD CAKE SAMPLE TEMPERATURE
MFSS.               MEASURED : MUD FILTRATE SAMPLE SOURCE
MCSS.             CALCULATED : MUD CAKE SAMPLE SOURCE
RMB .OHMM               1.33 : RESISTIVITY MUD AT BHT
TCS .HRS                   5 : TIME CIRCULATED STOPPED
LUN .                HL 6300 : LOGGING UNIT NUMBER
LUL .                  BRYAN : LOGGING UNIT LOCATION
ENGI.                 WRIGHT : RECORDING ENGINEER
WITN.               DEPAOLIS : WITNESSED BY
CLNT.                A2DTECH : CLIENT CODE
ORIG.            2" 5" PRINT : ORIGIN OF DATA
UWI .         42041311700000 : UNIQUE WELL ID
DICO. A2D Technologies, Inc. : DIGITIZING COMPANY
~Other -----------------------------------------------------
~ASCII -----------------------------------------------------
# ...
 5100.00000    9.52830    9.52830    0.33010    -999.25  666.88900    0.11680    0.11680    2.35730    2.35890    0.17640    1.49950   70.04570   83.30190    -999.25   83.30190    1.56960    0.33010    0.17640    -999.25    -999.25    2.17360    1.49950    1.56960    -999.25  -66.24270   -8.96270    2.17360    0.00000    8.32610    -999.25
 5150.00000    9.26120    9.26120    0.29130    -999.25  619.96280    0.15670    0.15670    2.34930    2.35200    0.18060    1.61300   76.65270   82.29650    -999.25   82.29650    1.71460    0.29130    0.18060    -999.25    -999.25    2.32770    1.61300    1.71460    -999.25  -66.63200   -9.11130    2.32770    0.00000    4.58000    -999.25
 5200.00000    8.95020    8.95020    0.28920    -999.25  653.08250    0.08390    0.08390    2.37770    2.38200    0.16240    1.53120   78.26940   85.93800    -999.25   85.93800    1.66490    0.28920    0.16240    -999.25    -999.25    2.29070    1.53120    1.66490    -999.25  -62.85510   -5.09370    2.29070    0.00000   11.16330    -999.25
 5250.00000    9.07740    9.07740    0.31940    -999.25  891.34510    0.08560    0.08560    2.30620    2.30610    0.20840    1.12190   86.03890   95.05230    -999.25   95.05230    1.20290    0.31940    0.20840    -999.25    -999.25    1.88470    1.12190    1.20290    -999.25  -59.62960   -1.62740    1.88470    1.51940    9.79820    -999.25
 5300.00000    9.32520    9.32520    0.37120    -999.25  785.66940    0.14000    0.14000    2.13340    2.13320    0.31320    1.27280   91.48280  103.55280    -999.25  103.55280    1.31340    0.37120    0.31320    -999.25    -999.25    1.89900    1.27280    1.31340    -999.25  -59.33450   -1.09160    1.89900   12.55970   10.61250    -999.25
 5350.00000    9.64350    9.64350    0.35280    -999.25  809.06150    0.12080    0.12080    2.27190    2.27260    0.22870    1.23600   79.07790   92.73580    -999.25   92.73580    1.26770    0.35280    0.22870    -999.25    -999.25    1.84760    1.23600    1.26770    -999.25  -62.27390   -3.79030    1.84760    3.85560   12.65140    -999.25
 5400.00000    9.79700    9.79700    0.37740    -999.25  830.01320    0.13440    0.13440    2.26220    2.26110    0.23570    1.20480   92.70950   95.35780    -999.25   95.35780    1.23910    0.37740    0.23570    -999.25    -999.25    1.78560    1.20480    1.23910    -999.25  -62.78770   -4.26550    1.78560   15.11590    3.24610    -999.25
 5450.00000   10.34740   10.34740    0.41340    -999.25 1391.20750    0.08540    0.08540    2.17940    2.18040    0.28460    0.71880  121.67790  127.75360    -999.25  127.75360    0.76320    0.41340    0.28460    -999.25    -999.25    1.27100    0.71880    0.76320    -999.25  -63.98780   -5.46560    1.27100    3.61890    5.41620    -999.25
 5500.00000   10.13230   10.13230    0.42030    -999.25  945.80540    0.07330    0.07330    2.19870    2.19710    0.27450    1.05730   94.76790  107.75380    -999.25  107.75380    1.08870    0.42030    0.27450    -999.25    -999.25    1.66010    1.05730    1.08870    -999.25  -59.98520   -1.46300    1.66010    0.00000    6.04920    -999.25
 5550.00000    9.68000    9.68000    0.34460    -999.25  710.27770    0.12650    0.12650    2.36990    2.36920    0.17020    1.40790   92.36660   99.24810    -999.25   99.24810    1.48670    0.34460    0.17020    -999.25    -999.25    2.03390    1.40790    1.48670    -999.25  -60.84200   -2.31980    2.03390    0.00000   11.77450    -999.25
 5600.00000    9.40530    9.40530    0.27240    -999.25  609.64460    0.08970    0.08970    2.44150    2.44060    0.12690    1.64030   82.05200   90.35850    -999.25   90.35850    1.77060    0.27240    0.12690    -999.25    -999.25    2.24790    1.64030    1.77060    -999.25  -62.56040   -4.03820    2.24790    6.43310    7.49920    -999.25
 5650.00000    9.38300    9.38300    0.30160    -999.25  642.59090    0.09910    0.09910    2.40780    2.40680    0.14740    1.55620   87.71500   92.76450    -999.25   92.76450    1.63520    0.30160    0.14740    -999.25    -999.25    2.17910    1.55620    1.63520    -999.25  -63.80570   -5.28350    2.17910    2.13530   21.91580    -999.25
 5700.00000    9.41130    9.41130    0.30550    -999.25  716.43500    0.14670    0.14670    2.38710    2.38770    0.15900    1.39580   86.48630   91.41610    -999.25   91.41610    1.43420    0.30550    0.15900    -999.25    -999.25    2.05370    1.39580    1.43420    -999.25  -66.71100   -8.18880    2.05370    2.97250   16.48870    -999.25
 5750.00000    9.63730    9.63730    0.33980    -999.25  773.87400    0.10120    0.10120    2.40180    2.40200    0.15030    1.29220   79.05740   87.39570    -999.25   87.39570    1.35020    0.33980    0.15030    -999.25    -999.25    1.95570    1.29220    1.35020    -999.25  -64.02190   -5.49970    1.95570    0.00000   13.97350    -999.25
 5800.00000   10.35750   10.35750    0.34110    -999.25  739.64500    0.11370    0.11370    2.35410    2.35650    0.17790    1.35200   89.07510   95.48190    -999.25   95.48190    1.44150    0.34110    0.17790    -999.25    -999.25    2.00040    1.35200    1.44150    -999.25  -64.11000   -5.58780    2.00040    0.00000   10.09450    -999.25
 5850.00000   10.62660   10.62660    0.37010    -999.25  888.57300    0.09930    0.09930    2.30290    2.30320    0.21020    1.12540  102.63750  102.65370    -999.25  102.65370    1.18480    0.37010    0.21020    -999.25    -999.25    1.77940    1.12540    1.18480    -999.25  -64.88650   -6.36430    1.77940    5.21700   12.37830    -999.25
 5900.00000   10.61050   10.61050    0.31650    -999.25  725.32090    0.07720    0.07720    2.41230    2.41440    0.14280    1.37870   87.92240   91.64440    -999.25   91.64440    1.45840    0.31650    0.14280    -999.25    -999.25    2.06950    1.37870    1.45840    -999.25  -65.83350   -7.31130    2.06950    0.00000   14.06500    -999.25
 5950.00000   10.47450   10.47450    0.34330    -999.25  920.97990    0.12560    0.12560    2.31220    2.31170    0.20500    1.08580   86.90860   94.67290    -999.25   94.67290    1.11550    0.34330    0.20500    -999.25    -999.25    1.79920    1.08580    1.11550    -999.25  -70.79700  -12.27480    1.79920    0.00000   13.98190    -999.25
 6000.00000    9.08100    9.08100    0.27540    -999.25  620.53990    0.10760    0.10760    2.49860    2.50350    0.08880    1.61150   71.78210   78.54220    -999.25   78.54220    1.70150    0.27540    0.08880    -999.25    -999.25    2.36170    1.61150    1.70150    -999.25  -67.08250   -8.56030    2.36170    0.00000   17.83880    -999.25
 6050.00000    9.01480    9.01480    0.21530    -999.25  440.97540    0.00210    0.00210    2.54740    2.54770    0.06200    2.26770   55.51230   58.75620    -999.25   58.75620    2.46540    0.21530    0.06200    -999.25    -999.25    2.94900    2.26770    2.46540    -999.25  -62.35670   -3.83450    2.94900    0.00000   18.10200    -999.25
 6100.00000    9.02940    9.02940    0.18050    -999.25  319.15230    0.00960    0.00960    2.58150    2.58280    0.04070    3.13330   46.51700   53.68420    -999.25   53.68420    3.37350    0.18050    0.04070    -999.25    -999.25    3.64240    3.13330    3.37350    -999.25  -62.98750   -4.46530    3.64240    0.00000   12.90440    -999.25
 6150.00000    9.09920    9.09920    0.21000    -999.25  444.01030   -0.00890   -0.00890    2.48630    2.47770    0.10440    2.25220   79.95930   82.18110    -999.25   82.18110    2.41010    0.21000    0.10440    -999.25    -999.25    3.05940    2.25220    2.41010    -999.25  -65.58000   -7.05780    3.05940    0.00000   11.67180    -999.25
 6200.00000    9.09650    9.09650    0.22610    -999.25  524.21890    0.04060    0.04060    2.44780    2.44540    0.12400    1.90760   90.15270   95.22610    -999.25   95.22610    1.99360    0.22610    0.12400    -999.25    -999.25    2.61100    1.90760    1.99360    -999.25  -64.66490   -6.14270    2.61100    0.00000    6.46320    -999.25
 6250.00000    9.10260    9.10260    0.20900    -999.25  459.66450   -0.00100   -0.00100    2.50510    2.50030    0.09070    2.17550   81.79200   88.81480    -999.25   88.81480    2.32340    0.20900    0.09070    -999.25    -999.25    2.88130    2.17550    2.32340    -999.25  -61.97240   -3.45020    2.88130    4.39670   15.81460    -999.25
