~Version ---------------------------------------------------
VERS.      2.0 : CWLS log ASCII Standard -VERSION 2.0
WRAP.      YES : Multiple lines per depth step
CREA. 05/20/13 : LAS Creation Date
~Well ------------------------------------------------------
STRT.FT                    1750.0 : START DEPTH
STOP.FT                   15250.0 : STOP DEPTH
STEP.FT                  50.00000 : STEP LENGTH
NULL.                     -999.25 : NULL VALUE
COMP. TEXAS OIL & GAS CORPORATION : COMPANY
WELL.                   REED E #1 : WELL
FLD .                  BEAR GRASS : FIELD
LOC .                             : LOCATION
CNTY.                   FREESTONE : COUNTY
STAT.                       TEXAS : STATE
CTRY.    UNITED STATES OF AMERICA : COUNTRY
SRVC.               Dresser Atlas : SERVICE COMPANY
DATE.                 20-Dec-1978 : LOGDATE
API .              42161304400000 : API NUMBER
UWI .              42161304400000 : UNIQUE WELL ID
SLAT.WGS84           31.421505692 : SURFACE LATITUDE
SLON.WGS84         -96.2242059669 : SURFACE LONGITUDE
~Curve Information -----------------------------------------
DEPT    .FT    : DEPTH FEET
CALDED  .IN    : CALIPER FROM DENSITY LOG
CALWS   .IN    : CALIPER [CALDED]
CONDWS  .MMHO  : CONDUCTIVITY [1000/DRESWS]
CORRED  .G/C3  : DENSITY CORRECTION FROM DENSITY LOG
DCORWS  .G/C3  : DENSITY CORRECTION [CORRED]
DENWS   .G/C3  : FORMATION BULK DENSITY [RHOBED]
DPHILSED.V/V   : DENSITY POROSITY LIMESTONE [M=2.71, F=1.0] FROM DENSITY LOG [ADJ. TO RHOBED]
DPOWS   .V/V   : DENSITY POROSITY LIMESTONE [DPHILSED]
DRESWS  .OHMM  : DEEP RESISTIVITY [ILDED]
GRDED   .GAPI  : GAMMA RAY FROM DENSITY LOG
GRWS    .GAPI  : GAMMA RAY [GRDED]
ILDED   .OHMM  : DEEP INDUCTION RESISTIVITY FROM RESISTIVITY LOG
ILMED   .OHMM  : MEDIUM INDUCTION RESISTIVITY FROM RESISTIVITY LOG
MRESWS  .OHMM  : MEDIUM RESISTIVITY [ILMED]
NPHILSED.V/V   : NEUTRON POROSITY LIMESTONE FROM DENSITY LOG
NPOWS   .V/V   : NEUTRON POROSITY LIMESTONE [NPHILSED]
RHOBED  .G/C3  : BULK DENSITY FROM DENSITY LOG
SFLED   .OHMM  : SPHERICALLY FOCUSED FROM RESISTIVITY LOG
SPRED   .MV    : SPONTANEOUS POTENTIAL FROM RESISTIVITY LOG
SPWS    .MV    : SPONTANEOUS POTENTIAL [BASELINE 0 MV, SPRED]
SRESWS  .OHMM  : SHALLOW RESISTIVITY [SFLED]
TENDED  .LBF   : TENSION FROM DENSITY LOG
~Params ----------------------------------------------------
PD  .                     GL : PERMANENT DATUM
EPD .FT                  452 : ELEVATION PERMANENT DATUM
LMF .                     KB : LOG MEASURED FROM
DAPD.FT                   21 : FEET ABOVE PERMANENT DATUM
DMF .                     KB : DRILLING MEASURED FROM
EKB .FT                  473 : KELLY BUSHING
EDF .FT                  472 : DRILLING FLOOR
EGL .FT                  452 : GROUND LEVEL
DATE.               12/20/78 : RUN DATE
RUN .                      4 : RUN NUMBER
DD  .FT                15297 : DEPTH DRILLER
DL  .FT                15240 : DEPTH LOGGER
BLI .FT                15238 : BOTTOM LOG INTERVAL
TLI .FT                14903 : TOP LOG INTERVAL
CS  .IN                    7 : CASING SIZE
CBD .FT                12937 : CASING BOTTOM DRILLER
CBL .FT                12936 : CASING BOTTOM LOGGER
BS  .IN                    6 : BIT SIZE
BSD .FT                15297 : BIT SIZE AT DEPTH
DFT .               CHEM GEL : DRILLING FLUID TYPE
DFD .                   16.5 : DRILLING FLUID DENSITY
DFV .                     60 : DRILLING FLUID VISCOSITY
DFPH.                   10.8 : DRILLING FLUID PH
DFL .                      8 : DRILLING FLUID LOSS
TCS .HRS                   8 : TIME CIRCULATED STOPPED
LUN .                   6104 : LOGGING UNIT NUMBER
LUL .                  TYLER : LOGGING UNIT LOCATION
ENGI.                 DELLVA : RECORDING ENGINEER
WITN.                  GRACE : WITNESSED BY
CLNT.                A2DTECH : CLIENT CODE
ORIG.               5" PRINT : ORIGIN OF DATA
UWI .         42161304400000 : UNIQUE WELL ID
DICO. A2D Technologies, Inc. : DIGITIZING COMPANY
~Other -----------------------------------------------------
CDL-CNL-DIL LOG RAN
RUN 2: CDL & CNL VALUES FROM 12935'TO 13250'NOT VALID DUE TO INTERMITTANT,
TOOL FAILURE CAUSED BY CONSTANT STICKING OF TOOL.
RUN 3:TOOL RUN WITHOUT 1.5" S.O. BECAUSE OF SMALL BOREHOLE SET DOWN AT 15033' & LOGGED UP.
~ASCII -----------------------------------------------------
# ...
 8150.00000    8.82250    8.82250   30.67800    0.00020    0.00020    2.68860    0.00880    0.01250   32.59660   76.50710   76.50710   32.59660   34.08410   34.08410    0.05420    0.05420    2.68860   44.30080  -66.04370  -30.63090   44.30080  123.05460
 8200.00000    8.53720    8.53720   94.11940    0.00120    0.00120    2.51820    0.11600    0.11220   10.62480   44.17660   44.17660   10.62480   20.96970   20.96970    0.11960    0.11960    2.51820   47.43400 -152.21510 -117.20320   47.43400   85.71630
 8250.00000    8.69940    8.69940   26.55760    0.00230    0.00230    2.68650    0.01040    0.01370   37.65400   61.74170   61.74170   37.65400   51.14770   51.14770    0.03880    0.03880    2.68650  161.54710  -44.18680   -9.69880  161.54710   92.97870
 8300.00000    8.05380    8.05380   22.02100    0.01770    0.01770    2.70260   -0.00300    0.00430   45.41130   71.16390   71.16390   45.41130   57.06470   57.06470    0.04280    0.04280    2.70260   85.45980  -48.72620  -15.45890   85.45980   90.68070
 8350.00000    8.24170    8.24170   72.09230    0.00310    0.00310    2.66500    0.01900    0.02630   13.87110   83.69710   83.69710   13.87110   20.23210   20.23210    0.09800    0.09800    2.66500   31.60240  -38.77890   -6.73240   31.60240   87.63250
 8400.00000    8.77000    8.77000  104.08100    0.01100    0.01100    2.64780    0.03210    0.03640    9.60790   97.93630   97.93630    9.60790   12.21660   12.21660    0.14240    0.14240    2.64780   11.35030  -38.48330   -7.65750   11.35030  122.14180
 8450.00000    8.93760    8.93760  163.72240   -0.00890   -0.00890    2.39040    0.16520    0.18690    6.10790  114.43590  114.43590    6.10790    6.78240    6.78240    0.16230    0.16230    2.39040    5.82250  -39.48500   -9.88000    5.82250   91.51070
 8500.00000   10.18140   10.18140  156.09880    0.06690    0.06690    2.41240    0.16510    0.17400    6.40620  114.76990  114.76990    6.40620    7.86070    7.86070    0.26130    0.26130    2.41240    9.83580  -35.09290   -6.70860    9.83580  107.20350
 8550.00000   11.08700   11.08700  239.41770    0.09380    0.09380    2.40080    0.18420    0.18080    4.17680  135.04540  135.04540    4.17680    4.96720    4.96720    0.29840    0.29840    2.40080    5.93210  -35.39690   -8.23330    5.93210   60.18470
 8600.00000    8.63240    8.63240   36.79740    0.02360    0.02360    2.68770    0.00830    0.01300   27.17580   90.43320   90.43320   27.17580   37.25210   37.25210    0.06210    0.06210    2.68770   59.29740  -36.34090  -10.39810   59.29740   98.14500
 8650.00000    8.49820    8.49820  124.22360   -0.01160   -0.01160    2.36260    0.15610    0.20320    8.05000  105.56770  105.56770    8.05000   12.96280   12.96280    0.11850    0.11850    2.36260   40.70740  -31.85060   -6.80490   40.70740  118.26420
 8700.00000   11.47910   11.47910  235.16690    0.07880    0.07880    2.45550    0.15000    0.14880    4.25230  118.32450  118.32450    4.25230    4.84680    4.84680    0.27430    0.27430    2.45550    7.19100  -30.55130   -4.56880    7.19100   67.84450
 8750.00000    8.93480    8.93480   69.17110    0.02500    0.02500    2.56050    0.07680    0.08740   14.45690   97.44170   97.44170   14.45690   17.03130   17.03130    0.09840    0.09840    2.56050   22.77110  -35.39460   -8.47530   22.77110   85.76680
 8800.00000    8.69860    8.69860   31.32660    0.00510    0.00510    2.63720    0.04280    0.04260   31.92180   83.38140   83.38140   31.92180   38.77030   38.77030    0.03530    0.03530    2.63720  155.37030  -46.63440  -18.77840  155.37030  114.10620
 8850.00000    8.86320    8.86320   22.74090    0.05050    0.05050    2.65590    0.03160    0.03160   43.97360   63.42510   63.42510   43.97360   62.05030   62.05030    0.07960    0.07960    2.65590   96.23900  -69.18410  -40.39130   96.23900  104.87000
 8900.00000    8.84780    8.84780   28.71480    0.06540    0.06540    2.58780    0.07120    0.07150   34.82530   61.05470   61.05470   34.82530   49.19500   49.19500    0.08160    0.08160    2.58780  115.04720  -78.11420  -48.38460  115.04720  108.21330
 8950.00000    8.68530    8.68530   26.78930    0.03670    0.03670    2.67130    0.02320    0.02260   37.32840   79.16390   79.16390   37.32840   40.26320   40.26320    0.06490    0.06490    2.67130   74.90640  -53.55820  -22.89180   74.90640   91.32210
 9000.00000    8.77380    8.77380   25.77740    0.04010    0.04010    2.68570    0.00990    0.01420   38.79360   56.81080   56.81080   38.79360   34.62380   34.62380    0.06540    0.06540    2.68570  131.41850  -43.14900  -11.76280  131.41850   94.21860
 9050.00000    8.95970    8.95970  201.53980   -0.00260   -0.00260    2.32900    0.21180    0.22280    4.96180  106.07470  106.07470    4.96180    8.37270    8.37270    0.11900    0.11900    2.32900   11.19160  -43.28620  -12.04820   11.19160  124.96770
 9100.00000    8.86280    8.86280   54.14270   -0.00410   -0.00410    2.66020    0.02560    0.02910   18.46970   81.30690   81.30690   18.46970   20.99540   20.99540    0.09690    0.09690    2.66020   44.19650  -54.12710  -23.03730   44.19650   75.12270
 9150.00000    8.84610    8.84610  163.01780   -0.01800   -0.01800    2.20110    0.27830    0.29760    6.13430  135.38070  135.38070    6.13430    7.21520    7.21520    0.13480    0.13480    2.20110    8.90300  -62.76190  -31.82030    8.90300  150.61510
 9200.00000    8.43130    8.43130  132.49070    0.01750    0.01750    2.54530    0.09190    0.09630    7.54770   74.30640   74.30640    7.54770    9.20600    9.20600    0.05930    0.05930    2.54530   16.98140  -76.69610  -45.90270   16.98140   94.86820
 9250.00000    8.77170    8.77170  187.76870   -0.01240   -0.01240    2.43160    0.16900    0.16280    5.32570   84.73280   84.73280    5.32570    6.72960    6.72960    0.12880    0.12880    2.43160    9.22770  -69.43720  -38.79200    9.22770   27.38920
 9300.00000   10.78450   10.78450  352.08790    0.07940    0.07940    2.20460    0.31600    0.29560    2.84020  132.55830  132.55830    2.84020    3.42240    3.42240    0.23700    0.23700    2.20460    5.75960  -35.04960   -4.55250    5.75960    8.20040
 9350.00000   11.37550   11.37550  184.88050    0.06080    0.06080    2.08010    0.37590    0.36840    5.40890  141.83480  141.83480    5.40890    6.18130    6.18130    0.28260    0.28260    2.08010    8.68200  -61.10140  -30.75250    8.68200  175.90670
 9400.00000    9.16230    9.16230  195.80970   -0.00200   -0.00200    2.52170    0.10840    0.11010    5.10700  115.79930  115.79930    5.10700    5.61110    5.61110    0.14590    0.14590    2.52170    8.29180  -53.18620  -22.98550    8.29180   71.53230
 9450.00000    9.13320    9.13320  131.58590    0.00890    0.00890    2.54830    0.09510    0.09460    7.59960   91.61670   91.61670    7.59960    7.94530    7.94530    0.11720    0.11720    2.54830    9.30090  -44.85070  -14.79820    9.30090   82.08560
 9500.00000    8.49210    8.49210   91.02490    0.00010    0.00010    2.54430    0.09700    0.09690   10.98600   68.89320   68.89320   10.98600   12.70380   12.70380    0.05600    0.05600    2.54430   19.18590  -59.90280  -29.99850   19.18590  101.24590
 9550.00000    8.95820    8.95820   88.19660   -0.00900   -0.00900    2.59580    0.06680    0.06680   11.33830  131.61570  131.61570   11.33830   12.68060   12.68060    0.11760    0.11760    2.59580   16.96500  -47.25020  -17.49400   16.96500   63.73130
 9600.00000    8.64580    8.64580   43.14060    0.01040    0.01040    2.53730    0.09620    0.10100   23.18000   82.15800   82.15800   23.18000   28.52600   28.52600    0.03490    0.03490    2.53730   48.67710  -68.56590  -38.95790   48.67710  101.51680
 9650.00000    8.94390    8.94390   75.13040   -0.00900   -0.00900    2.60700    0.06110    0.06020   13.31020   97.78410   97.78410   13.31020   16.95010   16.95010    0.08770    0.08770    2.60700   14.40350  -40.46550  -11.00570   14.40350   68.91700
 9700.00000    8.61190    8.61190   55.43580    0.01240    0.01240    2.54200    0.09820    0.09820   18.03890   77.87160   77.87160   18.03890   28.70820   28.70820    0.05470    0.05470    2.54200   45.89830  -81.36570  -52.05410   45.89830   10.63180
