~Version ---------------------------------------------------
VERS. 2.0 : CWLS log ASCII Standard -VERSION 2.0
WRAP. YES : MULTIPLE LINES PER DEPTH STEP
~Well ------------------------------------------------------
STRT.FT                 1050.0 : START DEPTH
STOP.FT                 5550.0 : STOP DEPTH
STEP.FT               50.00000 : STEP LENGTH
NULL.                  -999.25 : NULL VALUE
COMP.             CATLETT, E G : COMPANY
WELL.          TALLEY J. E. #1 : WELL
FLD .                       WC : FIELD
LOC .                          : LOCATION
CNTY.                 GONZALES : COUNTY
STAT.                    TEXAS : STATE
CTRY. UNITED STATES OF AMERICA : COUNTRY
SRVC.             Schlumberger : SERVICE COMPANY
DATE.              21-Feb-1981 : LOGDATE
API .           42177307700000 : API NUMBER
UWI .           42177307700000 : UNIQUE WELL ID
SLAT.WGS84       29.5350845878 : SURFACE LATITUDE
SLON.WGS84      -97.5648931406 : SURFACE LONGITUDE
~Curve Information -----------------------------------------
DEPT    .FT    : DEPTH FEET
CALWS   .IN    : CALIPER [DCALED+7.875]
CONDWS  .MMHO  : CONDUCTIVITY [1000/DRESWS]
DCALRED .IN    : DIFFERENTIAL CALIPER FROM RESISTIVITY LOG
DCORWS  .G/C3  : DENSITY CORRECTION [DRHOED]
DENWS   .G/C3  : BULK DENSITY [CALCULATED FROM DPHISSED SPL WITH DPHILSED @4593F]
DPHILSED.V/V   : DENSITY POROSITY [M=2.71 F=1.0] FROM DENSITY LOG
DPHISSED.V/V   : DENSITY POROSITY [M=2.65 F=1.0] FROM DENSITY LOG
DPOWS   .V/V   : DENSITY POROSITY [M=2.71 F=1.0] [CALCULATED FROM DENWS]
DRESWS  .OHMM  : DEEP RESISTIVITY [ILDED]
DRHOED  .G/C3  : DENSITY CORRECTION FROM DENSITY LOG
GRRED   .GAPI  : GAMMA RAY FROM RESISTIVITY LOG
GRWS    .GAPI  : GAMMA RAY [GRRED, CSG ABOVE 1216F]
ILDED   .OHMM  : INDUCTION LOG DEEP RESISTIVITY
ILMED   .OHMM  : INDUCTION LOG MEDIUM RESISTIVITY
MRESWS  .OHMM  : MEDIUM RESISTIVITY [ILMED]
NPHILSED.V/V   : NEUTRON POROSITY LIMESTONE FROM DENSITY LOG
NPHISSED.V/V   : NEUTRON POROSITY SANDSTONE FROM DENSITY LOG
NPOWS   .V/V   : NEUTRON POROSITY LIMESTONE [CONVERTED NPHISSED TO LIMESTONE AND SPL WITH NPHILSED @4593F, CSG ABOVE 1216F]
SFLUED  .OHMM  : SPHERICALLY FOCUSED LOG RESISTIVITY
SPRED   .MV    : SPONTANEOUS POTENTIAL FROM RESISTIVITY LOG
SPWS    .MV    : SPONTANEOUS POTENTIAL [BASELINE 0 MV] [SPRED]
SRESWS  .OHMM  : SHALLOW RESISTIVITY [SFLUED]
~Params ----------------------------------------------------
PD  .                     GL : PERMANENT DATUM
EPD .FT                  430 : ELEVATION PERMANENT DATUM
LMF .                     KB : LOG MEASURED FROM
DAPD.FT                   12 : FEET ABOVE PERMANENT DATUM
DMF .                     KB : DRILLING MEASURED FROM
EKB .FT                  442 : KELLY BUSHING
EDF .FT                  441 : DRILLING FLOOR
EGL .FT                  420 : GROUND LEVEL
DATE.               02/21/81 : RUN DATE
RUN .                      1 : RUN NUMBER
DD  .FT                 5592 : DEPTH DRILLER
DL  .FT                 5586 : DEPTH LOGGER
BLI .FT                 5580 : BOTTOM LOG INTERVAL
TLI .FT                 1016 : TOP LOG INTERVAL
CS  .IN                8.625 : CASING SIZE
CBD .FT                 1017 : CASING BOTTOM DRILLER
CBL .FT                 1016 : CASING BOTTOM LOGGER
BS  .IN                7.875 : BIT SIZE
BSD .FT                 5592 : BIT SIZE AT DEPTH
DFT .                    LNS : DRILLING FLUID TYPE
DFD .                    9.5 : DRILLING FLUID DENSITY
DFV .                     53 : DRILLING FLUID VISCOSITY
DFPH.                      9 : DRILLING FLUID PH
DFL .                    5.8 : DRILLING FLUID LOSS
MSS .                   TANK : MUD SAMPLE SOURCE
RMS .OHMM               1.68 : RESISTIVITY MUD SAMPLE
MST .DEGF                 75 : MUD SAMPLE TEMPERATURE
RMF .OHMM               1.54 : RESISTIVITY MUD FILTRATE SAMPLE
MFST.DEGF                 75 : MUD FILTRATE SAMPLE TEMPERATURE
RMC .OHMM               2.52 : RESISTIVITY MUD CAKE
MCST.DEGF                 75 : MUD CAKE SAMPLE TEMPERATURE
MFSS.                      M : MUD FILTRATE SAMPLE SOURCE
MCSS.                      C : MUD CAKE SAMPLE SOURCE
RMB .OHMM               0.88 : RESISTIVITY MUD AT BHT
TCS .HRS                1100 : TIME CIRCULATED STOPPED
TLAB.HRS                1400 : TIME LOGGER AT BOTTOM
LUN .                   8101 : LOGGING UNIT NUMBER
LUL .                BRENHAM : LOGGING UNIT LOCATION
CLNT.                A2DTECH : CLIENT CODE
ORIG.             2.5" PRINT : ORIGIN OF DATA
UWI .         42177307700000 : UNIQUE WELL ID
DICO. A2D Technologies, Inc. : DIGITIZING COMPANY
~Other -----------------------------------------------------
~ASCII -----------------------------------------------------
# ...
 2650.00000    6.99640  407.99670   -0.87860    0.01530    2.14760    -999.25    0.30450    0.32890    2.45100    0.01530   84.08960   84.08960    2.45100    2.42200    2.42200    -999.25    0.45410    0.41240    2.02230   -2.70710   -3.78490    2.02230
 2700.00000    6.68520  152.69270   -1.18980    -999.25    2.09300    -999.25    0.33760    0.36080    6.54910    -999.25   71.26040   71.26040    6.54910    6.82920    6.82920    -999.25    0.38260    0.33940    7.72010   -7.25160   -8.32940    7.72010
 2750.00000    6.80740  131.96090   -1.06760    -999.25    2.06890    -999.25    0.35220    0.37490    7.57800    -999.25   49.14510   49.14510    7.57800    7.48320    7.48320    -999.25    0.40270    0.35990    7.42190   -9.58390  -10.66170    7.42190
 2800.00000    6.90530  151.04140   -0.96970    -999.25    2.06410    -999.25    0.35510    0.37770    6.62070    -999.25   53.37260   53.37260    6.62070    6.44500    6.44500    -999.25    0.40250    0.35970    7.24980   -8.34410   -9.42190    7.24980
 2850.00000    7.02570  317.20860   -0.84930    -999.25    2.21470    -999.25    0.26380    0.28960    3.15250    -999.25  103.59590  103.59590    3.15250    3.20090    3.20090    -999.25    0.41950    0.37700    2.81120   -5.37510   -6.45290    2.81120
 2900.00000    7.45910  439.56040   -0.41590    -999.25    2.23850    -999.25    0.24940    0.27570    2.27500    -999.25  107.10550  107.10550    2.27500    2.30790    2.30790    -999.25    0.44590    0.40410    2.33630   -2.52600   -3.60380    2.33630
 2950.00000    8.26760  416.25040    0.39260    -999.25    2.25480    -999.25    0.23950    0.26620    2.40240    -999.25   96.71110   96.71110    2.40240    2.32030    2.32030    -999.25    0.41680    0.37430    2.08390   -4.81880   -5.89660    2.08390
 3000.00000    7.17760  284.94090   -0.69740    -999.25    2.22310    -999.25    0.25870    0.28470    3.50950    -999.25   95.38890   95.38890    3.50950    3.56020    3.56020    -999.25    0.43200    0.38980    4.16760  -13.54740  -14.62520    4.16760
 3050.00000    8.08090  579.40780    0.20590    -999.25    2.22790    -999.25    0.25580    0.28190    1.72590    -999.25   97.27790   97.27790    1.72590    1.75230    1.75230    -999.25    0.44930    0.40760    1.52490   -0.47610   -1.55390    1.52490
 3100.00000    7.66540  480.67680   -0.20960    -999.25    2.29440    -999.25    0.21550    0.24300    2.08040    -999.25  103.51350  103.51350    2.08040    2.11110    2.11110    -999.25    0.40640    0.36370    2.17100   -1.74200   -2.81980    2.17100
 3150.00000    7.71120  505.25460   -0.16380    -999.25    2.33770    -999.25    0.18930    0.21770    1.97920    -999.25  100.16980  100.16980    1.97920    2.00770    2.00770    -999.25    0.40730    0.36460    2.22070   -0.55630   -1.65990    2.22070
 3200.00000    8.58520  489.85990    0.71020    -999.25    2.34940    -999.25    0.18220    0.21090    2.04140    -999.25  106.11940  106.11940    2.04140    2.07130    2.07130    -999.25    0.42390    0.38150    1.85100   -0.57000   -1.73970    1.85100
 3250.00000    8.87070  568.69890    0.99570    -999.25    2.33530    -999.25    0.19070    0.21910    1.75840    -999.25  105.17550  105.17550    1.75840    1.78660    1.78660    -999.25    0.40790    0.36520    1.83840   -0.95350   -2.18930    1.83840
 3300.00000    8.90110  726.84990    1.02610    -999.25    2.33950    -999.25    0.18820    0.21670    1.37580    -999.25  105.24680  105.24680    1.37580    1.39570    1.39570    -999.25    0.47510    0.43340    1.43500   -1.11080   -2.41270    1.43500
 3350.00000    8.85560  789.57760    0.98060    -999.25    -999.25    -999.25    -999.25    -999.25    1.26650    -999.25    -999.25    -999.25    1.26650    1.28490    1.28490    -999.25    -999.25    -999.25    1.38730   -1.31980   -2.68780    1.38730
 3400.00000    8.86490  740.57620    0.98990    -999.25    -999.25    -999.25    -999.25    -999.25    1.35030    -999.25    -999.25    -999.25    1.35030    1.37100    1.37100    -999.25    -999.25    -999.25    1.49720   -1.57880   -3.01290    1.49720
 3450.00000    9.34410  820.21000    1.46910    -999.25    -999.25    -999.25    -999.25    -999.25    1.21920    -999.25    -999.25    -999.25    1.21920    1.23690    1.23690    -999.25    -999.25    -999.25    1.26470   -0.91080   -2.41100    1.26470
 3500.00000    9.62790 1266.94530    1.75290    -999.25    -999.25    -999.25    -999.25    -999.25    0.78930    -999.25    -999.25    -999.25    0.78930    0.80070    0.80070    -999.25    -999.25    -999.25    0.83910   -1.87580   -3.44210    0.83910
 3550.00000    8.94670  805.73690    1.07170    -999.25    -999.25    -999.25    -999.25    -999.25    1.24110    -999.25    -999.25    -999.25    1.24110    1.26730    1.26730    -999.25    -999.25    -999.25    1.49840    0.09680   -1.53560    1.49840
 3600.00000    9.11720 1072.84630    1.24220    -999.25    -999.25    -999.25    -999.25    -999.25    0.93210    -999.25    -999.25    -999.25    0.93210    0.95610    0.95610    -999.25    -999.25    -999.25    1.19850   -1.43640   -3.09200    1.19850
 3650.00000    8.59240  501.37880    0.71740    -999.25    -999.25    -999.25    -999.25    -999.25    1.99450    -999.25    -999.25    -999.25    1.99450    2.02780    2.02780    -999.25    -999.25    -999.25    2.07420   -1.46840   -3.06010    2.07420
 3700.00000    8.21480  450.89730    0.33980    -999.25    -999.25    -999.25    -999.25    -999.25    2.21780    -999.25    -999.25    -999.25    2.21780    2.24960    2.24960    -999.25    -999.25    -999.25    2.36540   -0.26110   -1.78880    2.36540
 3750.00000    8.60150  555.74080    0.72650    -999.25    -999.25    -999.25    -999.25    -999.25    1.79940    -999.25    -999.25    -999.25    1.79940    1.83050    1.83050    -999.25    -999.25    -999.25    2.00310   -3.15830   -4.62210    2.00310
 3800.00000    8.15510  477.66900    0.28010    -999.25    -999.25    -999.25    -999.25    -999.25    2.09350    -999.25    -999.25    -999.25    2.09350    2.61460    2.61460    -999.25    -999.25    -999.25    9.03210  -16.85840  -18.25830    9.03210
 3850.00000    8.89170  644.70370    1.01670    -999.25    -999.25    -999.25    -999.25    -999.25    1.55110    -999.25    -999.25    -999.25    1.55110    1.57380    1.57380    -999.25    -999.25    -999.25    1.53820   -3.03450   -4.37050    1.53820
 3900.00000    8.97250  682.45410    1.09750    -999.25    -999.25    -999.25    -999.25    -999.25    1.46530    -999.25    -999.25    -999.25    1.46530    1.48640    1.48640    -999.25    -999.25    -999.25    1.47900   -0.55040   -1.82250    1.47900
 3950.00000    8.95000  750.01870    1.07500    -999.25    -999.25    -999.25    -999.25    -999.25    1.33330    -999.25    -999.25    -999.25    1.33330    1.35360    1.35360    -999.25    -999.25    -999.25    1.52660   -2.67760   -3.88580    1.52660
 4000.00000    9.29290  744.87900    1.41790    -999.25    -999.25    -999.25    -999.25    -999.25    1.34250    -999.25    -999.25    -999.25    1.34250    1.36190    1.36190    -999.25    -999.25    -999.25    1.48580   -1.77010   -2.91440    1.48580
 4050.00000    8.73430  738.98910    0.85930    -999.25    -999.25    -999.25    -999.25    -999.25    1.35320    -999.25    -999.25    -999.25    1.35320    1.37820    1.37820    -999.25    -999.25    -999.25    1.58210    0.14050   -0.93990    1.58210
 4100.00000    9.61240  806.64680    1.73740    -999.25    -999.25    -999.25    -999.25    -999.25    1.23970    -999.25    -999.25    -999.25    1.23970    1.26240    1.26240    -999.25    -999.25    -999.25    1.30260   -3.04950   -4.24540    1.30260
 4150.00000    9.51060  753.40920    1.63560    -999.25    -999.25    -999.25    -999.25    -999.25    1.32730    -999.25    -999.25    -999.25    1.32730    1.34650    1.34650    -999.25    -999.25    -999.25    1.48040   -5.32740   -6.64620    1.48040
 4200.00000    8.86010  649.56150    0.98510    -999.25    -999.25    -999.25    -999.25    -999.25    1.53950    -999.25    -999.25    -999.25    1.53950    1.56260    1.56260    -999.25    -999.25    -999.25    1.70270   -4.89490   -6.33670    1.70270
