~Version ---------------------------------------------------
VERS.      2.0 : CWLS log ASCII Standard -VERSION 2.0
WRAP.      YES : Multiple lines per depth step
CREA. 09/28/17 : LAS Creation Date
~Well ------------------------------------------------------
STRT.FT                  2150.0 : START DEPTH
STOP.FT                 11650.0 : STOP DEPTH
STEP.FT                50.00000 : STEP LENGTH
NULL.                   -999.25 : NULL VALUE
COMP. BURK ROYALTY COMPANY, LTD : COMPANY
WELL.               STERLING #1 : WELL
FLD .                           : FIELD
LOC .                           : LOCATION
CNTY.                   MADISON : COUNTY
STAT.                     TEXAS : STATE
CTRY.  UNITED STATES OF AMERICA : COUNTRY
SRVC.               HALLIBURTON : SERVICE COMPANY
DATE.               31-May-2014 : LOGDATE
API .            42313311010000 : API NUMBER
UWI .            42313311010000 : UNIQUE WELL ID
SLAT.WGS84     30.9882730389083 : SURFACE LATITUDE
SLON.WGS84    -95.6985448660659 : SURFACE LONGITUDE
~Curve Information -----------------------------------------
DEPT    .FT    : DEPTH FEET
CALRED  .IN    : CALIPER FROM RESISTIVITY LOG
CALWS   .IN    : CALIPER [CALRED]
CONDWS  .MMHO  : DEEP CONDUCTIVITY [1000/DRESWS]
DCALRED .IN    : DIFFERENTIAL CALIPER FROM RESISTIVITY LOG
DCORWS  .G/C3  : DENSITY CORRECTION [DRHOED]
DENWS   .G/C3  : BULK DENSITY [RHOBED]
DPHILSED.V/V   : DENSITY POROSITY (LS) [M=2.71 F=1.00]
DPOLSWS .V/V   : DENSITY POROSITY (LS) [M=2.71 F=1.00] [DPHILSED]
DRESWS  .OHMM  : DEEP RESISTIVITY [RT90ED]
DRHOED  .G/C3  : DENSITY CORRECTION FROM DENSITY LOG
GRRED   .GAPI  : GAMMA RAY FROM RESISTIVITY LOG
GRWS    .GAPI  : GAMMA RAY [GRRED]
MINVED  .OHMM  : MICROINVERSE RESISTIVITY
MNORED  .OHMM  : MICRONORMAL RESISTIVITY
MRESWS  .OHMM  : MEDIUM RESISTIVITY [RT30ED]
NPHILSED.V/V   : NEUTRON POROSITY LIMESTONE
NPOLSWS .V/V   : NEUTRON POROSITY LIMESTONE [NPHILSED]
PEED    .B/E   : PHOTOELECTRIC FACTOR FROM DENSITY LOG
PEFWS   .B/E   : PHOTOELECTRIC FACTOR [PEED]
RHOBED  .G/C3  : BULK DENSITY FROM DENSITY LOG
RT10ED  .OHMM  : 10 INCH RESISTIVITY TWO FOOT RESOLUTION
RT20ED  .OHMM  : 20 INCH RESISTIVITY TWO FOOT RESOLUTION
RT30ED  .OHMM  : 30 INCH RESISTIVITY TWO FOOT RESOLUTION
RT60ED  .OHMM  : 60 INCH RESISTIVITY TWO FOOT RESOLUTION
RT90ED  .OHMM  : 90 INCH RESISTIVITY TWO FOOT RESOLUTION
SPRED   .MV    : SPONTANEOUS POTENTIAL FROM RESISTIVITY LOG
SPWS    .MV    : SPONTANEOUS POTENTIAL [BASELINE 0 MV] [SPRED]
SRESWS  .OHMM  : SHALLOW RESISTIVITY [RT10ED]
TENRED  .LBF   : TENSION FROM RESISTIVITY LOG
~Params ----------------------------------------------------
PD  .                     GL : PERMANENT DATUM
EPD .FT                  159 : ELEVATION PERMANENT DATUM
LMF .                     KB : LOG MEASURED FROM
DAPD.FT                   30 : FEET ABOVE PERMANENT DATUM
DMF .                     KB : DRILLING MEASURED FROM
EKB .FT                  189 : KELLY BUSHING
EDF .FT                  188 : DRILLING FLOOR
EGL .FT                  159 : GROUND LEVEL
DATE.              5/31/2014 : RUN DATE
RUN .                      1 : RUN NUMBER
DD  .FT                11688 : DEPTH DRILLER
DL  .FT                11682 : DEPTH LOGGER
BLI .FT                11679 : BOTTOM LOG INTERVAL
TLI .FT                 2195 : TOP LOG INTERVAL
CS  .IN                9.625 : CASING SIZE
CBD .FT                 2195 : CASING BOTTOM DRILLER
CBL .FT                 2195 : CASING BOTTOM LOGGER
BS  .IN                 8.75 : BIT SIZE
BSD .FT                11688 : BIT SIZE AT DEPTH
DFT .        WATER BASED MUD : DRILLING FLUID TYPE
DFD .                    9.8 : DRILLING FLUID DENSITY
DFV .                     65 : DRILLING FLUID VISCOSITY
DFPH.                    9.4 : DRILLING FLUID PH
DFL .                    4.4 : DRILLING FLUID LOSS
MSS .               MUD TANK : MUD SAMPLE SOURCE
RMS .OHMM               1.31 : RESISTIVITY MUD SAMPLE
MST .DEGF                 71 : MUD SAMPLE TEMPERATURE
RMF .OHMM               1.12 : RESISTIVITY MUD FILTRATE SAMPLE
MFST.DEGF                 72 : MUD FILTRATE SAMPLE TEMPERATURE
RMC .OHMM               1.83 : RESISTIVITY MUD CAKE
MCST.DEGF                 72 : MUD CAKE SAMPLE TEMPERATURE
MFSS.                   MEAS : MUD FILTRATE SAMPLE SOURCE
MCSS.                   MEAS : MUD CAKE SAMPLE SOURCE
RMB .OHMM               0.73 : RESISTIVITY MUD AT BHT
TCS .HRS                 700 : TIME CIRCULATED STOPPED
TLAB.HRS                 630 : TIME LOGGER AT BOTTOM
LUN .               10549594 : LOGGING UNIT NUMBER
LUL .                KILGORE : LOGGING UNIT LOCATION
ENGI.                 ALLALI : RECORDING ENGINEER
WITN.                KIMBELL : WITNESSED BY
CLNT.                A2DTECH : CLIENT CODE
ORIG.       1", 2", 5" PRINT : ORIGIN OF DATA
UWI .         42313311010000 : UNIQUE WELL ID
DICO. A2D Technologies, Inc. : DIGITIZING COMPANY
~Other -----------------------------------------------------
ALL LOGS RAN ON COMBO.
LOADED ALL CURVES FROM BOREHOLE DATA SET.
GAPS ON CURVES AROUND 11450'-11510' DUE TO TOOL PULLED.
~ASCII -----------------------------------------------------
 2150.00000    -999.25    -999.25    -999.25    -999.25    -999.25    -999.25    -999.25    -999.25    -999.25    -999.25   46.65730   46.65730    -999.25    -999.25    -999.25    0.38240    0.38240    -999.25    -999.25    -999.25    -999.25    -999.25    -999.25    -999.25    -999.25    -999.25    -999.25    -999.25    -999.25
 2200.00000    9.94270    9.94270  785.66940    1.19270    0.09160    1.97020    0.43260    0.43260    1.27280    0.09160   67.97130   67.97130    1.28250    0.86690    1.28370    0.62430    0.62430    3.91150    3.91150    1.97020    1.27900    1.28090    1.28370    1.28060    1.27280  -12.57430   -7.34420    1.27900 2085.11450
 2250.00000    9.88200    9.88200  342.43060    1.13200    0.04580    2.14130    0.33260    0.33260    2.92030    0.04580   49.41700   49.41700    3.28650    2.13760    3.16340    0.32740    0.32740    3.00580    3.00580    2.14130    3.58570    3.42520    3.16340    3.04310    2.92030  -18.31700   -9.93870    3.58570 2055.39840
 2300.00000   10.01370   10.01370  364.45810    1.26370    0.08000    2.19210    0.30290    0.30290    2.74380    0.08000   62.62070   62.62070    2.34160    1.56210    2.73440    0.33330    0.33330    3.80240    3.80240    2.19210    2.77260    2.75690    2.73440    2.75070    2.74380  -18.63460   -7.20730    2.77260 2095.43290
 2350.00000   10.14110   10.14110  416.21580    1.39110    0.01240    2.10990    0.35090    0.35090    2.40260    0.01240   53.28250   53.28250    2.53230    1.55100    2.55330    0.31000    0.31000    3.38530    3.38530    2.10990    2.77490    2.68430    2.55330    2.47110    2.40260  -21.87710  -10.60540    2.77490 2122.42650
 2400.00000   10.21310   10.21310  348.52920    1.46310    0.03150    2.09230    0.36120    0.36120    2.86920    0.03150   55.37800   55.37800    2.46070    1.72970    2.87710    0.37310    0.37310    4.15100    4.15100    2.09230    2.97600    2.91580    2.87710    2.87230    2.86920  -17.27530   -6.15930    2.97600 2225.97560
 2450.00000    9.81770    9.81770  251.09230    1.06770    0.05580    2.30680    0.23580    0.23580    3.98260    0.05580   53.05870   53.05870    5.73890    3.20300    4.19730    0.23990    0.23990    3.59430    3.59430    2.30680    4.36940    4.39010    4.19730    4.07070    3.98260  -18.94870   -7.98830    4.36940 2221.75370
 2500.00000   10.42110   10.42110  334.50410    1.67110    0.03820    2.08460    0.36570    0.36570    2.98950    0.03820   63.53620   63.53620    3.32410    1.95460    3.19500    0.34140    0.34140    4.18810    4.18810    2.08460    3.49760    3.40900    3.19500    3.07260    2.98950  -19.45750   -8.65280    3.49760 2266.38890
 2550.00000   11.03980   11.03980  346.74060    2.28980    0.03230    2.06070    0.37970    0.37970    2.88400    0.03230   54.40150   54.40150    4.36520    2.72520    3.36280    0.30160    0.30160    3.42920    3.42920    2.06070    4.22950    3.93150    3.36280    3.06910    2.88400  -27.68520  -17.03610    4.22950 2249.54880
 2600.00000   11.24450   11.24450  392.77300    2.49450    0.04770    2.01540    0.40620    0.40620    2.54600    0.04770   43.72060   43.72060    4.24720    2.72650    2.97370    0.31080    0.31080    3.91700    3.91700    2.01540    3.89520    3.52000    2.97370    2.71320    2.54600  -27.60530  -17.11190    3.89520 2314.26590
 2650.00000    9.82320    9.82320  383.84770    1.07320    0.01460    2.15620    0.32390    0.32390    2.60520    0.01460   71.85710   71.85710    2.56660    1.56600    2.75030    0.34640    0.34640    3.68690    3.68690    2.15620    3.07510    2.93620    2.75030    2.67220    2.60520  -18.44160   -8.10380    3.07510 2311.40060
 2700.00000    9.16260    9.16260  466.02670    0.41260    0.05960    1.87420    0.48870    0.48870    2.14580    0.05960   66.05890   66.05890    1.48740    1.08650    2.10490    0.39580    0.39580    5.01900    5.01900    1.87420    1.91270    2.04820    2.10490    2.13690    2.14580  -12.07200   -1.88990    1.91270 2395.28000
 2750.00000    9.47430    9.47430  480.12290    0.72430    0.08580    2.13940    0.33370    0.33370    2.08280    0.08580   75.86500   75.86500    1.85130    1.19410    2.08270    0.37680    0.37680    3.46160    3.46160    2.13940    1.91290    2.04360    2.08270    2.09590    2.08280  -14.47800   -4.45150    1.91290 2382.36720
 2800.00000    9.30590    9.30590  365.16340    0.55590    0.05730    2.12940    0.33950    0.33950    2.73850    0.05730   66.97440   66.97440    2.50620    1.71240    2.78540    0.32490    0.32490    3.98050    3.98050    2.12940    2.73440    2.79680    2.78540    2.76730    2.73850  -18.51670   -8.64590    2.73440 2426.76610
 2850.00000    9.29330    9.29330  378.83090    0.54330    0.02200    2.24240    0.27340    0.27340    2.63970    0.02200   79.62880   79.62880    3.72070    2.18730    2.69180    0.29810    0.29810    2.80390    2.80390    2.24240    2.88000    2.79680    2.69180    2.66740    2.63970  -17.01240   -7.29720    2.88000 2499.97390
 2900.00000    9.65090    9.65090  318.38010    0.90090   -0.00220    2.27790    0.25270    0.25270    3.14090   -0.00220   67.78820   67.78820    4.00830    2.55400    3.27140    0.29740    0.29740    3.46900    3.46900    2.27790    3.58090    3.46350    3.27140    3.19890    3.14090  -19.77840  -10.03640    3.58090 2451.55350
 2950.00000    9.50960    9.50960  366.26010    0.75960    0.01760    2.07660    0.37040    0.37040    2.73030    0.01760   51.10560   51.10560    3.94130    2.51390    3.09160    0.30160    0.30160    2.64210    2.64210    2.07660    3.83970    3.54780    3.09160    2.87320    2.73030  -26.95880  -17.02810    3.83970 2459.37160
 3000.00000    9.57310    9.57310  290.85830    0.82310    0.02520    2.16190    0.32050    0.32050    3.43810    0.02520   62.03070   62.03070    4.00290    2.66380    3.72910    0.28020    0.28020    2.68100    2.68100    2.16190    4.20880    4.06800    3.72910    3.55810    3.43810  -21.99340  -11.87390    4.20880 2537.09590
 3050.00000    9.24560    9.24560  307.55980    0.49560    0.04160    2.15160    0.32660    0.32660    3.25140    0.04160   43.08990   43.08990    3.07440    2.54370    3.71430    0.22230    0.22230    2.43220    2.43220    2.15160    4.81910    4.33360    3.71430    3.42310    3.25140  -26.75060  -16.44240    4.81910 2460.73970
 3100.00000    9.40960    9.40960  289.77950    0.65960    0.00980    2.26830    0.25830    0.25830    3.45090    0.00980   72.73190   72.73190    4.07090    2.57880    3.53290    0.29410    0.29410    3.15640    3.15640    2.26830    3.77270    3.69630    3.53290    3.48900    3.45090  -18.77030   -8.27340    3.77270 2571.09350
 3150.00000    9.61160    9.61160  340.61110    0.86160    0.03270    2.23330    0.27870    0.27870    2.93590    0.03270   77.18740   77.18740    4.08970    2.51130    3.15840    0.26580    0.26580    2.71780    2.71780    2.23330    3.63330    3.46040    3.15840    3.02640    2.93590  -21.87450  -11.18890    3.63330 2519.96120
 3200.00000    9.67090    9.67090  260.43020    0.92090    0.02680    2.24210    0.27360    0.27360    3.83980    0.02680   73.83060   73.83060    3.89580    2.81090    4.22410    0.26520    0.26520    2.78100    2.78100    2.24210    4.89730    4.69910    4.22410    3.98570    3.83980  -26.17610  -15.30180    4.89730 2595.05620
 3250.00000    9.57840    9.57840  319.94880    0.82840    0.00080    2.28680    0.24750    0.24750    3.12550    0.00080   91.79480   91.79480    4.15260    2.53950    3.12110    0.26340    0.26340    2.64880    2.64880    2.28680    3.19680    3.13040    3.12110    3.12360    3.12550  -16.87930   -5.81620    3.19680 2542.81470
 3300.00000    9.66410    9.66410  256.10820    0.91410    0.02450    2.34910    0.21110    0.21110    3.90460    0.02450   66.22170   66.22170    5.07320    3.34520    4.05080    0.22100    0.22100    2.85830    2.85830    2.34910    4.50060    4.30460    4.05080    3.95710    3.90460  -21.85720  -10.60540    4.50060 2595.51560
 3350.00000    9.29110    9.29110  311.47800    0.54110    0.03400    2.09920    0.35720    0.35720    3.21050    0.03400   37.80030   37.80030    2.89900    2.17240    3.72900    0.28710    0.28710    3.13110    3.13110    2.09920    5.28500    4.44800    3.72900    3.41230    3.21050  -31.03350  -19.59300    5.28500 2716.04640
