~Version ---------------------------------------------------
VERS. 2.0 : CWLS log ASCII Standard -VERSION 2.0
WRAP. YES : MULTIPLE LINES PER DEPTH STEP
~Well ------------------------------------------------------
STRT.FT                    1450.0 : START DEPTH
STOP.FT                    9350.0 : STOP DEPTH
STEP.FT                  50.00000 : STEP LENGTH
NULL.                     -999.25 : NULL VALUE
COMP.        MARATHON OIL COMPANY : COMPANY
WELL.                 PINNACLE #4 : WELL
FLD .                  BEAR GRASS : FIELD
LOC .                             : LOCATION
CNTY.                        LEON : COUNTY
STAT.                       TEXAS : STATE
CTRY.    UNITED STATES OF AMERICA : COUNTRY
SRVC. HALLIBURTON Sperry Drilling : SERVICE COMPANY
DATE.                 06-Mar-2000 : LOGDATE
API .              42289313140000 : API NUMBER
UWI .              42289313140000 : UNIQUE WELL ID
SLAT.WGS84          31.3279877769 : SURFACE LATITUDE
SLON.WGS84         -96.3002763309 : SURFACE LONGITUDE
~Curve Information -----------------------------------------
DEPT    .FT    : DEPTH FEET
GRRED   .GAPI  : GAMMA RAY FROM RESISTIVITY LOG
HRMED   .OHMM  : HRI MEDIUM RESISTIVITY
DFLED   .OHMM  : DIGITALLY FOCUSED LATEROLOG
HRDED   .OHMM  : HRI DEEP RESISTIVITY
SPRED   .MV    : SPONTANEOUS POTENTIAL FROM RESISTIVITY LOG
DCALED  .IN    : DIFFERENTIAL CALIPER FROM DENSITY LOG
TENRED  .LBF   : TENSION FROM RESISTIVITY LOG
PEFED   .B/E   : PHOTOELECTRIC FACTOR FROM DENSITY LOG
CORRED  .G/C3  : DENSITY CORRECTION FROM DENSITY LOG
DPORLSED.V/V   : DENSITY POROSITY LIMESTONE
NPORLSED.V/V   : NEUTRON POROSITY LIMESTONE FROM DENSITY LOG
SPWS    .MV    : SPONTANEOUS POTENTIAL [BASELINE 0 MV] [SPRED]
GRWS    .GAPI  : GAMMA RAY [GRRED]
CALWS   .IN    : CALIPER [DCALED+BIT]
DCORWS  .G/C3  : DENSITY CORRECTION [CORRED]
DRESWS  .OHMM  : DEEP RESISTIVITY [HRDED]
MRESWS  .OHMM  : MEDIUM RESISTIVITY [HRMED]
SRESWS  .OHMM  : SHALLOW RESISTIVITY [DFLED]
CONDWS  .MMHO  : CONDUCTIVITY [1000/DRESWS]
PEFWS   .B/E   : PHOTOELECTRIC FACTOR [PEFED]
DENWS   .G/C3  : BULK DENSITY [M=2.71 F=1.0] [CALCULATED FROM DPORLSED]
DPOWS   .V/V   : DENSITY POROSITY [M=2.71 F=1] [CALCULATED FROM DENWS]
NPOWS   .V/V   : NEUTRON POROSITY LIME [SWS CONV NPORLSED]
~Params ----------------------------------------------------
PD  .                     GL : PERMANENT DATUM
EPD .FT                  342 : ELEVATION PERMANENT DATUM
LMF .                     KB : LOG MEASURED FROM
DAPD.FT                   12 : FEET ABOVE PERMANENT DATUM
DMF .                     KB : DRILLING MEASURED FROM
EKB .FT                  354 : KELLY BUSHING
EDF .FT                  353 : DRILLING FLOOR
EGL .FT                  342 : GROUND LEVEL
DATE.               03/06/00 : RUN DATE
RUN .                      1 : RUN NUMBER
DD  .FT                 9350 : DEPTH DRILLER
DL  .FT                 9347 : DEPTH LOGGER
BLI .FT                 9335 : BOTTOM LOG INTERVAL
TLI .FT                 1520 : TOP LOG INTERVAL
CS  .IN                9.625 : CASING SIZE
CBD .FT                 1525 : CASING BOTTOM DRILLER
CBL .FT                 1520 : CASING BOTTOM LOGGER
BS  .IN                7.875 : BIT SIZE
BSD .FT                 9350 : BIT SIZE AT DEPTH
DFT .              FRESH MUD : DRILLING FLUID TYPE
DFD .                     10 : DRILLING FLUID DENSITY
DFV .                     55 : DRILLING FLUID VISCOSITY
DFPH.                    9.8 : DRILLING FLUID PH
DFL .                     15 : DRILLING FLUID LOSS
MSS .               MUD TANK : MUD SAMPLE SOURCE
RMS .OHMM               1.83 : RESISTIVITY MUD SAMPLE
MST .DEGF                 74 : MUD SAMPLE TEMPERATURE
RMF .OHMM               1.59 : RESISTIVITY MUD FILTRATE SAMPLE
MFST.DEGF                 74 : MUD FILTRATE SAMPLE TEMPERATURE
RMC .OHMM                2.3 : RESISTIVITY MUD CAKE
MCST.DEGF                 74 : MUD CAKE SAMPLE TEMPERATURE
MFSS.                   MEAS : MUD FILTRATE SAMPLE SOURCE
MCSS.                   MEAS : MUD CAKE SAMPLE SOURCE
TCS .HRS                 630 : TIME CIRCULATED STOPPED
TLAB.HRS                1241 : TIME LOGGER AT BOTTOM
LUN .                  53793 : LOGGING UNIT NUMBER
LUL .                   KILG : LOGGING UNIT LOCATION
ENGI.               REYNOLDS : RECORDING ENGINEER
WITN.                 EWBANK : WITNESSED BY
CLNT.                A2DTECH : CLIENT CODE
ORIG.         1" 2" 5" PRINT : ORIGIN OF DATA
UWI .         42289313140000 : UNIQUE WELL ID
DICO. A2D Technologies, Inc. : DIGITIZING COMPANY
~Other -----------------------------------------------------
~ASCII -----------------------------------------------------
# ...
 4550.00000   70.55310    2.82490    3.04180    2.73360  -73.08200    -999.25 2638.58230    -999.25    -999.25    -999.25    -999.25   -3.32510   70.55310    -999.25    -999.25    2.73360    2.82490    3.04180  365.81800    -999.25    -999.25    -999.25    -999.25
 4600.00000   38.74790    3.13280    4.88930    2.98920  -95.19490    -999.25 2610.25370    -999.25    -999.25    -999.25    -999.25  -25.43800   38.74790    -999.25    -999.25    2.98920    3.13280    4.88930  334.53770    -999.25    -999.25    -999.25    -999.25
 4650.00000   24.24720    3.77630    4.50420    3.63440  -86.72620    -999.25 2646.25930    -999.25    -999.25    -999.25    -999.25  -16.96930   24.24720    -999.25    -999.25    3.63440    3.77630    4.50420  275.14860    -999.25    -999.25    -999.25    -999.25
 4700.00000  121.80180    1.17150    1.47030    1.10990  -71.05730    -999.25 2666.93800    -999.25    -999.25    -999.25    -999.25   -1.30040  121.80180    -999.25    -999.25    1.10990    1.17150    1.47030  900.98210    -999.25    -999.25    -999.25    -999.25
 4750.00000   96.40330    3.11950    4.03310    3.02020  -70.29390    -999.25 2700.88330    -999.25    -999.25    -999.25    -999.25   -0.53700   96.40330    -999.25    -999.25    3.02020    3.11950    4.03310  331.10390    -999.25    -999.25    -999.25    -999.25
 4800.00000  102.43090    1.78010    2.19230    1.72340  -72.25510    -999.25 2644.08590    -999.25    -999.25    -999.25    -999.25   -3.11800  102.43090    -999.25    -999.25    1.72340    1.78010    2.19230  580.24840    -999.25    -999.25    -999.25    -999.25
 4850.00000  114.99950    1.03010    1.25260    1.00000  -71.17210    -999.25 2681.77510    -999.25    -999.25    -999.25    -999.25   -2.66750  114.99950    -999.25    -999.25    1.00000    1.03010    1.25260 1000.00000    -999.25    -999.25    -999.25    -999.25
 4900.00000  113.59980    1.33340    1.50020    1.29450  -70.03030    -999.25 2703.47340    -999.25    -999.25    -999.25    -999.25   -1.68980  113.59980    -999.25    -999.25    1.29450    1.33340    1.50020  772.49900    -999.25    -999.25    -999.25    -999.25
 4950.00000  105.76400    1.96340    2.16110    1.90610  -70.76370    -999.25 2754.86040    -999.25    -999.25    -999.25    -999.25   -2.15500  105.76400    -999.25    -999.25    1.90610    1.96340    2.16110  524.63140    -999.25    -999.25    -999.25    -999.25
 5000.00000  123.72220    1.45950    1.85130    1.41490  -69.90640    -999.25 2725.55590    -999.25    -999.25    -999.25    -999.25   -1.02940  123.72220    -999.25    -999.25    1.41490    1.45950    1.85130  706.76370    -999.25    -999.25    -999.25    -999.25
 5050.00000  112.89420    2.39090    3.17130    2.30700  -70.06170    -999.25 2693.87520    -999.25    -999.25    -999.25    -999.25   -1.08280  112.89420    -999.25    -999.25    2.30700    2.39090    3.17130  433.46340    -999.25    -999.25    -999.25    -999.25
 5100.00000  114.94190    2.08210    2.68170    2.01210  -69.11870    -999.25 2748.52590    -999.25    -999.25    -999.25    -999.25   -1.42920  114.94190    -999.25    -999.25    2.01210    2.08210    2.68170  496.99320    -999.25    -999.25    -999.25    -999.25
 5150.00000   68.36850    6.53000   18.04090    6.32440  -70.59990    -999.25 2774.07200    -999.25    -999.25    -999.25    -999.25   -3.19680   68.36850    -999.25    -999.25    6.32440    6.53000   18.04090  158.11780    -999.25    -999.25    -999.25    -999.25
 5200.00000   92.65620    1.96240    2.31960    1.90520  -71.66900    -999.25 2784.40380    -999.25    -999.25    -999.25    -999.25   -3.39700   92.65620    -999.25    -999.25    1.90520    1.96240    2.31960  524.87930    -999.25    -999.25    -999.25    -999.25
 5250.00000   85.83710    1.86930    2.32720    1.80720  -72.79470    -999.25 2805.72240    -999.25    -999.25    -999.25    -999.25   -4.43390   85.83710    -999.25    -999.25    1.80720    1.86930    2.32720  553.34220    -999.25    -999.25    -999.25    -999.25
 5300.00000   86.88360    1.64900    1.80790    1.59790  -70.32620    -999.25 2821.11350    -999.25    -999.25    -999.25    -999.25   -1.87660   86.88360    -999.25    -999.25    1.59790    1.64900    1.80790  625.82140    -999.25    -999.25    -999.25    -999.25
 5350.00000   89.04390    1.87890    2.71130    1.82240  -70.46100    -999.25 2822.20000    -999.25    -999.25    -999.25    -999.25   -2.40530   89.04390    -999.25    -999.25    1.82240    1.87890    2.71130  548.72700    -999.25    -999.25    -999.25    -999.25
 5400.00000   98.44170    1.35190    1.82770    1.30220  -70.71530    -999.25 2911.63010    -999.25    -999.25    -999.25    -999.25   -3.11940   98.44170    -999.25    -999.25    1.30220    1.35190    1.82770  767.93120    -999.25    -999.25    -999.25    -999.25
 5450.00000   37.20760    8.56200    9.18060    7.64250  -71.00800    -999.25 2921.41110    -999.25    -999.25    -999.25    -999.25   -3.83500   37.20760    -999.25    -999.25    7.64250    8.56200    9.18060  130.84720    -999.25    -999.25    -999.25    -999.25
 5500.00000   24.37120    9.53640   10.42380    9.18000  -78.38700    -999.25 2943.98140    -999.25    -999.25    -999.25    -999.25  -11.05840   24.37120    -999.25    -999.25    9.18000    9.53640   10.42380  108.93250    -999.25    -999.25    -999.25    -999.25
 5550.00000   59.14990    2.72940    3.22590    2.46240  -69.94140    -999.25 2964.09860    -999.25    -999.25    -999.25    -999.25   -2.45720   59.14990    -999.25    -999.25    2.46240    2.72940    3.22590  406.10790    -999.25    -999.25    -999.25    -999.25
 5600.00000   29.61070    7.23060   12.52910    6.32750  -68.88230    -999.25 2964.53150    -999.25    -999.25    -999.25    -999.25   -1.24250   29.61070    -999.25    -999.25    6.32750    7.23060   12.52910  158.04030    -999.25    -999.25    -999.25    -999.25
 5650.00000   21.23120   11.72400   14.83700   10.86500  -75.34100    -999.25 3000.87400    -999.25    -999.25    -999.25    -999.25   -7.54560   21.23120    -999.25    -999.25   10.86500   11.72400   14.83700   92.03870    -999.25    -999.25    -999.25    -999.25
 5700.00000   19.03820   12.84490   15.90330   12.26160  -83.19100    -999.25 3008.60080    -999.25    -999.25    -999.25    -999.25  -15.24000   19.03820    -999.25    -999.25   12.26160   12.84490   15.90330   81.55540    -999.25    -999.25    -999.25    -999.25
 5750.00000   30.86760    9.00500   12.46830    8.23860  -76.97680    -999.25 3038.11160    -999.25    -999.25    -999.25    -999.25   -8.87020   30.86760    -999.25    -999.25    8.23860    9.00500   12.46830  121.37990    -999.25    -999.25    -999.25    -999.25
 5800.00000   16.63600   21.58890   38.57800   18.88210  -78.41010    -999.25 3040.11670    -999.25    -999.25    -999.25    -999.25  -10.14790   16.63600    -999.25    -999.25   18.88210   21.58890   38.57800   52.96020    -999.25    -999.25    -999.25    -999.25
 5850.00000   13.87590   32.61710   81.14330   27.84940  -80.11680    -999.25 3057.57910    -999.25    -999.25    -999.25    -999.25  -11.69900   13.87590    -999.25    -999.25   27.84940   32.61710   81.14330   35.90740    -999.25    -999.25    -999.25    -999.25
 5900.00000   22.84260    7.86020    9.68440    7.39130  -69.19540    -999.25 3089.76440    -999.25    -999.25    -999.25    -999.25   -0.62200   22.84260    -999.25    -999.25    7.39130    7.86020    9.68440  135.29420    -999.25    -999.25    -999.25    -999.25
 5950.00000   35.36510    6.43050    7.36570    6.17570  -70.21920    -999.25 3047.70630    -999.25    -999.25    -999.25    -999.25   -1.51270   35.36510    -999.25    -999.25    6.17570    6.43050    7.36570  161.92500    -999.25    -999.25    -999.25    -999.25
 6000.00000   35.08360    9.64450   12.58920    7.28460  -71.71490    -999.25 3053.34030    -999.25    -999.25    -999.25    -999.25   -3.22630   35.08360    -999.25    -999.25    7.28460    9.64450   12.58920  137.27590    -999.25    -999.25    -999.25    -999.25
 6050.00000   77.72440    4.22710    5.96030    3.77990  -70.88720    -999.25 3078.86450    -999.25    -999.25    -999.25    -999.25   -0.69150   77.72440    -999.25    -999.25    3.77990    4.22710    5.96030  264.55730    -999.25    -999.25    -999.25    -999.25
