~Version ---------------------------------------------------
VERS.      2.0 : CWLS log ASCII Standard -VERSION 2.0
WRAP.      YES : Multiple lines per depth step
CREA. 08/18/12 : LAS Creation Date
~Well ------------------------------------------------------
STRT.FT                 2900.0 : START DEPTH
STOP.FT                17850.0 : STOP DEPTH
STEP.FT               50.00000 : STEP LENGTH
NULL.                  -999.25 : NULL VALUE
COMP. AMOCO PRODUCTION COMPANY : COMPANY
WELL.   JIMMY HILL GAS UNIT #1 : WELL
FLD .                  WILDCAT : FIELD
LOC .                          : LOCATION
CNTY.                     LEON : COUNTY
STAT.                    TEXAS : STATE
CTRY. UNITED STATES OF AMERICA : COUNTRY
SRVC.             Schlumberger : SERVICE COMPANY
DATE.              04-Jun-1996 : LOGDATE
API .           42289312310000 : API NUMBER
UWI .           42289312310000 : UNIQUE WELL ID
SLAT.WGS84       31.2538599246 : SURFACE LATITUDE
SLON.WGS84      -96.2196025838 : SURFACE LONGITUDE
~Curve Information -----------------------------------------
DEPT    .FT                                                                                                : DEPTH FEET
AO10ED  .OHMM                                                                                              : ARRAY INDUCTION ONE FOOT RESISTIVITY A10 FROM AIT-PI-DITE-LDT-CNT LOG
AO20ED  .OHMM                                                                                              : ARRAY INDUCTION ONE FOOT RESISTIVITY A20 FROM AIT-PI-DITE-LDT-CNT LOG
AO30ED  .OHMM                                                                                              : ARRAY INDUCTION ONE FOOT RESISTIVITY A30 FROM AIT-PI-DITE-LDT-CNT LOG
AO60ED  .OHMM                                                                                              : ARRAY INDUCTION ONE FOOT RESISTIVITY A60 FROM AIT-PI-DITE-LDT-CNT LOG
AO90ED  .OHMM                                                                                              : ARRAY INDUCTION ONE FOOT RESISTIVITY A90 FROM AIT-PI-DITE-LDT-CNT LOG
CALSED  .IN                                                                                                : CALIPER FROM BCS-CALIPER-GR LOG [ADJ. TO GRRED]
CALWS   .IN                                                                                                : CALIPER [DCALED+BITS]
CONDWS  .MMHO                                                                                              : CONDUCTIVITY [1000/DRESWS]
DCALED  .IN                                                                                                : DIFFERENTIAL CALIPER FROM AIT-PI-DITE-LDT-CNT LOG
DCORWS  .G/C3                                                                                              : DENSITY CORRECTION [DRHED SPL. TO DRHOED @ 10860']
DENWS   .G/C3 :   FORMATION BULK DENSITY [RHOMED, DENWS CALCULATED FROM DPOWS FROM 7004'-10889'] [M:2.71,F : 1.0]
DPHILSED.V/V                                                      :   DENSITY POROSITY LIMESTONE [M:2.71,F : 1.0] FROM AIT-PI-DITE-LDT-CNT LOG
DPOLSED .V/V                                                                                               : DENSITY POROSITY LIMESTONE FROM HOSTILE LDL-CN-GR LOG
DPOWS   .V/V                                                                                               : DENSITY POROSITY [DPHILSED SPL. TO DPOLSED @ 10852']
DRESWS  .OHMM                                                                                              : DEEP RESISTIVITY [AO30ED SPL. TO IDPHED]
DRHED   .G/C3                                                                                              : BULK DENSITY CORRECTION FROM HOSTILE LDL-CN-GR LOG
DRHOED  .G/C3                                                                                              : BULK DENSITY CORRECTION FROM AIT-PI-DITE-LDT-CNT LOG
DTED    .US/F                                                                                              : DELTA T FROM BCS-CALIPER-GR LOG [ADJ. TO GRRED/NPHILSED]
DTLFED  .US/F                                                                                              : DELTA-T LONG SPACING FAR FROM AIT-PI-DITE-LDT-CNT-PI-LSS-GR LOG
DTLNED  .US/F                                                                                              : DELTA-T LONG SPACING NEAR FROM AIT-PI-DITE-LDT-CNT-PI-LSS-GR LOG
DTWS    .US/F                                                                                              : COMPRESSIONAL SONIC [DTED SPL. TO DTLNED @ 10865.5'-15946.5']
GRRED   .GAPI                                                                                              : GAMMA RAY FROM AIT-PI-DITE-LDT-CNT LOG
GRSED   .GAPI                                                                                              : GAMMA RAY FROM BCS-CALIPER-GR-PI-LSS LOG [ADJ. TO GRRED]
GRWS    .GAPI                                                                                              : GAMMA RAY [GRRED]
IDPHED  .OHMM                                                                                              : DEEP INDUCTION PHASOR FROM AIT-PI-DITE-LDT-CNT- PI-LSS-GR LOG
LCALED  .IN                                                                                                : LOWER CALIPER FROM HOSTILE LDL-CN-GR LOG
MRESWS  .OHMM                                                                                              : MEDIUM RESISTIVITY [AO30ED]
NPHILSED.V/V                                                                                               : NEUTRON POROSITY LIMESTONE FROM AIT-PI-DITE-LDT-CNT LOG
NPOWS   .V/V                                                                                               : NEUTRON POROSITY [NPHILSED]
PEFED   .B/E                                                                                               : PHOTOELECTRIC FACTOR FROM AIT-PI-DITE-LDT-CNT LOG
PEFLED  .B/E                                                                                               : HLDT PEF LONG SPACING FROM HOSTILE LDL-CN-GR LOG
PEFSED  .B/E                                                                                               : SHORT SPACED CORRECTED PHOTOELECTRIC FACTOR FROM HOSTILE LDL-CN-GR LOG
PEFWS   .B/E                                                                                               : PHOTOELECTRIC FACTOR [PEFED SPL. TO PEFSED @ 10847.5']
RHOMED  .G/C3                                                                                              : CORRECTED BULK DENSITY FROM HOSTILE LDL-CN-GR LOG
SPRED   .MV                                                                                                : SPONTANEOUS POTENTIAL  FROM AIT-PI-DITE-LDT-CNT LOG
SPWS    .MV                                                                                                : SPONTANEOUS POTENTIAL [BASELINE 0, MV SPRED]
SRESWS  .OHMM                                                                                              : SHALLOW RESISTIVITY [AO10ED]
TENDED  .LBF                                                                                               : DIFFERENTIAL TENSION FROM HOSTILE LDL-CN-GR LOG
TENRED  .LBF                                                                                               : TENSION FROM AIT-PI-DITE-LDT-CNT LOG
TENSED  .LBF                                                                                               : TOTAL TENSION FROM BCS-CALIPER-GR LOG [ADJ. TO GRRED]
~Params ----------------------------------------------------
PD  .                     GL : PERMANENT DATUM
EPD .FT                 3759 : ELEVATION PERMANENT DATUM
LMF .                     KB : LOG MEASURED FROM
DAPD.FT                 37.2 : FEET ABOVE PERMANENT DATUM
DMF .                     KB : DRILLING MEASURED FROM
EKB .FT                 4131 : KELLY BUSHING
EDF .FT                 4121 : DRILLING FLOOR
EGL .FT                 3759 : GROUND LEVEL
DATE.               06/04/96 : RUN DATE
RUN .                      4 : RUN NUMBER
DD  .FT                17800 : DEPTH DRILLER
DL  .FT                17800 : DEPTH LOGGER
BLI .FT                17797 : BOTTOM LOG INTERVAL
TLI .FT                15944 : TOP LOG INTERVAL
CS  .IN                    7 : CASING SIZE
CBD .FT                15950 : CASING BOTTOM DRILLER
CBL .FT                15944 : CASING BOTTOM LOGGER
BS  .IN                5.875 : BIT SIZE
BSD .FT                17800 : BIT SIZE AT DEPTH
DFT .              OIL BASED : DRILLING FLUID TYPE
DFD .                     18 : DRILLING FLUID DENSITY
DFV .                     88 : DRILLING FLUID VISCOSITY
RMC .OHMM      OIL BASED MUD : RESISTIVITY MUD CAKE
MCST.DEGF      OIL BASED MUD : MUD CAKE SAMPLE TEMPERATURE
TCS .HRS                2100 : TIME CIRCULATED STOPPED
TLAB.HRS                1500 : TIME LOGGER AT BOTTOM
LUN .                   2019 : LOGGING UNIT NUMBER
LUL .                  TYLER : LOGGING UNIT LOCATION
ENGI.                 FERRIS : RECORDING ENGINEER
WITN.              MCGINNUSS : WITNESSED BY
CLNT.                A2DTECH : CLIENT CODE
ORIG.               5' PRINT : ORIGIN OF DATA
UWI .         42289312310000 : UNIQUE WELL ID
DICO. A2D Technologies, Inc. : DIGITIZING COMPANY
~Other -----------------------------------------------------
~ASCII -----------------------------------------------------
# ...
 6500.00000   19.49200   18.69740   17.87280   16.27450   16.87330   16.44440   16.33240   59.26520    4.08240    -999.25    -999.25    -999.25    -999.25    -999.25   16.87330    -999.25    -999.25   56.32200    -999.25    -999.25   56.32200   10.53990   11.83080   10.53990    -999.25    -999.25   17.87280    -999.25    -999.25    -999.25    -999.25    -999.25    -999.25    -999.25  -69.55760  -29.18570   19.49200    -999.25 2465.18120 2554.63230
 6550.00000   14.74580   14.57710   13.39390   13.52300   12.50920   17.47780   17.43850   79.94120    5.18850    -999.25    -999.25    -999.25    -999.25    -999.25   12.50920    -999.25    -999.25   59.83990    -999.25    -999.25   59.83990   16.40670   21.11900   16.40670    -999.25    -999.25   13.39390    -999.25    -999.25    -999.25    -999.25    -999.25    -999.25    -999.25  -52.87120  -13.13420   14.74580    -999.25 2459.07180 2572.27390
 6600.00000    6.78920    6.99890    6.02610    5.46240    5.11390   19.08070   18.16370  195.54550    5.91370    -999.25    -999.25    -999.25    -999.25    -999.25    5.11390    -999.25    -999.25   67.87470    -999.25    -999.25   67.87470   27.96390   24.51500   27.96390    -999.25    -999.25    6.02610    -999.25    -999.25    -999.25    -999.25    -999.25    -999.25    -999.25  -50.54860  -11.44650    6.78920    -999.25 2514.97090 2537.20800
 6650.00000   21.36080   22.02960   18.99590   15.99010   15.98920   16.34630   16.37380   62.54220    4.12380    -999.25    -999.25    -999.25    -999.25    -999.25   15.98920    -999.25    -999.25   57.84110    -999.25    -999.25   57.84110   17.50420   19.19060   17.50420    -999.25    -999.25   18.99590    -999.25    -999.25    -999.25    -999.25    -999.25    -999.25    -999.25  -58.10230  -19.63510   21.36080    -999.25 2513.76830 2586.22580
 6700.00000    5.81890    5.62890    5.38490    5.04730    4.95110   17.52440   17.10130  201.97530    4.85130    -999.25    -999.25    -999.25    -999.25    -999.25    4.95110    -999.25    -999.25   67.74930    -999.25    -999.25   67.74930   26.78760   33.27050   26.78760    -999.25    -999.25    5.38490    -999.25    -999.25    -999.25    -999.25    -999.25    -999.25    -999.25  -42.67750   -4.52740    5.81890    -999.25 2524.48100 2654.69630
 6750.00000   29.73600   26.97960   18.66840   16.72560   14.22440   16.64910   16.94530   70.30170    4.69530    -999.25    -999.25    -999.25    -999.25    -999.25   14.22440    -999.25    -999.25   58.46080    -999.25    -999.25   58.46080   15.66550   22.85480   15.66550    -999.25    -999.25   18.66840    -999.25    -999.25    -999.25    -999.25    -999.25    -999.25    -999.25  -44.64240   -6.63070   29.73600    -999.25 2524.31670 2572.26340
 6800.00000    9.92710    9.66190    7.49040    6.62850    5.73560   16.56960   16.73200  174.34970    4.48200    -999.25    -999.25    -999.25    -999.25    -999.25    5.73560    -999.25    -999.25   65.48460    -999.25    -999.25   65.48460   21.84700   23.13170   21.84700    -999.25    -999.25    7.49040    -999.25    -999.25    -999.25    -999.25    -999.25    -999.25    -999.25  -53.28610  -15.41270    9.92710    -999.25 2538.08400 2640.41800
 6850.00000    1.11710    1.02290    1.01740    1.10830    0.98910   20.48420   20.88400 1011.02010    8.63400    -999.25    -999.25    -999.25    -999.25    -999.25    0.98910    -999.25    -999.25  118.99870    -999.25    -999.25  118.99870   53.33130   64.26100   53.33130    -999.25    -999.25    1.01740    -999.25    -999.25    -999.25    -999.25    -999.25    -999.25    -999.25  -43.76000   -6.02500    1.11710    -999.25 2556.51980 2625.24800
 6900.00000   21.70980   21.02690   19.95710   19.78570   19.34560   15.61440   15.61520   51.69130    3.36520    -999.25    -999.25    -999.25    -999.25    -999.25   19.34560    -999.25    -999.25   56.00760    -999.25    -999.25   56.00760   21.56880   20.83170   21.56880    -999.25    -999.25   19.95710    -999.25    -999.25    -999.25    -999.25    -999.25    -999.25    -999.25  -68.54860  -30.95190   21.70980    -999.25 2518.49410 2586.31470
 6950.00000   19.53880   15.55060   14.21120   11.14150    9.35490   16.86010   17.26610  106.89590    5.01610    -999.25    -999.25    -999.25    -999.25    -999.25    9.35490    -999.25    -999.25   59.71600    -999.25    -999.25   59.71600   33.44780   40.36150   33.44780    -999.25    -999.25   14.21120    -999.25    -999.25    -999.25    -999.25    -999.25    -999.25    -999.25  -49.57850  -12.12020   19.53880    -999.25 2564.08180 2639.59940
 7000.00000   17.03000   21.45760   20.73590   19.59570   21.29500   15.43520   15.18930   46.95940    2.93930    -999.25    -999.25    -999.25    -999.25    -999.25   21.29500    -999.25    -999.25   57.48180    -999.25    -999.25   57.48180   35.02300   36.85720   35.02300    -999.25    -999.25   20.73590    -999.25    -999.25    -999.25    -999.25    -999.25    -999.25    -999.25  -51.26720  -13.94720   17.03000    -999.25 2538.86870 2683.70510
 7050.00000    6.98990    7.31410    6.30750    6.11340    5.57850   16.76740   16.44110  179.25970    4.19110    0.00800    2.60330    0.06240    -999.25    0.06240    5.57850    -999.25    0.00800   68.99060    -999.25    -999.25   68.99060   40.78820   50.47060   40.78820    -999.25    -999.25    6.30750    0.12890    0.12890    4.53610    -999.25    -999.25    4.53610    -999.25  -41.44030   -4.25870    6.98990    -999.25 2583.97120 2631.44260
 7100.00000    6.43440    6.76880    4.99560    4.77560    4.76370   15.51890   15.61010  209.92090    3.36010    0.02330    2.61710    0.05430    -999.25    0.05430    4.76370    -999.25    0.02330   66.03690    -999.25    -999.25   66.03690   49.55790   53.79460   49.55790    -999.25    -999.25    4.99560    0.13050    0.13050    4.06630    -999.25    -999.25    4.06630    -999.25  -40.18610   -3.14280    6.43440    -999.25 2612.22360 2676.90430
 7150.00000   11.34370   11.00360   10.39820    8.01480    7.18210   14.62330   14.67710  139.23500    2.42710    0.01590    2.61510    0.05550    -999.25    0.05550    7.18210    -999.25    0.01590   64.97780    -999.25    -999.25   64.97780   56.75700   56.37260   56.75700    -999.25    -999.25   10.39820    0.08590    0.08590    4.39280    -999.25    -999.25    4.39280    -999.25  -41.25330   -4.34840   11.34370    -999.25 2608.00420 2704.39330
 7200.00000    3.59660    3.80340    3.00870    3.02220    2.87990   15.83490   16.15150  347.23430    3.90150    0.04840    2.57640    0.07810    -999.25    0.07810    2.87990    -999.25    0.04840   75.35160    -999.25    -999.25   75.35160   64.44180   51.84350   64.44180    -999.25    -999.25    3.00870    0.17250    0.17250    4.25690    -999.25    -999.25    4.25690    -999.25  -40.20200   -3.43540    3.59660    -999.25 2625.83860 2725.05490
 7250.00000   30.64900   34.36670   29.36940   28.45760   26.12300   14.22610   14.30730   38.28040    2.05730    0.00380    2.63840    0.04190    -999.25    0.04190   26.12300    -999.25    0.00380   56.49260    -999.25    -999.25   56.49260   26.01920   26.00030   26.01920    -999.25    -999.25   29.36940    0.01400    0.01400    5.21530    -999.25    -999.25    5.21530    -999.25  -47.28940  -10.66120   30.64900    -999.25 2611.42940 2710.77980
 7300.00000    6.57530    6.43300    6.07860    5.84790    5.17980   13.97970   14.01270  193.05760    1.76270    0.00260    2.63840    0.04190    -999.25    0.04190    5.17980    -999.25    0.00260   65.54310    -999.25    -999.25   65.54310   32.50710   31.17050   32.50710    -999.25    -999.25    6.07860    0.08410    0.08410    4.71660    -999.25    -999.25    4.71660    -999.25  -39.68810   -3.19820    6.57530    -999.25 2665.82320 2654.82930
 7350.00000    1.88350    1.76480    1.75350    1.59410    1.56390   15.99910   16.54560  639.42710    4.29560    0.09930    2.19700    0.30000    -999.25    0.30000    1.56390    -999.25    0.09930   89.48000    -999.25    -999.25   89.48000   57.78960   60.29000   57.78960    -999.25    -999.25    1.75350    0.30000    0.30000    4.56110    -999.25    -999.25    4.56110    -999.25  -43.14670   -6.79520    1.88350    -999.25 2672.59350 2712.72000
