~Version ---------------------------------------------------
VERS. 2.0 : CWLS log ASCII Standard -VERSION 2.0
WRAP.  NO : ONE LINE PER DEPTH STEP
~Well ------------------------------------------------------
STRT.F                  2450.0 : START DEPTH
STOP.F                 15800.0 : STOP DEPTH
STEP.F                50.00000 : STEP LENGTH
NULL.                  -999.25 : NULL VALUE
COMP.     MARATHON OIL COMPANY : COMPANY
WELL.                 CAZEY #1 : WELL
FLD .                  WILDCAT : FIELD
LOC .                          : LOCATION
CNTY.                ROBERTSON : COUNTY
STAT.                    TEXAS : STATE
CTRY. UNITED STATES OF AMERICA : COUNTRY
SRVC.        STRATAGRAPH, INC. : SERVICE COMPANY
DATE.              30-Dec-1995 : LOGDATE
API .           42395304440000 : API NUMBER
UWI .           42395304440000 : UNIQUE WELL ID
SLAT.WGS84       31.0729547384 : SURFACE LATITUDE
SLON.WGS84      -96.4245842071 : SURFACE LONGITUDE
~Curve Information -----------------------------------------
DEPT.F                 : 
DTCO.US/F 60 523 00 00 : COMPRESSIONAL-WAVE INTERVAL TRANSIT TIME ACAUSTIC SLOWNESS
SPR .MV   07 010 01 00 : SPONTANEOUS POTENTIAL
TEND.LB   45 635 01 00 : TENSION FROM DENSITY LOG
DCAL.IN   07 280 30 00 : DIFFERENTIAL CALIPER
SFLU.OHMM 07 220 01 00 : SPHERICALLY FOCUSED LOG UNAVERAGED RESISTIVITY
ILM .OHMM 07 120 44 00 : INDUCTION LOG MEDIUM
ILD .OHMM 07 120 46 00 : INDUCTION LOG DEEP
PEF .B/E  45 358 01 00 : PHOTOELECTRIC FACTOR
DRHO.G/C3 45 356 01 00 : DENSITY CORRECTION
DT  .US/F 60 520 00 00 : INTERVAL TRANSIT TIME
DPHI.DEC  45 890 10 00 : DENSITY POROSITY LIMESTONE
GRD .GAPI 45 310 01 00 : GAMMA RAY FROM DENSITY LOG
IDPH.OHMM 07 120 46 00 : INDUCTION DEEP PHASOR RES.
IMPH.OHMM 07 120 44 00 : INDUCTION MEDIUM PHASOR RES.
NPHI.DEC  42 890 01 00 : NEUTRON POROSITY LIMESTONE
DTLF.US/F 60 523 00 00 : ACOUSTIC TRANSIT TIME, LONG SPACED, FAR ARRAY
DTLN.US/F 60 523 00 00 : ACOUSTIC TRANSIT TIME, LONG SPACED, NEAR ARRAY
~Params ----------------------------------------------------
EKB .F                 421.0 : Kelly bushing
EGL .F                 390.0 : Ground level
EDF .F                 420.0 : Drilling floor
EPD .F                 390.0 : Permanent datum
TD  .F               15800.0 : Total depth
DATE.            31-DEC-1995 : Date logged
CLNT.                A2DTECH : Client Code
SL  . 344' FNWL & 1230' FNEL : Surface Location
PD  .                     GL : Permanent Datum
LMF .                     KB : Log Measured From
DMF .                     KB : Drilling Measured From
DAPD.F                    31 : Feet Above Permanent Datum
DD  .F                 15800 : Depth driller
DL  .F                 15796 : Depth logger
BLI .F                 15793 : Bottom log interval
CS1 .IN                7.875 : Casing size
CBD1.        7.875" @ 14300' : Casing driller 1
CBL1.F                 14292 : Casing logger 1
BS1 .IN                  8.5 : Bit size
BSD1.F                 15800 : Depth drilled with bit1
DFT .                THERMEX : Type fluid in hole
DFD .                   16.2 : Density
DFPH.                   10.5 : pH
MSS .              CIRC TANK : Source of sample
RMS .OHMM              1.932 : Rm
RMF .OHMM              1.872 : Rmf
RMC .OHMM              2.181 : Rmc
MFSS.                   MEAS : Source Rmf.
MCSS.                   CALC : Source Rmc.
RMB .OHMM              0.423 : Rm. at BHT
BHT .F                   358 : BHT.
TCS .HRS                 130 : Time Circ. stopped
TLAB.HRS                1130 : Time logger at bottom
LUN .                   8400 : Logging unit number
LUL .                    LER : Logging unit location
ENGI.                 CORLEA : Recorded By
WITN.              FAIRHURST : Witnessed by
ORIG.               5" PRINT : Origin of data
UWI .         42395304440000 : Unique Well ID
DICO. A2D TECHNOLOGIES, INC. : Digitizing Company
~Other -----------------------------------------------------
~ASCII -----------------------------------------------------
# ...
 14650.00000    -999.25 -254.06300 3694.61110    0.24000    6.15800    -999.25    -999.25    -999.25   -0.04900    -999.25    0.09100  129.51500    3.95400    4.07700    0.16200  -36.11100   98.23300
 14700.00000    -999.25 -268.91100 3654.69090    0.22800    5.42000    -999.25    -999.25    -999.25   -0.04000    -999.25    0.05000  124.95800    3.53000    3.32900    0.16200  130.80500  -28.52000
 14750.00000    -999.25 -275.49800 3622.47410    0.08900    5.72600    -999.25    -999.25    -999.25   -0.04900    -999.25    0.03400  108.33700    4.41200    4.49600    0.12500   87.92200   87.96400
 14800.00000    -999.25 -285.86500 3614.77000    0.03700   14.75600    -999.25    -999.25    -999.25   -0.04700    -999.25    0.03200   83.89500    5.52300    7.31900    0.14900   72.32400   74.73700
 14850.00000    -999.25 -284.78000 3588.74510    0.05100    5.51100    -999.25    -999.25    -999.25   -0.04800    -999.25    0.03600  136.52000    3.59100    3.95300    0.14900  -52.94900   88.91600
 14900.00000    -999.25 -272.29900 3727.86600    0.14000    6.38300    -999.25    -999.25    -999.25   -0.04700    -999.25    0.03900  133.73300    4.23200    3.96900    0.18100   93.07900   89.95000
 14950.00000    -999.25 -271.45300 3636.46610    0.11900    5.62600    -999.25    -999.25    -999.25   -0.04500    -999.25    0.03300  120.76300    3.95300    4.25900    0.16500   91.93600   88.73600
 15000.00000    -999.25 -240.04000 3657.84200    0.15900   11.97200    -999.25    -999.25    -999.25   -0.04700    -999.25    0.05700  119.61600    6.84400    7.27200    0.13700   85.63400   86.56600
 15050.00000    -999.25 -243.42600 3574.85010    0.14200   11.87100    -999.25    -999.25    -999.25   -0.04600    -999.25    0.05100  115.52700    8.31700    8.43900    0.07200   88.93700   88.56000
 15100.00000    -999.25 -255.20900 3525.12400    0.28800   20.79300    -999.25    -999.25    -999.25   -0.05100    -999.25    0.06800   98.38500   16.01200   16.24300    0.08500   81.00200   81.78800
 15150.00000    -999.25 -256.67300 3611.59400    0.01200    6.34300    -999.25    -999.25    -999.25   -0.04700    -999.25    0.09900  107.92500    4.99200    4.34600    0.14700   98.46600   96.90200
 15200.00000    -999.25 -214.54100 3375.25000    0.13400   11.61500    -999.25    -999.25    -999.25   -0.05400    -999.25    0.10800  101.73400    5.37200    6.32500    0.10600  102.58900   98.99300
 15250.00000    -999.25 -124.84100 5445.60010    0.03200    7.74300    -999.25    -999.25    -999.25   -0.05100    -999.25    0.07200  111.19900    6.49800    5.49500    0.08900   87.07800   86.72700
 15300.00000    -999.25 -248.98200 3483.30910    0.01900   25.08800    -999.25    -999.25    -999.25   -0.04400    -999.25    0.09000   98.92600   16.92500   16.09800    0.07600  -39.44400   86.06800
 15350.00000    -999.25 -260.39900 3377.27710    0.07900   28.69700    -999.25    -999.25    -999.25   -0.04600    -999.25    0.06400   85.08000   18.88900   19.15000    0.06400   79.49900   78.91600
 15400.00000    -999.25 -260.41200 3461.18600    0.07900   28.90300    -999.25    -999.25    -999.25   -0.05200    -999.25    0.04700   64.82000   20.93600   19.05500    0.06700   81.69100   79.62300
 15450.00000    -999.25 -175.42600 5471.18900    0.28700   34.15800    -999.25    -999.25    -999.25   -0.03900    -999.25    0.01600   52.48300   23.52500   23.52500    0.03100   64.62800   64.72700
 15500.00000    -999.25 -192.17300 5732.36720    0.00700   44.01100    -999.25    -999.25    -999.25   -0.03700    -999.25    0.01900   69.69000   27.15600   31.13900    0.03500   67.70600   67.85300
 15550.00000    -999.25 -201.26500 5610.77780    0.27800  234.09000    -999.25    -999.25    -999.25   -0.07200    -999.25   -0.03200   15.68800  242.35200  272.43900    0.02600   54.20100   54.39900
 15600.00000    -999.25 -251.62500 5728.00490    0.00000   38.55100    -999.25    -999.25    -999.25   -0.04700    -999.25    0.00600   38.13600   33.15100   33.60900    0.01200   58.83500   58.96700
 15650.00000    -999.25 -248.08100 5791.30420    0.00000  158.91600    -999.25    -999.25    -999.25   -0.04500    -999.25    0.01200   26.41600  205.78600  149.39000    0.00600   56.36400   56.78300
 15700.00000    -999.25 -279.43800 5451.09810   -0.00700  144.80900    -999.25    -999.25    -999.25   -0.04900    -999.25   -0.00100   36.36400  130.91400  134.35100    0.00000   51.40100   51.54300
 15750.00000    -999.25 -296.94600 5543.21480    0.00000  219.24800    -999.25    -999.25    -999.25   -0.04500    -999.25    0.02200   12.42400  348.03600 2032.27000    0.00200    -999.25    -999.25
 15800.00000    -999.25    -999.25 5148.30520    -999.25    -999.25    -999.25    -999.25    -999.25    -999.25    -999.25    -999.25    -999.25    -999.25    -999.25    -999.25    -999.25    -999.25
