~Version ---------------------------------------------------
VERS. 2.0 : CWLS log ASCII Standard -VERSION 2.0
WRAP.  NO : One line per depth step
~Well ------------------------------------------------------
STRT.FT                  750.0 : START DEPTH
STOP.FT                 6800.0 : STOP DEPTH
STEP.FT               50.00000 : STEP LENGTH
NULL.                  -999.25 : NULL VALUE
COMP.       GALAXY OIL COMPANY : COMPANY
WELL.      GEORGE W. STRAKE #1 : WELL
FLD .              ROCKY CREEK : FIELD
LOC .                          : LOCATION
CNTY.                   DIMMIT : COUNTY
STAT.                    TEXAS : STATE
CTRY. UNITED STATES OF AMERICA : COUNTRY
SRVC.                          : SERVICE COMPANY
DATE.                          : LOGDATE
API .           42127310890000 : API NUMBER
UWI .           42127310890000 : UNIQUE WELL ID
SLAT.WGS84        28.541421782 : SURFACE LATITUDE
SLON.WGS84      -99.9314651303 : SURFACE LONGITUDE
~Curve Information -----------------------------------------
DEPT  .FT                                     : DEPTH
SPWS  .MV :   SPONTANEOUS POTENTIAL [BASELINE : 0MV]
SPRED .MV                                     : SPONTANEOUS POTENTIAL FROM RESISTIVITY LOG
ILDED .OHMM                                   : INDUCTION LOG DEEP RESISTIVITY
CILDED.MMHO                                   : CONDUCTIVITY FROM RESISTIVITY LOG
LL8ED .OHMM                                   : 8 INCH LATEROLOG RESISTIVITY
SRESWS.OHMM                                   : SHALLOW RESISTIVITY [LL8ED]
DRESWS.OHMM                                   : DEEP RESISTIVITY [1000/CILDED IF ILDED < 1.  ELSE ILDED]
CONDWS.MMHO                                   : CONDUCTIVITY [1000/DRESWS]
GRWS  .GAPI             :   GAMMA RAY [SPLICE : 720 GRDED 6778.5 GRNED]
CALDED.IN                                     : CALIPER FROM DENSITY LOG
CALWS .IN                                     : CALIPER [CALDED]
DCORWS.G/C3                                   : DENSITY CORRECTION [DRHOED]
DENWS .G/C3                                   : BULK DENSITY [RHOBED]
DPHIED.V/V                                    : DENSITY POROSITY [M=2.71 F=1.0] FROM DENSITY LOG
DPOWS .V/V                                    : DENSITY POROSITY [M=2.71 F=1.0] [CALCULATED FROM RHOBED]
DRHOED.G/C3                                   : DENSITY CORRECTION FROM DENSITY LOG
GRDED .GAPI                                   : GAMMA RAY FROM DENSITY LOG
GRNED .GAPI                                   : GAMMA RAY FROM NEUTRON LOG
NEUTED.NAPI                                   : NEUTRON FROM NEUTRON LOG
NPHIED.V/V                                    : NEUTRON POROSITY LIMESTONE FROM DENSITY LOG
NPOWS .V/V                                    : NEUTRON POROSITY LIMESTONE [NPHIED]
RHOBED.G/C3                                   : BULK DENSITY FROM DENSITY LOG
~Params ----------------------------------------------------
EKB .F                727.35 : Kelly bushing
EGL .F                716.35 : Ground level
EDF .F                726.35 : Drilling floor
EPD .F                716.35 : Permanent datum
TD  .F                6812.0 : Total depth
DATE.            03-SEP-1976 : Date logged
CLNT.                A2DTECH : Client Code
SL  .  4300' FWL & 5420' FSL : Surface Location
PD  .                     GL : Permanent Datum
LMF .                     KB : Log Measured From
DMF .                     KB : Drilling Measured From
DAPD.F                    11 : Feet Above Permanent Datum
DD  .F                  6806 : Depth driller
DL  .F                  6812 : Depth logger
BLI .F                  6806 : Bottom log interval
TLI .F                   731 : Top log interval
CS1 .IN                8.625 : Casing size
CBD1.          8.625" @ 739' : Casing driller 1
CBL1.F                   731 : Casing logger 1
BS1 .IN                7.875 : Bit size
BSD1.F                  6806 : Depth drilled with bit1
DFT .              LIGNOSULF : Type fluid in hole
DFD .                   11.3 : Density
DFV .                     55 : Viscosity
DFPH.                    8.5 : pH
DFL .                    5.8 : Fluid loss
MSS .               MUD TANK : Source of sample
RMS .OHMM               0.61 : Rm
MFST.F                    86 : Rmf Meas. temp.
RMB .OHMM               0.32 : Rm. at BHT
BHT .F                   177 : BHT.
LUN .                   7769 : Logging unit number
LUL .                 LAREDO : Logging unit location
ENGI.                STECKER : Recorded By
WITN.                ELLIOTT : Witnessed by
ORIG.               5" PRINT : Origin of data
UWI .         42127310890000 : Unique Well ID
DICO. A2D TECHNOLOGIES, INC. : Digitizing Company
~Other -----------------------------------------------------
~ASCII -----------------------------------------------------
# ...
 5550.00000   -5.84510  -42.66900    -999.25   19.03100    -999.25    -999.25   52.54580   19.03100   57.33000    8.77900    8.77900    0.00400    2.45300    0.13100    0.15030    0.00400   57.33000   80.38200  464.46600    0.16800    0.16800    2.45300
 5600.00000   -2.77060  -40.45600    -999.25   38.38500    -999.25    -999.25   26.05180   38.38500   70.17200    8.79300    8.79300    0.01700    2.54500    0.08000    0.09650    0.01700   70.17200   82.02400  530.83100    0.12500    0.12500    2.54500
 5650.00000   -8.02330  -47.87500    -999.25    1.49600    -999.25    -999.25  668.44920    1.49600   13.08500    9.35100    9.35100    0.09500    2.63300    0.02200    0.04500    0.09500   13.08500   18.07000  746.73900    0.01100    0.01100    2.63300
 5700.00000  -12.28100  -54.29900    -999.25    3.33800    -999.25    -999.25  299.58060    3.33800   12.68400    8.98300    8.98300    0.07600    2.65300    0.02200    0.03330    0.07600   12.68400   19.91900  826.91000    0.00200    0.00200    2.65300
 5750.00000   -6.10270  -50.28700    -999.25    9.47200    -999.25    -999.25  105.57430    9.47200   23.13900    9.34200    9.34200    0.14700    2.66300    0.00000    0.02750    0.14700   23.13900   36.46200  849.06300    0.00200    0.00200    2.66300
 5800.00000   -6.65480  -52.97400    1.80100  532.75600    2.20000    2.20000    1.80100  555.24710   65.52900   12.10300   12.10300    0.06900    2.20700    0.25700    0.29420    0.06900   65.52900   78.97700  214.37500    0.32300    0.32300    2.20700
 5850.00000   -4.86430  -53.30000    1.69600  588.17300    2.09400    2.09400    1.69600  589.62260   65.59000   11.53100   11.53100    0.09400    2.38700    0.16400    0.18890    0.09400   65.59000   81.56300  156.71500    0.34300    0.34300    2.38700
 5900.00000   -2.94880  -53.50100    2.68500  405.62800    3.09000    3.09000    2.68500  372.43950   64.62200   10.75100   10.75100    0.08000    2.39100    0.17100    0.18650    0.08000   64.62200   86.57200  144.60400    0.28400    0.28400    2.39100
 5950.00000   -3.33640  -56.63200    2.15600  487.63700    2.54200    2.54200    2.15600  463.82190   59.09300    9.27400    9.27400    0.10100    2.56200    0.09100    0.08650    0.10100   59.09300   66.93700  137.04000    0.27800    0.27800    2.56200
 6000.00000  -18.90520  -78.49600   16.30300   52.84100   26.01800   26.01800   16.30300   61.33840   13.99300    7.89500    7.89500    0.00500    2.43500    0.07000    0.16080    0.00500   13.99300   21.11900  420.53800    0.10300    0.10300    2.43500
 6050.00000  -15.05890  -74.40000    -999.25   10.63500    -999.25    -999.25   94.02910   10.63500   11.80800    9.15800    9.15800    0.03000    2.64100    0.02300    0.04040    0.03000   11.80800   19.25300  452.08200    0.01500    0.01500    2.64100
 6100.00000   -1.68030  -55.70000    -999.25   11.95000    -999.25    -999.25   83.68200   11.95000   11.66400    -999.25    -999.25    0.17800    2.61600    0.04300    0.05500    0.17800   11.66400   27.67300  560.06500   -0.00800   -0.00800    2.61600
 6150.00000   -3.53550  -57.57100    -999.25   15.12100    -999.25    -999.25   66.13320   15.12100   15.40000    8.42600    8.42600    0.00900    2.70600   -0.04800    0.00230    0.00900   15.40000   26.56900  587.95800    0.00000    0.00000    2.70600
 6200.00000   -8.53620  -68.80500    -999.25    9.03200    -999.25    -999.25  110.71750    9.03200   13.91500    8.28300    8.28300   -0.00700    2.69800   -0.01900    0.00700   -0.00700   13.91500   24.22200  603.21200   -0.00500   -0.00500    2.69800
 6250.00000   -9.43960  -76.35700    -999.25   16.91600    -999.25    -999.25   59.11560   16.91600   13.46200    8.40000    8.40000    0.00900    2.72200   -0.03400   -0.00700    0.00900   13.46200   19.94600  574.36900    0.00200    0.00200    2.72200
 6300.00000   -8.33610  -81.90200    -999.25   29.30700    -999.25    -999.25   34.12150   29.30700   18.57400    9.16600    9.16600    0.03600    2.67300   -0.00200    0.02160    0.03600   18.57400   28.01700  652.97000    0.00600    0.00600    2.67300
 6350.00000   -2.86250  -83.07700    -999.25    3.29800    -999.25    -999.25  303.21410    3.29800   15.22600    8.57700    8.57700    0.01700    2.71300   -0.03300   -0.00180    0.01700   15.22600   29.50700  550.72800   -0.00300   -0.00300    2.71300
 6400.00000  -13.21920  -98.74800    -999.25    5.12000    -999.25    -999.25  195.31250    5.12000   14.89300    8.99000    8.99000    0.07700    2.63500    0.02000    0.04390    0.07700   14.89300   26.40600  575.78500   -0.00200   -0.00200    2.63500
 6450.00000  -20.38240 -102.29400    -999.25   11.08200    -999.25    -999.25   90.23640   11.08200   15.55000    8.52800    8.52800    0.00300    2.61200    0.03300    0.05730    0.00300   15.55000   29.40900  456.50700    0.01000    0.01000    2.61200
 6500.00000   -8.81140  -66.50000    -999.25    2.27600    -999.25    -999.25  439.36730    2.27600   12.25900    8.38100    8.38100    0.00800    2.90100   -0.13200   -0.11170    0.00800   12.25900   31.58500  675.66700   -0.01600   -0.01600    2.90100
 6550.00000   -5.33910  -39.09900    -999.25    0.49900    -999.25    -999.25 2004.00790    0.49900   15.86400    8.26800    8.26800    0.00000    2.92600   -0.15400   -0.12630    0.00000   15.86400   26.85400  916.45000   -0.02100   -0.02100    2.92600
 6600.00000   -6.92700  -29.30100    -999.25   11.68400    -999.25    -999.25   85.58710   11.68400   25.04100    8.31600    8.31600    0.00100    2.70900   -0.02900    0.00060    0.00100   25.04100   31.73000  582.02600    0.05000    0.05000    2.70900
 6650.00000   -5.58810  -28.13800    -999.25   23.69200    -999.25    -999.25   42.20830   23.69200   37.58200    8.41500    8.41500    0.00700    2.68000    0.02100    0.01750    0.00700   37.58200   50.81400  360.53900    0.09400    0.09400    2.68000
 6700.00000   -7.29910  -30.02500    -999.25   11.46600    -999.25    -999.25   87.21440   11.46600   39.82200    8.29100    8.29100    0.00800    2.68400   -0.00900    0.01520    0.00800   39.82200   56.56900  684.58300    0.00100    0.00100    2.68400
 6750.00000   -4.34840  -26.88800    -999.25    5.48400    -999.25    -999.25  182.34860    5.48400   43.96500    8.36100    8.36100    0.08800    2.65400    0.00900    0.03270    0.08800   43.96500   43.09200  708.77900   -0.00300   -0.00300    2.65400
 6800.00000   -4.92360  -22.71400    -999.25    -999.25    -999.25    -999.25    -999.25    -999.25   37.25400    8.12200    8.12200    0.01400    2.78800   -0.09900   -0.04560    0.01400    -999.25   37.25400  486.84600   -0.02300   -0.02300    2.78800
