~Version ---------------------------------------------------
VERS. 2.0 : CWLS log ASCII Standard -VERSION 2.0
WRAP. YES : MULTIPLE LINES PER DEPTH STEP
~Well ------------------------------------------------------
STRT.FT                 3650.0 : START DEPTH
STOP.FT                 8050.0 : STOP DEPTH
STEP.FT               50.00000 : STEP LENGTH
NULL.                  -999.25 : NULL VALUE
COMP.      SAGE ENERGY COMPANY : COMPANY
WELL.                 ABNER #1 : WELL
FLD .             CALDWELL, NE : FIELD
LOC .                          : LOCATION
CNTY.                 BURLESON : COUNTY
STAT.                    TEXAS : STATE
CTRY. UNITED STATES OF AMERICA : COUNTRY
SRVC.            Dresser Atlas : SERVICE COMPANY
DATE.              30-Nov-1984 : LOGDATE
API .           42051327840000 : API NUMBER
UWI .           42051327840000 : UNIQUE WELL ID
SLAT.WGS84       30.5666622913 : SURFACE LATITUDE
SLON.WGS84      -96.5965383506 : SURFACE LONGITUDE
~Curve Information -----------------------------------------
DEPT    .FT    : DEPTH FEET
CALRED  .IN    : CALIPER FROM RESISTIVITY LOG
CALWS   .IN    : CALIPER [CALRED]
CONDWS  .MMHO  : CONDUCTIVITY [1000/DRESWS]
CORRED  .G/C3  : DENSITY CORRECTION FROM DENSITY LOG
DCORWS  .G/C3  : DENSITY CORRECTION [CORRED]
DENWS   .G/C3  : BULK DENSITY [SPL CALCULATED PORDSSED <7361> PORDLSED]
DPOWS   .V/V   : DENSITY POROSITY [M=2.71 F=1.0] [CALCULATED FROM DENWS]
DRESWS  .OHMM  : DEEP RESISTIVITY [RILDED]
GRNED   .CU    : GAMMA RAY FROM NEUTRON LOG [ADJ TO GRRED]
GRRED   .GAPI  : GAMMA RAY FROM RESISTIVITY LOG
GRWS    .GAPI  : GAMMA RAY [SPL GRRED <8022> GRNED, CASED HOLE DATA BELOW 80522F]
MRESWS  .OHMM  : MEDIUM RESISTIVITY [RILMED]
NEUTED  .CU    : NEUTRON FROM NEUTRON LOG [ADJ TO GRRED]
NEUTWS  .CU    : NEUTRON [NEUTED]
PORDLSED.V/V   : DENSITY POROSITY [M=2.71 F=1.0] FROM DENSITY LOG
PORDSSED.V/V   : DENSITY POROSITY [M=2.65 F=1.0] FROM DENSITY LOG
RFOCED  .OHMM  : FOCUSED RESISTIVITY
RILDED  .OHMM  : INDUCTION LOG DEEP RESISTIVITY
RILMED  .OHMM  : INDUCTION LOG MEDIUM RESISTIVITY
SPRED   .MV    : SPONTANEOUS POTENTIAL FROM RESISTIVITY LOG
SPWS    .MV    : SPONTANEOUS POTENTIAL [BASELINE 0 MV] [SPRED]
SRESWS  .OHMM  : SHALLOW RESISTIVITY [RFOCED]
TENRED  .LBF   : TENSION FROM RESISTIVITY LOG
~Params ----------------------------------------------------
PD  .                     GL : PERMANENT DATUM
EPD .FT                  336 : ELEVATION PERMANENT DATUM
LMF .                     KB : LOG MEASURED FROM
DAPD.FT                   16 : FEET ABOVE PERMANENT DATUM
DMF .                     KB : DRILLING MEASURED FROM
EKB .FT                  352 : KELLY BUSHING
EDF .FT                  351 : DRILLING FLOOR
EGL .FT                  336 : GROUND LEVEL
DATE.               11/30/84 : RUN DATE
RUN .                      1 : RUN NUMBER
DD  .FT                  810 : DEPTH DRILLER
DL  .FT                 8072 : DEPTH LOGGER
BLI .FT                 8070 : BOTTOM LOG INTERVAL
TLI .FT                 3662 : TOP LOG INTERVAL
CS  .IN                8.625 : CASING SIZE
CBD .FT                 3400 : CASING BOTTOM DRILLER
CBL .FT                 3662 : CASING BOTTOM LOGGER
BS  .IN                7.875 : BIT SIZE
BSD .FT                 8100 : BIT SIZE AT DEPTH
DFT .         LIGNOSULFONATE : DRILLING FLUID TYPE
DFD .                    9.4 : DRILLING FLUID DENSITY
DFV .                     48 : DRILLING FLUID VISCOSITY
DFPH.                    9.5 : DRILLING FLUID PH
DFL .                    6.8 : DRILLING FLUID LOSS
MSS .               FLOWLINE : MUD SAMPLE SOURCE
RMS .OHMM                3.3 : RESISTIVITY MUD SAMPLE
MST .DEGF                 75 : MUD SAMPLE TEMPERATURE
RMF .OHMM               2.45 : RESISTIVITY MUD FILTRATE SAMPLE
MFST.DEGF                 75 : MUD FILTRATE SAMPLE TEMPERATURE
RMC .OHMM               4.12 : RESISTIVITY MUD CAKE
MCST.DEGF                 75 : MUD CAKE SAMPLE TEMPERATURE
MFSS.               MEASURED : MUD FILTRATE SAMPLE SOURCE
MCSS.             CALCULATED : MUD CAKE SAMPLE SOURCE
RMB .OHMM               1.34 : RESISTIVITY MUD AT BHT
TCS .HRS                  12 : TIME CIRCULATED STOPPED
LUN .                HL 6304 : LOGGING UNIT NUMBER
LUL .                  BRYAN : LOGGING UNIT LOCATION
ENGI.            STEIGERWALD : RECORDING ENGINEER
WITN.                  BAKER : WITNESSED BY
CLNT.                A2DTECH : CLIENT CODE
ORIG.            2" 5" PRINT : ORIGIN OF DATA
UWI .         42051327840000 : UNIQUE WELL ID
DICO. A2D Technologies, Inc. : DIGITIZING COMPANY
~Other -----------------------------------------------------
~ASCII -----------------------------------------------------
# ...
 6750.00000    8.80820    8.80820  701.85280    -999.25    -999.25    -999.25    -999.25    1.42480    -999.25   94.55160   94.55160    1.54700    -999.25    -999.25    -999.25    -999.25    2.15520    1.42480    1.54700   -4.63920   -3.39900    2.15520    0.00000
 6800.00000    8.93920    8.93920  643.41780    -999.25    -999.25    -999.25    -999.25    1.55420    -999.25   93.41180   93.41180    1.70040    -999.25    -999.25    -999.25    -999.25    2.25800    1.55420    1.70040   -9.86370   -7.10170    2.25800    0.00000
 6850.00000    8.90670    8.90670  634.59830    -999.25    -999.25    -999.25    -999.25    1.57580    -999.25   86.11770   86.11770    1.68970    -999.25    -999.25    -999.25    -999.25    2.32410    1.57580    1.68970  -11.23470   -6.95090    2.32410    2.15610
 6900.00000    8.95350    8.95350  668.40450    -999.25    -999.25    -999.25    -999.25    1.49610    -999.25   86.29710   86.29710    1.59720    -999.25    -999.25    -999.25    -999.25    2.21100    1.49610    1.59720  -10.50530   -4.69970    2.21100    8.50460
 6950.00000    8.98670    8.98670  676.59000    -999.25    -999.25    -999.25    -999.25    1.47800    -999.25   85.45200   85.45200    1.62170    -999.25    -999.25    -999.25    -999.25    2.21480    1.47800    1.62170  -10.51820   -3.19080    2.21480   17.12880
 7000.00000    9.23320    9.23320  688.80010    -999.25    -999.25    -999.25    -999.25    1.45180    -999.25   94.50300   94.50300    1.53990    -999.25    -999.25    -999.25    -999.25    2.14980    1.45180    1.53990  -13.64500   -6.11200    2.14980   25.75300
 7050.00000    9.32950    9.32950  703.48220    -999.25    -999.25    -999.25    -999.25    1.42150    -999.25   87.31990   87.31990    1.55380    -999.25    -999.25    -999.25    -999.25    2.12840    1.42150    1.55380  -11.31050   -5.81310    2.12840   17.55310
 7100.00000    9.19940    9.19940  720.09790    -999.25    -999.25    -999.25    -999.25    1.38870    -999.25   89.95100   89.95100    1.49640    -999.25    -999.25    -999.25    -999.25    2.11220    1.38870    1.49640   -8.41820   -5.53770    2.11220    0.00000
 7150.00000    8.38530    8.38530  626.80210    -999.25    -999.25    -999.25    -999.25    1.59540    -999.25   92.14260   92.14260    1.71300    -999.25    -999.25    -999.25    -999.25    2.31140    1.59540    1.71300   -4.97890   -5.95090    2.31140   12.27950
 7200.00000    8.41280    8.41280  594.53030    -999.25    -999.25    -999.25    -999.25    1.68200   69.54560   82.63770   82.63770    1.81050  169.24410  169.24410    -999.25    -999.25    2.38990    1.68200    1.81050    1.74300   -3.08160    2.38990   10.51700
 7250.00000    8.36500    8.36500  615.27100    -999.25    -999.25    -999.25    -999.25    1.62530   65.98600   87.85610   87.85610    1.75930  187.30060  187.30060    -999.25    -999.25    2.37760    1.62530    1.75930    8.23130   -2.08910    2.37760    8.75450
 7300.00000    8.37870    8.37870  507.22800    -999.25    -999.25    -999.25    -999.25    1.97150   62.26530   86.03080   86.03080    2.12360  227.51130  227.51130    -999.25    -999.25    2.72720    1.97150    2.12360   16.73880   -0.79810    2.72720    6.36140
 7350.00000    8.38720    8.38720  590.17940    -999.25    -999.25    -999.25    -999.25    1.69440   66.23680   86.19700   86.19700    1.88560  228.41030  228.41030    -999.25    -999.25    2.65650    1.69440    1.88560   15.86690   -3.13160    2.65650    3.42430
 7400.00000    8.16880    8.16880   86.98370    0.07560    0.07560    2.60360    0.06220   11.49640   37.62940   30.55600   30.55600   11.08310  519.95250  519.95250    0.06220    -999.25   10.88840   11.49640   11.08310  -13.98870  -33.21720   10.88840    0.00000
 7450.00000    8.20920    8.20920  104.61450    0.01970    0.01970    2.56860    0.08270    9.55890   29.15930   31.43850   31.43850   10.14160  344.56740  344.56740    0.08270    -999.25   12.04520    9.55890   10.14160  -28.51360  -47.97210   12.04520    0.00000
 7500.00000    8.41830    8.41830   74.47850    0.04080    0.04080    2.58120    0.07530   13.42670   20.25430   16.63490   16.63490   14.38570  428.19220  428.19220    0.07530    -999.25   19.49240   13.42670   14.38570  -23.53490  -43.22340   19.49240    0.00000
 7550.00000    9.30390    9.30390  702.69130    0.16570    0.16570    2.51540    0.11380    1.42310   63.89400  109.85970  109.85970    1.50590  100.34080  100.34080    0.11380    -999.25    2.48190    1.42310    1.50590    1.23610  -18.68240    2.48190    0.00000
 7600.00000    8.61380    8.61380  358.14050    0.11970    0.11970    2.55460    0.09090    2.79220   74.46640   98.17930   98.17930    3.60860  158.68640  158.68640    0.09090    -999.25    3.05390    2.79220    3.60860   14.29860   -5.84990    3.05390    1.15610
 7650.00000    8.30380    8.30380  356.06200    0.04820    0.04820    2.52140    0.11030    2.80850   79.82790  104.89960  104.89960    3.13490  201.59510  201.59510    0.11030    -999.25    4.72310    2.80850    3.13490   16.07810   -4.21080    4.72310    5.02820
 7700.00000    8.28680    8.28680  236.59120    0.02090    0.02090    2.45420    0.14960    4.22670   55.93730  101.05170  101.05170    4.42730  188.59450  188.59450    0.14960    -999.25    6.66480    4.22670    4.42730   14.31500   -5.79670    6.66480    6.32930
 7750.00000    8.36830    8.36830  266.65240    0.12680    0.12680    2.49860    0.12360    3.75020   75.03700  108.13620  108.13620    3.63960  137.11420  137.11420    0.12360    -999.25    4.48810    3.75020    3.63960    1.33120  -18.60330    4.48810    7.63050
 7800.00000    8.69060    8.69060  439.17430    0.17980    0.17980    2.44020    0.15780    2.27700   85.32830  122.89030  122.89030    2.63900  111.10340  111.10340    0.15780    -999.25    4.22300    2.27700    2.63900    0.73540  -19.02190    4.22300    8.34220
 7850.00000    7.94940    7.94940   51.65180    0.05410    0.05410    2.74330   -0.01950   19.36040   29.07410   19.65560   19.65560   23.31040  539.20700  539.20700   -0.01950    -999.25   23.57270   19.36040   23.31040  -32.33700  -51.91710   23.57270    8.24290
 7900.00000    7.87300    7.87300   96.41810    0.00850    0.00850    2.63820    0.04200   10.37150   24.10760   39.12270   39.12270   11.07330  441.15760  441.15760    0.04200    -999.25   16.76870   10.37150   11.07330   -8.88850  -28.29130   16.76870    8.81600
 7950.00000    7.82460    7.82460   18.96140   -0.00740   -0.00740    2.63270    0.04520   52.73860   22.49940    9.66260    9.66260   47.68780  767.96370  767.96370    0.04520    -999.25   69.75510   52.73860   47.68780  -76.33330  -95.55890   69.75510   10.38230
 8000.00000    7.83490    7.83490   31.67850    0.04000    0.04000    2.70740    0.00150   31.56720   28.06360   16.52250   16.52250   33.54360  796.01050  796.01050    0.00150    -999.25   24.12530   31.56720   33.54360  -43.47170  -62.52010   24.12530    0.00000
 8050.00000    7.49640    7.49640   29.86060    -999.25    -999.25    2.69480    0.00890   33.48890   16.11010   13.30330   16.11010   31.36460  961.48700  961.48700    0.00890    -999.25   38.72430   33.48890   31.36460  -36.44380  -55.31500   38.72430    5.78870
