~Version ---------------------------------------------------
VERS. 2.0 : CWLS log ASCII Standard -VERSION 2.0
WRAP. YES : MULTIPLE LINES PER DEPTH STEP
~Well ------------------------------------------------------
STRT.FT                    1650.0 : START DEPTH
STOP.FT                    9350.0 : STOP DEPTH
STEP.FT                  50.00000 : STEP LENGTH
NULL.                     -999.25 : NULL VALUE
COMP. ASAMERA- TARINA OIL COMPANY : COMPANY
WELL.        BRISCOE RANCH #13-93 : WELL
FLD .                 CATARINA SW : FIELD
LOC .                             : LOCATION
CNTY.                      DIMMIT : COUNTY
STAT.                       TEXAS : STATE
CTRY.    UNITED STATES OF AMERICA : COUNTRY
SRVC.                Schlumberger : SERVICE COMPANY
DATE.                 16-Apr-1977 : LOGDATE
API .              42127311860000 : API NUMBER
UWI .              42127311860000 : UNIQUE WELL ID
SLAT.WGS84          28.3043808828 : SURFACE LATITUDE
SLON.WGS84         -99.7817592367 : SURFACE LONGITUDE
~Curve Information -----------------------------------------
DEPT  .FT    : DEPTH FEET
CALDED.IN    : CALIPER FROM DENSITY LOG
CALWS .IN    : CALIPER [CALDED]
CONDWS.MMHO  : CONDUCTIVITY [1000/DRESWS]
CORRED.G/C3  : DENSITY CORRECTION FROM DENSITY LOG
DCORWS.G/C3  : DENSITY CORRECTION [CORRED]
DENWS .G/C3  : BULK DENSITY [M=N/A F=N/A] [RHOBED]
DPHIED.V/V   : DENSITY POROSITY [M=N/A F=N/A] FROM DENSITY LOG
DPOWS .V/V   : DENSITY POROSITY [M=N/A F=N/A] [DPHIED]
DRESWS.OHMM  : DEEP RESISTIVITY [ILDED]
DTED  .US/F  : DELTA TIME FROM SONIC LOG
DTWS  .US/F  : DELTA TIME [DTED]
GRDED .GAPI  : GAMMA RAY FROM DENSITY LOG [DEPTH ADJ TO GRR]
GRRED .GAPI  : GAMMA RAY FROM RESISTIVITY LOG
GRWS  .GAPI  : GAMMA RAY [GRDED]
ILDED .OHMM  : INDUCTION LOG DEEP RESISTIVITY
ILMED .OHMM  : INDUCTION LOG MEDIUM RESISTIVITY
LL8ED .OHMM  : 8 INCH LATEROLOG RESISTIVITY
MRESWS.OHMM  : MEDIUM RESISTIVITY [ILMED]
NPHIED.V/V   : NEUTRON POROSITY FROM DENSITY LOG
NPOWS .V/V   : NEUTRON POROSITY [NPHIED]
RHOBED.G/C3  : BULK DENSITY FROM DENSITY LOG
SPRED .MV    : SPONTANEOUS POTENTIAL FROM RESISTIVITY LOG SHIFTED
SPWS  .MV    : SPONTANEOUS POTENTIAL [SHIFTED/BASELINE 0 MV] [SPRED]
SRESWS.OHMM  : SHALLOW RESISTIVITY [LL8ED]
~Params ----------------------------------------------------
PD  .                     GL : PERMANENT DATUM
EPD .F                636.13 : ELEVATION PERMANENT DATUM
LMF .                     KB : LOG MEASURED FROM
DAPD.F                 13.13 : FEET ABOVE PERMANENT DATUM
DMF .                     KB : DRILLING MEASURED FROM
EKB .F                   649 : KELLING BUSHING
EDF .F                 647.5 : DRILLING FLOOR
EGL .F                636.13 : GROUND LEVEL
DATE.              4-15-1977 : RUN DATE
RUN .                      2 : RUN NUMBER
DD  .F                  9370 : DEPTH DRILLER
DL  .F                  9374 : DEPTH LOGGER
BLI .F                  9368 : BOTTOM LOG INTERVAL
TLI .F                  4400 : TOP LOG INTERVAL
CS  .IN                8.625 : CASING SIZE
CBD .F                  1600 : CASING BOTTOM DRILLER
BS  .IN                7.875 : BIT SIZE
BSD .F                  9370 : BIT SIZE AT DEPTH
DFT .       CALCIUM CHLORIDE : DRILLING FLUID TYPE
DFD .                   10.2 : DRILLING FLUID DENSITY
DFV .                     37 : DRILLING FLUID VISCOSITY
DFPH.                     10 : DRILLING FLUID PH
DFL .                      6 : DRILLING FLUID LOSS
MSS .                    PIT : MUD SAMPLE SOURCE
RMS .OHMM               0.07 : RESISTIVITY MUD SAMPLE
MST .F                    70 : MUD SAMPLE TEMPERATURE
RMF .OHMM              0.057 : RESISTIVITY MUD FILTRATE SAMPLE
MFST.F                    70 : MUD FILTRATE SAMPLE TEMPERATURE
RMB .OHMM              0.026 : RESISTIVITY MUD AT BHT
TCS .HRS                1300 : TIME CURCULATED STOPPED
TLAB.HRS                1900 : TIME LOGGER AT BOTTOM
LUN .                   7734 : LOGGING UNIT NUMBER
LUL .                 LAREDO : LOGGING UNIT LOCATION
ENGI.                HARTLEY : RECORDING ENGINEER
WITN.                  LYONS : WITNESSED BY
CLNT.                A2DTECH : CLIENT CODE
ORIG.          1" 2.5" PRINT : ORIGIN OF DATA
UWI .         42127311860000 : UNIQUE WELL ID
DICO. A2D Technologies, Inc. : DIGITIZING COMPANY
~Other -----------------------------------------------------
~ASCII -----------------------------------------------------
# ...
 7450.00000    8.41810    8.41810   25.15440   -0.00290   -0.00290    2.57370    0.08040    0.08040   39.75440    -999.25    -999.25   13.47560   17.38990   13.47560   39.75440   42.32740   39.70110   42.32740    0.08680    0.08680    2.57370  -20.30120   -6.22830   39.70110
 7500.00000    8.49230    8.49230   52.83120   -0.00170   -0.00170    2.50000    0.10480    0.10480   18.92820    -999.25    -999.25   25.48660   34.00190   25.48660   18.92820  110.68480  119.91970  110.68480    0.09830    0.09830    2.50000  -20.50200   -6.07140  119.91970
 7550.00000    8.20980    8.20980   10.62770    0.05260    0.05260    2.58110    0.07200    0.07200   94.09400    -999.25    -999.25   12.27210   15.49400   12.27210   94.09400 1680.26770  111.66170 1680.26770    0.10200    0.10200    2.58110  -22.10840   -7.32000  111.66170
 7600.00000    8.25430    8.25430   14.14500   -0.00710   -0.00710    2.50300    0.11890    0.11890   70.69640    -999.25    -999.25   13.01490   15.86680   13.01490   70.69640 1692.22090   73.83030 1692.22090    0.11170    0.11170    2.50300  -22.40960   -7.26340   73.83030
 7650.00000    8.54430    8.54430   21.29470    0.00010    0.00010    2.59110    0.09650    0.09650   46.96010    -999.25    -999.25   11.24850   16.81610   11.24850   46.96010 1697.12650  199.92330 1697.12650    0.09880    0.09880    2.59110  -22.76120   -7.25720  199.92330
 7700.00000    8.18340    8.18340   15.16080    0.00720    0.00720    2.47630    0.11440    0.11440   65.95950    -999.25    -999.25   15.09460   20.44450   15.09460   65.95950 1601.06470   82.43830 1601.06470    0.12240    0.12240    2.47630  -20.45180   -4.59010   82.43830
 7750.00000    8.37390    8.37390   40.59130    0.00370    0.00370    2.46270    0.14370    0.14370   24.63580    -999.25    -999.25   16.42900   23.16360   16.42900   24.63580   56.82220   38.66620   56.82220    0.14950    0.14950    2.46270  -24.44280   -8.22330   38.66620
 7800.00000    8.61130    8.61130   17.17790    0.00010    0.00010    2.38140    0.18880    0.18880   58.21450    -999.25    -999.25   20.12670   29.04210   20.12670   58.21450  257.52640   92.05300  257.52640    0.17150    0.17150    2.38140  -20.00000   -3.42270   92.05300
 7850.00000    8.63920    8.63920   28.78990   -0.01540   -0.01540    2.40740    0.17050    0.17050   34.73440    -999.25    -999.25   22.19610   27.25110   22.19610   34.73440   78.30470   30.34310   78.30470    0.15800    0.15800    2.40740  -23.08730   -6.15220   30.34310
 7900.00000    8.63920    8.63920   33.89380    0.00230    0.00230    2.48970    0.12480    0.12480   29.50390    -999.25    -999.25   25.49980   35.36220   25.49980   29.50390   23.34270   41.37540   23.34270    0.14020    0.14020    2.48970  -23.86540   -6.57260   41.37540
 7950.00000    8.61130    8.61130    3.48460    0.14340    0.14340    2.70010    0.03010    0.03010  286.97950    -999.25    -999.25    5.46750    8.93240    5.46750  286.97950   33.42320   81.09260   33.42320    0.01910    0.01910    2.70010  -20.37650   -2.77980   81.09260
 8000.00000    8.59150    8.59150    0.63270    0.11480    0.11480    2.67370    0.01170    0.01170 1580.50240    -999.25    -999.25    5.33660    8.64620    5.33660 1580.50240   56.16930  133.56590   56.16930    0.01110    0.01110    2.67370  -29.63860  -12.17430  133.56590
 8050.00000    8.10800    8.10800   27.46460   -0.00580   -0.00580    2.66740    0.01940    0.01940   36.41050    -999.25    -999.25   13.20500   16.14620   13.20500   36.41050   43.62180   32.06000   43.62180    0.04140    0.04140    2.66740  -27.58020  -10.24830   32.06000
 8100.00000    8.64060    8.64060  338.97160    0.06960    0.06960    2.50740    0.12010    0.12010    2.95010    -999.25    -999.25   27.20500   31.41340   27.20500    2.95010    2.72450    6.58260    2.72450    0.22310    0.22310    2.50740  -24.51810   -7.31860    6.58260
 8150.00000    8.65550    8.65550  384.02460   -0.02880   -0.02880    2.55940    0.10050    0.10050    2.60400    -999.25    -999.25   25.16570   30.27280   25.16570    2.60400    1.66890    5.34000    1.66890    0.20150    0.20150    2.55940  -25.57230   -8.50520    5.34000
 8200.00000    8.78900    8.78900  189.28280    0.11690    0.11690    2.37250    0.19410    0.19410    5.28310    -999.25    -999.25   20.72780   28.43950   20.72780    5.28310   39.57550   10.24790   39.57550    0.20790    0.20790    2.37250  -24.21670   -7.28210   10.24790
 8250.00000    9.16000    9.16000   36.90950    0.18350    0.18350    2.66090    0.03350    0.03350   27.09330    -999.25    -999.25    6.79920   10.60280    6.79920   27.09330   60.61490  117.44950   60.61490    0.01090    0.01090    2.66090   -9.23150    7.57070  117.44950
 8300.00000    9.20450    9.20450    4.53920    0.09240    0.09240    2.52370    0.10450    0.10450  220.30070    -999.25    -999.25    6.80630    9.49840    6.80630  220.30070  661.87280   81.31030  661.87280    0.04940    0.04940    2.52370    4.19690   20.86670   81.31030
 8350.00000    8.83650    8.83650    0.73700    0.16000    0.16000    2.55570    0.08640    0.08640 1356.79910    -999.25    -999.25    5.19820   10.18480    5.19820 1356.79910  270.31120  905.06110  270.31120    0.01540    0.01540    2.55570  -11.36520    5.17220  905.06110
 8400.00000    9.97900    9.97900    1.00000    0.13390    0.13390    2.57720    0.08540    0.08540 1000.00000    -999.25    -999.25    6.82540   10.95980    6.82540 1000.00000   56.16940   83.14690   56.16940    0.01820    0.01820    2.57720  -22.79440   -6.38940   83.14690
 8450.00000    9.81460    9.81460    9.93090    0.17320    0.17320    2.61470    0.06530    0.06530  100.69600    -999.25    -999.25    5.48870    7.57680    5.48870  100.69600   25.33880  137.30940   25.33880    0.01560    0.01560    2.61470  -23.59280   -7.32020  137.30940
 8500.00000   10.09650   10.09650    0.78100    0.16540    0.16540    2.57750    0.07490    0.07490 1280.35230    -999.25    -999.25    6.43430   11.07580    6.43430 1280.35230  224.23390   31.84150  224.23390    0.01860    0.01860    2.57750  -20.44910   -4.30890   31.84150
 8550.00000    9.75000    9.75000    2.46360    0.16980    0.16980    2.53840    0.11120    0.11120  405.90460    -999.25    -999.25    8.23020   14.16800    8.23020  405.90460   45.06180   78.99630   45.06180    0.01110    0.01110    2.53840  -16.88130   -0.87350   78.99630
 8600.00000    8.25910    8.25910    2.67670    0.11230    0.11230    2.59690    0.06150    0.06150  373.59190    -999.25    -999.25   16.63850   20.23600   16.63850  373.59190  157.33000  153.33060  157.33000    0.01670    0.01670    2.59690  -22.19560   -6.32020  153.33060
 8650.00000    7.89910    7.89910    1.28810   -0.01100   -0.01100    2.90860   -0.11610   -0.11610  776.34940    -999.25    -999.25    3.86310    5.75080    3.86310  776.34940 2111.78370 1543.79350 2111.78370    0.00220    0.00220    2.90860  -30.02990  -14.28690 1543.79350
 8700.00000    8.81900    8.81900   10.42500    0.15990    0.15990    2.49420    0.09960    0.09960   95.92300    -999.25    -999.25   14.17550   23.87270   14.17550   95.92300   19.88720  216.41910   19.88720    0.04210    0.04210    2.49420  -30.77840  -15.16780  216.41910
 8750.00000    8.16670    8.16670   48.94950   -0.00140   -0.00140    2.67500    0.02090    0.02090   20.42920    -999.25    -999.25   10.66270   13.72310   10.66270   20.42920   29.91770   41.95220   29.91770    0.05250    0.05250    2.67500  -27.03590  -11.55770   41.95220
 8800.00000    8.04800    8.04800   97.26400   -0.01180   -0.01180    2.66680    0.02470    0.02470   10.28130    -999.25    -999.25   14.64950   18.92300   14.64950   10.28130   12.35360   13.13000   12.35360    0.10370    0.10370    2.66680  -25.38920  -10.04340   13.13000
 8850.00000    8.93710    8.93710   14.24340    0.13290    0.13290    2.51380    0.09960    0.09960   70.20790    -999.25    -999.25   12.42600   18.57730   12.42600   70.20790   78.04390   63.44120   78.04390    0.02140    0.02140    2.51380  -15.25930   -0.04590   63.44120
