~Version ---------------------------------------------------
VERS. 2.0 : CWLS log ASCII Standard -VERSION 2.0
WRAP.  NO : ONE LINE PER DEPTH STEP
~Well ------------------------------------------------------
STRT.F                     300.0 : START DEPTH
STOP.F                   14450.0 : STOP DEPTH
STEP.F                  50.00000 : STEP LENGTH
NULL.                    -999.25 : NULL VALUE
COMP. CHAMPLIN PETROLEUM COMPANY : COMPANY
WELL.          LEDWIG CAROLYN #1 : WELL
FLD .      YORKTOWN-N.E. EDWARDS : FIELD
LOC .                            : LOCATION
CNTY.                    DE WITT : COUNTY
STAT.                      TEXAS : STATE
CTRY.   UNITED STATES OF AMERICA : COUNTRY
SRVC.               Schlumberger : SERVICE COMPANY
DATE.                01-Jan-1979 : LOGDATE
API .             42123309360000 : API NUMBER
UWI .             42123309360000 : UNIQUE WELL ID
SLAT.WGS84         29.0138346697 : SURFACE LATITUDE
SLON.WGS84        -97.4746712486 : SURFACE LONGITUDE
~Curve Information -----------------------------------------
DEPT .F                 : 
CILD .MMHO 07 110 46 00 : CONDUCTIVITY INDUCTION LOG DEEP
LL8  .OHMM 07 220 08 00 : LATEROLOG-8 RES.
GRR  .GAPI 07 310 01 00 : GAMMA RAY FROM RES. LOG
ILM  .OHMM 07 120 44 00 : INDUCTION LOG MEDIUM
SFLU .OHMM 07 220 01 00 : SPHERICALLY FOCUSED LOG UNAVERAGED RESISTIVITY
ILD  .OHMM 07 120 46 00 : INDUCTION LOG DEEP
DT   .US/F 60 520 00 00 : INTERVAL TRANSIT TIME
SPR  .MV   07 010 01 00 : SPONTANEOUS POTENTIAL FROM RES. LOG
CALD .IN   45 280 60 00 : CALIPER FROM DENSITY LOG
CORR .G/C3 45 356 01 00 : DENSITY CORRECTION
GRD  .GAPI 45 310 01 00 : GAMMA RAY FROM DENSITY LOG
DPHI .DEC  45 890 12 00 : DENSITY POROSITY SANDSTONE MATRIX CHANGE TO AT 13170 LIMESTONE
NPHI .DEC  42 890 03 00 : NEUTRON POROSITY SANDSTONE MATRIX CHANGE AT 13170 TO LIMESTONE
RHOB .G/C3 45 350 01 00 : BULK DENSITY
ASFL .OHMM 07 221 06 00 : AMPLIFIED SHALLOW FOCUSED LOG RESISTIVITY
RILD .OHMM 07 120 46 00 : INDUCTION LOG DEEP RESISTIVITY
NEUT .NAPI 35 330 01 00 : NEUTRON
GRN  .GAPI 35 310 01 00 : GAMMA RAY
NEUT1.NAPI 35 330 01 00 : NEUTRON DEFAULT SCALE & UNIT 0/1000
GRN1 .GAPI 35 310 01 00 : GAMMA RAY DEFAULT SCALE & UNIT 0/100
~Params ----------------------------------------------------
PD  .                     GL : PERMANENT DATUM
EPD .FT                355.1 : ELEVATION PERMANENT DATUM
LMF .                     KB : LOG MEASURED FROM
DAPD.FT                   20 : FEET ABOVE PERMANENT DATUM
DMF .                     KB : DRILLING MEASURED FROM
EKB .FT                375.1 : KELLY BUSHING
EDF .FT                374.1 : DRILLING FLOOR
EGL .FT                355.1 : GROUND LEVEL
DATE.               01/01/79 : RUN DATE
RUN .                      3 : RUN NUMBER
DD  .FT                14460 : DEPTH DRILLER
DL  .FT                14470 : DEPTH LOGGER
BLI .FT                14460 : BOTTOM LOG INTERVAL
TLI .FT                 9970 : TOP LOG INTERVAL
CS  .IN                10.75 : CASING SIZE
CBD .FT                 2500 : CASING BOTTOM DRILLER
BS  .IN                 8.75 : BIT SIZE
BSD .FT                14460 : BIT SIZE AT DEPTH
DFT .        IMCO SALT WATER : DRILLING FLUID TYPE
DFD .                   11.3 : DRILLING FLUID DENSITY
DFV .                     60 : DRILLING FLUID VISCOSITY
DFPH.                  11.35 : DRILLING FLUID PH
DFL .                    7.6 : DRILLING FLUID LOSS
MSS .               CIRC PIT : MUD SAMPLE SOURCE
RMS .OHMM              0.104 : RESISTIVITY MUD SAMPLE
MST .DEGF                 48 : MUD SAMPLE TEMPERATURE
RMF .OHMM              0.079 : RESISTIVITY MUD FILTRATE SAMPLE
MFST.DEGF                 48 : MUD FILTRATE SAMPLE TEMPERATURE
RMC .OHMM              0.156 : RESISTIVITY MUD CAKE
MCST.DEGF                 48 : MUD CAKE SAMPLE TEMPERATURE
MFSS.                      M : MUD FILTRATE SAMPLE SOURCE
MCSS.                      C : MUD CAKE SAMPLE SOURCE
RMB .OHMM              0.016 : RESISTIVITY MUD AT BHT
MRT .DEGF                304 : MAXIMUM RECORDED TEMPERATURE
LUN .                   8015 : LOGGING UNIT NUMBER
LUL .               VICTORIA : LOGGING UNIT LOCATION
ENGI.               BUCHANAN : RECORDING ENGINEER
WITN.              PRITCHARD : WITNESSED BY
CLNT.                A2DTECH : CLIENT CODE
ORIG.            2" 5" PRINT : ORIGIN OF DATA
UWI .         42123309360000 : UNIQUE WELL ID
DICO. A2D Technologies, Inc. : DIGITIZING COMPANY
~Other -----------------------------------------------------
~ASCII -----------------------------------------------------
# ...
 2050.00000  633.46610    -999.25    -999.25    -999.25    -999.25    -999.25    -999.25  -38.88890   15.46540    0.01490   87.24480    0.37730    0.51710    2.02820    1.63640    1.72220    -999.25    -999.25    -999.25    -999.25
 2100.00000  522.09650    -999.25    -999.25    -999.25    -999.25    -999.25    -999.25  -37.60090   15.06120    0.00760   74.96650    0.34510    0.48340    2.08170    1.81030    1.80540    -999.25    -999.25    -999.25    -999.25
 2150.00000  436.25500    -999.25    -999.25    -999.25    -999.25    -999.25    -999.25  -77.44710   17.79870    0.08380   48.09170    0.37230    0.53300    2.03320    3.55640    2.20690    -999.25    -999.25    -999.25    -999.25
 2200.00000  585.65730    -999.25    -999.25    -999.25    -999.25    -999.25    -999.25  -36.70630   15.13840    0.02310  109.52960    0.33610    0.48240    2.09370    1.77870    1.77870    -999.25    -999.25    -999.25    -999.25
 2250.00000  490.03980    -999.25    -999.25    -999.25    -999.25    -999.25    -999.25  -38.49210   15.54560    0.00630   79.03970    0.36720    0.52120    2.04620    1.92890    2.10800    -999.25    -999.25    -999.25    -999.25
 2300.00000  374.41170    -999.25    -999.25    -999.25    -999.25    -999.25    -999.25  -37.27970   15.51030    0.05120   68.24790    0.34890    0.50240    2.06760    2.75890    2.71300    -999.25    -999.25    -999.25    -999.25
 2350.00000  742.36390    -999.25    -999.25    -999.25    -999.25    -999.25    -999.25  -30.31310   15.59550    0.00030  134.18740    0.39870    0.53000    1.99120    1.50790    1.48220    -999.25    -999.25    -999.25    -999.25
 2400.00000  474.91530    -999.25    -999.25    -999.25    -999.25    -999.25    -999.25  -30.84060   15.79730    0.02690   98.37870    0.33840    0.45360    2.09550    2.07910    2.17390    -999.25    -999.25    -999.25    -999.25
 2450.00000  531.77760    -999.25    -999.25    -999.25    -999.25    -999.25    -999.25  -29.56350   15.75560    0.03690  103.96110    0.32630    0.43190    2.12540    2.04350    1.95930    -999.25    -999.25    -999.25    -999.25
 2500.00000    -999.25    0.55280   49.20440    0.20280    -999.25 2000.00000  169.30140    -999.25   10.24380    0.04830   46.26400    0.33320    0.50300    2.10550    -999.25    -999.25    -999.25    -999.25    -999.25    -999.25
 2550.00000    -999.25    0.50330   73.72690    0.99620    -999.25    1.35720  148.63510    2.04160   11.32480    0.10090   82.58070    0.43460    0.54180    1.92380    -999.25    -999.25    -999.25    -999.25    -999.25    -999.25
 2600.00000    -999.25    0.67930   68.11380    1.05410    -999.25    1.31790  144.99120    0.50380   13.14950    0.11800   71.08950    0.43190    0.56090    1.98200    -999.25    -999.25    -999.25    -999.25    -999.25    -999.25
 2650.00000    -999.25    0.26560   63.09400    0.70350    -999.25    3.27580  145.41070   26.98150   12.60240    0.02160   65.26190    0.55870    0.54040    1.72160    -999.25    -999.25    -999.25    -999.25    -999.25    -999.25
 2700.00000    -999.25    0.61080   72.59730    0.86370    -999.25    1.01860  140.70290   -1.69840   13.42540    0.09120   76.40280    0.34640    0.50730    2.09690    -999.25    -999.25    -999.25    -999.25    -999.25    -999.25
 2750.00000    -999.25    0.56830   82.43820    0.92550    -999.25    1.13340  148.42640    0.07880   12.86440    0.04630   87.76770    0.37410    0.50780    2.05100    -999.25    -999.25    -999.25    -999.25    -999.25    -999.25
 2800.00000    -999.25    0.57070   92.96410    0.85190    -999.25    1.08270  146.31120    0.01210   13.10460    0.14550   95.30670    0.34260    0.53040    2.10290    -999.25    -999.25    -999.25    -999.25    -999.25    -999.25
 2850.00000    -999.25    0.71740   75.81390    1.17470    -999.25    1.54930  131.14540    2.70330   12.12760    0.09510   81.13040    0.37520    0.46480    2.02380    -999.25    -999.25    -999.25    -999.25    -999.25    -999.25
 2900.00000    -999.25    0.37220   79.60220    0.90030    -999.25    0.72990  137.68240    0.76160   11.81930    0.00650   81.15960    0.47340    0.58780    1.97270    -999.25    -999.25    -999.25    -999.25    -999.25    -999.25
 2950.00000    -999.25    0.69670   77.44170    1.02680    -999.25    1.36700  142.05380    0.30400   13.52040    0.08500   90.60980    0.29820    0.45380    2.18300    -999.25    -999.25    -999.25    -999.25    -999.25    -999.25
 3000.00000    -999.25    0.58760   76.58250    0.95410    -999.25    1.03350  140.66280    0.17320   13.13060    0.08850   95.15440    0.32390    0.47970    2.13220    -999.25    -999.25    -999.25    -999.25    -999.25    -999.25
 3050.00000    -999.25    0.68650   81.24660    1.07340    -999.25    1.36040  120.79840    2.38630   12.56300    0.04880   91.73350    0.29990    0.39170    2.18070    -999.25    -999.25    -999.25    -999.25    -999.25    -999.25
 3100.00000    -999.25    0.77650   78.90280    0.86770    -999.25    1.27710  127.68900    2.45510   13.12830    0.05800   90.79410    0.34510    0.42360    2.10390    -999.25    -999.25    -999.25    -999.25    -999.25    -999.25
 3150.00000    -999.25    0.63150   66.43600    0.68940    -999.25    0.94100  143.44520    0.39840   13.11320    0.13450   77.07740    0.41880    0.49130    1.99450    -999.25    -999.25    -999.25    -999.25    -999.25    -999.25
 3200.00000    -999.25    0.53790   63.84010    0.72870    -999.25    0.96020  117.70370   18.62280   10.47040    0.06530   63.83470    0.32240    0.37220    2.13830    -999.25    -999.25    -999.25    -999.25    -999.25    -999.25
 3250.00000    -999.25    0.53170   80.19450    0.83000    -999.25    1.00250  144.66080    1.00020   10.50680    0.05180   90.21980    0.39780    0.52060    1.99520    -999.25    -999.25    -999.25    -999.25    -999.25    -999.25
 3300.00000    -999.25    0.57080   72.16820    0.95140    -999.25    1.17900  140.70200    2.96850   12.05480    0.09900   84.42050    0.36410    0.52200    2.06230    -999.25    -999.25    -999.25    -999.25    -999.25    -999.25
 3350.00000    -999.25    0.74790   94.16170    0.69490    -999.25    0.82410  138.38750   -3.71780   10.09820    0.10420  102.51760    0.27370    0.42550    2.21760    -999.25    -999.25    -999.25    -999.25    -999.25    -999.25
 3400.00000    -999.25    0.54870   95.42740    0.96900    -999.25    1.02400  138.63320   -2.73420   10.92880    0.13430  118.53810    0.42780    0.51130    1.96780    -999.25    -999.25    -999.25    -999.25    -999.25    -999.25
 3450.00000    -999.25    0.57440   80.79310    0.71530    -999.25    0.93400  133.17370   -2.46350   11.69530    0.12650   88.18510    0.34840    0.43760    2.09440    -999.25    -999.25    -999.25    -999.25    -999.25    -999.25
 3500.00000    -999.25    0.55040   73.95050    0.96970    -999.25    1.02710  134.10340   -0.29040   13.87770    0.05620   76.55140    0.55550    0.50830    1.80000    -999.25    -999.25    -999.25    -999.25    -999.25    -999.25
 3550.00000    -999.25    0.54780   77.10620    0.76610    -999.25    0.90300  143.84380   -0.73850   11.98530    0.05120   86.30130    0.33720    0.47340    2.12100    -999.25    -999.25    -999.25    -999.25    -999.25    -999.25
 3600.00000    -999.25    0.60040   75.29940    0.84400    -999.25    1.00780  138.56190   -2.74340   12.61980    0.17270   86.82050    0.31230    0.46290    2.16980    -999.25    -999.25    -999.25    -999.25    -999.25    -999.25
 3650.00000    -999.25    0.45570   71.18630    0.96750    -999.25    1.16200  137.40240    0.08840   11.64670    0.04390   75.57200    0.28170    0.48210    2.20880    -999.25    -999.25    -999.25    -999.25    -999.25    -999.25
 3700.00000    -999.25    0.55510   66.04440    0.76050    -999.25    0.88940  151.60230    0.47570   12.06200    0.04520   79.93680    0.32590    0.47760    2.13350    -999.25    -999.25    -999.25    -999.25    -999.25    -999.25
 3750.00000    -999.25    0.52110   78.23720    0.78770    -999.25    0.89950  135.16930    2.55500   12.33800    0.05190   90.85610    0.29880    0.42490    2.18250    -999.25    -999.25    -999.25    -999.25    -999.25    -999.25
