~Version ---------------------------------------------------
VERS.      2.0 : CWLS log ASCII Standard -VERSION 2.0
WRAP.      YES : Multiple lines per depth step
CREA. 09/28/17 : LAS Creation Date
~Well ------------------------------------------------------
STRT.FT                  2150.0 : START DEPTH
STOP.FT                 11650.0 : STOP DEPTH
STEP.FT                50.00000 : STEP LENGTH
NULL.                   -999.25 : NULL VALUE
COMP. BURK ROYALTY COMPANY, LTD : COMPANY
WELL.               STERLING #1 : WELL
FLD .                           : FIELD
LOC .                           : LOCATION
CNTY.                   MADISON : COUNTY
STAT.                     TEXAS : STATE
CTRY.  UNITED STATES OF AMERICA : COUNTRY
SRVC.               HALLIBURTON : SERVICE COMPANY
DATE.               31-May-2014 : LOGDATE
API .            42313311010000 : API NUMBER
UWI .            42313311010000 : UNIQUE WELL ID
SLAT.WGS84     30.9882730389083 : SURFACE LATITUDE
SLON.WGS84    -95.6985448660659 : SURFACE LONGITUDE
~Curve Information -----------------------------------------
DEPT    .FT    : DEPTH FEET
CALRED  .IN    : CALIPER FROM RESISTIVITY LOG
CALWS   .IN    : CALIPER [CALRED]
CONDWS  .MMHO  : DEEP CONDUCTIVITY [1000/DRESWS]
DCALRED .IN    : DIFFERENTIAL CALIPER FROM RESISTIVITY LOG
DCORWS  .G/C3  : DENSITY CORRECTION [DRHOED]
DENWS   .G/C3  : BULK DENSITY [RHOBED]
DPHILSED.V/V   : DENSITY POROSITY (LS) [M=2.71 F=1.00]
DPOLSWS .V/V   : DENSITY POROSITY (LS) [M=2.71 F=1.00] [DPHILSED]
DRESWS  .OHMM  : DEEP RESISTIVITY [RT90ED]
DRHOED  .G/C3  : DENSITY CORRECTION FROM DENSITY LOG
GRRED   .GAPI  : GAMMA RAY FROM RESISTIVITY LOG
GRWS    .GAPI  : GAMMA RAY [GRRED]
MINVED  .OHMM  : MICROINVERSE RESISTIVITY
MNORED  .OHMM  : MICRONORMAL RESISTIVITY
MRESWS  .OHMM  : MEDIUM RESISTIVITY [RT30ED]
NPHILSED.V/V   : NEUTRON POROSITY LIMESTONE
NPOLSWS .V/V   : NEUTRON POROSITY LIMESTONE [NPHILSED]
PEED    .B/E   : PHOTOELECTRIC FACTOR FROM DENSITY LOG
PEFWS   .B/E   : PHOTOELECTRIC FACTOR [PEED]
RHOBED  .G/C3  : BULK DENSITY FROM DENSITY LOG
RT10ED  .OHMM  : 10 INCH RESISTIVITY TWO FOOT RESOLUTION
RT20ED  .OHMM  : 20 INCH RESISTIVITY TWO FOOT RESOLUTION
RT30ED  .OHMM  : 30 INCH RESISTIVITY TWO FOOT RESOLUTION
RT60ED  .OHMM  : 60 INCH RESISTIVITY TWO FOOT RESOLUTION
RT90ED  .OHMM  : 90 INCH RESISTIVITY TWO FOOT RESOLUTION
SPRED   .MV    : SPONTANEOUS POTENTIAL FROM RESISTIVITY LOG
SPWS    .MV    : SPONTANEOUS POTENTIAL [BASELINE 0 MV] [SPRED]
SRESWS  .OHMM  : SHALLOW RESISTIVITY [RT10ED]
TENRED  .LBF   : TENSION FROM RESISTIVITY LOG
~Params ----------------------------------------------------
PD  .                     GL : PERMANENT DATUM
EPD .FT                  159 : ELEVATION PERMANENT DATUM
LMF .                     KB : LOG MEASURED FROM
DAPD.FT                   30 : FEET ABOVE PERMANENT DATUM
DMF .                     KB : DRILLING MEASURED FROM
EKB .FT                  189 : KELLY BUSHING
EDF .FT                  188 : DRILLING FLOOR
EGL .FT                  159 : GROUND LEVEL
DATE.              5/31/2014 : RUN DATE
RUN .                      1 : RUN NUMBER
DD  .FT                11688 : DEPTH DRILLER
DL  .FT                11682 : DEPTH LOGGER
BLI .FT                11679 : BOTTOM LOG INTERVAL
TLI .FT                 2195 : TOP LOG INTERVAL
CS  .IN                9.625 : CASING SIZE
CBD .FT                 2195 : CASING BOTTOM DRILLER
CBL .FT                 2195 : CASING BOTTOM LOGGER
BS  .IN                 8.75 : BIT SIZE
BSD .FT                11688 : BIT SIZE AT DEPTH
DFT .        WATER BASED MUD : DRILLING FLUID TYPE
DFD .                    9.8 : DRILLING FLUID DENSITY
DFV .                     65 : DRILLING FLUID VISCOSITY
DFPH.                    9.4 : DRILLING FLUID PH
DFL .                    4.4 : DRILLING FLUID LOSS
MSS .               MUD TANK : MUD SAMPLE SOURCE
RMS .OHMM               1.31 : RESISTIVITY MUD SAMPLE
MST .DEGF                 71 : MUD SAMPLE TEMPERATURE
RMF .OHMM               1.12 : RESISTIVITY MUD FILTRATE SAMPLE
MFST.DEGF                 72 : MUD FILTRATE SAMPLE TEMPERATURE
RMC .OHMM               1.83 : RESISTIVITY MUD CAKE
MCST.DEGF                 72 : MUD CAKE SAMPLE TEMPERATURE
MFSS.                   MEAS : MUD FILTRATE SAMPLE SOURCE
MCSS.                   MEAS : MUD CAKE SAMPLE SOURCE
RMB .OHMM               0.73 : RESISTIVITY MUD AT BHT
TCS .HRS                 700 : TIME CIRCULATED STOPPED
TLAB.HRS                 630 : TIME LOGGER AT BOTTOM
LUN .               10549594 : LOGGING UNIT NUMBER
LUL .                KILGORE : LOGGING UNIT LOCATION
ENGI.                 ALLALI : RECORDING ENGINEER
WITN.                KIMBELL : WITNESSED BY
CLNT.                A2DTECH : CLIENT CODE
ORIG.       1", 2", 5" PRINT : ORIGIN OF DATA
UWI .         42313311010000 : UNIQUE WELL ID
DICO. A2D Technologies, Inc. : DIGITIZING COMPANY
~Other -----------------------------------------------------
ALL LOGS RAN ON COMBO.
LOADED ALL CURVES FROM BOREHOLE DATA SET.
GAPS ON CURVES AROUND 11450'-11510' DUE TO TOOL PULLED.
~ASCII -----------------------------------------------------
# ...
 5900.00000    9.03440    9.03440  589.93570    0.28440    0.02890    2.41650    0.17160    0.17160    1.69510    0.02890   83.33150   83.33150    4.52660    2.89000    1.77720    0.22010    0.22010    2.71060    2.71060    2.41650    2.01830    1.88620    1.77720    1.73090    1.69510  -51.46710  -16.03690    2.01830 3400.92850
 5950.00000    9.52450    9.52450  607.82880    0.77450    0.10860    2.42440    0.16700    0.16700    1.64520    0.10860   85.81350   85.81350    1.32280    0.98520    1.66860    0.24800    0.24800    3.09360    3.09360    2.42440    1.72900    1.70670    1.66860    1.65980    1.64520  -43.52430   -6.72980    1.72900 3499.65450
 6000.00000    8.92680    8.92680  520.91470    0.17680    0.19430    2.47790    0.13570    0.13570    1.91970    0.19430   87.31900   87.31900    2.52990    1.20150    1.94890    0.23490    0.23490    2.90420    2.90420    2.47790    1.99350    1.98200    1.94890    1.93590    1.91970  -43.38520   -5.22640    1.99350 3486.02290
 6050.00000    9.44340    9.44340  499.77510    0.69340    0.06600    2.53610    0.10170    0.10170    2.00090    0.06600   83.75870   83.75870    2.39200    1.41040    2.02430    0.22940    0.22940    2.87770    2.87770    2.53610    2.11060    2.06770    2.02430    2.01250    2.00090  -42.42700   -6.02070    2.11060 3467.17820
 6100.00000    9.56710    9.56710  543.77380    0.81710    0.05030    2.55230    0.09220    0.09220    1.83900    0.05030   85.36600   85.36600    2.65340    1.36090    1.85680    0.25010    0.25010    2.76270    2.76270    2.55230    1.90770    1.89200    1.85680    1.84980    1.83900  -39.31860   -4.97320    1.90770 3530.53960
 6150.00000    8.88920    8.88920  576.63480    0.13920    0.11900    2.43860    0.15870    0.15870    1.73420    0.11900   88.39730   88.39730    1.41530    1.00820    1.76810    0.25410    0.25410    3.58690    3.58690    2.43860    1.82680    1.81030    1.76810    1.75410    1.73420  -36.70080   -4.41620    1.82680 3575.29100
 6200.00000    9.31320    9.31320  513.53160    0.56320    0.12130    2.53500    0.10230    0.10230    1.94730    0.12130   76.73980   76.73980    1.85230    1.33920    1.97510    0.21220    0.21220    3.21360    3.21360    2.53500    2.01590    2.00310    1.97510    1.96150    1.94730  -35.93850   -4.52630    2.01590 3564.27710
 6250.00000    9.64750    9.64750  534.47350    0.89750    0.09600    2.50960    0.11720    0.11720    1.87100    0.09600   89.12970   89.12970    2.10050    1.27120    1.89390    0.24460    0.24460    3.06130    3.06130    2.50960    1.93130    1.92250    1.89390    1.88420    1.87100  -33.65930   -2.94180    1.93130 3620.36250
 6300.00000    9.60710    9.60710  572.73770    0.85710    0.09100    2.47830    0.13550    0.13550    1.74600    0.09100   92.54760   92.54760    1.84420    1.22190    1.77750    0.22230    0.22230    3.37810    3.37810    2.47830    1.85330    1.81750    1.77750    1.76140    1.74600  -35.47040   -5.44770    1.85330 3610.31470
 6350.00000    8.97460    8.97460  594.42430    0.22460   -0.00230    2.51280    0.11530    0.11530    1.68230   -0.00230   86.22040   86.22040    2.74840    1.23810    1.70890    0.23530    0.23530    2.93420    2.93420    2.51280    1.75880    1.74260    1.70890    1.69620    1.68230  -31.67280   -2.34490    1.75880 3635.29200
 6400.00000    8.79400    8.79400  660.32750    0.04400    0.19870    2.43730    0.15950    0.15950    1.51440    0.19870   84.51150   84.51150    2.70830    0.98320    1.54730    0.27350    0.27350    3.77800    3.77800    2.43730    1.59130    1.58310    1.54730    1.53280    1.51440  -34.74560   -6.11240    1.59130 3661.50590
 6450.00000   12.65040   12.65040  530.78560    3.90040    0.17430    2.41730    0.17120    0.17120    1.88400    0.17430   74.23740   74.23740    2.94150    1.68280    1.93450    0.27070    0.27070    4.20410    4.20410    2.41730    2.07200    2.00220    1.93450    1.90910    1.88400  -32.30830   -4.36990    2.07200 3674.93730
 6500.00000   12.18750   12.18750  642.01340    3.43750    0.07430    2.39990    0.18130    0.18130    1.55760    0.07430   74.78680   74.78680    1.91930    1.25430    1.58550    0.32220    0.32220    3.56730    3.56730    2.39990    1.61810    1.60960    1.58550    1.57410    1.55760  -31.17190   -3.92830    1.61810 3725.48000
 6550.00000   10.30090   10.30090  425.24240    1.55090    0.11700    2.41180    0.17440    0.17440    2.35160    0.11700   80.64600   80.64600    2.21770    1.27690    2.55390    0.27730    0.27730    3.10350    3.10350    2.41180    2.69790    2.66920    2.55390    2.45050    2.35160  -27.33670   -0.78780    2.69790 3817.40230
 6600.00000    9.53910    9.53910  576.10320    0.78910    0.07930    2.54070    0.09900    0.09900    1.73580    0.07930   87.54280   87.54280    2.20030    1.10790    1.78180    0.23330    0.23330    3.20570    3.20570    2.54070    1.83310    1.81970    1.78180    1.76120    1.73580  -28.77060   -2.91650    1.83310 3837.85030
 6650.00000    8.72840    8.72840  618.08520   -0.02160    0.10650    2.48870    0.12940    0.12940    1.61790    0.10650   94.01240   94.01240    1.51550    0.99840    1.65240    0.24940    0.24940    3.28940    3.28940    2.48870    1.70800    1.69390    1.65240    1.63720    1.61790  -26.81070   -1.65140    1.70800 3859.64330
 6700.00000    9.35990    9.35990  578.53630    0.60990    0.22250    2.48400    0.13220    0.13220    1.72850    0.22250   91.79480   91.79480    1.29450    1.11120    1.76110    0.26170    0.26170    3.20510    3.20510    2.48400    1.79040    1.78910    1.76110    1.74440    1.72850  -29.66750   -5.20300    1.79040 3896.56490
 6750.00000    9.18550    9.18550  600.70880    0.43550    0.14210    2.42360    0.16750    0.16750    1.66470    0.14210   87.66490   87.66490    1.16390    1.00060    1.69990    0.27060    0.27060    4.33780    4.33780    2.42360    1.75670    1.73970    1.69990    1.68380    1.66470  -27.96280   -4.19300    1.75670 3937.27200
 6800.00000    8.80410    8.80410  574.58060    0.05410    0.12570    2.45360    0.14990    0.14990    1.74040    0.12570   93.25970   93.25970    1.69680    1.02090    1.78140    0.25990    0.25990    3.38080    3.38080    2.45360    1.83420    1.81620    1.78140    1.76200    1.74040  -26.78560   -3.71060    1.83420 3914.78440
 6850.00000    8.83690    8.83690  506.48300    0.08690    0.14200    2.49820    0.12390    0.12390    1.97440    0.14200   85.91530   85.91530    2.42340    1.30190    2.01670    0.23830    0.23830    3.37880    3.37880    2.49820    2.10180    2.07090    2.01670    1.99390    1.97440  -26.46320   -4.08300    2.10180 3930.22070
 6900.00000    9.18210    9.18210  626.17410    0.43210    0.14890    2.49980    0.12290    0.12290    1.59700    0.14890   89.86890   89.86890    1.30200    1.04220    1.63280    0.26580    0.26580    3.25250    3.25250    2.49980    1.68340    1.67330    1.63280    1.61740    1.59700  -26.24510   -6.15460    1.68340 3992.07230
 6950.00000    8.92160    8.92160  456.57930    0.17160    0.05660    2.56270    0.08610    0.08610    2.19020    0.05660   77.24850   77.24850    3.58300    1.56250    2.25060    0.19290    0.19290    3.14380    3.14380    2.56270    2.38600    2.34060    2.25060    2.22290    2.19020  -18.72760   -1.61050    2.38600 3961.72970
 7000.00000    8.94040    8.94040  380.64790    0.19040    0.03210    2.57470    0.07910    0.07910    2.62710    0.03210   76.33290   76.33290    3.75650    1.87000    2.67130    0.17260    0.17260    3.04330    3.04330    2.57470    2.81760    2.75500    2.67130    2.65000    2.62710  -16.46870   -2.32500    2.81760 3933.55810
 7050.00000    9.58930    9.58930  370.20580    0.83930    0.02500    2.56220    0.08650    0.08650    2.70120    0.02500   81.76500   81.76500    2.85280    1.99030    2.76330    0.17360    0.17360    2.93870    2.93870    2.56220    2.90520    2.84140    2.76330    2.73250    2.70120  -16.25110   -3.81080    2.90520 4054.58370
 7100.00000    8.90080    8.90080  409.55070    0.15080    0.03000    2.55840    0.08860    0.08860    2.44170    0.03000   84.43010   84.43010    4.15390    1.78960    2.50000    0.21130    0.21130    3.02780    3.02780    2.55840    2.66300    2.60050    2.50000    2.46890    2.44170  -15.29780   -3.99040    2.66300 4054.21880
