~Version ---------------------------------------------------
VERS. 2.0 : CWLS log ASCII Standard -VERSION 2.0
WRAP.  NO : ONE LINE PER DEPTH STEP
~Well ------------------------------------------------------
STRT.F                   2500.0 : START DEPTH
STOP.F                  11600.0 : STOP DEPTH
STEP.F                 50.00000 : STEP LENGTH
NULL.                   -999.25 : NULL VALUE
COMP. MATADOR OPERATING COMPANY : COMPANY
WELL.                 AUTREY #2 : WELL
FLD .              BALD PRAIRIE : FIELD
LOC .                           : LOCATION
CNTY.                 ROBERTSON : COUNTY
STAT.                     TEXAS : STATE
CTRY.  UNITED STATES OF AMERICA : COUNTRY
SRVC.                           : SERVICE COMPANY
DATE.                           : LOGDATE
API .            42395307330000 : API NUMBER
UWI .            42395307330000 : UNIQUE WELL ID
SLAT.WGS84        31.1144734373 : SURFACE LATITUDE
SLON.WGS84       -96.5293981383 : SURFACE LONGITUDE
~Curve Information -----------------------------------------
DEPT.F                 : 
GRD .GAPI 45 310 01 00 : GAMMA RAY FROM DENSITY LOG
TEND.LB   45 635 01 00 : TENSION FROM DENSITY LOG
CHTD.LB   45 635 01 00 : CH-TENSION FROM DENSITY LOG
SPR .MV   07 010 01 00 : SPONTANEOUS POTENTIAL
ILD .OHMM 07 120 46 00 : INDUCTION LOG DEEP
ILM .OHMM 07 120 44 00 : INDUCTION LOG MEDIUM
DFL .OHMM 07 220 01 00 : DIGITAL FOCUSED LATEROLOG
DCAL.IN   07 280 30 00 : DIFFERENTIAL CALIPER
DRHO.G/C3 45 356 01 00 : DENSITY CORRECTION
DPHI.DEC  45 890 10 00 : DENSITY POROSITY LIMESTONE
NPHI.DEC  42 890 01 00 : NEUTRON POROSITY LIMESTONE
PE  .B/E  45 358 01 00 : PHOTOELECTRIC FACTOR
~Params ----------------------------------------------------
EKB .F                 498.0 : Kelly bushing
EGL .F                 481.0 : Ground level
EDF .F                 497.0 : Drilling floor
EPD .F                 481.0 : Permanent datum
TD  .F               11628.0 : Total depth
DATE.            09-JUN-2002 : Date logged
CLNT.                A2DTECH : Client Code
SL  .  2205' FNL & 2156' FNL : Surface Location
PD  .                     GL : Permanent Datum
LMF .                     KB : Log Measured From
DMF .                     KB : Drilling Measured From
DAPD.F                    17 : Feet Above Permanent Datum
DD  .F                 11620 : Depth driller
DL  .F                 11628 : Depth logger
BLI .F                 11616 : Bottom log interval
TLI .F                  2516 : Top log interval
CS1 .IN                9.625 : Casing size
CBD1.         9.625" @ 2516' : Casing driller 1
CBL1.F                  2516 : Casing logger 1
BS1 .IN                7.875 : Bit size
BSD1.F                 11620 : Depth drilled with bit1
DFT .              WATERBASE : Type fluid in hole
DFD .                   10.2 : Density
DFV .                     37 : Viscosity
DFPH.                   10.3 : pH
DFL .                   16.8 : Fluid loss
MSS .               MUD TANK : Source of sample
RMS .OHMM               1.18 : Rm
RMF .OHMM               0.96 : Rmf
RMC .OHMM               1.69 : Rmc
MFSS.                   MEAS : Source Rmf.
MCSS.                   MEAS : Source Rmc.
RMB .OHMM              0.464 : Rm. at BHT
BHT .F                   234 : BHT.
TCS .HRS                2130 : Time Circ. stopped
TLAB.HRS                 330 : Time logger at bottom
LUN .                   9103 : Logging unit number
LUL .                 KLOGRE : Logging unit location
ENGI.               P. EYLEY : Recorded By
WITN.             JIM EWBANK : Witnessed by
ORIG.               5" PRINT : Origin of data
UWI .         42395307330000 : Unique Well ID
DICO. A2D TECHNOLOGIES, INC. : Digitizing Company
~Other -----------------------------------------------------
~ASCII -----------------------------------------------------
# ...
 8100.00000   42.82480 3632.34940 1485.45430  -74.35400   97.09030  111.59280  251.52290    2.12190    0.03010   -0.00990    0.02610    5.10510
 8150.00000   57.70350 3662.63230 1485.58420  -62.21600   11.52340   11.75620   13.96190    2.87440    0.02860    0.00540    0.09730    4.17420
 8200.00000   62.08420 3723.14720 1530.86190  -75.87230    4.30370    4.14740    6.09800    2.69370    0.02260    0.04830    0.13870    3.33330
 8250.00000   85.87550 3723.17290 1454.84700  -54.39220    5.13620    4.81890    5.97220    3.02220    0.02260    0.04330    0.14460    3.49340
 8300.00000   55.51240 3694.68120 1460.24780  -74.88310    2.50570    2.33480    3.06610    2.48310    0.03460    0.10150    0.09860    2.56470
 8350.00000  116.01210 3753.35350 1547.27700  -42.18670    6.13020    6.10770    9.73270    2.63360    0.07070    0.10560    0.17790    3.35760
 8400.00000   78.78060 3723.14720 1424.88660  -58.58930    3.45920    3.85570    4.19580    4.19870    0.00240    0.06590    0.12120    3.03300
 8450.00000   46.63850 3692.94140 1485.58420  -96.50990   12.71520   12.67170   32.77640    1.51980    0.00900    0.08260    0.03510    2.70260
 8500.00000   34.49280 3688.82180 1452.48860  -97.41930   11.01680   11.17880   26.38200    1.44580    0.01500    0.07450    0.05500    2.73280
 8550.00000   75.11370 3783.00070 1543.45530  -67.97370    3.17630    3.38680    3.82160    2.43990    0.02050    0.08360    0.12050    2.62690
 8600.00000   87.56100 3779.53320 1509.32180  -57.09970    6.19540    5.81950    6.65280    2.89160    0.12310    0.04290    0.20080    3.34330
 8650.00000   41.30010 3803.13110 1485.00440  -96.67620   12.46350   19.25150   41.66580    0.57230    0.07030    0.09940    0.06540    5.49220
 8700.00000   45.04420 3809.66720 1540.84670  -65.43430   14.42310   18.85500   32.13940    1.56630    0.02500    0.04380    0.06680    3.04480
 8750.00000  107.79240 3835.45040 1452.46300  -43.80460    6.06620    6.09820    7.12700    2.80120    0.05070    0.02670    0.18230    3.49400
 8800.00000   39.48500 3779.40360 1476.59780 -100.30210   12.43640   14.63130   36.22040    1.26510    0.04470    0.09170    0.05230    2.68070
 8850.00000   33.35740 3870.01270 1512.82060  -75.83080   26.30300   26.22220   63.57700    1.11440    0.02500    0.02030    0.03670    2.95190
 8900.00000   49.69740 3900.32810 1482.65450  -77.03930   24.01020   25.98890   56.33220    0.99400    0.05820    0.05150    0.03430    2.44730
 8950.00000   61.61260 3926.04170 1603.31820  -66.46530   12.89800   13.60240   18.21000    1.26510    0.04310    0.08040    0.05320    2.62700
 9000.00000   40.16640 3926.01560 1542.98660  -95.61220   26.03080   26.22290   40.61940    1.03770    0.03110    0.03750    0.02930    2.50760
 9050.00000   72.84280 3956.25980 1512.82090  -62.32950   10.75110   11.15890   13.57090    1.32530    0.01680    0.03330    0.08030    2.83590
 9100.00000   49.24360 3986.42530 1603.31800 -113.16160   16.18430   17.71280   39.11770    0.84340    0.01680    0.07910    0.03250    2.41780
 9150.00000   22.91980 3986.37330 1594.83870 -103.93120   39.05640   39.46630   68.60700    0.75310    0.00630    0.06050    0.01260    2.95510
 9200.00000   45.54380 4046.65360 1603.31700 -110.10640   15.47250   19.05220   30.98120    0.81330    0.00030    0.05020    0.04200    2.85080
 9250.00000   47.13050 4016.48750 1573.20480  -78.73300   25.45820   29.18790   35.10410    0.90350    0.02730    0.04520    0.04240    2.77610
 9300.00000   45.94210 4016.56490 1603.31740  -61.33060   31.39100   33.41410   63.57650    1.02410    0.02580    0.06640    0.03620    2.47750
 9350.00000   30.58930 4045.04760 1633.63750  -99.09370   25.09920   26.72540   36.78680    0.72290    0.00480    0.09670    0.03430    2.29820
 9400.00000   29.05660 4076.92310 1632.06040 -121.64990   34.89290   44.71240   44.35010    0.51210    0.02130    0.05600    0.02080    2.44770
 9450.00000   25.83080 4137.25490 1663.67600 -116.01290   18.08670   19.86530   35.19200    0.69280    0.00780    0.06960    0.03380    2.35810
 9500.00000   65.25560 4100.71830 1663.64980  -64.35070   24.96760   18.02080   17.96440    0.69260    0.05130    0.06310    0.04920    2.53720
 9550.00000   73.64280 4137.17720 1603.31770  -57.65380   13.79950   19.58790   19.10890    0.81330    0.07680    0.05560    0.07990    3.19380
 9600.00000   55.06040 4167.36910 1663.70090  -82.53170   12.21050   13.60220   18.68630    0.75300    0.05070    0.07360    0.07760    3.10450
 9650.00000   29.22860 4167.42090 1633.48410  -81.02360   24.89290   28.20660   76.11960    0.75300    0.04380    0.07590    0.02710    2.74630
 9700.00000   95.93030 4227.98970 1633.56200  -44.27560    7.83040    9.98220   12.84680    2.03800    0.02160    0.03250    0.12680    3.34330
 9750.00000   44.86320 4197.51030 1633.38130  -62.53780    6.55980    9.25070   10.91030    0.75300    0.00030    0.19970    0.09200    4.01460
 9800.00000   26.73720 4225.35250 1663.52050 -102.41590   24.63760   27.33860   51.83070    1.02430    0.01830    0.08300    0.02660    2.29860
 9850.00000  105.36250 4227.70170 1663.65000  -42.29610   13.60220   12.77800   15.85910    1.14460    0.04080    0.03800    0.11730    3.37310
 9900.00000   92.67250 4312.43900 1663.84250  -49.54840   19.58720   16.75330   19.72540    1.01400    0.02280    0.02390    0.10420    3.25370
 9950.00000   61.26190 4288.08450 1633.48410  -53.33270   17.28550   18.98480   26.19090    0.66270    0.02060    0.04610    0.04290    2.71620
 10000.00000   46.45030 4348.41700 1693.71970  -97.58310   48.99880   46.93910   49.71730    0.66260    0.01230    0.05740    0.02750    2.47760
 10050.00000   28.09370 4408.59230 1844.64550  -74.01840   64.91460   70.75120  118.98150    0.66270    0.00780    0.06100    0.01220    2.14930
 10100.00000  103.77240 4350.88130 1663.67610  -34.69500   12.38450   15.90300   18.92180    1.48420    0.01860    0.02530    0.12030    3.26820
 10150.00000  103.77640 4378.37300 1693.71140  -27.79530    8.69010    8.00710   14.59290    1.92760    0.19700    0.10020    0.22160    3.99400
 10200.00000   18.35350 4348.62110 1603.31960  -78.73360   36.60030   38.55790   89.87970    0.99410    0.01260    0.05720    0.00810    2.55240
 10250.00000  122.12870 4408.74760 1603.47410  -25.64180    9.74570    9.93710   12.23200    2.43980    0.03360    0.02710    0.17750    3.43260
 10300.00000   36.93760 4408.77390 1575.82740  -91.24010   20.72900   19.58760   31.47910    0.60390    0.05760    0.09020    0.04640    2.26860
 10350.00000   29.77500 4403.55620 1708.91200  -67.17300   39.52420   38.15690   48.69630    1.05400    0.01460    0.08450    0.03970    2.38780
 10400.00000   35.22690 4438.91500 1663.63720 -109.65890    8.87400    8.87350   17.59550    0.99410    0.03330    0.08900    0.05500    2.38760
 10450.00000   22.95450 4378.55660 1605.21280 -125.26370   15.41370   17.95960   62.48370    1.29760    0.01080    0.09760    0.05530    2.53730
 10500.00000   81.57140 4444.10890 1603.21580  -41.32730   21.06950   19.79270   20.41970    1.58250    0.02130    0.00360    0.10090    3.49220
 10550.00000  113.97160 4504.84030 1663.75210  -45.85420   18.02090   17.83430   24.12820    1.07010    0.01650    0.00980    0.14370    3.23860
 10600.00000   77.49240 4565.05910 1603.42260  -62.74980   28.67960   29.85660   37.37000    0.58770    0.04120    0.03560    0.03420    2.52600
 10650.00000   28.54980 4564.95460 1663.59850 -146.90680  146.24800  144.65520  649.12840    2.57720    0.02630   -0.00090    0.02210    5.14930
 10700.00000   40.33390 4534.63870 1573.02210 -102.41330   52.59800   40.70000   53.25610    2.71820    0.01350    0.00950    0.05270    4.65470
 10750.00000   38.06570 4504.79000 1543.11600 -113.42380   53.92040   82.25210   58.13380    0.70830    0.12180    0.02930    0.04010    2.76280
 10800.00000   82.93050 4534.74320 1573.30750  -76.32170    4.08570    4.27600    4.10360    4.51270    0.06920    0.19820    0.29680    4.68080
 10850.00000   46.67730 4564.85110 1542.96070  -88.84060   38.45380   37.57510   52.15090    0.58120    0.03910    0.01980    0.03350    2.71970
