~Version ---------------------------------------------------
VERS. 2.0 : CWLS log ASCII Standard -VERSION 2.0
WRAP.  NO : ONE LINE PER DEPTH STEP
~Well ------------------------------------------------------
STRT.F                           1350.0 : START DEPTH
STOP.F                           6900.0 : STOP DEPTH
STEP.F                         50.00000 : STEP LENGTH
NULL.                           -999.25 : NULL VALUE
COMP. TEXAS GAS EXPLORATION CORPORATION : COMPANY
WELL.                  SANDERS L. J. #1 : WELL
FLD .                          GIDDINGS : FIELD
LOC .                                   : LOCATION
CNTY.                          BURLESON : COUNTY
STAT.                             TEXAS : STATE
CTRY.          UNITED STATES OF AMERICA : COUNTRY
SRVC.                      Schlumberger : SERVICE COMPANY
DATE.                       20-Nov-1979 : LOGDATE
API .                    42051304680000 : API NUMBER
UWI .                    42051304680000 : UNIQUE WELL ID
SLAT.WGS84                30.5210748848 : SURFACE LATITUDE
SLON.WGS84               -96.8097668075 : SURFACE LONGITUDE
~Curve Information -----------------------------------------
DEPT .F                 : 
GRR  .GAPI 07 310 01 00 : GAMMA RAY FROM RESISTIVITY LOG
CORR .G/C3 45 356 01 00 : DENSITY CORRECTION
DPHI .DEC  45 890 10 00 : DENSITY POROSITY
ILD  .OHMM 07 120 46 00 : INDUCTION DEEP RESISTIVITY
ILM  .OHMM 07 120 44 00 : INDUCTION MEDIUM RESISTIVITY
SFL  .OHMM 07 220 06 00 : SPHERICALLY FOCUSED LOG
SPR  .MV   07 010 01 00 : SPONTANEOUS POTENTIAL FROM RESISTIVITY LOG
GRT  .GAPI 80 310 01 00 : THERMAL GAMMA RAY
RATIO.CMP  80 420 00 00 : RATIO
SIGM .CU   99 400 00 00 : NEUTRON CAPTURE CROSS SECTION
DCAL .IN   07 280 30 00 : DIFFERENTIAL CALIPER
~Params ----------------------------------------------------
PD  .                     GL : PERMANENT DATUM
EPD .FT                  500 : ELEVATION PERMANENT DATUM
LMF .                     KB : LOG MEASURED FROM
DAPD.FT                    4 : FEET ABOVE PERMANENT DATUM
DMF .                     KB : DRILLING MEASURED FROM
EKB .FT                  504 : KELLY BUSHING
EDF .FT                  503 : DRILLING FLOOR
EGL .FT                  500 : GROUND LEVEL
DATE.               11-20-79 : RUN DATE
RUN .                      1 : RUN NUMBER
DD  .FT                 6945 : DEPTH DRILLER
DL  .FT                 6934 : DEPTH LOGGER
BLI .FT                 6931 : BOTTOM LOG INTERVAL
TLI .FT                 5969 : TOP LOG INTERVAL
CS  .IN                    7 : CASING SIZE
CBD .FT                 5991 : CASING BOTTOM DRILLER
CBL .FT                 5969 : CASING BOTTOM LOGGER
BS  .IN                6.125 : BIT SIZE
BSD .FT                 6945 : BIT SIZE AT DEPTH
DFT .              MAXIDRILL : DRILLING FLUID TYPE
DFD .                    9.2 : DRILLING FLUID DENSITY
DFV .                     28 : DRILLING FLUID VISCOSITY
MSS .                    PIT : MUD SAMPLE SOURCE
RMS .OHMM               0.08 : RESISTIVITY MUD SAMPLE
MST .DEGF                 75 : MUD SAMPLE TEMPERATURE
RMF .OHMM               0.06 : RESISTIVITY MUD FILTRATE SAMPLE
MFST.DEGF                 75 : MUD FILTRATE SAMPLE TEMPERATURE
RMC .OHMM               0.12 : RESISTIVITY MUD CAKE
MCST.DEGF                 75 : MUD CAKE SAMPLE TEMPERATURE
MFSS.                      M : MUD FILTRATE SAMPLE SOURCE
MCSS.                      C : MUD CAKE SAMPLE SOURCE
RMB .OHMM               0.03 : RESISTIVITY MUD AT BHT
TCS .HRS                1400 : TIME CIRCULATED STOPPED
TLAB.HRS                2300 : TIME LOGGER AT BOTTOM
LUN .                   8138 : LOGGING UNIT NUMBER
LUL .                BRENHAM : LOGGING UNIT LOCATION
ENGI.               CRAWFORD : RECORDING ENGINEER
WITN.                 DETMAR : WITNESSED BY
CLNT.                A2DTECH : CLIENT CODE
ORIG.               5" PRINT : ORIGIN OF DATA
UWI .         42051304680000 : UNIQUE WELL ID
DICO. A2D Technologies, Inc. : DIGITIZING COMPANY
~Other -----------------------------------------------------
~ASCII -----------------------------------------------------
 1350.00000    -999.25    -999.25    -999.25   22.74180 1932.69080   21.71040  -35.48700    -999.25    -999.25    -999.25    -999.25
 1400.00000    -999.25    -999.25    -999.25    6.39790    6.61460    8.26470  -39.41560    -999.25    -999.25    -999.25    -999.25
 1450.00000    -999.25    -999.25    -999.25    9.37150    8.98380    8.50320  -30.48800    -999.25    -999.25    -999.25    -999.25
 1500.00000    -999.25    -999.25    -999.25   16.32660   12.38540   14.26140  -34.10860    -999.25    -999.25    -999.25    -999.25
 1550.00000    -999.25    -999.25    -999.25   10.67600   10.01830    9.93890  -35.38100    -999.25    -999.25    -999.25    -999.25
 1600.00000    -999.25    -999.25    -999.25    9.20480    8.88980    7.99380  -41.65430    -999.25    -999.25    -999.25    -999.25
 1650.00000    -999.25    -999.25    -999.25   11.35080   11.20530   11.44810  -37.78880    -999.25    -999.25    -999.25    -999.25
 1700.00000    -999.25    -999.25    -999.25    9.04830    8.35680    7.77890  -34.96710    -999.25    -999.25    -999.25    -999.25
 1750.00000    -999.25    -999.25    -999.25    8.72360    8.86950    8.58510  -40.53350    -999.25    -999.25    -999.25    -999.25
 1800.00000    -999.25    -999.25    -999.25    6.93890    6.16100    5.43180  -30.17460    -999.25    -999.25    -999.25    -999.25
 1850.00000    -999.25    -999.25    -999.25    4.42670    4.13910    4.11810  -33.23180    -999.25    -999.25    -999.25    -999.25
 1900.00000    -999.25    -999.25    -999.25    3.98490    3.75460    3.82090  -29.98900    -999.25    -999.25    -999.25    -999.25
 1950.00000    -999.25    -999.25    -999.25   25.40580   24.07740   20.85890  -38.20680    -999.25    -999.25    -999.25    -999.25
 2000.00000    -999.25    -999.25    -999.25    8.83610   10.22480    8.11400  -20.33040    -999.25    -999.25    -999.25    -999.25
 2050.00000    -999.25    -999.25    -999.25   37.48430   33.02990   25.96810  -23.28830    -999.25    -999.25    -999.25    -999.25
 2100.00000    -999.25    -999.25    -999.25   20.20460   18.96980   17.38780  -26.75420    -999.25    -999.25    -999.25    -999.25
 2150.00000    -999.25    -999.25    -999.25   22.09570   16.55230   19.42000  -19.75290    -999.25    -999.25    -999.25    -999.25
 2200.00000    -999.25    -999.25    -999.25  100.42810   41.39480   34.35320  -25.34550    -999.25    -999.25    -999.25    -999.25
 2250.00000    -999.25    -999.25    -999.25   52.72200   18.82340   22.90070  -26.09170    -999.25    -999.25    -999.25    -999.25
 2300.00000    -999.25    -999.25    -999.25    4.41180    3.90310    4.50570  -22.28620    -999.25    -999.25    -999.25    -999.25
 2350.00000    -999.25    -999.25    -999.25   13.33150   12.12760   11.45700  -25.04810    -999.25    -999.25    -999.25    -999.25
 2400.00000    -999.25    -999.25    -999.25   22.32240   18.56870   17.44900  -28.94080    -999.25    -999.25    -999.25    -999.25
 2450.00000    -999.25    -999.25    -999.25   28.51840   22.95670   21.59200  -30.30090    -999.25    -999.25    -999.25    -999.25
 2500.00000    -999.25    -999.25    -999.25   10.29350    9.25020    9.90940  -26.54920   68.51220    3.86800   12.80680    -999.25
 2550.00000    -999.25    -999.25    -999.25   41.32130   29.92760   24.14780  -23.33670   50.37190    3.20870   11.38450    -999.25
 2600.00000    -999.25    -999.25    -999.25    2.64290    2.46990    2.72670  -26.91840   75.13800    4.32620   14.14470    -999.25
 2650.00000    -999.25    -999.25    -999.25    6.07460    6.63140    7.60930  -27.69820   57.13480    4.89860   14.95800    -999.25
 2700.00000    -999.25    -999.25    -999.25   13.63230   12.96210   17.79820  -33.01890   65.24110    3.97210   11.67410    -999.25
 2750.00000    -999.25    -999.25    -999.25   21.07260   19.55260   19.73710  -38.11080   54.27630    3.52770   10.43390    -999.25
 2800.00000    -999.25    -999.25    -999.25    4.92070    4.65250    5.00270  -25.29820   78.05570    3.63100   13.88750    -999.25
 2850.00000    -999.25    -999.25    -999.25   19.04420   17.63360   16.77050  -34.82320   55.33890    3.75400   11.78850    -999.25
 2900.00000    -999.25    -999.25    -999.25    3.81730    3.77500    3.84850  -29.89330   72.65280    3.90290   13.38300    -999.25
 2950.00000    -999.25    -999.25    -999.25   17.88900   21.98010   21.47410  -33.01940   48.57220    2.51610   10.63380    -999.25
 3000.00000    -999.25    -999.25    -999.25   10.26060    9.92660   10.70100  -35.71500   58.50840    3.71820   12.58600    -999.25
 3050.00000    -999.25    -999.25    -999.25    6.99660    6.44690    8.93810  -38.04990   59.88110    3.68470   12.68510    -999.25
 3100.00000    -999.25    -999.25    -999.25   10.18270    9.89280   12.32530  -46.33060   70.61040    4.04440   13.10680    -999.25
 3150.00000    -999.25    -999.25    -999.25    4.19440    4.28960    5.21650  -27.85850   63.56050    4.17660   14.65280    -999.25
 3200.00000    -999.25    -999.25    -999.25    3.23250    3.28150    3.39350  -27.18570   60.18600    4.52660   15.58010    -999.25
 3250.00000    -999.25    -999.25    -999.25    3.21530    3.30710    3.85550  -30.54870   64.42950    4.24290   14.87460    -999.25
 3300.00000    -999.25    -999.25    -999.25    3.27830    3.37470    3.16580  -33.10750   68.98540    4.29340   15.25070    -999.25
 3350.00000    -999.25    -999.25    -999.25    2.98970    2.95540    3.02050  -25.28850   64.75610    3.94850   15.74080    -999.25
 3400.00000    -999.25    -999.25    -999.25    2.64160    2.62160    2.78740  -22.92420   62.73270    4.49050   16.09710    -999.25
 3450.00000    -999.25    -999.25    -999.25    2.51960    2.58460    2.61620  -24.41250   65.57460    4.14170   16.25500    -999.25
 3500.00000    -999.25    -999.25    -999.25    2.08590    2.15820    2.21000  -26.69830   72.44280    4.47780   16.58870    -999.25
 3550.00000    -999.25    -999.25    -999.25    1.74330    1.80370    1.97540  -24.90710   70.42670    4.26740   17.15740    -999.25
 3600.00000    -999.25    -999.25    -999.25    1.61010    1.65850    1.76770  -25.59420   69.92200    4.45990   17.04450    -999.25
 3650.00000    -999.25    -999.25    -999.25    1.52640    1.55650    1.66670  -28.90420   70.49770    4.36110   17.29240    -999.25
 3700.00000    -999.25    -999.25    -999.25    2.07980    2.15000    2.35680  -28.31310   79.62880    4.46880   16.86740    -999.25
 3750.00000    -999.25    -999.25    -999.25    1.95290    2.01360    2.11620  -30.62570   82.58330    4.45240   16.86730    -999.25
 3800.00000    -999.25    -999.25    -999.25    1.13700    1.05950    0.90850  -23.77060   84.42340    4.28630   15.72300    -999.25
 3850.00000    -999.25    -999.25    -999.25    1.27600    1.24850    1.20230  -30.33830   67.92650    4.55680   17.51760    -999.25
 3900.00000    -999.25    -999.25    -999.25    1.91680    1.97250    2.11690  -30.62450   66.94170    4.38690   17.24420    -999.25
 3950.00000    -999.25    -999.25    -999.25    2.42590    2.60740    2.50890  -43.43320   42.44200    3.96920   13.10420    -999.25
 4000.00000    -999.25    -999.25    -999.25    1.34600    1.39560    1.49210  -35.39720   70.40530    4.50650   17.53630    -999.25
 4050.00000    -999.25    -999.25    -999.25    1.08090    1.11740    1.29550  -31.00420   65.62460    5.10170   17.77490    -999.25
 4100.00000    -999.25    -999.25    -999.25    1.77640    1.84830    1.82740  -34.05600   56.68190    4.04240   16.39760    -999.25
 4150.00000    -999.25    -999.25    -999.25    2.03070    2.10080    2.11280  -30.93150   63.23500    4.21500   15.99980    -999.25
 4200.00000    -999.25    -999.25    -999.25    1.49460    1.53060    1.69300  -30.43650   56.67310    4.62130   17.15460    -999.25
 4250.00000    -999.25    -999.25    -999.25    1.12810    1.15430    1.38110  -28.69030   60.76440    4.40030   17.25940    -999.25
 4300.00000    -999.25    -999.25    -999.25    1.12450    1.13580    1.27490  -28.17100   72.06530    4.89110   17.41370    -999.25
 4350.00000    -999.25    -999.25    -999.25    1.05070    1.09060    1.19970  -31.27960   70.02650    4.82490   17.45290    -999.25
