~Version ---------------------------------------------------
VERS.      2.0 : CWLS log ASCII Standard -VERSION 2.0
WRAP.      YES : Multiple lines per depth step
CREA. 09/17/12 : LAS Creation Date
~Well ------------------------------------------------------
STRT.FT                   3250.0 : START DEPTH
STOP.FT                   8300.0 : STOP DEPTH
STEP.FT                 50.00000 : STEP LENGTH
NULL.                    -999.25 : NULL VALUE
COMP. CHAMPLIN PETROLEUM COMPANY : COMPANY
WELL.       L W BRINKMAN UNIT #1 : WELL
FLD .                   GIDDINGS : FIELD
LOC .                            : LOCATION
CNTY.                   BURLESON : COUNTY
STAT.                      TEXAS : STATE
CTRY.   UNITED STATES OF AMERICA : COUNTRY
SRVC.               Schlumberger : SERVICE COMPANY
DATE.                19-Jul-1980 : LOGDATE
API .             42051307850000 : API NUMBER
UWI .             42051307850000 : UNIQUE WELL ID
SLAT.WGS84         30.3775896841 : SURFACE LATITUDE
SLON.WGS84        -96.7431946132 : SURFACE LONGITUDE
~Curve Information -----------------------------------------
DEPT    .FT    : DEPTH FEET
CALDED  .IN    : CALIPER FROM CNFD LOG [ADJ. TO GRRED]
CALWS   .IN    : CALIPER [CALDED]
CONDWS  .MMHO  : CONDUCTIVITY [1000/DRESWS]
DCORWS  .G/C3  : DENSITY CORRECTION [DRHOED]
DENWS   .G/C3  : FORMATION BULK DENSITY [RHOBED]
DPHILSED.V/V   : DENSITY POROSITY LIMESTONE [M=2.71 F=1.0] FROM CNFD LOG  [ADJ. TO GRRED]
DPOWS   .V/V   : DENSITY POROSITY LIMESTONE [DPHILSED]
DRESWS  .OHMM  : DEEP RESISTIVITY [ILDED]
DRHOED  .G/C3  : BULK DENSITY CORRECTION FROM CNFD LOG  [ADJ. TO GRRED]
DTED    .US/F  : DELTA-T (INTERVAL TRANSIT TIME)  FROM ISF SONIC LOG  [ADJ. TO GRRED]
DTWS    .US/F  : COMPRESSIONAL SONIC [DTED]
GRDED   .GAPI  : GAMMA RAY FROM CNFD LOG  [ADJ. TO GRRED]
GRED    .GAPI  : CASED HOLE GAMMA RAY FROM CEMENT LOG  [ADJ. TO GRRED]
GRRED   .GAPI  : GAMMA RAY FROM ISF SONIC LOG
GRWS    .GAPI  : GAMMA RAY [GRED SPL. TO GRDED @ 3799']
ILDED   .OHMM  : DEEP INDUCTION FROM ISF SONIC LOG
ILMED   .OHMM  : MEDIUM INDUCTION FROM ISF SONIC LOG
MRESWS  .OHMM  : MEDIUM RESISTIVITY [ILMED]
NPHILSED.V/V   : NEUTRON POROSITY LIMESTONE FROM CNFD LOG  [ADJ. TO GRRED]
NPOWS   .V/V   : NEUTRON POROSITY LIMESTONE [NPHILSED]
RHOBED  .G/C3  : BULK DENSITY FROM CNFD LOG  [ADJ. TO GRRED]
SFLUED  .OHMM  : SHALLOW FOCUSED RESISTIVITY (UNAVERAGED) FROM ISF SONIC LOG
SPHILSED.V/V   : SONIC POROSITY LIMESTONE FROM DEN-SON PLAYBACK LOG  [ADJ. TO DTED]
SPOWS   .V/V   : SONIC POROSITY LIMESTONE [SPHILSED]
SPRED   .MV    : SPONTANEOUS POTENTIAL FROM ISF SONIC LOG
SPWS    .MV    : SPONTANEOUS POTENTIAL [BASELINE 0 MV, SPRED]
SRESWS  .OHMM  : SHALLOW RESISTIVITY [SFLUED]
~Params ----------------------------------------------------
PD  .                     GL : PERMANENT DATUM
EPD .FT                  331 : ELEVATION PERMANENT DATUM
LMF .                     KB : LOG MEASURED FROM
DAPD.FT                 16.6 : FEET ABOVE PERMANENT DATUM
DMF .                     KB : DRILLING MEASURED FROM
EKB .FT                347.6 : KELLY BUSHING
EDF .FT                346.6 : DRILLING FLOOR
EGL .FT                  331 : GROUND LEVEL
DATE.             07/19/1980 : RUN DATE
RUN .                      1 : RUN NUMBER
BLI .FT                 8334 : BOTTOM LOG INTERVAL
TLI .FT                 3812 : TOP LOG INTERVAL
CS  .IN                9.625 : CASING SIZE
CBD .FT                 3818 : CASING BOTTOM DRILLER
CBL .FT                 3812 : CASING BOTTOM LOGGER
BS  .IN                 8.75 : BIT SIZE
DFT .                 BEN EX : DRILLING FLUID TYPE
DFD .                    9.3 : DRILLING FLUID DENSITY
DFV .                     45 : DRILLING FLUID VISCOSITY
DFPH.                      9 : DRILLING FLUID PH
DFL .                    5.8 : DRILLING FLUID LOSS
MSS .               MUD TANK : MUD SAMPLE SOURCE
RMS .OHMM               2.08 : RESISTIVITY MUD SAMPLE
MST .DEGF                 80 : MUD SAMPLE TEMPERATURE
RMF .OHMM               1.36 : RESISTIVITY MUD FILTRATE SAMPLE
MFST.DEGF                 80 : MUD FILTRATE SAMPLE TEMPERATURE
RMC .OHMM               3.12 : RESISTIVITY MUD CAKE
MCST.DEGF                 80 : MUD CAKE SAMPLE TEMPERATURE
MFSS.                      C : MUD FILTRATE SAMPLE SOURCE
MCSS.                      C : MUD CAKE SAMPLE SOURCE
RMB .OHMM              0.891 : RESISTIVITY MUD AT BHT
TCS .HRS                1330 : TIME CIRCULATED STOPPED
TLAB.HRS                2200 : TIME LOGGER AT BOTTOM
LUN .                   8176 : LOGGING UNIT NUMBER
LUL .                BRENHAM : LOGGING UNIT LOCATION
ENGI. KRONENBITTER ALEXANDER : RECORDING ENGINEER
WITN.                 SCHELL : WITNESSED BY
CLNT.                A2DTECH : CLIENT CODE
UWI .         42051307850000 : UNIQUE WELL ID
DICO. A2D Technologies, Inc. : DIGITIZING COMPANY
~Other -----------------------------------------------------
~ASCII -----------------------------------------------------
# ...
 5850.00000   11.58470   11.58470  688.80010    0.10790    2.44450    0.15890    0.15890    1.45180    0.10790   90.41790   90.41790   81.04960   58.58760   93.11290   81.04960    1.45180    1.51230    1.51230    0.30170    0.30170    2.44450    1.49520    -999.25    -999.25   -7.56770   -1.93660    1.49520
 5900.00000   12.24500   12.24500  679.57870    0.06680    2.38390    0.19270    0.19270    1.47150    0.06680   95.26540   95.26540   80.62040   43.28570  100.13950   80.62040    1.47150    1.52630    1.52630    0.28250    0.28250    2.38390    1.57680    -999.25    -999.25   -7.04320   -1.87890    1.57680
 5950.00000   10.08420   10.08420  483.46550    0.01680    2.47870    0.13550    0.13550    2.06840    0.01680   86.85560   86.85560   71.12340   35.60440   92.48100   71.12340    2.06840    2.14420    2.14420    0.22420    0.22420    2.47870    2.21960    -999.25    -999.25   -8.52510   -3.82760    2.21960
 6000.00000    9.70680    9.70680  713.52120    0.19780    2.52530    0.11090    0.11090    1.40150    0.19780   92.23250   92.23250   85.56270   50.91490   95.76820   85.56270    1.40150    1.45520    1.45520    0.30130    0.30130    2.52530    1.48270    -999.25    -999.25   -7.45920   -3.22860    1.48270
 6050.00000   12.21780   12.21780  746.77020    0.19090    2.25900    0.25930    0.25930    1.33910    0.19090   99.17670   99.17670   78.15690   53.63420   97.85740   78.15690    1.33910    1.39840    1.39840    0.34240    0.34240    2.25900    1.50720    -999.25    -999.25   -6.31260   -2.54880    1.50720
 6100.00000   14.19520   14.19520  747.27250    0.06350    2.27790    0.25450    0.25450    1.33820    0.06350   99.39260   99.39260   91.42000   46.97440  107.89660   91.42000    1.33820    1.38710    1.38710    0.33300    0.33300    2.27790    1.42500    -999.25    -999.25   -5.57070   -2.27370    1.42500
 6150.00000   15.00640   15.00640  740.57620    0.12210    2.36120    0.20420    0.20420    1.35030    0.12210   97.94030   97.94030   78.43610   56.67710  106.20950   78.43610    1.35030    1.41370    1.41370    0.31880    0.31880    2.36120    1.52590    -999.25    -999.25   -5.38230   -2.55210    1.52590
 6200.00000   19.11680   19.11680  651.29610    0.16680    2.34150    0.21500    0.21500    1.53540    0.16680   97.83150   97.83150   70.10190   51.40910  101.01030   70.10190    1.53540    1.59900    1.59900    0.39460    0.39460    2.34150    1.71500    -999.25    -999.25   -8.35280   -6.01860    1.71500
 6250.00000   17.97040   17.97040  843.66830    0.09990    2.20610    0.29590    0.29590    1.18530    0.09990  103.83170  103.83170   72.33590   51.71290   99.15070   72.33590    1.18530    1.22830    1.22830    0.41780    0.41780    2.20610    1.29830    -999.25    -999.25   -6.68220   -4.84860    1.29830
 6300.00000   11.66350   11.66350  533.84580    0.19320    2.35440    0.20910    0.20910    1.87320    0.19320   90.23580   90.23580   78.73930   52.30660   92.44380   78.73930    1.87320    1.93190    1.93190    0.25470    0.25470    2.35440    2.18330    -999.25    -999.25   -8.54530   -7.21240    2.18330
 6350.00000   11.01050   11.01050  610.05370    0.14110    2.46060    0.15290    0.15290    1.63920    0.14110   93.93610   93.93610  109.66750   48.51160  126.63770  109.66750    1.63920    1.76350    1.76350    0.29300    0.29300    2.46060    1.69870    -999.25    -999.25   -2.82690   -1.96930    1.69870
 6400.00000   12.36720   12.36720  590.77210    0.10620    2.48970    0.13220    0.13220    1.69270    0.10620   94.51320   94.51320   79.63310   54.22500   92.69350   79.63310    1.69270    1.75520    1.75520    0.24620    0.24620    2.48970    1.92670    -999.25    -999.25   -9.43090   -8.22840    1.92670
 6450.00000   13.02100   13.02100  629.32660    0.08320    2.53060    0.10410    0.10410    1.58900    0.08320   97.18620   97.18620  103.84910   63.25000  123.22190  103.84910    1.58900    1.64900    1.64900    0.25490    0.25490    2.53060    1.75950    -999.25    -999.25   -5.06750   -3.52010    1.75950
 6500.00000   15.61940   15.61940  748.05510    0.10430    2.44990    0.15180    0.15180    1.33680    0.10430   99.74000   99.74000   88.71790   46.61880  105.44080   88.71790    1.33680    1.37720    1.37720    0.27440    0.27440    2.44990    1.51210    -999.25    -999.25   -9.98180   -8.08950    1.51210
 6550.00000   16.48940   16.48940  710.32820    0.09730    2.46760    0.14240    0.14240    1.40780    0.09730   99.90710   99.90710   81.07130   48.77730   99.06590   81.07130    1.40780    1.46860    1.46860    0.27180    0.27180    2.46760    1.62220    -999.25    -999.25   -8.68190   -6.44480    1.62220
 6600.00000   14.86520   14.86520  712.86000    0.11650    2.44980    0.15220    0.15220    1.40280    0.11650   99.22980   99.22980   82.14860   44.52760   95.04510   82.14860    1.40280    1.45300    1.45300    0.27880    0.27880    2.44980    1.61150    -999.25    -999.25   -6.77460   -4.19260    1.61150
 6650.00000   11.62190   11.62190  574.38250    0.14030    2.35940    0.20500    0.20500    1.74100    0.14030   92.47650   92.47650   78.23870   48.76530   96.49880   78.23870    1.74100    1.86810    1.86810    0.29250    0.29250    2.35940    2.20130    -999.25    -999.25   -4.67900   -2.02150    2.20130
 6700.00000    9.75710    9.75710  265.74540    0.00240    2.59630    0.06620    0.06620    3.76300    0.00240   73.30110   73.30110   36.59170   11.46050   50.46530   36.59170    3.76300    3.90220    3.90220    0.10600    0.10600    2.59630    4.32980    -999.25    -999.25   -8.77940   -6.35020    4.32980
 6750.00000    9.80160    9.80160  269.15730   -0.00100    2.57330    0.08360    0.08360    3.71530   -0.00100   77.01530   77.01530   48.00230   22.43560   59.03070   48.00230    3.71530    3.88040    3.88040    0.10760    0.10760    2.57330    4.19680    -999.25    -999.25   -7.61880   -5.41780    4.19680
 6800.00000    9.80520    9.80520  295.17680    0.01180    2.59270    0.06760    0.06760    3.38780    0.01180   76.00190   76.00190   39.73000   27.44330   62.95900   39.73000    3.38780    3.61700    3.61700    0.11190    0.11190    2.59270    4.96940    -999.25    -999.25   -3.72140   -1.74870    4.96940
 6850.00000   11.35840   11.35840  684.36900    0.15500    2.47000    0.14110    0.14110    1.46120    0.15500   96.20630   96.20630   76.85960   46.49920   94.23450   76.85960    1.46120    1.55000    1.55000    0.26160    0.26160    2.47000    1.77280    -999.25    -999.25   -2.52510   -0.78070    1.77280
 6900.00000   11.02680   11.02680  608.60570    0.12370    2.52430    0.10860    0.10860    1.64310    0.12370   93.37350   93.37350   74.11630   41.30450   93.52070   74.11630    1.64310    1.73130    1.73130    0.25480    0.25480    2.52430    2.10690    -999.25    -999.25   -3.36360   -1.84750    2.10690
 6950.00000    9.71140    9.71140  394.61740    0.03480    2.57300    0.07730    0.07730    2.53410    0.03480   84.28330   84.28330   76.46480   55.29340   93.78220   76.46480    2.53410    2.64390    2.64390    0.18650    0.18650    2.57300    3.06590    -999.25    -999.25   -2.46530   -1.17750    3.06590
 7000.00000    9.70530    9.70530  353.39440    0.00700    2.55200    0.09600    0.09600    2.82970    0.00700   83.20040   83.20040   67.29780   36.95180   87.11140   67.29780    2.82970    2.96180    2.96180    0.17580    0.17580    2.55200    3.32650    -999.25    -999.25   -1.28220   -0.22260    3.32650
 7050.00000   10.26440   10.26440  500.60070    0.12730    2.55240    0.09190    0.09190    1.99760    0.12730   89.76270   89.76270   83.17310   44.93460   96.39170   83.17310    1.99760    2.06450    2.06450    0.22130    0.22130    2.55240    2.42390    -999.25    -999.25   -2.30210   -1.47080    2.42390
 7100.00000    9.65170    9.65170  314.71280    0.01460    2.59400    0.06710    0.06710    3.17750    0.01460   81.64970   81.64970   59.14610   26.94810   76.83410   59.14610    3.17750    3.36680    3.36680    0.15740    0.15740    2.59400    4.53410    -999.25    -999.25   -1.56780   -0.96480    4.53410
