~Version ---------------------------------------------------
VERS. 2.0 : CWLS log ASCII Standard -VERSION 2.0
WRAP.  NO : ONE LINE PER DEPTH STEP
~Well ------------------------------------------------------
STRT.F                     400.0 : START DEPTH
STOP.F                    6450.0 : STOP DEPTH
STEP.F                  50.00000 : STEP LENGTH
NULL.                    -999.25 : NULL VALUE
COMP. HERCULES EXPLORATION, INC. : COMPANY
WELL.       H. A. FITZSIMMONS #1 : WELL
FLD .                         WC : FIELD
LOC .                            : LOCATION
CNTY.                     DIMMIT : COUNTY
STAT.                      TEXAS : STATE
CTRY.   UNITED STATES OF AMERICA : COUNTRY
SRVC.                      Welex : SERVICE COMPANY
DATE.                03-May-1976 : LOGDATE
API .             42127310470000 : API NUMBER
UWI .             42127310470000 : UNIQUE WELL ID
SLAT.WGS84         28.3207989906 : SURFACE LATITUDE
SLON.WGS84       -100.0131366657 : SURFACE LONGITUDE
~Curve Information -----------------------------------------
DEPT.F                 : 
NEUT.NAPI 35 330 01 00 : NEUTRON
GRN .GAPI 35 310 01 00 : GAMMA RAY
SPR .MV   05 010 01 00 : SPONTANEOUS POTENTIAL FROM RES.
ILD .OHMM 05 120 46 00 : INDUCTION LOG DEEP
CILD.MMHO 05 110 46 00 : CONDUCTIVITY INDUCTION LOG DEEP
SN  .OHMM 05 040 18 00 : SHORT NORMAL 18"
~Params ----------------------------------------------------
PD  .                     GL : PERMANENT DATUM
EPD .F                   783 : ELEVATION PERMANENT DATUM
LMF .                     KB : LOG MEASURED FROM
DAPD.F                    11 : FEET ABOVE PERMANENT DATUM
DMF .                     KB : DRILLING MEASURED FROM
EKB .F                   794 : KELLING BUSHING
EDF .F                   793 : DRILLING FLOOR
EGL .F                   783 : GROUND LEVEL
DATE.               5-3-1976 : RUN DATE
RUN .                      1 : RUN NUMBER
DD  .F                  6580 : DEPTH DRILLER
DL  .F                  6490 : DEPTH LOGGER
BLI .F                  6484 : BOTTOM LOG INTERVAL
TLI .F                   356 : TOP LOG INTERVAL
CS  .IN                8.625 : CASING SIZE
CBD .F                   357 : CASING BOTTOM DRILLER
CBL .F                   356 : CASING BOTTOM LOGGER
BS  .IN                7.875 : BIT SIZE
BSD .F                  6580 : BIT SIZE AT DEPTH
DFT .             WATER BASE : DRILLING FLUID TYPE
DFD .                   10.5 : DRILLING FLUID DENSITY
DFV .                     60 : DRILLING FLUID VISCOSITY
DFPH.                   10.5 : DRILLING FLUID PH
DFL .                    7.2 : DRILLING FLUID LOSS
MSS .                  CIRC. : MUD SAMPLE SOURCE
RMS .OHMM               2.24 : RESISTIVITY MUD SAMPLE
MST .F                    75 : MUD SAMPLE TEMPERATURE
RMF .OHMM                2.0 : RESISTIVITY MUD FILTRATE SAMPLE
MFST.F                    75 : MUD FILTRATE SAMPLE TEMPERATURE
RMC .OHMM               2348 : RESISTIVITY MUD CAKE
MCST.F                    75 : MUD CAKE SAMPLE TEMPERATURE
MFSS.                  MEAS. : MUD FILTRATE SAMPLE SOURCE
MCSS.                  MEAS. : MUD CAKE SAMPLE SOURCE
RMB .OHMM               1.01 : RESISTIVITY MUD AT BHT
TCS .HRS                   4 : TIME CURCULATED STOPPED
LUN .                   9684 : LOGGING UNIT NUMBER
LUL .                  ALICE : LOGGING UNIT LOCATION
ENGI.              NAVARETTE : RECORDING ENGINEER
WITN.           MYERS/WEAVER : WITNESSED BY
CLNT.                A2DTECH : CLIENT CODE
ORIG.               5" PRINT : ORIGIN OF DATA
UWI .         42127310470000 : UNIQUE WELL ID
DICO. A2D Technologies, Inc. : DIGITIZING COMPANY
~Other -----------------------------------------------------
~ASCII -----------------------------------------------------
  400.00000    -999.25    -999.25  -28.09720   10.11340  100.02870    9.29910
  450.00000    -999.25    -999.25  -27.32170   28.71200   34.29420   12.94630
  500.00000    -999.25    -999.25  -29.99040    2.37570  339.41360    5.81820
  550.00000    -999.25    -999.25  -27.87790    2.87120  277.69110    3.13480
  600.00000    -999.25    -999.25  -36.82580    6.73680  143.03710    7.69850
  650.00000    -999.25    -999.25  -30.15230    3.12390  279.92760    3.72910
  700.00000    -999.25    -999.25  -73.90810    5.36860  175.06640   12.46980
  750.00000    -999.25    -999.25  -30.67470    5.74760  170.20220    6.31870
  800.00000    -999.25    -999.25  -65.02680    5.58450  166.50100    9.82250
  850.00000    -999.25    -999.25  -46.53990    4.64160  205.39870    6.16860
  900.00000    -999.25    -999.25  -27.08390    2.31700  335.48710    2.92200
  950.00000    -999.25    -999.25  -36.66440    5.43780  169.68650    6.67290
 1000.00000    -999.25    -999.25  -73.91170    4.43230  204.01200    9.98990
 1050.00000    -999.25    -999.25  -29.16810    2.44290  334.38260    2.92190
 1100.00000    -999.25    -999.25  -38.33660    4.47830  212.90570    4.91910
 1150.00000    -999.25    -999.25  -82.45660    4.30800  214.52390   11.80690
 1200.00000    -999.25    -999.25  -42.94210    4.30230  210.23860    5.30540
 1250.00000    -999.25    -999.25  -31.45710    4.08890  221.36250    4.52340
 1300.00000    -999.25    -999.25  -29.78780    2.07690  360.34050    2.49860
 1350.00000    -999.25    -999.25  -29.58820    1.63660  431.40700    2.11220
 1400.00000    -999.25    -999.25  -30.95500    2.81270  304.75840    3.13630
 1450.00000    -999.25    -999.25  -32.63840    4.21040  203.57650    4.68950
 1500.00000    -999.25    -999.25  -28.91070    2.66740  334.15000    3.05750
 1550.00000    -999.25    -999.25  -28.73280    1.54690  448.80720    2.53300
 1600.00000    -999.25    -999.25  -68.43570   13.45800   75.53180   26.80580
 1650.00000    -999.25    -999.25  -45.37250    8.35420  120.77540    9.09120
 1700.00000    -999.25    -999.25  -37.86960   10.91620   88.46920    9.80030
 1750.00000    -999.25    -999.25  -35.33040   14.93900   67.20540   13.63910
 1800.00000    -999.25    -999.25  -33.54740    5.02910  184.89310    5.29730
 1850.00000    -999.25    -999.25  -39.64000    9.87420   94.74940   10.55610
 1900.00000    -999.25    -999.25  -66.47940   13.93820   70.07650   24.66290
 1950.00000    -999.25    -999.25  -34.69180    8.64990  114.64400    8.96810
 2000.00000    -999.25    -999.25  -56.12390   17.07930   55.91160   27.41680
 2050.00000    -999.25    -999.25  -39.15920    7.19260  138.62270    9.65300
 2100.00000    -999.25    -999.25  -33.78560    9.19280  108.23190   10.50450
 2150.00000    -999.25    -999.25  -45.31680    9.40580   94.06760   17.21790
 2200.00000    -999.25    -999.25  -33.68850    5.53740  179.25360    7.47430
 2250.00000    -999.25    -999.25  -31.80700    3.12480  279.33150    4.01270
 2300.00000    -999.25    -999.25  -32.04370    3.05640  276.21180    3.95420
 2350.00000    -999.25    -999.25  -32.29370    5.08960  185.02510    5.46340
 2400.00000    -999.25    -999.25  -30.24480    2.91130  295.84000    3.33180
 2450.00000    -999.25    -999.25  -32.04990    4.36580  211.40870    4.87670
 2500.00000    -999.25    -999.25  -30.89510    3.20140  280.95440    3.70670
 2550.00000    -999.25    -999.25  -29.77570    2.96220  295.72560    3.66120
 2600.00000    -999.25    -999.25  -28.79980    6.31780  157.55470    7.79360
 2650.00000    -999.25    -999.25  -30.26900   21.82140   44.04340   25.03730
 2700.00000    -999.25    -999.25  -33.50840    6.97260  138.97140    8.13450
 2750.00000    -999.25    -999.25  -30.22250    4.07170  222.67110    4.67180
 2800.00000    -999.25    -999.25  -30.26270    4.90230  199.44850    5.90020
 2850.00000    -999.25    -999.25  -33.62990    5.45570  174.99970    6.01300
 2900.00000    -999.25    -999.25  -43.95210    4.82050  198.31010    6.32320
 2950.00000    -999.25    -999.25  -36.55840    5.95250  161.53080    7.84170
 3000.00000    -999.25    -999.25 -119.76440    2.23210  345.34410   18.06290
 3050.00000    -999.25    -999.25  -35.01980    6.07400  153.57850    7.28690
 3100.00000    -999.25    -999.25  -44.09020    3.61900  239.41940    4.71700
 3150.00000    -999.25    -999.25  -39.41040    2.79220  295.55500    4.35050
 3200.00000    -999.25    -999.25  -32.13210    1.47560  527.63070    1.99340
 3250.00000    -999.25    -999.25  -46.53230    6.25580  171.80360    8.78810
 3300.00000    -999.25    -999.25  -29.61710    3.74480  242.35080    5.42560
 3350.00000    -999.25    -999.25  -54.93800    4.21690  231.36710    9.30290
 3400.00000    -999.25    -999.25  -30.29610    4.83390  191.39050    5.76520
 3450.00000    -999.25    -999.25  -31.31640    4.84350  194.84730    5.54480
 3500.00000    -999.25    -999.25  -31.24610    4.88130  195.17080    5.13910
 3550.00000    -999.25    -999.25  -30.21360    1.97300  391.76250    3.07370
 3600.00000    -999.25    -999.25  -28.93120    2.47580  376.57080    2.99510
 3650.00000    -999.25    -999.25  -30.60060    2.99800  291.82330    3.67040
 3700.00000    -999.25    -999.25  -29.79980    6.90270  146.28960    7.49800
 3750.00000    -999.25    -999.25  -30.61840    3.16590  277.71140    4.64310
 3800.00000    -999.25    -999.25  -27.65080    4.89770  204.60360    5.21180
 3850.00000    -999.25    -999.25  -27.43680    2.81850  317.84520    3.17460
 3900.00000    -999.25    -999.25  -28.57940    2.97410  297.10890    3.42450
 3950.00000    -999.25    -999.25  -29.91500    3.31370  262.48870    3.74940
 4000.00000    -999.25    -999.25  -30.76980    2.98890  280.61320    3.40000
 4050.00000    -999.25    -999.25  -31.45220    4.48530  209.32040    4.84170
 4100.00000    -999.25    -999.25  -30.21650    3.82050  237.63210    4.13900
 4150.00000    -999.25    -999.25  -28.73370    3.12640  284.19380    3.82850
 4200.00000    -999.25    -999.25  -27.81500    4.47370  210.48920    5.07970
 4250.00000    -999.25    -999.25  -28.63900    4.46330  233.56000    4.61310
 4300.00000    -999.25    -999.25  -27.67120    4.25200  221.14960    4.76670
 4350.00000    -999.25    -999.25  -28.18040    3.75220  240.73710    4.19240
 4400.00000    -999.25    -999.25  -28.51590    3.05120  284.81280    3.49700
 4450.00000    -999.25    -999.25  -28.05440    3.68290  252.48020    4.09290
 4500.00000    -999.25    -999.25  -27.67860    2.84560  306.24240    3.60020
 4550.00000    -999.25    -999.25  -27.25320    4.54260  206.10680    5.06340
 4600.00000  296.62700   51.02890  -26.68630    3.25800  271.32940    3.79960
 4650.00000  288.66530   49.43130  -25.23450    2.95150  295.62510    3.62020
 4700.00000  219.15210   46.07590  -30.09840    2.91850  291.07450    3.77200
 4750.00000  374.90530   36.46880  -34.92450    3.22040  258.72850    4.21660
 4800.00000  312.54100   39.14320  -51.81030    2.90510  287.55380    4.09410
 4850.00000  334.10880   28.95820  -51.66550    4.97650  192.20630    6.63490
 4900.00000  328.52600   27.88620  -58.03690    5.40020  170.78230    7.31330
 4950.00000  507.57740   24.07890  -62.00540   13.66640   74.25190   18.72590
 5000.00000  457.21210   18.01100  -65.69250   22.70260   47.94970   21.43260
 5050.00000  270.37430   31.12920  -55.39740    8.53000  114.03170   11.69010
 5100.00000  307.03090   22.70050  -58.90350   14.96550   69.45040   19.88840
 5150.00000  335.34220   23.43090  -58.15220   19.36290   56.07640   22.25050
 5200.00000  404.57970   13.65640  -63.43340   11.59580   88.41580   19.42620
 5250.00000  483.42060   15.56700  -64.17200   17.47790   57.26520   34.07580
 5300.00000  485.79750   13.25000  -68.04310   34.09450   34.92090   41.20380
 5350.00000  464.52820   18.63520  -62.38560   15.41500   65.47620   25.73900
 5400.00000  484.56030   22.38930  -61.42200   19.22250   50.66550   26.73440
 5450.00000  433.73240   11.64310  -67.16900   18.09610   56.66040   24.15620
 5500.00000  435.65260    9.97830  -68.29250   14.29220   70.74920   21.40690
