~Version ---------------------------------------------------
VERS. 2.0 : CWLS log ASCII Standard -VERSION 2.0
WRAP. YES : Multiple lines per depth step
~Well ------------------------------------------------------
STRT.FT                   3800.0 : START DEPTH
STOP.FT                   8500.0 : STOP DEPTH
STEP.FT                 50.00000 : STEP LENGTH
NULL.                    -999.25 : NULL VALUE
COMP. CHAMPLIN PETROLEUM COMPANY : COMPANY
WELL.     MARYANN ZGABAY UNIT #1 : WELL
FLD .                   GIDDINGS : FIELD
LOC .                            : LOCATION
CNTY.                   BURLESON : COUNTY
STAT.                      TEXAS : STATE
CTRY.   UNITED STATES OF AMERICA : COUNTRY
SRVC.               Schlumberger : SERVICE COMPANY
DATE.                22-Jun-1980 : LOGDATE
API .             42051306560000 : API NUMBER
UWI .             42051306560000 : UNIQUE WELL ID
SLAT.WGS84         30.3487905786 : SURFACE LATITUDE
SLON.WGS84        -96.7442146113 : SURFACE LONGITUDE
~Curve Information -----------------------------------------
DEPT    .FT    : Depth Curve
CALDED  .IN    : CALIPER FROM COMPENSATED NEUTRON-FORMATION DENSITY LOG
CALSED  .IN    : CALIPER FROM SONIC-DENSITY LOG
CALWS   .IN    : CALIPER [CALDED]
CONDWS  .MMHO  : CONDUCTIVITY [1000/DRESWS]
DCORWS  .G/C3  : DENSITY CORRECTION [DRHOED]
DENWS   .G/C3  : BULK DENSITY [RHOBED]
DPHI1ED .V/V   : DENSITY POROSITY FROM SONIC-DENSITY LOG
DPHILSED.V/V   : DENSITY POROSITY LIMESTONE [M=2.71 F=1.0] FROM COMPENSATED NEUTRON-FORMATION DENSITY LOG
DPHISSED.V/V   : DENSITY POROSITY SANDSTONE [M=2.65 F=1.0] FROM COMPENSATED NEUTRON-FORMATION DENSITY LOG
DPOWS   .V/V   : DENSITY POROSITY [DPHISSED  CONVERTED TO LIMESTONE (M=2.71 F=1.0),SPL. TO DPHILSED @ 5602.5']
DRESWS  .OHMM  : DEEP RESISTIVITY [ILDED]
DRHOED  .G/C3  : BULK DENSITY CORRECTION  FROM COMPENSATED NEUTRON-FORMATION DENSITY LOG
DTED    .US/F  : SONIC FROM DUAL INDUCTION-SFL-SONIC LOG [ADJ. TO GRDED]
DTWS    .US/F  : COMPRESSIONAL SONIC [DTED]
GRDED   .GAPI  : GAMMA RAY  FROM COMPENSATED NEUTRON-FORMATION DENSITY LOG [GRDED IN CASING FROM 3781' - 3796']
GRRED   .GAPI  : GAMMA RAY FROM DUAL INDUCTION-SFL-SONIC LOG [ADJ. TO GRDED] [GRRED RESCALED TO 0-150 FROM 0-75]
GRSED   .GAPI  : GAMMA RAY FROM SONIC-DENSITY LOG
GRWS    .G/C3  : GAMMA RAY [GRRED SPL. TO GRDED @ 3783']
ILDED   .OHMM  : DEEP INDUCTION FROM DUAL INDUCTION-SFL-SONIC LOG [ADJ. TO GRDED]
ILMED   .OHMM  : MEDIUM INDUCTION FROM DUAL INDUCTION-SFL-SONIC LOG [ADJ. TO GRDED]
MRESWS  .OHMM  : MEDIUM RESISTIVITY [ILMED]
NPHILSED.V/V   : NEUTRON POROSITY LIMESTONE  FROM COMPENSATED NEUTRON-FORMATION DENSITY LOG
NPHISSED.V/V   : NEUTRON POROSITY SANDSTONE  FROM COMPENSATED NEUTRON-FORMATION DENSITY LOG [NPHISSED IN CASING FROM 3781' - 3796']
NPOWS   .V/V   : NEUTRON POROSITY LIMESTONE[NPHISSED MATRIX CONVERTED TO LIMESTONE SPL. TO NPHILSED @ 5600']
RHOBED  .G/C3  : BULK DENSITY FROM COMPENSATED NEUTRON-FORMATION DENSITY LOG
SFLUED  .OHMM  : SHALLOW FOUCUSED FROM DUAL INDUCTION-SFL-SONIC [ADJ. TO GRDED]
SPHIED  .V/V   : SONIC POROSITY FROM SONIC-DENSITY LOG [ADJ. TO DTED]
SPOWS   .V/V   : SONIC POROSITY [ SPHI SPL. TO SPHIED FROM 7501.5'-8116.5']
SPRED   .MV    : SPOTANEOUS POTENTIAL FROM DUAL INDUCTION-SFL-SONIC [ADJ. TO GRDED]
SPWS    .MV    : SPONTANEOUS POTENTIAL [BASELINE 0 MV, SPRED]
SRESWS  .OHMM  : SHALLOW RESISTIVITY [SFLUED]
~Params ----------------------------------------------------
PD  .                     GL : PERMANENT DATUM
EPD .FT                  279 : ELEVATION PERMANENT DATUM
LMF .                     KB : LOG MEASURED FROM
DAPD.FT                 16.3 : FEET ABOVE PERMANENT DATUM
DMF .                     KB : DRILLING MEASURED FROM
EKB .FT                295.3 : KELLY BUSHING
EDF .FT                294.3 : DRILLING FLOOR
EGL .FT                  279 : GROUND LEVEL
DATE.                6-22-80 : RUN DATE
RUN .                      1 : RUN NUMBER
DD  .FT                 8522 : DEPTH DRILLER
DL  .FT                 8523 : DEPTH LOGGER
BLI .FT                 8516 : BOTTOM LOG INTERVAL
TLI .FT                 3796 : TOP LOG INTERVAL
CS  .IN                9.625 : CASING SIZE
CBD .FT                 3784 : CASING BOTTOM DRILLER
CBL .FT                 3796 : CASING BOTTOM LOGGER
BS  .IN                 8.75 : BIT SIZE
BSD .FT                 8522 : BIT SIZE AT DEPTH
DFT .                 BEN-EX : DRILLING FLUID TYPE
DFD .                    9.5 : DRILLING FLUID DENSITY
DFV .                     44 : DRILLING FLUID VISCOSITY
DFPH.                    9.5 : DRILLING FLUID PH
DFL .                    6.6 : DRILLING FLUID LOSS
MSS .               MUD TANK : MUD SAMPLE SOURCE
RMS .OHMM               2.06 : RESISTIVITY MUD SAMPLE
MST .DEGF                 94 : MUD SAMPLE TEMPERATURE
RMF .OHMM               1.52 : RESISTIVITY MUD FILTRATE SAMPLE
MFST.DEGF                 94 : MUD FILTRATE SAMPLE TEMPERATURE
RMC .OHMM               3.04 : RESISTIVITY MUD CAKE
MCST.DEGF                 94 : MUD CAKE SAMPLE TEMPERATURE
MFSS.                      C : MUD FILTRATE SAMPLE SOURCE
MCSS.                      C : MUD CAKE SAMPLE SOURCE
RMB .OHMM              0.988 : RESISTIVITY MUD AT BHT
TCS .HRS                 300 : TIME CIRCULATED STOPPED
TLAB.HRS                1000 : TIME LOGGER AT BOTTOM
LUN .                   7750 : LOGGING UNIT NUMBER
LUL .                BRENHAM : LOGGING UNIT LOCATION
ENGI.            KRONEBITTER : RECORDING ENGINEER
WITN.             PRESTRIDGE : WITNESSED BY
CLNT.                A2DTECH : CLIENT CODE
ORIG.          1" 2.5" PRINT : ORIGIN OF DATA
UWI .         42051306560000 : UNIQUE WELL ID
DICO. A2D Technologies, Inc. : DIGITIZING COMPANY
~Other -----------------------------------------------------
~ASCII -----------------------------------------------------
# ...
 6100.00000   13.13790    -999.25   13.13790  607.45960    0.13200    2.28870    -999.25    0.26160    -999.25    0.26160    1.64620    0.13200   90.76120   90.76120   87.61060   82.88860    -999.25   87.61060    1.64620    1.64100    1.64100    0.28590    -999.25    0.28590    2.28870    3.59820    -999.25    0.28810   43.46150  -11.45770    3.59820
 6150.00000   10.60300    -999.25   10.60300  551.45030    0.10690    2.42630    -999.25    0.16560    -999.25    0.16560    1.81340    0.10690   88.61090   88.61090   75.14710   74.15960    -999.25   75.14710    1.81340    1.78310    1.78310    0.26760    -999.25    0.26760    2.42630    3.89160    -999.25    0.27250   46.99380   -9.16000    3.89160
 6200.00000   12.80580    -999.25   12.80580  748.05510    0.07010    2.22620    -999.25    0.27350    -999.25    0.27350    1.33680    0.07010   97.62370   97.62370   99.11430   85.07220    -999.25   99.11430    1.33680    1.33250    1.33250    0.30760    -999.25    0.30760    2.22620    2.95970    -999.25    0.33790   43.15480  -12.99900    2.95970
 6250.00000   13.99510    -999.25   13.99510  727.74910    0.07520    2.30210    -999.25    0.23930    -999.25    0.23930    1.37410    0.07520   94.33900   94.33900   98.89360   92.17780    -999.25   98.89360    1.37410    1.47760    1.47760    0.31900    -999.25    0.31900    2.30210    3.47370    -999.25    0.31410   41.27060  -14.88320    3.47370
 6300.00000   13.92160    -999.25   13.92160  697.88540    0.07520    2.32690    -999.25    0.22770    -999.25    0.22770    1.43290    0.07520   97.03130   97.03130   97.34570   96.45700    -999.25   97.34570    1.43290    1.44790    1.44790    0.33020    -999.25    0.33020    2.32690    2.95960    -999.25    0.33360   45.96570  -10.18810    2.95960
 6350.00000   12.37420    -999.25   12.37420  784.55990    0.10940    2.37650    -999.25    0.21920    -999.25    0.21920    1.27460    0.10940   97.63110   97.63110  114.52870  118.33040    -999.25  114.52870    1.27460    1.28530    1.28530    0.29800    -999.25    0.29800    2.37650    3.13300    -999.25    0.33790   52.79910   -3.35470    3.13300
 6400.00000   13.47060    -999.25   13.47060  727.59020    0.10250    2.37620    -999.25    0.18570    -999.25    0.18570    1.37440    0.10250   96.48720   96.48720   87.16810   88.80620    -999.25   87.16810    1.37440    1.39990    1.39990    0.31050    -999.25    0.31050    2.37620    3.13260    -999.25    0.32960   44.21680  -11.93700    3.13260
 6450.00000   13.38240    -999.25   13.38240  826.10490    0.05240    2.41050    -999.25    0.17900    -999.25    0.17900    1.21050    0.05240  100.62420  100.62420   94.91150   88.59940    -999.25   94.91150    1.21050    1.19850    1.19850    0.31320    -999.25    0.31320    2.41050    3.04430    -999.25    0.35960   47.91500   -8.79660    3.04430
 6500.00000   12.35290    -999.25   12.35290  634.53790    0.05680    2.49400    -999.25    0.13480    -999.25    0.13480    1.57600    0.05680   95.63200   95.63200  115.92920  116.97320    -999.25  115.92920    1.57600    1.62400    1.62400    0.30340    -999.25    0.30340    2.49400    3.54230    -999.25    0.32340   54.86110   -2.94420    3.54230
 6550.00000   11.05880    -999.25   11.05880  517.57160    0.11780    2.44720    -999.25    0.16160    -999.25    0.16160    1.93210    0.11780   88.43360   88.43360  107.07960   98.77860    -999.25  107.07960    1.93210    1.96470    1.96470    0.28090    -999.25    0.28090    2.44720    3.76250    -999.25    0.27130   56.30050   -2.59850    3.76250
 6600.00000   11.57700    -999.25   11.57700  495.00050    0.15860    2.52980    -999.25    0.10540    -999.25    0.10540    2.02020    0.15860   87.44220   87.44220   87.16890   78.60700    -999.25   87.16890    2.02020    2.06990    2.06990    0.22410    -999.25    0.22410    2.52980    4.05400    -999.25    0.26410   53.67440   -6.31830    4.05400
 6650.00000   12.92650    -999.25   12.92650  522.41150    0.15660    2.44870    -999.25    0.15090    -999.25    0.15090    1.91420    0.15660   89.53680   89.53680   84.73450   76.37480    -999.25   84.73450    1.91420    1.91830    1.91830    0.26930    -999.25    0.26930    2.44870    4.39750    -999.25    0.27930   52.25970   -8.90760    4.39750
 6700.00000   14.42160    -999.25   14.42160  641.10780    0.13640    2.43010    -999.25    0.16220    -999.25    0.16220    1.55980    0.13640   94.92040   94.92040   90.70690   79.50000    -999.25   90.70690    1.55980    1.53640    1.53640    0.31200    -999.25    0.31200    2.43010    3.31210    -999.25    0.31830   52.27490  -10.26520    3.31210
 6750.00000   14.52450    -999.25   14.52450  588.58150    0.13350    2.43680    -999.25    0.15280    -999.25    0.15280    1.69900    0.13350   92.48830   92.48830   90.70760   80.57200    -999.25   90.70760    1.69900    1.74130    1.74130    0.28260    -999.25    0.28260    2.43680    3.77710    -999.25    0.30060   52.78990  -11.12300    3.77710
 6800.00000   12.19610    -999.25   12.19610  467.42080    0.18120    2.43600    -999.25    0.15710    -999.25    0.15710    2.13940    0.18120   87.76150   87.76150   71.82710   89.78300    -999.25   71.82710    2.13940    2.16570    2.16570    0.29380    -999.25    0.29380    2.43600    4.07360    -999.25    0.26640   56.10190   -9.18390    4.07360
 6850.00000    9.80510    -999.25    9.80510  252.29910    0.00850    2.60660    -999.25    0.06340    -999.25    0.06340    3.96350    0.00850   74.66830   74.66830   50.93920   60.98540    -999.25   50.93920    3.96350    4.04680    4.04680    0.12690    -999.25    0.12690    2.60660    5.68270    -999.25    0.17150   62.04900   -4.60960    5.68270
 6900.00000    9.42650    -999.25    9.42650  135.77180    0.00270    2.60420    -999.25    0.05540    -999.25    0.05540    7.36530    0.00270   68.27030   68.27030   33.62830   38.41320    -999.25   33.62830    7.36530    7.32840    7.32840    0.08800    -999.25    0.08800    2.60420    9.87790    -999.25    0.12510   56.33980  -11.69160    9.87790
 6950.00000    9.41180    -999.25    9.41180  359.84170    0.00170    2.60270    -999.25    0.05850    -999.25    0.05850    2.77900    0.00170   86.52740   86.52740   75.22230   93.89780    -999.25   75.22230    2.77900    2.74900    2.74900    0.23410    -999.25    0.23410    2.60270    3.19350    -999.25    0.25740   61.55790   -7.84630    3.19350
 7000.00000   10.37250    -999.25   10.37250  329.90230   -0.00660    2.44490    -999.25    0.19460    -999.25    0.19460    3.03120   -0.00660   74.83780   74.83780   71.68110   64.66120    -999.25   71.68110    3.03120    3.16610    3.16610    0.20480    -999.25    0.20480    2.44490   10.59530    -999.25    0.17270   62.54860   -8.22840   10.59530
 7050.00000   11.47060    -999.25   11.47060  453.14480    0.15310    2.54090    -999.25    0.09690    -999.25    0.09690    2.20680    0.15310   87.37450   87.37450   82.07690   87.57460    -999.25   82.07690    2.20680    2.15720    2.15720    0.24350    -999.25    0.24350    2.54090    4.48620    -999.25    0.26360   62.66350   -9.48630    4.48620
 7100.00000   11.08820    -999.25   11.08820  436.43350    0.10990    2.54610    -999.25    0.09430    -999.25    0.09430    2.29130    0.10990   87.14970   87.14970   83.19220   84.00900    -999.25   83.19220    2.29130    2.33620    2.33620    0.22660    -999.25    0.22660    2.54610    4.16190    -999.25    0.26200   65.84210   -7.68050    4.16190
 7150.00000   10.39480    -999.25   10.39480  317.84370    0.00290    2.58410    -999.25    0.07770    -999.25    0.07770    3.14620    0.00290   81.16170   81.16170   75.22120   76.31040    -999.25   75.22120    3.14620    3.09010    3.09010    0.16830    -999.25    0.16830    2.58410    5.24390    -999.25    0.21860   70.68950   -4.20600    5.24390
 7200.00000   11.62140    -999.25   11.62140  478.03430    0.12910    2.53870    -999.25    0.10270    -999.25    0.10270    2.09190    0.12910   88.61250   88.61250   83.81200   86.67640    -999.25   83.81200    2.09190    2.08510    2.08510    0.22480    -999.25    0.22480    2.53870    3.96170    -999.25    0.27260   68.79870   -7.46960    3.96170
