~Version ---------------------------------------------------
VERS. 2.0 : CWLS log ASCII Standard -VERSION 2.0
WRAP.  NO : ONE LINE PER DEPTH STEP
~Well ------------------------------------------------------
STRT.F                        300.0 : START DEPTH
STOP.F                      10950.0 : STOP DEPTH
STEP.F                     50.00000 : STEP LENGTH
NULL.                       -999.25 : NULL VALUE
COMP.          GULF OIL CORPORATION : COMPANY
WELL. HENDERSON ET AL GAS UNIT 1 #2 : WELL
FLD .                       FASHING : FIELD
LOC .                               : LOCATION
CNTY.                      ATASCOSA : COUNTY
STAT.                         TEXAS : STATE
CTRY.      UNITED STATES OF AMERICA : COUNTRY
SRVC.                  Schlumberger : SERVICE COMPANY
DATE.                   12-Sep-1980 : LOGDATE
API .                42013310190000 : API NUMBER
UWI .                42013310190000 : UNIQUE WELL ID
SLAT.WGS84            28.8179470271 : SURFACE LATITUDE
SLON.WGS84           -98.1554750641 : SURFACE LONGITUDE
~Curve Information -----------------------------------------
DEPT.F                 : 
CALD.IN   45 280 60 00 : CALIPER FROM DENSITY LOG
CORR.G/C3 45 356 01 00 : DENSITY CORRECTION
RHOB.G/C3 45 350 01 00 : BULK DENSITY
DPHI.DEC  45 890 10 00 : DENSITY POROSITY
NPHI.DEC  42 890 01 00 : NEUTRON POROSITY
SPR .MV   07 010 01 00 : SPONTANEOUS POTENTIAL FROM RESISTIVITY LOG
ASFL.OHMM 07 221 01 00 : AMPLIFIED SPHERICALLY FOCUSED LOG
CILD.MMHO 07 110 46 00 : INDUCTION DEEP CONDUCTIVITY
ILD .OHMM 07 120 46 00 : INDUCTION DEEP RESISTIVITY
DT  .US/F 60 500 00 00 : DELTA-T (INTERVAL TRANSIT TIME)
SFLU.OHMM 07 220 01 00 : SHALLOW FOCUSED RESISTIVITY (UNAVERAGED)
NEUT.NAPI 40 330 30 00 : NEUTRON
ILM .OHMM 07 120 44 00 : INDUCTION MEDIUM RESISTIVITY
GRR .GAPI 07 310 01 00 : GAMMA RAY FROM RESISTIVITY LOG
~Params ----------------------------------------------------
PD  .                     GL : PERMANENT DATUM
EPD .FT               476.52 : ELEVATION PERMANENT DATUM
LMF .                     KB : LOG MEASURED FROM
DAPD.FT                   14 : FEET ABOVE PERMANENT DATUM
DMF .                     KB : DRILLING MEASURED FROM
EKB .FT               490.52 : KELLY BUSHING
EDF .FT               489.52 : DRILLING FLOOR
EGL .FT               476.52 : GROUND LEVEL
DATE.               09/12/80 : RUN DATE
RUN .                      1 : RUN NUMBER
DD  .FT                11000 : DEPTH DRILLER
DL  .FT                11000 : DEPTH LOGGER
BLI .FT                10994 : BOTTOM LOG INTERVAL
TLI .FT                 2036 : TOP LOG INTERVAL
CS  .IN                9.625 : CASING SIZE
CBD .FT                 2040 : CASING BOTTOM DRILLER
CBL .FT                 2036 : CASING BOTTOM LOGGER
BS  .IN                7.875 : BIT SIZE
BSD .FT                11000 : BIT SIZE AT DEPTH
DFT .                LIG CLS : DRILLING FLUID TYPE
DFD .                   10.8 : DRILLING FLUID DENSITY
DFV .                     46 : DRILLING FLUID VISCOSITY
DFPH.                   10.7 : DRILLING FLUID PH
DFL .                    4.9 : DRILLING FLUID LOSS
MSS .               CIRC PIT : MUD SAMPLE SOURCE
RMS .OHMM                0.7 : RESISTIVITY MUD SAMPLE
MST .DEGF                 98 : MUD SAMPLE TEMPERATURE
RMF .OHMM               0.64 : RESISTIVITY MUD FILTRATE SAMPLE
MFST.DEGF                 75 : MUD FILTRATE SAMPLE TEMPERATURE
RMC .OHMM               1.05 : RESISTIVITY MUD CAKE
MCST.DEGF                 98 : MUD CAKE SAMPLE TEMPERATURE
MFSS.                      M : MUD FILTRATE SAMPLE SOURCE
MCSS.                      C : MUD CAKE SAMPLE SOURCE
RMB .OHMM               0.33 : RESISTIVITY MUD AT BHT
TCS .HRS                1200 : TIME CIRCULATED STOPPED
TLAB.HRS                1945 : TIME LOGGER AT BOTTOM
LUN .                   8145 : LOGGING UNIT NUMBER
LUL .             PLEASANTON : LOGGING UNIT LOCATION
ENGI.                 KUNICK : RECORDING ENGINEER
WITN.           BECK LAUTIER : WITNESSED BY
CLNT.                A2DTECH : CLIENT CODE
ORIG.            1" 5" PRINT : ORIGIN OF DATA
UWI .         42013310190000 : UNIQUE WELL ID
DICO. A2D Technologies, Inc. : DIGITIZING COMPANY
~Other -----------------------------------------------------
~ASCII -----------------------------------------------------
# ...
 5200.00000    -999.25    -999.25    -999.25    -999.25    -999.25  -32.71010    -999.25    -999.25    2.53990  100.77050    3.42240  426.54480    2.88400   60.88650
 5250.00000    -999.25    -999.25    -999.25    -999.25    -999.25    1.83500    -999.25    -999.25    1.03080  117.98360    1.06490  259.58580    1.02140  104.42750
 5300.00000    -999.25    -999.25    -999.25    -999.25    -999.25  -12.93270    -999.25    -999.25    2.94360   91.12880    3.54190  376.45300    3.02060   82.05360
 5350.00000    -999.25    -999.25    -999.25    -999.25    -999.25   -1.35140    -999.25    -999.25    2.37270   97.08360    2.92920  389.13740    2.44520   97.65540
 5400.00000    -999.25    -999.25    -999.25    -999.25    -999.25  -10.52760    -999.25    -999.25    3.74010   93.76410    4.25290  348.72410    3.90370   92.13020
 5450.00000    -999.25    -999.25    -999.25    -999.25    -999.25  -29.75720    -999.25    -999.25    2.70790   92.42600    3.88670  603.77220    3.14940   62.33190
 5500.00000    -999.25    -999.25    -999.25    -999.25    -999.25   -6.09150    -999.25    -999.25    2.75110   98.22990    2.84340  518.96310    2.80760  102.57390
 5550.00000    -999.25    -999.25    -999.25    -999.25    -999.25    0.39710    -999.25    -999.25    2.81430   93.67690    3.27190  399.25710    2.82160   96.82480
 5600.00000    -999.25    -999.25    -999.25    -999.25    -999.25    0.21240    -999.25    -999.25    2.00860  104.26370    1.78770  435.62460    2.03580   98.40020
 5650.00000    -999.25    -999.25    -999.25    -999.25    -999.25   -9.90600    -999.25    -999.25    2.89470   94.81470    3.22670  431.86230    2.91300   89.86900
 5700.00000    -999.25    -999.25    -999.25    -999.25    -999.25   -0.12360    -999.25    -999.25    1.95330  102.77200    2.03430  342.86080    1.96220  102.68630
 5750.00000    -999.25    -999.25    -999.25    -999.25    -999.25  -27.75310    -999.25    -999.25    3.14260   92.04350    4.08810  520.87520    3.61410   75.55380
 5800.00000    -999.25    -999.25    -999.25    -999.25    -999.25   -2.84500    -999.25    -999.25    2.09890  103.81790    2.26920  479.75450    2.15640   96.99500
 5850.00000    -999.25    -999.25    -999.25    -999.25    -999.25   -1.17110    -999.25    -999.25    1.60210  112.86120    1.91150  389.36980    1.62940   98.57850
 5900.00000    -999.25    -999.25    -999.25    -999.25    -999.25   -4.38020    -999.25    -999.25    1.64370  108.42730    1.77500  379.65870    1.68450   99.79300
 5950.00000    -999.25    -999.25    -999.25    -999.25    -999.25  -14.80590    -999.25    -999.25    1.64160  113.80530    1.89180  352.14190    1.67060  107.37500
 6000.00000    -999.25    -999.25    -999.25    -999.25    -999.25   -8.90110    -999.25    -999.25    1.54390  119.55600    1.52000  341.26200    1.56000  114.56100
 6050.00000    -999.25    -999.25    -999.25    -999.25    -999.25   -5.49650    -999.25    -999.25    1.57050  109.71120    1.82160    -999.25    1.60550   96.33430
 6100.00000    -999.25    -999.25    -999.25    -999.25    -999.25  -31.84370    -999.25    -999.25    2.09910  103.96510    2.91000    -999.25    2.26700   75.04240
 6150.00000    -999.25    -999.25    -999.25    -999.25    -999.25   -3.94830    -999.25    -999.25    1.78870  102.71860    1.97560    -999.25    1.82860  101.51980
 6200.00000    -999.25    -999.25    -999.25    -999.25    -999.25  -13.06900    -999.25    -999.25    2.36100   98.57860    2.12490    -999.25    2.52860   81.85410
 6250.00000    -999.25    -999.25    -999.25    -999.25    -999.25   -0.20770    -999.25    -999.25    1.17470  108.72060    1.58200    -999.25    1.20880   92.02240
 6300.00000    -999.25    -999.25    -999.25    -999.25    -999.25   -1.30380    -999.25    -999.25    1.12390  106.93340    1.20180    -999.25    1.17620   95.18890
 6350.00000    -999.25    -999.25    -999.25    -999.25    -999.25  -47.20180    -999.25    -999.25    1.66100   92.83520    2.47040    -999.25    1.86200   41.65640
 6400.00000    -999.25    -999.25    -999.25    -999.25    -999.25  -35.76970    -999.25    -999.25    2.66100   87.79190    4.08080    -999.25    3.01580   51.07100
 6450.00000    -999.25    -999.25    -999.25    -999.25    -999.25    1.08460    -999.25    -999.25    1.16460  104.80940    1.38220    -999.25    1.18450   92.25650
 6500.00000    -999.25    -999.25    -999.25    -999.25    -999.25  -49.49820    -999.25    -999.25    1.75440   92.64240    3.16960    -999.25    2.00330   40.42650
 6550.00000    -999.25    -999.25    -999.25    -999.25    -999.25    0.62380    -999.25    -999.25    0.98050  111.09260    1.13060    -999.25    0.99560   99.56260
 6600.00000    -999.25    -999.25    -999.25    -999.25    -999.25    1.15720    -999.25    -999.25    1.07160  110.69220    1.06170    -999.25    1.08110   98.63380
 6650.00000    -999.25    -999.25    -999.25    -999.25    -999.25    1.37340    -999.25    -999.25    1.15560  107.62420    1.18470    -999.25    1.14600  110.60570
 6700.00000    -999.25    -999.25    -999.25    -999.25    -999.25    1.43970    -999.25    -999.25    0.93270  110.79610    1.03690    -999.25    0.95320  103.78830
 6750.00000    -999.25    -999.25    -999.25    -999.25    -999.25    2.04450    -999.25    -999.25    1.11760  103.85250    1.23700    -999.25    1.12020   97.96760
 6800.00000    9.63100    0.02020    2.41520    0.15600    0.36990   -3.45230    -999.25    -999.25    1.96640   95.43720    1.75610    -999.25    1.97460   88.94900
 6850.00000    9.61700    0.03220    2.46670    0.12860    0.45080    1.29360    -999.25    -999.25    1.46210  100.40990    1.32010    -999.25    1.50670   89.12090
 6900.00000    9.92180   -0.00260    2.48820    0.11880    0.38400    1.01910    -999.25    -999.25    1.61990   97.52390    1.83260    -999.25    1.69390   87.92980
 6950.00000   10.20600    0.03430    2.46050    0.13170    0.40770    2.45160    -999.25    -999.25    1.45240   97.60360    1.67550    -999.25    1.49520  108.54900
 7000.00000   10.55570    0.04230    2.51850    0.09540    0.38520    0.99520    -999.25    -999.25    1.55010   98.03270    1.87480    -999.25    1.58570  109.23020
 7050.00000   11.02160    0.03380    2.51300    0.09680    0.36540   -1.91940    -999.25    -999.25    1.62200   97.93260    1.61360    -999.25    1.65370  101.22850
 7100.00000    9.63260    0.01480    2.50240    0.10810    0.28200   -7.32640    -999.25    -999.25    2.48010   87.77190    2.55250    -999.25    2.31190   90.84680
 7150.00000   10.06630    0.01950    2.50500    0.10650    0.36260    1.22790    -999.25    -999.25    1.85050   93.40350    1.95930    -999.25    1.86130   99.58630
 7200.00000    9.73940    0.01370    2.54540    0.08360    0.31050    0.29530    -999.25    -999.25    1.85800   91.76920    2.17180    -999.25    1.89460  103.78250
 7250.00000    9.78980    0.02640    2.52510    0.09250    0.29540   -0.87700    -999.25    -999.25    2.34870   89.80850    2.40300    -999.25    2.23340   92.31020
 7300.00000    9.80140    0.02490    2.56610    0.06860    0.33110    0.45430    -999.25    -999.25    1.90440   91.25970    2.18350    -999.25    1.94050   92.07260
 7350.00000    9.97740    0.01570    2.53620    0.08560    0.29920    0.17760    -999.25    -999.25    2.07830   89.82620    2.29440    -999.25    2.10630  104.31400
 7400.00000    9.81340    0.03620    2.51600    0.09780    0.36660    1.15140    -999.25    -999.25    1.49460   98.90890    1.69060    -999.25    1.51410  102.57010
 7450.00000    -999.25    -999.25    -999.25    -999.25    -999.25    1.00280    -999.25    -999.25    1.63530   94.59640    1.91890    -999.25    1.65690  101.52190
 7500.00000    -999.25    -999.25    -999.25    -999.25    -999.25    1.79220    -999.25    -999.25    1.62900   94.53770    1.87560    -999.25    1.64840   92.91570
 7550.00000    -999.25    -999.25    -999.25    -999.25    -999.25    0.48450    -999.25    -999.25    1.44890   99.04630    1.61770    -999.25    1.46620  106.21990
 7600.00000    -999.25    -999.25    -999.25    -999.25    -999.25   -0.82000    -999.25    -999.25    1.25040  103.26460    1.37350    -999.25    1.26600  104.16860
