~Version ---------------------------------------------------
VERS. 2.0 : CWLS log ASCII Standard -VERSION 2.0
WRAP. YES : Multiple lines per depth step
~Well ------------------------------------------------------
STRT.FT                        650.0 : START DEPTH
STOP.FT                       7250.0 : STOP DEPTH
STEP.FT                     50.00000 : STEP LENGTH
NULL.                        -999.25 : NULL VALUE
COMP.      MACHII ROSS PETROLEUM CO. : COMPANY
WELL. WINN EXPLORATION HARPER NBC #1 : WELL
FLD .                             WC : FIELD
LOC .                                : LOCATION
CNTY.                       MAVERICK : COUNTY
STAT.                          TEXAS : STATE
CTRY.       UNITED STATES OF AMERICA : COUNTRY
SRVC.                   Schlumberger : SERVICE COMPANY
DATE.                    24-Sep-1978 : LOGDATE
API .                 42323312660000 : API NUMBER
UWI .                 42323312660000 : UNIQUE WELL ID
SLAT.WGS84             28.7830719209 : SURFACE LATITUDE
SLON.WGS84           -100.5041551949 : SURFACE LONGITUDE
~Curve Information -----------------------------------------
DEPT  .FT    : DEPTH
CALDED.IN    : CALIPER FROM DENSITY LOG (ADJ TO RES.)
CALSED.IN    : CALIPER FROM SONIC LOG (ADJ TO RES.)
CALWS .IN    : CALIPER (CALDED)
CONDWS.MMHO  : CONDUCTIVITY (1000/DRESWS)
DCORWS.G/C3  : DENSITY CORRECTION (DRHOED)
DENWS .G/C3  : BULK DENSITY  (FROM DPOWS ASSUMED LS)
DPHIED.V/V   : DENSITY POROSITY  (ADJ TO RES.)
DPOWS .V/V   : DENSITY POROSITY (M=2.71 F=1 DPHIED)
DRESWS.OHMM  : DEEP RESISTIVITY (ILDED)
DRHOED.G/C3  : DENSITY CORRECTION (ADJ TO RES.)
DTED  .US/F  : DELTA TIME
DTWS  .US/F  : DELTA TIME  (DTED)
GRRED .GAPI  : GAMMA RAY FROM RESISTIVITY LOG
GRSED .GAPI  : GAMMA RAY FROM SONIC LOG (ADJ TO RES.)
GRWS  .GAPI  : GAMMA RAY (GRSED)
ILDED .OHMM  : DEEP INDUCTION RESISTIVITY
ILMED .OHMM  : MEDIUM INDUCTION RESISTIVITY
LL8ED .OHMM  : LATEROLOG-8 RESISTIVITY
MRESWS.OHMM  : MEDIUM RESISTIVITY (ILMED)
NPHIED.V/V   : NEUTRON POROSITY (ADJ TO RES.)
NPOWS .V/V   : NEUTRON POROSITY ASSUMED LIMESTONE (NPHIED)
RHOBED.G/C3  : BULK DENSITY (ADJ TO RES.)
SPRED .MV    : SPONTANEOUS POTENTIAL FROM RESISTIVITY
SPWS  .MV    : SPONTANEOUS POTENTIAL BASELINE 0 MV (SPRED) (INVALID TOP-6222)
SRESWS.OHMM  : SHALLOW RESISTIVITY (LL8ED)
~Params ----------------------------------------------------
PD  .                     GL : PERMANENT DATUM
EPD .FT                  790 : ELEVATION PERMANENT DATUM
LMF .                     KB : LOG MEASURED FROM
DMF .                     KB : DRILLING MEASURED FROM
EGL .FT                  790 : GROUND LEVEL
DATE.              9-24-1978 : RUN DATE
RUN .                      2 : RUN NUMBER
DD  .FT                 7270 : DEPTH DRILLER
DL  .FT                 7271 : DEPTH LOGGER
BLI .FT                 7265 : BOTTOM LOG INTERVAL
TLI .FT                 6232 : TOP LOG INTERVAL
CS  .IN                8.625 : CASING SIZE
CBD .FT                 6231 : CASING BOTTOM DRILLER
CBL .FT                 6232 : CASING BOTTOM LOGGER
BS  .IN                7.875 : BIT SIZE
BSD .FT                 7270 : BIT SIZE AT DEPTH
DFT .              LIGNOSULF : DRILLING FLUID TYPE
DFD .                   14.4 : DRILLING FLUID DENSITY
DFV .                     51 : DRILLING FLUID VISCOSITY
DFPH.                     10 : DRILLING FLUID PH
DFL .                    8.2 : DRILLING FLUID LOSS
MSS .             CIRC. TANK : MUD SAMPLE SOURCE
RMS .OHMM               1.94 : RESISTIVITY MUD SAMPLE
MST .DEGF                 82 : MUD SAMPLE TEMPERATURE
RMF .OHMM               1.45 : RESISTIVITY MUD FILTRATE SAMPLE
MFST.DEGF                 82 : MUD FILTRATE SAMPLE TEMPERATURE
RMC .OHMM               2.91 : RESISTIVITY MUD CAKE
MCST.DEGF                 82 : MUD CAKE SAMPLE TEMPERATURE
MFSS.                   MEAS : MUD FILTRATE SAMPLE SOURCE
MCSS.                   CALC : MUD CAKE SAMPLE SOURCE
RMB .OHMM              0.855 : RESISTIVITY MUD AT BHT
TCS .HRS                 600 : TIME CIRCULATED STOPPED
TLAB.HRS                1300 : TIME LOGGER AT BOTTOM
LUL .                 LAREDO : LOGGING UNIT LOCATION
ENGI.                RENFROW : RECORDING ENGINEER
WITN.                 WALKER : WITNESSED BY
CLNT.                A2DTECH : CLIENT CODE
ORIG.          1" 2.5" PRINT : ORIGIN OF DATA
UWI .         42323312660000 : UNIQUE WELL ID
DICO. A2D Technologies, Inc. : DIGITIZING COMPANY
~Other -----------------------------------------------------
~ASCII -----------------------------------------------------
# ...
 4850.00000   13.80600   12.53380   13.80600   25.20970    0.16470    2.60040    0.06410    0.06410   39.66730    0.16470   53.25300   53.25300   32.75690   32.75690   32.75690   39.66730 2099.16310   56.83610 2099.16310    0.00560    0.00560    2.45680  -48.49060    -999.25   56.83610
 4900.00000   12.97010   12.55420   12.97010    2.48690   -0.01120    2.92720   -0.12700   -0.12700  402.09920   -0.01120   50.84340   50.84340   26.65660   26.65660   26.65660  402.09920    -999.25 1670.92570    -999.25   -0.00530   -0.00530    2.88670   55.60690    -999.25 1670.92570
 4950.00000   12.71680   12.34980   12.71680   18.72980    0.00230    2.67890    0.01820    0.01820   53.39080    0.00230   50.99390   50.99390   36.37070   36.37070   36.37070   53.39080  713.83360   56.83320  713.83360    0.00690    0.00690    2.66970  -90.66220    -999.25   56.83320
 5000.00000   12.61780   12.40770   12.61780   17.23880    0.00430    2.70490    0.00300    0.00300   58.00860    0.00430   51.24500   51.24500   36.31950   36.31950   36.31950   58.00860  313.40340   75.75590  313.40340    0.00380    0.00380    2.70430 -128.31720    -999.25   75.75590
 5050.00000   12.70230   12.55350   12.70230   33.48080   -0.00220    2.71310   -0.00180   -0.00180   29.86790   -0.00220   54.00590   54.00590   35.46690   35.46690   35.46690   29.86790   43.68820   50.80350   43.68820    0.02850    0.02850    2.68160  -59.63900    -999.25   50.80350
 5100.00000   12.90320   12.51290   12.90320   24.17220    0.01360    2.70490    0.00300    0.00300   41.36990    0.01360   55.96460   55.96460   40.59750   40.59750   40.59750   41.36990 1765.93990   57.63760 1765.93990    0.02670    0.02670    2.69620  -18.99430    -999.25   57.63760
 5150.00000   12.41810   12.31620   12.41810   26.46570    0.00670    2.71770   -0.00450   -0.00450   37.78470    0.00670   56.41600   56.41600   32.98190   32.98190   32.98190   37.78470  211.37640   56.04230  211.37640    0.02400    0.02400    2.70540  -36.14460    -999.25   56.04230
 5200.00000   12.49250   12.30350   12.49250   19.25600    0.01480    2.74250   -0.01900   -0.01900   51.93200    0.01480   52.60590   52.60590   39.39680   39.39680   39.39680   51.93200   63.90490   65.84740   63.90490    0.00860    0.00860    2.71970  -29.44800    -999.25   65.84740
 5250.00000   12.52240   12.27690   12.52240   15.48630    0.00450    2.70090    0.00530    0.00530   64.57310    0.00450   50.99520   50.99520   36.14460   36.14460   36.14460   64.57310  190.55430   81.25830  190.55430    0.00740    0.00740    2.68990  -76.20340    -999.25   81.25830
 5300.00000   12.49460   12.31030   12.49460   40.63310    0.00890    2.71070   -0.00040   -0.00040   24.61050    0.00890   58.97710   58.97710   42.34050   42.34050   42.34050   24.61050   31.56730   29.05290   31.56730    0.02800    0.02800    2.65920  -88.06920    -999.25   29.05290
 5350.00000   12.44750   12.22790   12.44750   46.98060    0.01260    2.66160    0.02830    0.02830   21.28540    0.01260   56.86700   56.86700   45.18150   45.18150   45.18150   21.28540   45.53990   36.03610   45.53990    0.03970    0.03970    2.59630 -152.40770    -999.25   36.03610
 5400.00000   14.39750   12.98780   14.39750   28.05840    0.20550    2.34800    0.21170    0.21170   35.63990    0.20550   54.00320   54.00320   34.38370   34.38370   34.38370   35.63990   17.90510   40.31290   17.90510    0.01100    0.01100    2.33340 -111.44770    -999.25   40.31290
 5450.00000   16.00100   12.59870   16.00100   26.83460    0.12350    2.43200    0.16260    0.16260   37.26530    0.12350   48.73420   48.73420   33.66050   33.66050   33.66050   37.26530   53.76420  137.45750   53.76420    0.01510    0.01510    2.41680  -92.77400    -999.25  137.45750
 5500.00000   13.02950   13.02740   13.02950   24.35950    0.00440    2.59940    0.06470    0.06470   41.05180    0.00440   57.46840   57.46840   42.92170   42.92170   42.92170   41.05180   18.92370   39.02520   18.92370    0.02180    0.02180    2.59440 -103.99380    -999.25   39.02520
 5550.00000   12.83550   12.46640   12.83550   28.75350   -0.01340    2.67560    0.02010    0.02010   34.77840   -0.01340   52.04750   52.04750   34.33590   34.33590   34.33590   34.77840   33.59610   53.36410   33.59610    0.00650    0.00650    2.66820  -52.70900    -999.25   53.36410
 5600.00000   12.81690   12.28480   12.81690   46.08930    0.02550    2.70830    0.00100    0.00100   21.69700    0.02550   59.64840   59.64840   44.72890   44.72890   44.72890   21.69700   27.48740   27.25620   27.48740    0.02670    0.02670    2.68410  -79.51810    -999.25   27.25620
 5650.00000   12.96950   12.49820   12.96950   28.16570    0.20100    2.75580   -0.02680   -0.02680   35.50420    0.20100   50.69250   50.69250   34.90210   34.90210   34.90210   35.50420  172.97240  152.70050  172.97240    0.01050    0.01050    2.71210  -96.98700    -999.25  152.70050
 5700.00000   12.73750   12.53400   12.73750   24.59160    0.00200    2.70740    0.00150    0.00150   40.66430    0.00200   55.06000   55.06000   43.48440   43.48440   43.48440   40.66430   87.54650   57.23360   87.54650    0.01600    0.01600    2.69640 -109.63860    -999.25   57.23360
 5750.00000   15.73120   12.37820   15.73120   20.14060    0.11950    2.60950    0.05880    0.05880   49.65100    0.11950   50.24000   50.24000   37.72590   37.72590   37.72590   49.65100    -999.25  203.54140    -999.25    0.01400    0.01400    2.64660  -94.87880    -999.25  203.54140
 5800.00000   12.66650   12.22420   12.66650   20.97720    0.00740    2.74780   -0.02210   -0.02210   47.67070    0.00740   53.25230   53.25230   38.59920   38.59920   38.59920   47.67070 2027.85050   66.77250 2027.85050    0.00890    0.00890    2.73960  -78.31330    -999.25   66.77250
 5850.00000   13.14920   12.92480   13.14920   53.57970    0.05020    2.71770   -0.00450   -0.00450   18.66380    0.05020   48.88550   48.88550   28.68980   28.68980   28.68980   18.66380 1778.33240  112.96520 1778.33240   -0.00200   -0.00200    2.64580   13.25300    -999.25  112.96520
 5900.00000   12.55220   12.43430   12.55220   23.74010    0.02570    2.74970   -0.02320   -0.02320   42.12290    0.02570   50.54550   50.54550   30.27360   30.27360   30.27360   42.12290   48.46720   52.61640   48.46720    0.01010    0.01010    2.73360    8.85950    -999.25   52.61640
 5950.00000   17.12680   13.07820   17.12680   15.54020    0.15350    2.25940    0.26350    0.26350   64.34910    0.15350   48.28240   48.28240   32.75600   32.75600   32.75600   64.34910  292.54670   56.04200  292.54670    0.01050    0.01050    2.23140  -11.14430    -999.25   56.04200
 6000.00000   13.08960   12.85210   13.08960    -999.25    0.23140    2.68830    0.01270    0.01270    -999.25    0.23140   52.24760   52.24760   38.40360   38.40360   38.40360    -999.25   12.67230   93.48370   12.67230    0.00290    0.00290    2.59220  -47.59040    -999.25   93.48370
 6050.00000   12.11940   12.11750   12.11940   33.24900    0.04010    2.73510   -0.01470   -0.01470   30.07610    0.04010   55.81300   55.81300   44.27710   44.27710   44.27710   30.07610   29.13440   49.05520   29.13440    0.04840    0.04840    2.72990  -84.03640    -999.25   49.05520
 6100.00000   15.11910   12.74770   15.11910   24.81370    0.17510    2.47930    0.13490    0.13490   40.30030    0.17510   49.03640   49.03640   44.73040   44.73040   44.73040   40.30030 2188.81540  130.87590 2188.81540    0.03970    0.03970    2.44480  -47.59040    -999.25  130.87590
 6150.00000   11.97250   11.17490   11.97250   65.92830    0.01700    2.68020    0.01740    0.01740   15.16800    0.01700    -999.25    -999.25   52.86220   52.86220   52.86220   15.16800   21.28240   20.56870   21.28240    0.07420    0.07420    2.66890 -101.80530    -999.25   20.56870
 6200.00000    -999.25   11.56780    -999.25    -999.25    -999.25    1.70900    0.58540    0.58540    -999.25    -999.25    -999.25    -999.25    -999.25    -999.25    -999.25    -999.25    -999.25    -999.25    -999.25    -999.25    -999.25    -999.25    -999.25    -999.25    -999.25
