~Version ---------------------------------------------------
VERS.      2.0 : CWLS log ASCII Standard -VERSION 2.0
WRAP.      YES : MULTIPLE LINES PER DEPTH STEP
CREA. 08/31/18 : LAS CREATION DATE
~Well ------------------------------------------------------
STRT.FT                 2300.0 : START DEPTH
STOP.FT                11300.0 : STOP DEPTH
STEP.FT               50.00000 : STEP LENGTH
NULL.                  -999.25 : NULL VALUE
COMP.         HUNT OIL COMPANY : COMPANY
WELL.          PIPHER L. A. #1 : WELL
FLD .                  WILDCAT : FIELD
LOC .                          : LOCATION
CNTY.                 GONZALES : COUNTY
STAT.                    TEXAS : STATE
CTRY. UNITED STATES OF AMERICA : COUNTRY
SRVC.             Schlumberger : SERVICE COMPANY
DATE.              06-May-1999 : LOGDATE
API .           42177320410000 : API NUMBER
UWI .           42177320410000 : UNIQUE WELL ID
SLAT.WGS84       29.2698822473 : SURFACE LATITUDE
SLON.WGS84      -97.7138948507 : SURFACE LONGITUDE
~Curve Information -----------------------------------------
DEPT    .FT    : DEPTH FEET
AHT10ED .OHMM  : 10 INCH RESISTIVITY TWO FOOT RESOLUTION FROM AIT LOG
AHT20ED .OHMM  : 20 INCH RESISTIVITY TWO FOOT RESOLUTION FROM AIT LOG
AHT30ED .OHMM  : 30 INCH RESISTIVITY TWO FOOT RESOLUTION FROM AIT LOG
AHT60ED .OHMM  : 60 INCH RESISTIVITY TWO FOOT RESOLUTION FROM AIT LOG
AHT90ED .OHMM  : 90 INCH RESISTIVITY TWO FOOT RESOLUTION FROM AIT LOG
CALWS   .IN    : CALIPER [DCALRED+BITED]
CONDWS  .MMHO  : CONDUCTIVITY [1000/DRESWS]
DCALRED .IN    : DIFFERENTIAL CALIPER FROM RES. LOG
DCORWS  .G/C3  : DENSITY CORRECTION [HDRAED]
DENWS   .G/C3  : BULK DENSITY [M=2.71 F=1.0] [CALCULATED FROM DPOLSWS]
DPHZLSED.V/V   : DENSITY POROSITY [M=2.71 F=1.0] FROM DENSITY LOG
DPOLSWS .V/V   : DENSITY POROSITY [M=2.71 F=1.0] [DPHZLSED]
DRESWS  .OHMM  : DEEP RESISTIVITY [AHT90ED]
DTLFED  .US/F  : DELTA TIME LONG SPACING FAR DETECTOR FROM SONIC LOG
DTLNED  .US/F  : DELTA TIME LONG SPACING NEAR DETECTOR FROM SONIC LOG
DTWS    .US/F  : DELTA TIME [DTLNED]
GRRED   .GAPI  : GAMMA RAY FROM RESISTIVITY LOG
GRWS    .GAPI  : GAMMA RAY [GRRED]
HDRAED  .G/C3  : DENSITY CORRECTION FROM DENSITY LOG
MRESWS  .OHMM  : MEDIUM RESISTIVITY [AHT30ED]
NPORLSED.V/V   : NEUTRON POROSITY LIMESTONE FROM DENSITY LOG
NPOLSWS .V/V   : NEUTRON POROSITY LIMESTONE [NPORLSED]
PEFWS   .B/E   : PHOTOELECTRIC FACTOR [PEFZED]
PEFZED  .B/E   : PHOTOELECTRIC FACTOR STANDARD RESOLUTION FROM DENSITY LOG
SPRED   .MV    : SPONTANEOUS POTENTIAL FROM RESISTIVITY LOG
SPWS    .MV    : SPONTANEOUS POTENTIAL [BASELINE 0 MV] [SPRED]
SRESWS  .OHMM  : SHALLOW RESISTIVITY [AHT10ED]
TENRED  .LBF   : TENSION FROM RESISTIVITY LOG
~Params ----------------------------------------------------
PD  .                     GL : PERMANENT DATUM
EPD .FT                  349 : ELEVATION PERMANENT DATUM
LMF .                     KB : LOG MEASURED FROM
DAPD.FT                 14.5 : FEET ABOVE PERMANENT DATUM
DMF .                     KB : DRILLING MEASURED FROM
EKB .FT                363.5 : KELLY BUSHING
EDF .FT                362.5 : DRILLING FLOOR
EGL .FT                  349 : GROUND LEVEL
DATE.               05/06/99 : RUN DATE
RUN .                      1 : RUN NUMBER
DD  .FT                11318 : DEPTH DRILLER
DL  .FT                11300 : DEPTH LOGGER
BLI .FT                11292 : BOTTOM LOG INTERVAL
TLI .FT                 2462 : TOP LOG INTERVAL
CS  .IN                9.625 : CASING SIZE
CBD .FT                 2469 : CASING BOTTOM DRILLER
CBL .FT                 2462 : CASING BOTTOM LOGGER
BS  .IN                 8.75 : BIT SIZE
BSD .FT                11318 : BIT SIZE AT DEPTH
DFT .              FRESH MUD : DRILLING FLUID TYPE
DFD .                   10.2 : DRILLING FLUID DENSITY
DFV .                     42 : DRILLING FLUID VISCOSITY
DFPH.                     11 : DRILLING FLUID PH
DFL .                      6 : DRILLING FLUID LOSS
MSS .              CIRC TANK : MUD SAMPLE SOURCE
RMS .OHMM              0.812 : RESISTIVITY MUD SAMPLE
MST .DEGF                 75 : MUD SAMPLE TEMPERATURE
RMF .OHMM               0.51 : RESISTIVITY MUD FILTRATE SAMPLE
MFST.DEGF                 75 : MUD FILTRATE SAMPLE TEMPERATURE
RMC .OHMM              1.218 : RESISTIVITY MUD CAKE
MCST.DEGF                 75 : MUD CAKE SAMPLE TEMPERATURE
MFSS.                     MP : MUD FILTRATE SAMPLE SOURCE
MCSS.                   CALC : MUD CAKE SAMPLE SOURCE
RMB .OHMM               0.28 : RESISTIVITY MUD AT BHT
TCS .HRS                1930 : TIME CIRCULATED STOPPED
TLAB.HRS                 630 : TIME LOGGER AT BOTTOM
LUN .                   2129 : LOGGING UNIT NUMBER
LUL .               VICTORIA : LOGGING UNIT LOCATION
ENGI.    VORIS WILBECK BOWEN : RECORDING ENGINEER
WITN.     SIMON SKILES BLACK : WITNESSED BY
CLNT.                A2DTECH : CLIENT CODE
ORIG.         1" 2" 5" PRINT : ORIGIN OF DATA
UWI .         42177320410000 : UNIQUE WELL ID
DICO. A2D Technologies, Inc. : DIGITIZING COMPANY
~Other -----------------------------------------------------
~ASCII -----------------------------------------------------
# ...
 3550.00000    2.13240    2.38500    2.79770    3.90830    4.53880    9.05560  220.32260    0.30560    0.01490    2.19650    0.30030    0.30030    4.53880  106.76730  109.44570  109.44570   59.24070   59.24070    0.01490    2.79770    0.34960    0.34960    1.54810    1.54810   -8.97810  -18.00440    2.13240 1614.80140
 3600.00000    1.61700    1.98510    2.23960    2.90950    9.23990   10.36670  108.22630    1.61670    0.00040    1.52920    0.69050    0.69050    9.23990  158.28670  164.51800  164.51800   55.29600   55.29600    0.00040    2.23960    0.67430    0.67430    1.90680    1.90680    6.37840   -4.27750    1.61700 1800.23320
 3650.00000    3.34320    4.32160    5.31770    8.59600    9.82000    9.26880  101.83300    0.51880    0.00260    2.06700    0.37600    0.37600    9.82000  103.35900  104.28990  104.28990   31.11760   31.11760    0.00260    5.31770    0.34410    0.34410    1.23740    1.23740   -7.82010  -20.10570    3.34320 1635.77360
 3700.00000    3.90440    5.56440    6.97260    9.69320   11.90690    9.01860   83.98490    0.26860    0.00660    2.09120    0.36190    0.36190   11.90690  100.54540   99.72910   99.72910   31.11240   31.11240    0.00660    6.97260    0.31940    0.31940    1.20770    1.20770   12.17680   -1.73850    3.90440 1696.66550
 3750.00000    3.20090    4.05050    5.39990    8.73770    9.78910    9.15570  102.15440    0.40570    0.00940    2.10090    0.35620    0.35620    9.78910  102.15260  110.36490  110.36490   41.92640   41.92640    0.00940    5.39990    0.29740    0.29740    1.83740    1.83740   11.61420   -3.93080    3.20090 1673.51420
 3800.00000    2.90160    3.71930    4.76830    7.07720    8.93210    8.85550  111.95580    0.10550   -0.00570    2.10930    0.35130    0.35130    8.93210  101.88900  101.41120  101.41120   44.58070   44.58070   -0.00570    4.76830    0.32740    0.32740    2.58420    2.58420    7.32340   -9.85130    2.90160 1729.11690
 3850.00000    3.75180    5.06220    6.34910    8.73510    9.82630    9.05250  101.76770    0.30250    0.02530    2.13560    0.33590    0.33590    9.82630  101.87090  101.15440  101.15440   37.20590   37.20590    0.02530    6.34910    0.29690    0.29690    2.61190    2.61190    4.37340  -14.43100    3.75180 1694.90980
 3900.00000    3.67140    4.70180    6.13210   10.85360   12.09110    8.41790   82.70550   -0.33210   -0.00600    2.14670    0.32940    0.32940   12.09110   98.31470   97.96950   97.96950   46.71320   46.71320   -0.00600    6.13210    0.29220    0.29220    1.83000    1.83000    3.97480  -16.45930    3.67140 1733.53960
 3950.00000    3.00120    3.76220    4.50800    6.68520    8.64880    9.12350  115.62300    0.37350    0.04160    2.16520    0.31860    0.31860    8.64880  103.41830  106.39340  106.39340   53.00800   53.00800    0.04160    4.50800    0.36910    0.36910    2.38790    2.38790   17.00180   -4.18010    3.00120 1711.81360
 4000.00000    3.48050    4.62100    5.77680    8.55210   10.44590    8.69320   95.73130   -0.05680   -0.00400    2.14210    0.33210    0.33210   10.44590   98.81220   98.12650   98.12650   47.55840   47.55840   -0.00400    5.77680    0.30450    0.30450    1.78500    1.78500   13.78220   -6.92980    3.48050 1701.22990
 4050.00000    2.06580    2.35420    2.71000    2.93020    3.24620    9.07520  308.05250    0.32520    0.08560    2.33810    0.21750    0.21750    3.24620  103.33280  102.49670  102.49670   86.17280   86.17280    0.08560    2.71000    0.35280    0.35280    2.78780    2.78780    8.22890  -12.01310    2.06580 1735.96330
 4100.00000    3.92520    4.68180    5.77940    7.50440    8.56420    8.57850  116.76510   -0.17150    0.00120    2.15770    0.32300    0.32300    8.56420   93.36670   93.08140   93.08140   54.99730   54.99730    0.00120    5.77940    0.32360    0.32360    2.51510    2.51510    3.72200  -16.05010    3.92520 1719.94170
 4150.00000    1.12390    1.22420    1.37920    1.48160    1.57730   11.58460  633.99480    2.83460    0.11230    2.04240    0.39040    0.39040    1.57730  113.46140  114.54700  114.54700   85.81660   85.81660    0.11230    1.37920    0.42220    0.42220    4.06500    4.06500    9.21540  -10.08670    1.12390 1773.28480
 4200.00000    1.64200    1.68550    1.75240    1.85200    1.97010   13.43910  507.58840    4.68910    0.12830    2.21430    0.28990    0.28990    1.97010  107.61530  106.12570  106.12570   81.89360   81.89360    0.12830    1.75240    0.43220    0.43220    3.34990    3.34990    7.88580  -10.94640    1.64200 1766.09940
 4250.00000    2.00300    2.30270    2.46670    2.58110    2.72030   10.86800  367.60650    2.11800    0.06520    2.30920    0.23440    0.23440    2.72030  104.02280  102.29260  102.29260   80.39120   80.39120    0.06520    2.46670    0.34920    0.34920    2.78780    2.78780    8.66420   -9.69800    2.00300 1759.70830
 4300.00000    3.69310    3.48330    3.25700    3.08700    2.97820    8.86510  335.77330    0.11510    0.00530    2.26780    0.25860    0.25860    2.97820   96.16200   96.39230   96.39230   74.23380   74.23380    0.00530    3.25700    0.29470    0.29470    3.23610    3.23610    3.79410  -14.09820    3.69310 1795.97460
 4350.00000    1.96410    2.09190    2.25100    2.52950    2.70740   10.93660  369.35810    2.18660    0.10450    2.37550    0.19560    0.19560    2.70740   99.59140  101.17400  101.17400   86.34710   86.34710    0.10450    2.25100    0.32700    0.32700    2.91520    2.91520   -0.22010  -17.64240    1.96410 1797.84880
 4400.00000    3.15190    3.41990    3.66120    3.90180    4.16670   12.44430  239.99810    3.69430    0.00970    2.38830    0.18810    0.18810    4.16670   91.16900   90.97610   90.97610   83.74970   83.74970    0.00970    3.66120    0.26950    0.26950    3.04390    3.04390    9.19990   -7.75250    3.15190 1858.32920
 4450.00000    2.70000    2.76400    2.90610    3.06520    3.27860   15.76250  305.00820    7.01250    0.01690    2.43830    0.15890    0.15890    3.27860   91.94910   90.76670   90.76670   74.00470   74.00470    0.01690    2.90610    0.31380    0.31380    2.83030    2.83030    8.67240   -7.81000    2.70000 1872.50780
 4500.00000    2.04890    2.10540    2.17300    2.28140    2.36750   17.87930  422.38650    9.12930    0.01110    2.43130    0.16300    0.16300    2.36750   98.39690   97.74840   97.74840   81.14780   81.14780    0.01110    2.17300    0.32550    0.32550    2.80340    2.80340   14.15420   -1.85830    2.04890 1846.72230
 4550.00000    1.92630    1.98100    2.07940    2.20860    2.28030   18.55110  438.53880    9.80110    0.01840    2.44410    0.15550    0.15550    2.28030   96.53900   93.01010   93.01010   75.84950   75.84950    0.01840    2.07940    0.33260    0.33260    2.69650    2.69650    9.96950   -5.71510    1.92630 1867.85790
 4600.00000    1.65120    1.71270    1.74670    1.77910    1.83750   19.39710  544.21770   10.64710    0.01940    2.45780    0.14750    0.14750    1.83750  103.54040  103.34070  103.34070   73.69060   73.69060    0.01940    1.74670    0.34290    0.34290    2.72690    2.72690    6.17840   -9.24510    1.65120 1860.57630
 4650.00000    1.44730    1.46460    1.50670    1.53770    1.58810   21.87360  629.68330   13.12360    0.24280    2.17780    0.31120    0.31120    1.58810  113.00060  103.65720  103.65720   71.45290   71.45290    0.24280    1.50670    0.40940    0.40940    1.90920    1.90920    4.11810  -11.04440    1.44730 1871.82920
 4700.00000    1.40020    1.35230    1.44010    1.50610    1.55550   21.89110  642.88010   13.14110    0.03000    1.51200    0.70060    0.70060    1.55550  106.71760  105.65770  105.65770   67.33050   67.33050    0.03000    1.44010    0.42510    0.42510    9.99720    9.99720    8.47040   -6.43100    1.40020 1861.18180
 4750.00000    1.21110    1.27410    1.30130    1.33120    1.37490   21.88870  727.32560   13.13870    0.03010    1.45110    0.73620    0.73620    1.37490  100.45940   98.54610   98.54610   67.85750   67.85750    0.03010    1.30130    0.41520    0.41520    9.95840    9.95840    0.18250  -14.45780    1.21110 1903.73800
