~Version ---------------------------------------------------
VERS. 2.0 : CWLS log ASCII Standard -VERSION 2.0
WRAP.  NO : ONE LINE PER DEPTH STEP
~Well ------------------------------------------------------
STRT.F                     600.0 : START DEPTH
STOP.F                    4800.0 : STOP DEPTH
STEP.F                  50.00000 : STEP LENGTH
NULL.                    -999.25 : NULL VALUE
COMP. CONVEST ENERGY CORPORATION : COMPANY
WELL.             J. L. MILLS #1 : WELL
FLD .                         WC : FIELD
LOC .                            : LOCATION
CNTY.                     WILSON : COUNTY
STAT.                      TEXAS : STATE
CTRY.   UNITED STATES OF AMERICA : COUNTRY
SRVC.               Schlumberger : SERVICE COMPANY
DATE.                08-Jul-1977 : LOGDATE
API .             42493303910000 : API NUMBER
UWI .             42493303910000 : UNIQUE WELL ID
SLAT.WGS84         29.1940227328 : SURFACE LATITUDE
SLON.WGS84        -98.1349556038 : SURFACE LONGITUDE
~Curve Information -----------------------------------------
DEPT.F                 : 
DT  .MS/F 60 500 00 00 : DELTA-T (INTERVAL TRANSIT TIME)
SPR .MV   07 010 01 00 : SPONTANEOUS POTENTIAL FROM RESISTIVITY LOG
GRN .GAPI 35 310 01 00 : GAMMA RAY FROM GRN LOG
NEUT.NAPI 35 330 01 00 : NEUTRON
CALD.IN   45 280 60 00 : CALIPER FROM DENSITY LOG
GRD .GAPI 45 310 01 00 : GAMMA RAY FROM DENSITY LOG
RHOB.G/C3 45 350 01 00 : BULK DENSITY
CORR.G/C3 45 356 01 00 : DENSITY CORRECTION
DPHI.DEC  45 890 01 00 : DENSITY POROSITY
ILM .OHMM 07 120 44 00 : INDUCTION MEDIUM RESISTIVITY
LL8 .OHMM 07 220 08 00 : LATEROLOG 8
ILD .OHMM 07 120 46 00 : INDUCTION DEEP RESISTIVITY
~Params ----------------------------------------------------
PD  .                     GL : PERMANENT DATUM
EPD .FT                490.8 : ELEVATION PERMANENT DATUM
LMF .                     KB : LOG MEASURED FROM
DAPD.FT                   11 : FEET ABOVE PERMANENT DATUM
DMF .                     KB : DRILLING MEASURED FROM
EKB .FT                501.8 : KELLY BUSHING
EDF .FT                500.8 : DRILLING FLOOR
EGL .FT                490.8 : GROUND LEVEL
DATE.                 7/8/77 : RUN DATE
RUN .                      1 : RUN NUMBER
DD  .FT                 4805 : DEPTH DRILLER
DL  .FT                 4831 : DEPTH LOGGER
BLI .FT                 4825 : BOTTOM LOG INTERVAL
TLI .FT                  594 : TOP LOG INTERVAL
CS  .IN                8.625 : CASING SIZE
CBD .FT                  595 : CASING BOTTOM DRILLER
CBL .FT                  594 : CASING BOTTOM LOGGER
BS  .IN                7.875 : BIT SIZE
BSD .FT                 4805 : BIT SIZE AT DEPTH
DFT .         RD 111 LIG CMC : DRILLING FLUID TYPE
DFD .                   10.1 : DRILLING FLUID DENSITY
DFV .                     56 : DRILLING FLUID VISCOSITY
DFPH.                     10 : DRILLING FLUID PH
DFL .                    6.6 : DRILLING FLUID LOSS
MSS .                    PIT : MUD SAMPLE SOURCE
RMS .OHMM               1.86 : RESISTIVITY MUD SAMPLE
MST .DEGF                 91 : MUD SAMPLE TEMPERATURE
RMF .OHMM               1.65 : RESISTIVITY MUD FILTRATE SAMPLE
MFST.DEGF                 91 : MUD FILTRATE SAMPLE TEMPERATURE
RMC .OHMM                1.5 : RESISTIVITY MUD CAKE
MCST.DEGF                 91 : MUD CAKE SAMPLE TEMPERATURE
MFSS.                  CHART : MUD FILTRATE SAMPLE SOURCE
MCSS.                  CHART : MUD CAKE SAMPLE SOURCE
RMB .OHMM               1.18 : RESISTIVITY MUD AT BHT
TCS .HRS                 630 : TIME CIRCULATED STOPPED
TLAB.HRS                1300 : TIME LOGGER AT BOTTOM
LUN .                   7799 : LOGGING UNIT NUMBER
LUL .                  PLEAS : LOGGING UNIT LOCATION
ENGI.                  OSTER : RECORDING ENGINEER
WITN.                  CLARK : WITNESSED BY
CLNT.                A2DTECH : CLIENT CODE
ORIG.        1" 5" 25" PRINT : ORIGIN OF DATA
UWI .         42493303910000 : UNIQUE WELL ID
DICO. A2D Technologies, Inc. : DIGITIZING COMPANY
~Other -----------------------------------------------------
~ASCII -----------------------------------------------------
  600.00000  129.84780  -13.41020    -999.25    -999.25    -999.25    -999.25    -999.25    -999.25    -999.25   18.75530   30.75060   14.03670
  650.00000  141.21030  -18.54460    -999.25    -999.25    -999.25    -999.25    -999.25    -999.25    -999.25    9.58560    8.23740    8.57940
  700.00000  137.61610  -29.53140    -999.25    -999.25    -999.25    -999.25    -999.25    -999.25    -999.25   28.50610   25.96730   27.44460
  750.00000  145.66340  -29.97800    -999.25    -999.25    -999.25    -999.25    -999.25    -999.25    -999.25   49.16090   32.60980   36.96410
  800.00000  135.20730  -27.00810    -999.25    -999.25    -999.25    -999.25    -999.25    -999.25    -999.25   51.25640   29.54990   33.77220
  850.00000  137.52620  -30.67820    -999.25    -999.25    -999.25    -999.25    -999.25    -999.25    -999.25   55.92410   30.78530   36.35520
  900.00000  136.97890  -31.33230    -999.25    -999.25    -999.25    -999.25    -999.25    -999.25    -999.25   58.98440   35.10380   39.88780
  950.00000  141.03000  -35.87460    -999.25    -999.25    -999.25    -999.25    -999.25    -999.25    -999.25   52.51510   38.17960   45.43020
 1000.00000  124.62580  -39.31090    -999.25    -999.25    -999.25    -999.25    -999.25    -999.25    -999.25   53.14040   46.63920   49.35360
 1050.00000  127.72030  -38.03380    -999.25    -999.25    -999.25    -999.25    -999.25    -999.25    -999.25   40.66360   38.59710   38.13870
 1100.00000  133.11850  -40.26640    -999.25    -999.25    -999.25    -999.25    -999.25    -999.25    -999.25   28.92190   31.02910   28.24880
 1150.00000  128.16120  -36.22370    -999.25    -999.25    -999.25    -999.25    -999.25    -999.25    -999.25   34.45910   36.11780   31.96240
 1200.00000  124.54320  -32.46250    -999.25    -999.25    -999.25    -999.25    -999.25    -999.25    -999.25   31.31890   38.23560   24.73380
 1250.00000  130.64110  -30.56870    -999.25    -999.25    -999.25    -999.25    -999.25    -999.25    -999.25   12.32710   13.63190   13.24930
 1300.00000  132.97690  -19.12030    -999.25    -999.25    -999.25    -999.25    -999.25    -999.25    -999.25    5.10020    5.96980    5.56800
 1350.00000  130.80870  -26.14260    -999.25    -999.25    -999.25    -999.25    -999.25    -999.25    -999.25    9.46550   15.20600   11.16340
 1400.00000  129.86980  -26.57290    -999.25    -999.25    -999.25    -999.25    -999.25    -999.25    -999.25   12.83220   14.15910   14.94700
 1450.00000  121.90960  -26.37090    -999.25    -999.25    -999.25    -999.25    -999.25    -999.25    -999.25    7.47680    8.88160    7.89780
 1500.00000  134.43390  -25.03370    -999.25    -999.25    -999.25    -999.25    -999.25    -999.25    -999.25    7.42680   10.07870    8.71440
 1550.00000  128.37580  -21.66730    -999.25    -999.25    -999.25    -999.25    -999.25    -999.25    -999.25    3.17280    3.88300    3.42780
 1600.00000  122.56440  -27.38990    -999.25    -999.25    -999.25    -999.25    -999.25    -999.25    -999.25   13.30220   16.62950   15.16110
 1650.00000  123.74300  -28.68990    -999.25    -999.25    -999.25    -999.25    -999.25    -999.25    -999.25    9.90680   14.29440   11.59630
 1700.00000  123.32040  -30.33710    -999.25    -999.25    -999.25    -999.25    -999.25    -999.25    -999.25   10.25430    8.51670   11.52530
 1750.00000  120.02500  -29.20060    -999.25    -999.25    -999.25    -999.25    -999.25    -999.25    -999.25    4.43080    4.41980    5.05260
 1800.00000  121.35470  -35.00960    -999.25    -999.25    -999.25    -999.25    -999.25    -999.25    -999.25   10.53360   14.13560   12.51430
 1850.00000  121.67020  -33.90410    -999.25    -999.25    -999.25    -999.25    -999.25    -999.25    -999.25    6.13760    9.11580    6.81480
 1900.00000  130.92530  -30.64230    -999.25    -999.25    -999.25    -999.25    -999.25    -999.25    -999.25    4.42230    4.79600    4.62490
 1950.00000  126.56600  -39.91810    -999.25    -999.25    -999.25    -999.25    -999.25    -999.25    -999.25    9.14940   10.89220   10.88590
 2000.00000  117.03730  -42.85870    -999.25    -999.25    -999.25    -999.25    -999.25    -999.25    -999.25   10.51590   12.49780   11.60420
 2050.00000  126.06210  -44.82420    -999.25    -999.25    -999.25    -999.25    -999.25    -999.25    -999.25   11.22960   14.64670   12.51720
 2100.00000  123.09390  -46.94260    -999.25    -999.25    -999.25    -999.25    -999.25    -999.25    -999.25    8.94520   12.56090   10.26790
 2150.00000  119.94050  -47.95680    -999.25    -999.25    -999.25    -999.25    -999.25    -999.25    -999.25    7.37520    9.96380    9.00430
 2200.00000  114.78510  -50.81790    -999.25    -999.25    -999.25    -999.25    -999.25    -999.25    -999.25    9.32400   10.52310   10.67370
 2250.00000  116.38200  -47.45330    -999.25    -999.25    -999.25    -999.25    -999.25    -999.25    -999.25    4.24560    4.73180    4.59960
 2300.00000  112.46300  -45.00180    -999.25    -999.25    -999.25    -999.25    -999.25    -999.25    -999.25    4.55230    5.12020    4.99550
 2350.00000  113.26410  -42.30410    -999.25    -999.25    -999.25    -999.25    -999.25    -999.25    -999.25    9.10130   14.60700   11.18640
 2400.00000  117.62400  -35.22310    -999.25    -999.25    -999.25    -999.25    -999.25    -999.25    -999.25    8.07980   10.43150    9.55290
 2450.00000  122.28170  -19.18890    -999.25    -999.25    -999.25    -999.25    -999.25    -999.25    -999.25    2.54800    2.72690    2.71930
 2500.00000  118.56810  -20.94640    -999.25    -999.25    8.44300  104.92950    2.32860    0.01640    0.20770    2.75730    3.37760    3.12570
 2550.00000  121.53690  -22.71780    -999.25    -999.25    8.45390  100.23240    2.23800    0.11110    0.23440    2.71740    3.40480    3.08060
 2600.00000  123.74460  -22.99180    -999.25    -999.25    8.71420   95.57660    2.27860    0.11490    0.23650    2.31500    2.60770    2.48630
 2650.00000  118.50280  -27.31500    -999.25    -999.25    7.98660  100.83390    2.28700    0.06800    0.19440    2.58580    3.29950    2.89440
 2700.00000  119.95440  -30.29330    -999.25    -999.25    8.49140   93.26430    2.22980    0.13540    0.23150    2.50480    3.13910    2.87580
 2750.00000  108.39310  -32.47860    -999.25    -999.25    8.12330   96.92750    2.36100    0.05630    0.20070    2.50100    3.18990    2.73240
 2800.00000  114.56780  -31.73550    -999.25    -999.25    8.89670  109.58310    2.39890    0.06240    0.15520    2.38160    2.95060    2.60430
 2850.00000  115.03160  -31.97690    -999.25    -999.25   10.65180   98.39340    2.34430    0.01970    0.17180    1.92260    2.43970    2.09330
 2900.00000  123.81970  -29.90720    -999.25    -999.25    9.87350   93.81880    2.33920    0.04220    0.18740    1.60090    2.16570    1.84950
 2950.00000  123.48910  -31.25130    -999.25    -999.25    8.76090   97.47310    2.36120    0.07650    0.16600    1.52700    2.12420    1.75690
 3000.00000  123.44810  -26.86720    -999.25    -999.25   10.13210  105.23550    2.37540    0.08410    0.16070    1.41850    2.00950    1.62240
 3050.00000  126.42620  -18.84280    -999.25    -999.25    9.92800  102.99220    2.35660    0.08300    0.19840    1.36680    1.96270    1.54180
 3100.00000  119.37060  -15.90780    -999.25    -999.25   10.09400  116.80260    2.29170    0.07890    0.19930    1.65110    2.23240    1.85030
 3150.00000  121.35270  -17.71500    -999.25    -999.25    9.18190   82.13630    2.30880    0.15870    0.24780    1.58600    2.29970    1.80860
 3200.00000  107.55960  -43.82000    -999.25    -999.25    8.71000   91.09340    2.40940    0.07440    0.14070    2.39000    2.61480    2.74390
 3250.00000  122.60290  -46.00290    -999.25    -999.25    9.82430   91.53490    2.28230    0.16460    0.19860    1.57630    2.20140    1.79860
 3300.00000  119.68050  -46.85760    -999.25    -999.25   10.83340   86.09930    2.25270    0.16550    0.22980    1.47610    2.01810    1.68560
 3350.00000  121.35280  -44.58360    -999.25    -999.25    8.89610   93.27060    2.32280    0.14390    0.24070    1.39290    1.71890    1.57290
