~Version ---------------------------------------------------
VERS. 2.0 : CWLS log ASCII Standard -VERSION 2.0
WRAP. YES : MULTIPLE LINES PER DEPTH STEP
~Well ------------------------------------------------------
STRT.FT                   500.0 : START DEPTH
STOP.FT                  4650.0 : STOP DEPTH
STEP.FT                50.00000 : STEP LENGTH
NULL.                   -999.25 : NULL VALUE
COMP. PRAIRIE PRODUCING COMPANY : COMPANY
WELL.       HENSLEY T. HURTS #1 : WELL
FLD .                        WC : FIELD
LOC .                           : LOCATION
CNTY.                  GONZALES : COUNTY
STAT.                     TEXAS : STATE
CTRY.  UNITED STATES OF AMERICA : COUNTRY
SRVC.              Schlumberger : SERVICE COMPANY
DATE.               20-Aug-1976 : LOGDATE
API .            42177301620000 : API NUMBER
UWI .            42177301620000 : UNIQUE WELL ID
SLAT.WGS84           29.3870974 : SURFACE LATITUDE
SLON.WGS84          -97.8021181 : SURFACE LONGITUDE
~Curve Information -----------------------------------------
DEPT    .FT    : DEPTH FEET
CALDED  .IN    : CALIPER FROM DENSITY LOG [ADJ TO ILDED]
CALWS   .IN    : CALIPER [CALDED]
CONDWS  .MMHO  : CONDUCTIVITY [1000/DRESWS]
CORRED  .G/C3  : DENSITY CORRECTION FROM DENSITY LOG [ADJ TO ILDED]
DCORWS  .G/C3  : DENSITY CORRECTION [CORRED]
DENWS   .G/C3  : BULK DENSITY [RHOBED]
DPHILSED.V/V   : DENSITY POROSITY [M=2.71 F=1.0] FROM DENSITY LOG [ADJ TO ILDED]
DPHISSED.V/V   : DENSITY POROSITY [M=2.65 F=1.0] FROM DENSITY LOG [ADJ TO ILDED]
DPOWS   .V/V   : DENSITY POROSITY [M=2.71 F=1.0] [CALCULATED FROM DENWS]
DRESWS  .OHMM  : DEEP RESISTIVITY [ILDED]
GRDED   .GAPI  : GAMMA RAY FROM DENSITY LOG [ADJ TO ILDED]
GRWS    .GAPI  : GAMMA RAY [GRDED, CSG ABOVE 526F]
ILDED   .OHMM  : INDUCTION LOG DEEP RESISTIVITY
ILMED   .OHMM  : INDUCTION LOG MEDIUM RESISTIVITY
LL8ED   .OHMM  : 8 INCH LATEROLOG RESISTIVITY
MRESWS  .OHMM  : MEDIUM RESISTIVITY [ILMED]
NPHILSED.V/V   : NEUTRON POROSITY LIMESTONE FROM DENSITY LOG [ADJ TO ILDED]
NPHISSED.V/V   : NEUTRON POROSITY SANDSTONE FROM DENSITY LOG [ADJ TO ILDED]
NPOWS   .V/V   : NEUTRON POROSITY LIMESTONE [CONVERTED DPHISSED TO LIMESTONE AND SPL WITH NPHILSED @4382F]
RHOBED  .G/C3  : BULK DENSITY FROM DENSITY LOG [ADJ TO ILDED]
SPRED   .MV    : SPONTANEOUS POTENTIAL FROM RESISTIVITY LOG
SPWS    .MV    : SPONTANEOUS POTENTIAL [BASELINE 0 MV] [SPRED]
SRESWS  .OHMM  : SHALLOW RESISTIVITY [LL8ED]
~Params ----------------------------------------------------
PD  .                     GL : PERMANENT DATUM
EPD .FT                  448 : ELEVATION PERMANENT DATUM
LMF .                     KB : LOG MEASURED FROM
DAPD.FT                   12 : FEET ABOVE PERMANENT DATUM
DMF .                     KB : DRILLING MEASURED FROM
EKB .FT                  460 : KELLY BUSHING
EDF .FT                  458 : DRILLING FLOOR
EGL .FT                  448 : GROUND LEVEL
DATE.               08/20/76 : RUN DATE
RUN .                      1 : RUN NUMBER
DD  .FT                 4690 : DEPTH DRILLER
DL  .FT                 4692 : DEPTH LOGGER
BLI .FT                 4686 : BOTTOM LOG INTERVAL
TLI .FT                  526 : TOP LOG INTERVAL
CS  .IN                8.625 : CASING SIZE
CBD .FT                  518 : CASING BOTTOM DRILLER
CBL .FT                  526 : CASING BOTTOM LOGGER
BS  .IN                7.875 : BIT SIZE
BSD .FT                 4690 : BIT SIZE AT DEPTH
DFT .                  LO PH : DRILLING FLUID TYPE
DFD .                    9.6 : DRILLING FLUID DENSITY
DFV .                     40 : DRILLING FLUID VISCOSITY
DFPH.                     10 : DRILLING FLUID PH
DFL .                    5.4 : DRILLING FLUID LOSS
MSS .               FLOWLINE : MUD SAMPLE SOURCE
RMS .OHMM               1.07 : RESISTIVITY MUD SAMPLE
MST .DEGF                 86 : MUD SAMPLE TEMPERATURE
RMF .OHMM               1.11 : RESISTIVITY MUD FILTRATE SAMPLE
MFST.DEGF                 74 : MUD FILTRATE SAMPLE TEMPERATURE
RMC .OHMM               0.95 : RESISTIVITY MUD CAKE
MCST.DEGF                 86 : MUD CAKE SAMPLE TEMPERATURE
MFSS.                   MEAS : MUD FILTRATE SAMPLE SOURCE
MCSS.                  CHART : MUD CAKE SAMPLE SOURCE
RMB .OHMM               0.68 : RESISTIVITY MUD AT BHT
TCS .HRS                   4 : TIME CIRCULATED STOPPED
LUN .                   7694 : LOGGING UNIT NUMBER
LUL .                  PLEAS : LOGGING UNIT LOCATION
ENGI.               BREVETTI : RECORDING ENGINEER
WITN.       SMITH ALLBRITTON : WITNESSED BY
CLNT.                A2DTECH : CLIENT CODE
ORIG.        2" 5" 25" PRINT : ORIGIN OF DATA
UWI .         42177301620000 : UNIQUE WELL ID
DICO. A2D Technologies, Inc. : DIGITIZING COMPANY
~Other -----------------------------------------------------
~ASCII -----------------------------------------------------
# ...
 3600.00000    8.25310    8.25310  440.47040    0.05360    0.05360    2.42600    -999.25    0.13700    0.16610    2.27030   72.13210   72.13210    2.27030    2.33600    3.05260    2.33600    -999.25    0.37300    0.32970    2.42600  -23.82470   -2.58170    3.05260
 3650.00000    8.75080    8.75080  694.68570    0.12110    0.12110    2.40820    -999.25    0.14390    0.17650    1.43950   96.34100   96.34100    1.43950    1.48210    2.17640    1.48210    -999.25    0.46960    0.42790    2.40820  -27.11070   -6.56800    2.17640
 3700.00000    8.67920    8.67920  636.05140    0.10990    0.10990    2.35280    -999.25    0.17560    0.20890    1.57220   87.30690   87.30690    1.57220    1.62300    2.38190    1.62300    -999.25    0.41070    0.36800    2.35280  -29.10810   -9.95740    2.38190
 3750.00000    -999.25    -999.25  654.19340    -999.25    -999.25    -999.25    -999.25    -999.25    -999.25    1.52860    -999.25    -999.25    1.52860    1.57690    1.96100    1.57690    -999.25    -999.25    -999.25    -999.25  -22.73190   -4.97320    1.96100
 3800.00000    -999.25    -999.25  846.23850    -999.25    -999.25    -999.25    -999.25    -999.25    -999.25    1.18170    -999.25    -999.25    1.18170    1.21600    1.70430    1.21600    -999.25    -999.25    -999.25    -999.25  -17.94710   -1.58050    1.70430
 3850.00000    -999.25    -999.25  667.64590    -999.25    -999.25    -999.25    -999.25    -999.25    -999.25    1.49780    -999.25    -999.25    1.49780    1.54840    2.05140    1.54840    -999.25    -999.25    -999.25    -999.25  -18.25470   -2.03680    2.05140
 3900.00000    -999.25    -999.25  489.88390    -999.25    -999.25    -999.25    -999.25    -999.25    -999.25    2.04130    -999.25    -999.25    2.04130    2.10110    2.67250    2.10110    -999.25    -999.25    -999.25    -999.25  -19.84060   -3.51680    2.67250
 3950.00000    -999.25    -999.25  811.68830    -999.25    -999.25    -999.25    -999.25    -999.25    -999.25    1.23200    -999.25    -999.25    1.23200    1.27180    1.68250    1.27180    -999.25    -999.25    -999.25    -999.25  -18.46520   -2.03560    1.68250
 4000.00000    -999.25    -999.25  726.32200    -999.25    -999.25    -999.25    -999.25    -999.25    -999.25    1.37680    -999.25    -999.25    1.37680    1.44710    2.01620    1.44710    -999.25    -999.25    -999.25    -999.25  -21.04550   -4.51000    2.01620
 4050.00000    -999.25    -999.25  813.80210    -999.25    -999.25    -999.25    -999.25    -999.25    -999.25    1.22880    -999.25    -999.25    1.22880    1.26430    1.82790    1.26430    -999.25    -999.25    -999.25    -999.25  -21.99480   -5.35340    1.82790
 4100.00000    -999.25    -999.25  923.53160    -999.25    -999.25    -999.25    -999.25    -999.25    -999.25    1.08280    -999.25    -999.25    1.08280    1.14410    1.95370    1.14410    -999.25    -999.25    -999.25    -999.25  -18.69610   -1.94730    1.95370
 4150.00000    -999.25    -999.25  737.62630    -999.25    -999.25    -999.25    -999.25    -999.25    -999.25    1.35570    -999.25    -999.25    1.35570    1.40240    1.96420    1.40240    -999.25    -999.25    -999.25    -999.25  -21.16760   -4.30690    1.96420
 4200.00000    -999.25    -999.25  716.22980    -999.25    -999.25    -999.25    -999.25    -999.25    -999.25    1.39620    -999.25    -999.25    1.39620    1.43840    1.98560    1.43840    -999.25    -999.25    -999.25    -999.25  -20.00480   -3.03220    1.98560
 4250.00000    -999.25    -999.25  672.08820    -999.25    -999.25    -999.25    -999.25    -999.25    -999.25    1.48790    -999.25    -999.25    1.48790    1.53080    2.22170    1.53080    -999.25    -999.25    -999.25    -999.25  -23.99640   -7.08230    2.22170
 4300.00000    9.32450    9.32450  625.62560    0.12770    0.12770    2.45470    -999.25    -999.25    0.14930    1.59840   98.84760   98.84760    1.59840    1.64480    2.25860    1.64480    -999.25    -999.25    -999.25    2.45470  -21.62180   -4.87500    2.25860
 4350.00000    8.83250    8.83250  421.56740    0.07860    0.07860    2.49010    -999.25    -999.25    0.12860    2.37210   93.27870   93.27870    2.37210    2.44040    3.11380    2.44040    -999.25    -999.25    -999.25    2.49010  -21.51310   -4.93370    3.11380
 4400.00000    8.69160    8.69160  282.52580    0.02050    0.02050    2.54110    0.10080    -999.25    0.09880    3.53950   66.72550   66.72550    3.53950    3.65000    4.83560    3.65000    0.20330    -999.25    0.20330    2.54110  -18.73260   -2.20870    4.83560
 4450.00000    8.74460    8.74460  316.55590    0.05100    0.05100    2.54470    0.09740    -999.25    0.09670    3.15900   59.12590   59.12590    3.15900    3.71000    2.95740    3.71000    0.22070    -999.25    0.22070    2.54470  -25.72560   -7.97080    2.95740
 4500.00000    7.96110    7.96110  249.24600    0.02180    0.02180    2.55580    0.09120    -999.25    0.09020    4.01210   31.47370   31.47370    4.01210    4.13010    6.16280    4.13010    0.13160    -999.25    0.13160    2.55580  -66.50340  -47.51770    6.16280
 4550.00000    7.94450    7.94450  139.26030    0.02720    0.02720    2.56310    0.08170    -999.25    0.08590    7.18080   36.57780   36.57780    7.18080    7.38790    8.14740    7.38790    0.15110    -999.25    0.15110    2.56310  -54.94570  -34.72910    8.14740
 4600.00000    7.99650    7.99650  316.16560    0.02590    0.02590    2.45670    0.15340    -999.25    0.14810    3.16290   66.85630   66.85630    3.16290    3.25420    4.75410    3.25420    0.25810    -999.25    0.25810    2.45670  -33.79090  -12.34330    4.75410
 4650.00000    7.75090    7.75090  167.78520    0.03330    0.03330    2.61810    0.05050    -999.25    0.05370    5.96000   29.30410   29.30410    5.96000    6.60290    6.59640    6.60290    0.10980    -999.25    0.10980    2.61810  -66.38620  -43.70770    6.59640
