~Version ---------------------------------------------------
VERS. 2.0 : CWLS log ASCII Standard -VERSION 2.0
WRAP.  NO : ONE LINE PER DEPTH STEP
~Well ------------------------------------------------------
STRT.F                   300.0 : START DEPTH
STOP.F                 24000.0 : STOP DEPTH
STEP.F                50.00000 : STEP LENGTH
NULL.                  -999.25 : NULL VALUE
COMP.       PLACID OIL COMPANY : COMPANY
WELL.                PEELER #1 : WELL
FLD .                  WILDCAT : FIELD
LOC .                          : LOCATION
CNTY.                MC MULLEN : COUNTY
STAT.                    TEXAS : STATE
CTRY. UNITED STATES OF AMERICA : COUNTRY
SRVC.             Schlumberger : SERVICE COMPANY
DATE.              01-Jan-1984 : LOGDATE
API .           42311317850000 : API NUMBER
UWI .           42311317850000 : UNIQUE WELL ID
SLAT.WGS84       28.5959255047 : SURFACE LATITUDE
SLON.WGS84      -98.4401225914 : SURFACE LONGITUDE
~Curve Information -----------------------------------------
DEPT   .F                 : 
DPHI_LS.DEC  45 890 10 00 : DENSITY POROSITY LIMESTONE
CALD   .IN   45 280 60 00 : CALIPER FROM DENSITY LOG
RHOB   .G/C3 45 350 01 00 : BULK DENSITY
NPHI_LS.DEC  42 890 01 00 : NEUTRON POROSITY LIMESTONE
DT     .US/F 60 500 00 00 : DELTA-T (INTERVAL TRANSIT TIME)
GRR    .GAPI 07 310 01 00 : GAMMA RAY FROM RESISTIVITY LOG
NPHI_SS.DEC  42 890 03 00 : NEUTRON POROSITY SANDSTONE
ILM    .OHMM 07 120 44 00 : INDUCTION MEDIUM RESISTIVITY
SFLU   .OHMM 07 220 01 00 : SHALLOW FOCUSED RESISTIVITY (UNAVERAGED)
SPR    .MV   07 010 01 00 : SPONTANEOUS POTENTIAL FROM RESISTIVITY LOG
ILD    .OHMM 07 120 46 00 : INDUCTION DEEP RESISTIVITY
DCALR  .IN   07 280 01 00 : DIFFERENTIAL CALIPER FROM RESISTIVITY LOG
DPHI_SS.DEC  45 890 12 00 : DENSITY POROSITY SANDSTONE
DRHO   .G/C3 45 356 01 00 : BULK DENSITY CORRECTION
~Params ----------------------------------------------------
PD  .                     GL : PERMANENT DATUM
EPD .F                   336 : ELEVATION PERMANENT DATUM
LMF .                     KB : LOG MEASURED FROM
DMF .                     KB : DRILLING MEASURED FROM
EKB .F                   368 : KELLING BUSHING
EDF .F                   367 : DRILLING FLOOR
EGL .F                   336 : GROUND LEVEL
DATE.               1-1-1984 : RUN DATE
RUN .                      7 : RUN NUMBER
DD  .F                 24031 : DEPTH DRILLER
DL  .F                 24037 : DEPTH LOGGER
BLI .F                 24030 : BOTTOM LOG INTERVAL
TLI .F                 21000 : TOP LOG INTERVAL
CS  .IN                8.625 : CASING SIZE
CBD .F                 19500 : CASING BOTTOM DRILLER
CBL .F                 19500 : CASING BOTTOM LOGGER
BS  .IN                  7.5 : BIT SIZE
BSD .F                 24031 : BIT SIZE AT DEPTH
DFT .               INVERMUL : DRILLING FLUID TYPE
DFV .                     83 : DRILLING FLUID VISCOSITY
TCS .HRS                 800 : TIME CURCULATED STOPPED
TLAB.HRS                 200 : TIME LOGGER AT BOTTOM
LUL .               EDINBURG : LOGGING UNIT LOCATION
ENGI.              NEWMISTER : RECORDING ENGINEER
WITN.                   LONG : WITNESSED BY
CLNT.                A2DTECH : CLIENT CODE
ORIG.            1",5" PRINT : ORIGIN OF DATA
UWI .         42311317850000 : UNIQUE WELL ID
DICO. A2D Technologies, Inc. : DIGITIZING COMPANY
~Other -----------------------------------------------------
~ASCII -----------------------------------------------------
# ...
 22100.00000    0.33340    -999.25    2.13300    0.01300   67.57900    9.21000    -999.25    -999.25    -999.25    -999.25   38.29000    -999.25    -999.25   -0.01900
 22150.00000   -0.03260    -999.25    2.27900    0.15800   57.95600   21.86100    -999.25    -999.25    -999.25    -999.25    7.67100    -999.25    -999.25   -0.02900
 22200.00000    0.13450    -999.25    2.47200    0.01900   60.53400   17.85800    -999.25    -999.25    -999.25    -999.25   23.02400    -999.25    -999.25   -0.01600
 22250.00000    0.16420    -999.25    2.35400    0.04300   62.52800   13.42400    -999.25    -999.25    -999.25    -999.25   30.65300    -999.25    -999.25   -0.01600
 22300.00000   -0.02500    -999.25    2.87000    0.08500   55.28600   27.54200    -999.25    -999.25    -999.25    -999.25    6.02900    -999.25    -999.25   -0.01200
 22350.00000   -0.04750    -999.25    2.84200    0.00500   65.15700   16.30900    -999.25    -999.25    -999.25    -999.25    5.43200    -999.25    -999.25    0.06700
 22400.00000    0.36450    -999.25    2.10700   -0.02200   67.41700   10.21300    -999.25    -999.25    -999.25    -999.25 1338.79300    -999.25    -999.25   -0.03900
 22450.00000    0.06050    -999.25    2.60800    0.06800   60.48200   28.32800    -999.25    -999.25    -999.25    -999.25    9.28300    -999.25    -999.25   -0.03900
 22500.00000    0.37070    -999.25    2.08300   -0.02500   68.27400    4.85900    -999.25    -999.25    -999.25    -999.25 1543.84590    -999.25    -999.25   -0.00700
 22550.00000    0.32150    -999.25    2.24100   -0.01800   58.67300    5.34300    -999.25    -999.25    -999.25    -999.25  219.01700    -999.25    -999.25    0.00500
 22600.00000    0.21910    -999.25    2.34600   -0.00300   64.30600   13.39100    -999.25    -999.25    -999.25    -999.25   85.64300    -999.25    -999.25   -0.04300
 22650.00000    0.18490    -999.25    2.56000    0.00300   65.89300   13.98800    -999.25    -999.25    -999.25    -999.25   29.96200    -999.25    -999.25    0.00800
 22700.00000   -0.12030    -999.25    2.91500    0.00100   51.47000    8.45600    -999.25    -999.25    -999.25    -999.25   13.71900    -999.25    -999.25   -0.01800
 22750.00000   -0.04360    -999.25    2.78900    0.07700   62.87300   33.33900    -999.25    -999.25    -999.25    -999.25   11.26900    -999.25    -999.25    0.00600
 22800.00000   -0.11410    -999.25    2.93800   -0.00400   51.93600    6.91000    -999.25    -999.25    -999.25    -999.25   11.34500    -999.25    -999.25   -0.00100
 22850.00000   -0.14560    -999.25    2.95700    0.05100   51.12300    9.12800    -999.25    -999.25    -999.25    -999.25   11.33700    -999.25    -999.25   -0.00600
 22900.00000   -0.10920    -999.25    2.90300    0.01600   53.38500   21.34500    -999.25    -999.25    -999.25    -999.25    8.23900    -999.25    -999.25   -0.00400
 22950.00000   -0.07420    -999.25    2.86800    0.03600   57.01400   18.67100    -999.25    -999.25    -999.25    -999.25    7.55100    -999.25    -999.25   -0.00300
 23000.00000   -0.11060    -999.25    2.92300   -0.00300   50.20300   11.38700    -999.25    -999.25    -999.25    -999.25   48.11500    -999.25    -999.25   -0.00400
 23050.00000   -0.05030    -999.25    2.79300    0.00600   48.82900   20.38000    -999.25    -999.25    -999.25    -999.25   62.13100    -999.25    -999.25    0.02800
 23100.00000   -0.10660    -999.25    2.88800   -0.00200   50.07500   12.85500    -999.25    -999.25    -999.25    -999.25   26.69800    -999.25    -999.25   -0.00300
 23150.00000   -0.14650    -999.25    2.93800    0.00100   53.11600   11.30000    -999.25    -999.25    -999.25    -999.25   45.38500    -999.25    -999.25   -0.00900
 23200.00000   -0.08970    -999.25    2.87800    0.00600   49.21000   18.28200    -999.25    -999.25    -999.25    -999.25   60.85100    -999.25    -999.25    0.02600
 23250.00000   -0.03350    -999.25    2.77500    0.01300   47.63600   19.04900    -999.25    -999.25    -999.25    -999.25   43.67300    -999.25    -999.25    0.00000
 23300.00000   -0.19100    -999.25    3.03400   -0.00100   51.96800   15.68200    -999.25    -999.25    -999.25    -999.25   92.51200    -999.25    -999.25    0.04200
 23350.00000   -0.12960    -999.25    2.93300    0.01100   52.40100   18.80400    -999.25    -999.25    -999.25    -999.25   39.82000    -999.25    -999.25    0.00100
 23400.00000   -0.16680    -999.25    2.98900   -0.00500   50.67600   12.57600    -999.25    -999.25    -999.25    -999.25   86.47100    -999.25    -999.25    0.01400
 23450.00000   -0.00910    -999.25    2.74400    0.00200   47.93900    9.55100    -999.25    -999.25    -999.25    -999.25  354.44700    -999.25    -999.25   -0.01300
 23500.00000   -0.15010    -999.25    2.96500   -0.00600   50.91500    9.11200    -999.25    -999.25    -999.25    -999.25  159.37200    -999.25    -999.25    0.00700
 23550.00000   -0.14380    -999.25    2.94700   -0.00600   50.41700    9.15400    -999.25    -999.25    -999.25    -999.25 1340.91390    -999.25    -999.25   -0.00600
 23600.00000   -0.08840    -999.25    2.85800    0.02000   45.82600    7.80900    -999.25    -999.25    -999.25    -999.25  408.44700    -999.25    -999.25    0.03400
 23650.00000   -0.09030    -999.25    2.84600    0.00000   47.29600    6.15400    -999.25    -999.25    -999.25    -999.25 1592.33800    -999.25    -999.25    0.03000
 23700.00000   -0.02860    -999.25    2.75800   -0.00100   47.63900   11.49700    -999.25    -999.25    -999.25    -999.25  529.28400    -999.25    -999.25   -0.00100
 23750.00000   -0.01490    -999.25    2.74500    0.00400   49.03800   16.72200    -999.25    -999.25    -999.25    -999.25  363.92100    -999.25    -999.25   -0.01400
 23800.00000   -0.01720    -999.25    2.74100    0.00000   47.04400   12.01800    -999.25    -999.25    -999.25    -999.25  346.64100    -999.25    -999.25   -0.01200
 23850.00000   -0.02160    -999.25    2.75600    0.00100   48.02900   12.35700    -999.25    -999.25    -999.25    -999.25  121.47400    -999.25    -999.25   -0.01100
 23900.00000   -0.02730    -999.25    2.77500    0.00200   48.33300   13.65200    -999.25    -999.25    -999.25    -999.25  265.04400    -999.25    -999.25   -0.02000
 23950.00000   -0.03070    -999.25    2.75600    0.00800   49.32000   11.56000    -999.25    -999.25    -999.25    -999.25   17.74400    -999.25    -999.25   -0.01200
 24000.00000   -0.01560    -999.25    2.73300    0.03100   55.97200   32.80600    -999.25    -999.25    -999.25    -999.25    5.14400    -999.25    -999.25   -0.02700
