~Version ---------------------------------------------------
VERS. 2.0 : CWLS log ASCII Standard -VERSION 2.0
WRAP.  NO : ONE LINE PER DEPTH STEP
~Well ------------------------------------------------------
STRT.F                   900.0 : START DEPTH
STOP.F                  9150.0 : STOP DEPTH
STEP.F                50.00000 : STEP LENGTH
NULL.                  -999.25 : NULL VALUE
COMP.           ROBBINS ENERGY : COMPANY
WELL.            BALDWIN J. #1 : WELL
FLD .                       WC : FIELD
LOC .                          : LOCATION
CNTY.                ROBERTSON : COUNTY
STAT.                    TEXAS : STATE
CTRY. UNITED STATES OF AMERICA : COUNTRY
SRVC.             Schlumberger : SERVICE COMPANY
DATE.              16-Nov-1991 : LOGDATE
API .           42395303790000 : API NUMBER
UWI .           42395303790000 : UNIQUE WELL ID
SLAT.WGS84       31.3093381365 : SURFACE LATITUDE
SLON.WGS84       -96.343477195 : SURFACE LONGITUDE
~Curve Information -----------------------------------------
DEPT.F                 : 
GRR .GAPI 07 310 01 00 : GAMMA RAY FROM RESISTIVITY
DRHO.G/C3 45 356 01 00 : BULK DENSITY CORRECTION
SFLU.OHMM 07 220 01 00 : SHALLOW FOCUSED RESISTIVITY (UNAVERAGED)
SPR .MV   07 010 01 00 : SPONTANEOUS POTENTIAL FROM RESISTIVITY
ILD .OHMM 07 120 46 00 : INDUCTION DEEP RESISTIVITY
ILM .OHMM 07 120 44 00 : INDUCTION MEDIUM RESISTIVITY
DCAL.IN   07 280 01 00 : DIFFERENTIAL CALIPER
PEF .B/E  45 358 01 00 : PHOTO ELECTRIC FACTOR
NPHI.DEC  42 890 01 00 : NEUTRON POROSITY
DPHI.DEC  45 890 10 00 : DENSITY POROSITY
~Params ----------------------------------------------------
PD  .                     GL : PERMANENT DATUM
EPD .FT                  338 : ELEVATION PERMANENT DATUM
LMF .                    RKB : LOG MEASURED FROM
DAPD.FT                   16 : FEET ABOVE PERMANENT DATUM
DMF .                    RKB : DRILLING MEASURED FROM
EKB .FT                  354 : KELLY BUSHING
EDF .FT                  353 : DRILLING FLOOR
EGL .FT                  338 : GROUND LEVEL
DATE.               11/18/91 : RUN DATE
RUN .                      1 : RUN NUMBER
DD  .FT                 9200 : DEPTH DRILLER
DL  .FT                 9188 : DEPTH LOGGER
BLI .FT                 9181 : BOTTOM LOG INTERVAL
TLI .FT                  945 : TOP LOG INTERVAL
CS  .IN                8.625 : CASING SIZE
CBD .FT                  955 : CASING BOTTOM DRILLER
CBL .FT                  945 : CASING BOTTOM LOGGER
BS  .IN                7.875 : BIT SIZE
BSD .FT                 9200 : BIT SIZE AT DEPTH
DFT .                    GEL : DRILLING FLUID TYPE
DFD .                    9.8 : DRILLING FLUID DENSITY
DFV .                     39 : DRILLING FLUID VISCOSITY
DFPH.                      9 : DRILLING FLUID PH
DFL .                    9.2 : DRILLING FLUID LOSS
MSS .              CIRC TANK : MUD SAMPLE SOURCE
RMS .OHMM                2.4 : RESISTIVITY MUD SAMPLE
MST .DEGF                 96 : MUD SAMPLE TEMPERATURE
RMF .OHMM                1.8 : RESISTIVITY MUD FILTRATE SAMPLE
MFST.DEGF                 96 : MUD FILTRATE SAMPLE TEMPERATURE
RMC .OHMM                3.6 : RESISTIVITY MUD CAKE
MCST.DEGF                 96 : MUD CAKE SAMPLE TEMPERATURE
MFSS.                   CALC : MUD FILTRATE SAMPLE SOURCE
MCSS.                   CALC : MUD CAKE SAMPLE SOURCE
RMB .OHMM              1.148 : RESISTIVITY MUD AT BHT
TCS .HRS                 300 : TIME CIRCULATED STOPPED
TLAB.HRS                 930 : TIME LOGGER AT BOTTOM
LUN .                   2019 : LOGGING UNIT NUMBER
LUL .                  TYLER : LOGGING UNIT LOCATION
ENGI.               BROWNING : RECORDING ENGINEER
WITN.                  SNELL : WITNESSED BY
CLNT.                A2DTECH : CLIENT CODE
ORIG.     1" 2" 5" 10" PRINT : ORIGIN OF DATA
UWI .         42395303790000 : UNIQUE WELL ID
DICO. A2D Technologies, Inc. : DIGITIZING COMPANY
~Other -----------------------------------------------------
~ASCII -----------------------------------------------------
  900.00000   47.50560    -999.25    -999.25    -999.25    -999.25    -999.25    -999.25    -999.25    -999.25    -999.25
  950.00000   58.95560    0.02720   11.64410  -19.71610    6.70090   10.42280    2.51600    -999.25    -999.25    -999.25
 1000.00000   54.91210    0.02600    9.75890  -32.19990   11.67060   11.60270    4.03580    -999.25    -999.25    -999.25
 1050.00000   67.43900    0.03550    6.02920  -25.67670    6.49500    6.43260    5.34050    -999.25    -999.25    -999.25
 1100.00000   74.40790    0.04840    2.38490  -18.49500    2.50720    2.26650    9.68900    -999.25    -999.25    -999.25
 1150.00000   61.48260    0.01880    4.79140  -22.36030    6.41020    4.74020    9.05060    -999.25    -999.25    -999.25
 1200.00000   54.19280    0.01100   11.00670  -27.34140   14.06910   11.03510    6.83250    -999.25    -999.25    -999.25
 1250.00000   72.00490    0.02220    2.56090  -21.77590    2.68170    2.37390    4.63000    -999.25    -999.25    -999.25
 1300.00000   66.16160    0.02100    3.20830  -22.56960    3.20330    3.18640    4.17880    -999.25    -999.25    -999.25
 1350.00000   67.51910    0.02950    2.65340  -22.60150    2.63650    2.62260    6.00920    -999.25    -999.25    -999.25
 1400.00000   70.99390    0.03830    2.59960  -22.07060    2.56340    2.54990    7.69210    -999.25    -999.25    -999.25
 1450.00000   78.54030    0.02760    1.72650  -20.67780    1.68690    1.57680    7.13280    -999.25    -999.25    -999.25
 1500.00000   82.78900    0.01650    1.66780  -21.02990    1.67080    1.51270    9.22520    -999.25    -999.25    -999.25
 1550.00000   90.03180    0.01020    2.01950  -21.82150    2.06200    1.96980    9.16230    -999.25    -999.25    -999.25
 1600.00000   89.31120    0.01860    1.61080  -22.83430    1.56690    1.49150    7.60820    -999.25    -999.25    -999.25
 1650.00000   80.90880    0.01390    2.77030  -25.63580    2.76810    2.75320    6.77530    -999.25    -999.25    -999.25
 1700.00000   96.54730    0.01090    2.03210  -24.22340    2.03060    1.80810    6.07470    -999.25    -999.25    -999.25
 1750.00000   83.13970    0.01110    2.39090  -23.53260    2.38850    2.11840    6.92760    -999.25    -999.25    -999.25
 1800.00000   91.96640    0.01350    2.37300  -23.86810    2.37110    2.35860    5.86040    -999.25    -999.25    -999.25
 1850.00000   93.63630    0.01530    2.12960  -23.31670    1.94020    1.89800    6.57410    -999.25    -999.25    -999.25
 1900.00000   94.19340    0.02550    1.78880  -20.11420    1.69300    1.68370    5.26930    -999.25    -999.25    -999.25
 1950.00000   69.12720    0.01820    1.79790  -20.26570    1.80210    1.78910    5.13770    -999.25    -999.25    -999.25
 2000.00000   63.45840    0.01410    1.85190  -23.11510    1.82440    1.80940    4.42910    -999.25    -999.25    -999.25
 2050.00000   84.27290    0.00340    1.38230  -21.97240    1.41780    1.43210    5.28090    -999.25    -999.25    -999.25
 2100.00000   76.17200    0.02490    1.93820  -21.53110    1.86770    1.86300    4.79390    -999.25    -999.25    -999.25
 2150.00000   64.06560    0.00240    2.26630  -24.84030    1.91990    1.79400    4.46160    -999.25    -999.25    -999.25
 2200.00000   84.77440    0.01580    1.20670  -20.65250    1.05130    1.02700    4.74860    -999.25    -999.25    -999.25
 2250.00000   87.90550    0.01030    1.54060  -22.41770    1.38490    1.38520    4.95070    -999.25    -999.25    -999.25
 2300.00000   72.11100    0.00370    2.42050  -23.94010    2.18260    2.20470    3.15230    3.90270    0.34150    0.20890
 2350.00000   69.77030    0.01260    2.64580  -22.93490    2.35790    2.38180    3.12050    3.90190    0.30800    0.19500
 2400.00000   70.72820   -0.00450    4.50940  -25.20810    4.30700    4.35030    2.67420    4.32860    0.24670    0.17790
 2450.00000   85.79160    0.01170    1.20380  -18.99110    1.19440    1.20980    3.27250    2.61410    -999.25    0.33330
 2500.00000   67.36710    0.01410    1.99440  -23.69160    2.24100    2.16750    3.44590    2.80660    0.29850    0.25340
 2550.00000   97.10000    0.01370    0.96040  -19.50230    1.00590    1.01810    5.07180    2.50610    0.34890    0.31030
 2600.00000   95.60460    0.05240    1.38700  -20.23830    1.49590    1.51410    6.58270    2.75600    0.34970    0.24980
 2650.00000  104.22790    0.11790    1.07050  -18.33400    1.06640    1.01110    5.78720    2.82620    0.33990    0.24990
 2700.00000   85.50880    0.09640    1.32390  -22.91420    1.33870    1.35240    6.33960    3.07650    0.34810    0.21150
 2750.00000   93.12870    0.06570    1.14660  -20.68730    1.15420    1.16600    5.41090    2.78740    -999.25    0.28500
 2800.00000  104.12600    0.08100    1.34890   24.37800    1.33200    1.34540    7.92420    2.93950    0.33510    0.23260
 2850.00000   95.17870    0.01110    1.22910  -26.31810    1.19350    1.20630    6.90640    2.83270    -999.25    0.26690
 2900.00000   91.39760    0.04440    1.37070  -27.46080    1.36540    1.37400    6.96090    2.89680    0.35190    0.25450
 2950.00000   86.63130    0.06540    1.47360  -27.34880    1.46180    1.43570    6.43700    2.66670    0.32860    0.23550
 3000.00000   88.46930    0.03910    1.53650  -26.78900    1.55340    1.47850    5.87470    2.69190    -999.25    -999.25
 3050.00000   85.88140    0.01490    1.37840  -27.30160    1.37310    1.35220    5.65850    2.71710    -999.25    -999.25
 3100.00000   84.24880    0.01500    1.15030  -26.65600    1.14570    1.14800    4.94680    2.74230    -999.25    -999.25
 3150.00000   81.03360    0.01830    1.37690  -29.32460    1.28800    1.30020    3.78100    2.76750    -999.25    -999.25
 3200.00000   77.35400    0.03250    1.27100  -26.98130    1.15300    1.16460    4.02970    2.79270    -999.25    -999.25
 3250.00000   80.69710    0.01660    1.15830  -27.00100    1.00200    1.01210    4.45280    2.81780    -999.25    -999.25
 3300.00000   83.31090    0.03000    1.17570  -26.40080    1.08460    1.09640    5.38080    2.84300    -999.25    -999.25
 3350.00000   78.78230    0.03540    2.72850  -44.73110    2.77980    2.80870    4.87800    2.86820    -999.25    -999.25
 3400.00000   87.91110    0.03190    1.83810  -29.57570    1.73820    1.69790    5.11020    2.89340    -999.25    -999.25
 3450.00000   81.80310    0.03080    3.24480  -31.90720    3.15310    3.08380    4.95980    2.91860    -999.25    -999.25
 3500.00000   82.90740    0.01060    1.84120  -27.40990    1.63770    1.65450    5.48710    2.94380    -999.25    -999.25
 3550.00000   88.72290    0.00890    1.81220  -25.01960    1.56100    1.57670    4.89060    2.96890    -999.25    -999.25
 3600.00000   79.90080    0.03840    1.98640  -25.41650    1.83310    1.85250    3.93980    2.99410    -999.25    -999.25
 3650.00000   90.20770    0.01540    1.72860  -26.82210    1.60410    1.62100    5.11710    3.01930    -999.25    -999.25
 3700.00000   95.75020    0.01640    1.41270  -26.02510    1.18410    1.19600    7.29170    3.04450    -999.25    -999.25
 3750.00000   86.65530    0.07920    1.62290  -30.31370    1.38680    1.40080    9.46360    3.06970    -999.25    -999.25
 3800.00000   86.86810    0.01340    1.11840  -24.41920    0.95140    0.96110   11.29940    3.09490    -999.25    -999.25
 3850.00000   79.02880    0.03010    1.16070  -26.07510    0.98680    1.00440   11.28470    3.12000    -999.25    -999.25
 3900.00000   86.35920    0.01920    1.19050  -22.72930    0.97020    0.98040    9.75590    3.14520    -999.25    -999.25
 3950.00000   87.86390    0.05100    1.74250  -30.00580    1.36510    1.37890    7.88960    3.17040    -999.25    -999.25
 4000.00000   80.93200    0.07190    1.84990  -35.69820    1.60300    1.61940    6.15980    3.19560    -999.25    -999.25
 4050.00000   85.81520    0.10390    1.69250  -33.18640    1.33980    1.35330    4.66720    3.22080    -999.25    -999.25
 4100.00000   47.84700    0.00510    3.44140  -32.86950    2.91550    2.94480    2.24200    3.24600    -999.25    -999.25
 4150.00000   81.75120    0.13950    2.10020  -34.75260    1.95240    1.97260    3.41860    3.27110    -999.25    -999.25
