~Version ---------------------------------------------------
VERS. 2.0 : CWLS log ASCII Standard -VERSION 2.0
WRAP. YES : Multiple lines per depth step
~Well ------------------------------------------------------
STRT.FT                 3750.0 : START DEPTH
STOP.FT                15800.0 : STOP DEPTH
STEP.FT               50.00000 : STEP LENGTH
NULL.                  -999.25 : NULL VALUE
COMP.        EOG RESOURCES INC : COMPANY
WELL.         JOHNSON A B  #1R : WELL
FLD .             BRANTON WEST : FIELD
LOC .                          : LOCATION
CNTY.                     LEON : COUNTY
STAT.                    TEXAS : STATE
CTRY. UNITED STATES OF AMERICA : COUNTRY
SRVC.             Schlumberger : SERVICE COMPANY
DATE.              24-Sep-2006 : LOGDATE
API .           42289315440000 : API NUMBER
UWI .           42289315440000 : UNIQUE WELL ID
SLAT.WGS84       31.3479375148 : SURFACE LATITUDE
SLON.WGS84      -96.2310147208 : SURFACE LONGITUDE
~Curve Information -----------------------------------------
DEPT    .FT        : DEPTH FEET
AT10ED  .OHMM      : 10 INCH RESISTIVITY TWO FOOT RESOLUTION FROM AIT LOG
AT20ED  .OHMM      : 20 INCH RESISTIVITY TWO FOOT RESOLUTION FROM AIT LOG
AT30ED  .OHMM      : 30 INCH RESISTIVITY TWO FOOT RESOLUTION FROM AIT LOG
AT60ED  .OHMM      : 60 INCH RESISTIVITY TWO FOOT RESOLUTION FROM AIT LOG
AT90ED  .OHMM      : 90 INCH RESISTIVITY TWO FOOT RESOLUTION FROM AIT LOG
CALWS   .IN        : CALIPER [DCALED+BITS]
CONDWS  .MMHO      : CONDUCTIVITY [1000/DRESWS]
DCALED  .IN        : DIFFERENTIAL CALIPER FROM AIT LOG
DCORWS  .G/C3      : DENSITY CORRECTION [HDRAED]
DENWS   .G/C3      : FORMATION BULK DENSITY [CALC FROM DPOWS, M=2.71,F=1.0]
DPHZLSED.V/V       : DENSITY POROSITY LIMESTONE [M=2.71, F=1.0] FROM DENSITY LOG
DPOWS   .V/V       : DENSITY POROSITY LIMESTONE [DPHZLSED]
DRESWS  .OHMM      : DEEP RESISTIVITY [AT90ED]
DTED    .US/F      : DELTA-T FROM SONIC LOG
GRED    .GAPI      : GAMMA RAY FROM CBL LOG [ADJ.TO AIT LOG <13840> SONIC LOG]
GRRED   .GAPI      : GAMMA RAY FROM AIT LOG
GRSED   .GAPI      : GAMMA RAY FROM SONIC LOG
GRTED   .GAPI      : THORIUM GAMMA RAY FROM RST LOG [ADJ.TO SONIC LOG]
GRWS    .GAPI      : GAMMA RAY [GRRED SPL.TO GRED 13840' TO TD.]
HDRAED  .G/C3      : DENSITY CORRECTION FROM DENSITY LOG
MRESWS  .OHMM      : MEDIUM RESISTIVITY [AT30ED]
NPHILSED.V/V       : NEUTRON POROSITY LIMESTONE FROM DENSITY LOG
NPOWS   .V/V       : NEUTRON POROSITY LIMESTONE [NPHILSED]
PEFWS   .B/E       : PHOTOELECTRIC FACTOR [PEFZED]
PEFZED  .B/E       : PHOTOELECTRIC FACTOR FROM DENSITY LOG
RATIOED .UNITLESS  : RATIO FROM RST LOG [ADJ.TO SONIC LOG]
SIGMED  .CU        : NEUTRON CAPTURE CROSS SECTION FROM RST LOG [ADJ.TO SONIC LOG]
SPHIED  .V/V       : SONIC POROSITY [DTM=47.6, DTF=189] FROM SONIC LOG
SPRED   .MV        : SPONTANEOUS POTENTIAL FROM AIT LOG
SPWS    .MV        : SPONTANEOUS POTENTIAL [BASELINE 0 MV,SPRED]
SRESWS  .OHMM      : SHALLOW RESISTIVITY [AT10ED]
TENRED  .LBF       : TENSION FROM AIT LOG
TENSED  .LBF       : TENSION FROM SONIC LOG
TPHILSED.V/V       : THERMAL POROSITY LIMESTONE FROM RST LOG [ADJ.TO SONIC LOG]
~Params ----------------------------------------------------
PD  .                     GL : PERMANENT DATUM
EPD .FT                  449 : ELEVATION PERMANENT DATUM
LMF .                     KB : LOG MEASURED FROM
DAPD.FT                   27 : FEET ABOVE PERMANENT DATUM
DMF .                     KB : DRILLING MEASURED FROM
EKB .FT                  476 : KELLY BUSHING
EDF .FT                  475 : DRILLING FLOOR
EGL .FT                  449 : GROUND LEVEL
DATE.               09/24/06 : RUN DATE
RUN .                      1 : RUN NUMBER
DD  .FT                13864 : DEPTH DRILLER
DL  .FT                13877 : DEPTH LOGGER
BLI .FT                13869 : BOTTOM LOG INTERVAL
TLI .FT                 3829 : TOP LOG INTERVAL
CS  .IN                10.75 : CASING SIZE
CBD .FT                 3825 : CASING BOTTOM DRILLER
CBL .FT                 3829 : CASING BOTTOM LOGGER
BS  .IN                9.875 : BIT SIZE
BSD .FT                13864 : BIT SIZE AT DEPTH
DFT .  WATER BASED DISPERSED : DRILLING FLUID TYPE
DFD .                   11.6 : DRILLING FLUID DENSITY
DFV .                     42 : DRILLING FLUID VISCOSITY
DFPH.                   10.2 : DRILLING FLUID PH
DFL .                     16 : DRILLING FLUID LOSS
MSS .       CIRCULATION TANK : MUD SAMPLE SOURCE
RMS .OHMM              0.873 : RESISTIVITY MUD SAMPLE
MST .DEGF                 82 : MUD SAMPLE TEMPERATURE
RMF .OHMM              0.698 : RESISTIVITY MUD FILTRATE SAMPLE
MFST.DEGF                 82 : MUD FILTRATE SAMPLE TEMPERATURE
RMC .OHMM              1.048 : RESISTIVITY MUD CAKE
MCST.DEGF                 82 : MUD CAKE SAMPLE TEMPERATURE
MFSS.             CALCULATED : MUD FILTRATE SAMPLE SOURCE
MCSS.             CALCULATED : MUD CAKE SAMPLE SOURCE
RMB .OHMM              0.251 : RESISTIVITY MUD AT BHT
TCS .HRS                2300 : TIME CIRCULATED STOPPED
TLAB.HRS                1015 : TIME LOGGER AT BOTTOM
LUN .                   2267 : LOGGING UNIT NUMBER
LUL .                  TYLER : LOGGING UNIT LOCATION
ENGI.        BELKNA[ MUSTATA : RECORDING ENGINEER
WITN.                  SMITH : WITNESSED BY
CLNT.                A2DTECH : CLIENT CODE
ORIG.         1" 2" 5" PRINT : ORIGIN OF DATA
UWI .         42289315440000 : UNIQUE WELL ID
DICO. A2D Technologies, Inc. : DIGITIZING COMPANY
~Other -----------------------------------------------------
AIT-CDL-CNL RUN IN COMBO & ARRAY SONIC & RST-CBL LOG RUN
GRED,GRSED,DTED,SPHIED,GRTED & TDT LOG RUN IN CSG.[NOT DELETED FROM WELL AS FOR THIS INTERVAL NO WIRELINE DATA FOUND FOR PROCESSING]
DENSITY AFFECTED BY HEAVY MUD & MUD CAKE BELOW 10,000'
SP AFFECTED AT 8400' DUE TO HIGH AC AUX USED TO CLOSE POWER POSITION CALIPER
~ASCII -----------------------------------------------------
# ...
 13200.00000    7.86080    8.50170    9.43010    9.81190   10.27230   10.27380   97.34920    0.39880    0.10410    2.63220    0.04550    0.04550   10.27230    -999.25   24.03400   73.31860    -999.25    -999.25   73.31860    0.10410    9.43010    0.12610    0.12610    4.04360    4.04360    -999.25    -999.25    -999.25  -55.46560   -2.41970    7.86080 5371.93800    -999.25    -999.25
 13250.00000   21.86660   20.36030   27.06170   35.59330   39.51660   12.48040   25.30580    2.60540    0.00220    2.32110    0.22740    0.22740   39.51660    -999.25   10.92320   22.94420    -999.25    -999.25   22.94420    0.00220   27.06170    0.01670    0.01670    8.72320    8.72320    -999.25    -999.25    -999.25 -109.06450  -41.70690   21.86660 5541.90920    -999.25    -999.25
 13300.00000   63.26410  235.93320  284.41770  465.51680  398.88700   10.02500    2.50700    0.15000    0.00710    2.72520   -0.00890   -0.00890  398.88700    -999.25   15.92420   29.99050    -999.25    -999.25   29.99050    0.00710  284.41770    0.00750    0.00750    3.12220    3.12220    -999.25    -999.25    -999.25  -93.73030  -14.33950   63.26410 5412.64210    -999.25    -999.25
 13350.00000    9.33750    7.82150    7.38270    6.85490    7.52940   10.77180  132.81270    0.89680   -0.03400    2.53420    0.10280    0.10280    7.52940    -999.25   26.30540   54.22460    -999.25    -999.25   54.22460   -0.03400    7.38270    0.09080    0.09080    5.75540    5.75540    -999.25    -999.25    -999.25  -95.28500   -6.77110    9.33750 5556.28710    -999.25    -999.25
 13400.00000    7.35730    7.52690    7.82070    8.09560    8.36990   10.30320  119.47570    0.42820    0.00730    2.61250    0.05700    0.05700    8.36990    -999.25   34.67140   72.94830    -999.25    -999.25   72.94830    0.00730    7.82070    0.14150    0.14150    4.04860    4.04860    -999.25    -999.25    -999.25 -108.15220   -6.50230    7.35730 5467.84280    -999.25    -999.25
 13450.00000    6.99710    7.45460    7.80550    9.09600    9.59990   10.41360  104.16780    0.53860    0.07230    2.61920    0.05310    0.05310    9.59990    -999.25   28.47430   60.60580    -999.25    -999.25   60.60580    0.07230    7.80550    0.15250    0.15250    4.36540    4.36540    -999.25    -999.25    -999.25 -122.26420   -7.47840    6.99710 5421.28370    -999.25    -999.25
 13500.00000   11.23660   10.01820    9.79990    9.48960    9.23720   10.16600  108.25790    0.29100    0.03870    2.60810    0.05960    0.05960    9.23720    -999.25   23.84280   71.76080    -999.25    -999.25   71.76080    0.03870    9.79990    0.12830    0.12830    5.64310    5.64310    -999.25    -999.25    -999.25 -136.06680   -8.14500   11.23660 5505.92770    -999.25    -999.25
 13550.00000   10.03300   10.76170   11.02390   11.25470   11.66260   10.58960   85.74420    0.71460    0.01110    2.65660    0.03120    0.03120   11.66260    -999.25   25.19560   63.71240    -999.25    -999.25   63.71240    0.01110   11.02390    0.13340    0.13340    5.04760    5.04760    -999.25    -999.25    -999.25 -158.66220  -17.60440   10.03300 5414.34770    -999.25    -999.25
 13600.00000    8.33590    8.16680    9.03670    9.89950    9.63020   10.42360  103.84000    0.54860    0.04150    2.59390    0.06790    0.06790    9.63020    -999.25   26.49050   52.22380    -999.25    -999.25   52.22380    0.04150    9.03670    0.12270    0.12270    4.29770    4.29770    -999.25    -999.25    -999.25 -162.12460  -15.30920    8.33590 5400.06980    -999.25    -999.25
 13650.00000    5.78710    5.93340    6.08350    6.28800    6.42230   10.50920  155.70750    0.63420    0.03430    2.65000    0.03510    0.03510    6.42230    -999.25   31.62730   75.91100    -999.25    -999.25   75.91100    0.03430    6.08350    0.14890    0.14890    5.36670    5.36670    -999.25    -999.25    -999.25 -152.86060   -5.46870    5.78710 5562.15670    -999.25    -999.25
 13700.00000    5.50590    6.45000    7.39540    9.05930   10.15320   10.35400   98.49110    0.47900    0.09410    2.66710    0.02510    0.02510   10.15320    -999.25   38.45080   75.13900    -999.25    -999.25   75.13900    0.09410    7.39540    0.15890    0.15890    6.38750    6.38750    -999.25    -999.25    -999.25 -160.94320   -8.65320    5.50590 5489.60110    -999.25    -999.25
 13750.00000   12.99190   14.24310   19.08860   22.51910   17.11260    9.87650   58.43650    0.00150    0.02590    2.68780    0.01300    0.01300   17.11260    -999.25   29.80900   56.37310    -999.25    -999.25   56.37310    0.02590   19.08860    0.06470    0.06470    4.19190    4.19190    -999.25    -999.25    -999.25 -164.74920   -6.71630   12.99190 5536.93990    -999.25    -999.25
 13800.00000    3.24800    3.29950    3.40720    3.52630    3.58820    9.77000  278.69130   -0.10500    0.06520    2.65430    0.03260    0.03260    3.58820    -999.25   34.95110   87.34930    -999.25    -999.25   87.34930    0.06520    3.40720    0.20360    0.20360    6.08650    6.08650    -999.25    -999.25    -999.25 -175.41770   -5.33530    3.24800 5392.28370    -999.25    -999.25
 13850.00000    9.94380   10.34260   11.69950   12.63630   13.75160    9.61080   72.71880   -0.26420    0.15040    2.67580    0.02000    0.02000   13.75160    -999.25   35.74080    -999.25    -999.25   35.99040   35.74080    0.15040   11.69950    -999.25    -999.25    9.29530    9.29530    0.34230   36.06490    -999.25 -151.64460   -6.72460    9.94380 5313.20170    -999.25    0.26850
 13900.00000    -999.25    -999.25    -999.25    -999.25    -999.25    -999.25    -999.25    -999.25    -999.25    -999.25    -999.25    -999.25    -999.25   57.34520   39.13410    -999.25   53.58330   38.43210   39.13410    -999.25    -999.25    -999.25    -999.25    -999.25    -999.25    0.38600   34.37620    0.06860    -999.25    -999.25    -999.25    -999.25 5002.08060    0.27000
 13950.00000    -999.25    -999.25    -999.25    -999.25    -999.25    -999.25    -999.25    -999.25    -999.25    -999.25    -999.25    -999.25    -999.25   56.49970   36.68690    -999.25   54.28040   40.77170   36.68690    -999.25    -999.25    -999.25    -999.25    -999.25    -999.25    0.40570   34.94810    0.06410    -999.25    -999.25    -999.25    -999.25 4876.88430    0.27000
 14000.00000    -999.25    -999.25    -999.25    -999.25    -999.25    -999.25    -999.25    -999.25    -999.25    -999.25    -999.25    -999.25    -999.25   56.76610   44.19540    -999.25   55.35820   37.91430   44.19540    -999.25    -999.25    -999.25    -999.25    -999.25    -999.25    0.38780   32.73730    0.06560    -999.25    -999.25    -999.25    -999.25 4963.64550    0.27000
 14050.00000    -999.25    -999.25    -999.25    -999.25    -999.25    -999.25    -999.25    -999.25    -999.25    -999.25    -999.25    -999.25    -999.25   56.32760   41.43180    -999.25   65.11280   44.94660   41.43180    -999.25    -999.25    -999.25    -999.25    -999.25    -999.25    0.38820   37.06190    0.06280    -999.25    -999.25    -999.25    -999.25 5039.31250    0.27000
 14100.00000    -999.25    -999.25    -999.25    -999.25    -999.25    -999.25    -999.25    -999.25    -999.25    -999.25    -999.25    -999.25    -999.25   56.17440   48.58580    -999.25   74.21400   51.93780   48.58580    -999.25    -999.25    -999.25    -999.25    -999.25    -999.25    0.38780   33.60540    0.06150    -999.25    -999.25    -999.25    -999.25 4936.73000    0.27000
 14150.00000    -999.25    -999.25    -999.25    -999.25    -999.25    -999.25    -999.25    -999.25    -999.25    -999.25    -999.25    -999.25    -999.25   56.76030   33.51420    -999.25   48.31290   33.96790   33.51420    -999.25    -999.25    -999.25    -999.25    -999.25    -999.25    0.38780   32.54420    0.06590    -999.25    -999.25    -999.25    -999.25 5059.83980    0.27000
 14200.00000    -999.25    -999.25    -999.25    -999.25    -999.25    -999.25    -999.25    -999.25    -999.25    -999.25    -999.25    -999.25    -999.25   56.42260   28.02400    -999.25   45.95960   34.58440   28.02400    -999.25    -999.25    -999.25    -999.25    -999.25    -999.25    0.37630   33.38390    0.06380    -999.25    -999.25    -999.25    -999.25 5043.76220    0.27000
