~Version ---------------------------------------------------
VERS. 2.0 : CWLS log ASCII Standard -VERSION 2.0
WRAP. YES : Multiple lines per depth step
~Well ------------------------------------------------------
STRT.FT                  2550.0 : START DEPTH
STOP.FT                 14350.0 : STOP DEPTH
STEP.FT                50.00000 : STEP LENGTH
NULL.                   -999.25 : NULL VALUE
COMP. GENERAL CRUDE OIL COMPANY : COMPANY
WELL.    A G HENKES GAS UNIT #1 : WELL
FLD .                   WILDCAT : FIELD
LOC .                           : LOCATION
CNTY.                    LAVACA : COUNTY
STAT.                     TEXAS : STATE
CTRY.  UNITED STATES OF AMERICA : COUNTRY
SRVC.                   Unknown : SERVICE COMPANY
DATE.               29-Aug-1977 : LOGDATE
API .            42285307220000 : API NUMBER
UWI .            42285307220000 : UNIQUE WELL ID
SLAT.WGS84        29.3839239903 : SURFACE LATITUDE
SLON.WGS84       -96.9359395822 : SURFACE LONGITUDE
~Curve Information -----------------------------------------
DEPT  .FT    : DEPTH
SPED  .MV    : SPONTANEOUS POTENTIAL FROM DIL/SONIC LOG
CALRED.IN    : CALIPER FROM DIL/SONIC LOG
ILDED .OHMM  : INDUCTION LOG DEEP RESISTIVITY FROM DIL/SONIC LOG
ILMED .OHMM  : INDUCTION LOG MEDIUM RESISTIVITY FROM DIL/SONIC LOG
LL8ED .OHMM  : LATEROLOG 8 INCH FROM DIL/SONIC LOG
CILDED.MMHO  : CONDUCTIVITY FROM DIL/SONIC LOG
CALDED.IN    : CALIPER FROM CN/FD LOG
GRDED .GAPI  : GAMMA RAY FROM CN/FD LOG
DRHOED.G/C3  : DENSITY CORRECTION FROM CN/FD LOG
RHOBED.G/C3  : BULK DENSITY FROM CN/FD LOG
NPHIED.V/V   : NEUTRON POROSITY LIMETONE FROM CN/FD LOG
DTED  .US/F  : DELTA TIME FROM DIL/SONIC LOG
DPHIED.V/V   : DENSITY POROSITY [M=2.68, F=1.0] FROM CN/FD LOG
SPWS  .MV    : SPONTANEOUS POTENTIAL [BASELINE 0 MV]
CALWS .IN    : CALIPER [2520 CALRED, 9690.5 CALDED]
CONDWS.MMHO  : CONDUCTIVITY [CILDED]
DCORWS.G/C3  : DENSITY CORRECTION [DRHOED]
DENWS .G/C3  : BULK DENSITY [RHOBED]
DPOWS .V/V   : DENSITY POROSITY [M=2.68, F=1.0] [DPHIED]
DRESWS.OHMM  : DEEP RESISTIVITY [ILDED]
DTWS  .US/F  : DELTA TIME [DTED]
GRWS  .GAPI  : GAMMA RAY [GRDED]
MRESWS.OHMM  : MEDIUM RESISTIVITY [ILMED]
NPOWS .V/V   : NEUTRON POROSITY LIMETONE [NPHIED]
SRESWS.OHMM  : SHALLOW RESISTIVITY [LL8ED]
~Params ----------------------------------------------------
EKB .F                 278.0 : Kelly bushing
EGL .F                 260.0 : Ground level
EDF .F                 277.0 : Drilling floor
EPD .F                 260.0 : Permanent datum
TD  .F               14505.0 : Total depth
DATE.            29-AUG-1977 : Date logged
CLNT.                A2DTECH : Client Code
DAPD.F                    18 : Feet Above Permanent Datum
DD  .F                 14505 : Depth driller
DL  .F                 14401 : Depth logger
BLI .F                 14394 : Bottom log interval
TLI .F                 13663 : Top log interval
CS1 .IN                    7 : Casing size
CBD1.             7" @ 3646' : Casing driller 1
CBL1.F                 13663 : Casing logger 1
BS1 .IN                    6 : Bit size
BSD1.F                 14505 : Depth drilled with bit1
DFT .                CLS-LIG : Type fluid in hole
DFD .                   11.6 : Density
DFV .                     45 : Viscosity
DFPH.                     11 : pH
DFL .                    3.8 : Fluid loss
MSS .              CIRC. PIT : Source of sample
RMS .OHMM              0.865 : Rm
RMF .OHMM               0.57 : Rmf
RMC .OHMM                1.3 : Rmc
MFSS.                   MEAS : Source Rmf.
MCSS.                   CALC : Source Rmc.
TCS .HRS                 330 : Time Circ. stopped
TLAB.HRS                 530 : Time logger at bottom
LUN .                   8005 : Logging unit number
LUL .                   VICT : Logging unit location
ORIG.            2" 5" PRINT : Origin of data
UWI .         42285307220000 : Unique Well ID
DICO. A2D TECHNOLOGIES, INC. : Digitizing Company
SL  .  3700' FWL & 1000' FNL : Surface Location
PD  .                     GL : Permanent Datum
LMF .                     KB : Log Measured From
DMF .                     KB : Drilling Measured From
~Other -----------------------------------------------------
~ASCII -----------------------------------------------------
# ...
 10950.00000  -18.07330    -999.25    1.75690    1.74200    2.00000  571.21050   13.89160    -999.25   -0.03710    2.49510    0.33950   90.54010    0.10700   -1.42180   13.89160  571.21050   -0.03710    2.49510    0.10700    1.75690   90.54010    -999.25    1.74200    0.33950    2.00000
 11000.00000  -20.18120    -999.25    2.59900    2.41470    2.90030  408.67180   11.18100    -999.25   -0.00070    2.53780    0.22770   92.34190    0.08200   -3.53970   11.18100  408.67180   -0.00070    2.53780    0.08200    2.59900   92.34190    -999.25    2.41470    0.22770    2.90030
 11050.00000  -45.63350    -999.25   12.42960   12.05410   10.61880   86.68730    8.98200    -999.25   -0.03580    2.34460    0.15900   78.82880    0.20300  -29.00200    8.98200   86.68730   -0.03580    2.34460    0.20300   12.42960   78.82880    -999.25   12.05410    0.15900   10.61880
 11100.00000  -18.49600    -999.25    3.35420    3.45110    3.76770  306.49530   11.51210    -999.25    0.00520    2.54100    0.16890   80.03000    0.07800   -1.87450   11.51210  306.49530    0.00520    2.54100    0.07800    3.35420   80.03000    -999.25    3.45110    0.16890    3.76770
 11150.00000  -17.89430    -999.25    2.67150    2.65440    3.00200  373.32010   11.96410    -999.25    0.00370    2.57310    0.23670   77.58620    0.06900   -1.28280   11.96410  373.32010    0.00370    2.57310    0.06900    2.67150   77.58620    -999.25    2.65440    0.23670    3.00200
 11200.00000  -20.15040    -999.25    2.72770    2.50960    2.27950  360.68190   13.42470    -999.25   -0.05600    2.43910    0.25950   83.28340    0.14100   -3.54890   13.42470  360.68190   -0.05600    2.43910    0.14100    2.72770   83.28340    -999.25    2.50960    0.25950    2.27950
 11250.00000  -25.45280    -999.25    2.88220    2.94430    3.08790  351.12810   11.55730    -999.25    0.00490    2.51980    0.21000   78.63560    0.09500   -8.86140   11.55730  351.12810    0.00490    2.51980    0.09500    2.88220   78.63560    -999.25    2.94430    0.21000    3.08790
 11300.00000  -19.12750    -999.25    2.64080    2.77570    2.59800  390.09290   11.45190    -999.25   -0.00060    2.52800    0.26310   81.78410    0.08500   -2.54610   11.45190  390.09290   -0.00060    2.52800    0.08500    2.64080   81.78410    -999.25    2.77570    0.26310    2.59800
 11350.00000  -18.95790    -999.25    3.01890    3.00590    3.19680  352.94120   11.39160    -999.25    0.01310    2.57730    0.23520   80.73460    0.06100   -2.38650   11.39160  352.94120    0.01310    2.57730    0.06100    3.01890   80.73460    -999.25    3.00590    0.23520    3.19680
 11400.00000  -18.76470    -999.25    3.49590    3.47470    3.34080  284.83560   11.25600    -999.25    0.00490    2.58030    0.23800   79.81930    0.05700   -2.20330   11.25600  284.83560    0.00490    2.58030    0.05700    3.49590   79.81930    -999.25    3.47470    0.23800    3.34080
 11450.00000  -20.29700    -999.25    3.44780    3.49840    3.80670  286.37770   11.45150    -999.25    0.00150    2.58180    0.21200   79.97060    0.05800   -3.74560   11.45150  286.37770    0.00150    2.58180    0.05800    3.44780   79.97060    -999.25    3.49840    0.21200    3.80670
 11500.00000  -20.76200    -999.25    4.51160    4.70820    4.48990  223.51950   11.82830    -999.25   -0.00210    2.57060    0.20300   77.56020    0.06000   -4.22060   11.82830  223.51950   -0.00210    2.57060    0.06000    4.51160   77.56020    -999.25    4.70820    0.20300    4.48990
 11550.00000  -19.45500    -999.25    3.37720    3.43980    3.43680  308.05110   12.34050    -999.25    0.00000    2.57280    0.26360   80.18070    0.05700   -2.92360   12.34050  308.05110    0.00000    2.57280    0.05700    3.37720   80.18070    -999.25    3.43980    0.26360    3.43680
 11600.00000  -18.31760    -999.25    2.80380    2.62560    2.87050  373.59450   12.57090    -999.25   -0.01790    2.55560    0.27910   82.73350    0.07500   -1.79630   12.57090  373.59450   -0.01790    2.55560    0.07500    2.80380   82.73350    -999.25    2.62560    0.27910    2.87050
 11650.00000  -19.03720    -999.25    1.89610    1.82850    2.00190  524.76780   14.35350    -999.25   -0.03330    2.45940    0.35430   91.14040    0.12800   -2.52590   14.35350  524.76780   -0.03330    2.45940    0.12800    1.89610   91.14040    -999.25    1.82850    0.35430    2.00190
 11700.00000  -18.52160    -999.25    2.54570    2.56460    2.96960  399.38080   12.64660    -999.25    0.00220    2.54360    0.27930   81.68160    0.08400   -2.02030   12.64660  399.38080    0.00220    2.54360    0.08400    2.54570   81.68160    -999.25    2.56460    0.27930    2.96960
 11750.00000  -19.07710    -999.25    1.86170    1.72890    1.87900  536.11300   14.82340    -999.25   -0.04480    2.44230    0.34360   87.03640    0.14400   -2.58580   14.82340  536.11300   -0.04480    2.44230    0.14400    1.86170   87.03640    -999.25    1.72890    0.34360    1.87900
 11800.00000  -19.56130    -999.25    2.69010    2.18630    2.46270  393.19200   16.00930    -999.25   -0.03060    2.46690    0.29960   81.68170    0.12100   -3.08000   16.00930  393.19200   -0.03060    2.46690    0.12100    2.69010   81.68170    -999.25    2.18630    0.29960    2.46270
 11850.00000  -19.49330    -999.25    2.34360    2.25690    2.71360  439.61840   14.94580    -999.25   -0.03280    2.45410    0.32650   84.50600    0.13900   -3.02200   14.94580  439.61840   -0.03280    2.45410    0.13900    2.34360   84.50600    -999.25    2.25690    0.32650    2.71360
 11900.00000  -17.92120    -999.25    2.28000    2.36740    2.67630  421.05260   13.39470    -999.25   -0.01640    2.49220    0.31030   86.78680    0.09400   -1.46000   13.39470  421.05260   -0.01640    2.49220    0.09400    2.28000   86.78680    -999.25    2.36740    0.31030    2.67630
 11950.00000  -16.86800    -999.25    2.92210    3.01240    3.22700  352.94740   11.93390    -999.25   -0.00450    2.55940    0.25240   84.23440    0.07300   -0.41680   11.93390  352.94740   -0.00450    2.55940    0.07300    2.92210   84.23440    -999.25    3.01240    0.25240    3.22700
 12000.00000  -17.46990    -999.25    2.29560    2.24060    2.35120  452.01240   12.98810    -999.25   -0.02610    2.46530    0.26950   87.23750    0.12400   -1.02870   12.98810  452.01240   -0.02610    2.46530    0.12400    2.29560   87.23750    -999.25    2.24060    0.26950    2.35120
 12050.00000  -18.50100    -999.25    2.80670    3.11790    3.32170  369.96910   12.26510    -999.25   -0.00670    2.58700    0.19000   80.36020    0.04700   -2.06980   12.26510  369.96910   -0.00670    2.58700    0.04700    2.80670   80.36020    -999.25    3.11790    0.19000    3.32170
 12100.00000  -19.57290    -999.25    2.70890    2.80530    2.95930  374.61610   12.92740    -999.25   -0.01790    2.53770    0.21690   81.68110    0.08500   -3.15170   12.92740  374.61610   -0.01790    2.53770    0.08500    2.70890   81.68110    -999.25    2.80530    0.21690    2.95930
 12150.00000  -16.70160    -999.25    3.40070    3.29120    3.75370  314.24150   12.36970    -999.25    0.00370    2.56670    0.21920   80.86700    0.06300   -0.29040   12.36970  314.24150    0.00370    2.56670    0.06300    3.40070   80.86700    -999.25    3.29120    0.21920    3.75370
 12200.00000  -19.39830    -999.25    2.80380    2.79950    3.25810  358.10450   12.24250    -999.25    0.00000    2.57200    0.19940   82.81000    0.06300   -2.99710   12.24250  358.10450    0.00000    2.57200    0.06300    2.80380   82.81000    -999.25    2.79950    0.19940    3.25810
 12250.00000  -20.42780    -999.25    5.08880    4.15810    3.63670  201.24150   10.98470    -999.25   -0.01340    2.52950    0.21060   82.95790    0.09100   -4.03670   10.98470  201.24150   -0.01340    2.52950    0.09100    5.08880   82.95790    -999.25    4.15810    0.21060    3.63670
 12300.00000  -19.94210    -999.25    3.90320    3.72300    3.44220  260.05570   12.42420    -999.25    0.01050    2.51200    0.20520   79.04190    0.09700   -3.56100   12.42420  260.05570    0.01050    2.51200    0.09700    3.90320   79.04190    -999.25    3.72300    0.20520    3.44220
