~Version ---------------------------------------------------
VERS. 2.0 : CWLS log ASCII Standard -VERSION 2.0
WRAP.  NO : ONE LINE PER DEPTH STEP
~Well ------------------------------------------------------
STRT.FT                 3150.0 : START DEPTH
STOP.FT                 7450.0 : STOP DEPTH
STEP.FT               50.00000 : STEP LENGTH
NULL.                  -999.25 : NULL VALUE
COMP. CHAMPLIN EXPLORATION INC : COMPANY
WELL.         FONDREN HELEN #1 : WELL
FLD .                 GIDDINGS : FIELD
LOC .                          : LOCATION
CNTY.                  FAYETTE : COUNTY
STAT.                    TEXAS : STATE
CTRY. UNITED STATES OF AMERICA : COUNTRY
SRVC.             Schlumberger : SERVICE COMPANY
DATE.              18-Dec-1980 : LOGDATE
API .           42149308070000 : API NUMBER
UWI .           42149308070000 : UNIQUE WELL ID
SLAT.WGS84       29.9634726024 : SURFACE LATITUDE
SLON.WGS84      -97.1154941932 : SURFACE LONGITUDE
~Curve Information -----------------------------------------
DEPT  .FT    : DEPTH FEET
SPWS  .MV    : SPONTANEOUS POTENTIAL [BASELINE 0 MV] [SPRED]
DRHOED.G/C3  : DENSITY CORRECTION FROM DENSITY LOG
DPHIED.V/V   : DENSITY POROSITY [M=2.71 F=1.0] FROM DENSITY LOG
GRWS  .GAPI  : GAMMA RAY [GRRED]
GRRED .GAPI  : GAMMA RAY FROM RESISTIVITY LOG
SPRED .MV    : SPONTANEOUS POTENTIAL FROM RESISTIVITY LOG
SFLUED.OHMM  : SPHERICALLY FOCUSED LOG RESISTIVITY
ILDED .OHMM  : INDUCTION LOG DEEP RESISTIVITY
ILMED .OHMM  : INDUCTION LOG MEDIUM RESISTIVITY
DCALED.IN    : DIFFERENTIAL CALIPER FROM DENSITY LOG
CALWS .IN    : CALIPER [CALRED]
CALRED.IN    : CALIPER FROM RESISTIVITY LOG
NPHIED.V/V   : NEUTRON POROSITY LIMESTONE FROM DENSITY LOG
DCORWS.G/C3  : DENSITY CORRECTION [DRHOED]
DRESWS.OHMM  : DEEP RESISTIVITY [ILDED]
MRESWS.OHMM  : MEDIUM RESISTIVITY [ILMED]
SRESWS.OHMM  : SHALLOW RESISTIVITY [SFLUED]
CONDWS.MMHO  : CONDUCTIVITY [1000/DRESWS]
NPOWS .V/V   : NEUTRON POROSITY [NPHIED_LS]
DENWS .G/C3  : BULK DENSITY [M=2.71 F=1.0] [CALCULATED FROM DPHIED]
DPOWS .V/V   : DENSITY POROSITY [M=2.71 F=1] [CALCULATED FROM DENWS]
~Params ----------------------------------------------------
PD  .                     GL : PERMANENT DATUM
EPD .FT                  297 : ELEVATION PERMANENT DATUM
LMF .                     KB : LOG MEASURED FROM
DMF .                     KB : DRILLING MEASURED FROM
EKB .FT                  311 : KELLY BUSHING
EDF .FT                  310 : DRILLING FLOOR
EGL .FT                  297 : GROUND LEVEL
DATE.               12/18/80 : RUN DATE
RUN .                      1 : RUN NUMBER
DD  .FT                 7500 : DEPTH DRILLER
DL  .FT                 7490 : DEPTH LOGGER
BLI .FT                 7484 : BOTTOM LOG INTERVAL
TLI .FT                 3180 : TOP LOG INTERVAL
CS  .IN                8.625 : CASING SIZE
CBD .FT                 3190 : CASING BOTTOM DRILLER
CBL .FT                 3180 : CASING BOTTOM LOGGER
BS  .IN                7.875 : BIT SIZE
BSD .FT                 7500 : BIT SIZE AT DEPTH
DFT .          LIGNOSUFONATE : DRILLING FLUID TYPE
DFD .                    9.1 : DRILLING FLUID DENSITY
DFV .                     57 : DRILLING FLUID VISCOSITY
DFPH.                      9 : DRILLING FLUID PH
DFL .                      5 : DRILLING FLUID LOSS
MSS .              CIRC TANK : MUD SAMPLE SOURCE
RMS .OHMM               2.08 : RESISTIVITY MUD SAMPLE
MST .DEGF                 98 : MUD SAMPLE TEMPERATURE
RMF .OHMM               2.46 : RESISTIVITY MUD FILTRATE SAMPLE
MFST.DEGF                 75 : MUD FILTRATE SAMPLE TEMPERATURE
RMC .OHMM               3.12 : RESISTIVITY MUD CAKE
MCST.DEGF                 98 : MUD CAKE SAMPLE TEMPERATURE
MFSS.                      M : MUD FILTRATE SAMPLE SOURCE
MCSS.                      C : MUD CAKE SAMPLE SOURCE
RMB .OHMM               1.19 : RESISTIVITY MUD AT BHT
TCS .HRS                 500 : TIME CIRCULATED STOPPED
TLAB.HRS                 850 : TIME LOGGER AT BOTTOM
LUN .                   8011 : LOGGING UNIT NUMBER
LUL .               VICTORIA : LOGGING UNIT LOCATION
ENGI.                   SHEA : RECORDING ENGINEER
WITN.                BEAKHAM : WITNESSED BY
CLNT.                A2DTECH : CLIENT CODE
ORIG.            2" 5" PRINT : ORIGIN OF DATA
UWI .         42149308070000 : UNIQUE WELL ID
DICO. A2D Technologies, Inc. : DIGITIZING COMPANY
~Other -----------------------------------------------------
ALL LOGS RUN IN COMBO.
~ASCII -----------------------------------------------------
 3150.00000    -999.25    -999.25    -999.25    -999.25    -999.25    -999.25    -999.25    -999.25    -999.25    -999.25    -999.25    -999.25    -999.25    -999.25    -999.25    -999.25    -999.25    -999.25    -999.25    -999.25    -999.25
 3200.00000   -7.33820    -999.25    -999.25   79.42010   79.42010  -31.21320    3.66910    3.85140    3.90190    2.16240   10.03740   10.03740    -999.25    -999.25    3.85140    3.90190    3.66910  259.64580    -999.25    -999.25    -999.25
 3250.00000   -0.18670    -999.25    -999.25   90.65100   90.65100  -24.87000    1.78380    2.15570    2.12870    2.96340   10.83840   10.83840    -999.25    -999.25    2.15570    2.12870    1.78380  463.88640    -999.25    -999.25    -999.25
 3300.00000  -11.42500    -999.25    -999.25   73.95930   73.95930  -36.44050    2.79370    2.97610    3.28390    1.52320    9.39820    9.39820    -999.25    -999.25    2.97610    3.28390    2.79370  336.01020    -999.25    -999.25    -999.25
 3350.00000  -29.04150    -999.25    -999.25   65.47470   65.47470  -52.69010    6.00820    4.91610    5.53570    1.38280    9.25780    9.25780    -999.25    -999.25    4.91610    5.53570    6.00820  203.41330    -999.25    -999.25    -999.25
 3400.00000  -32.21790    -999.25    -999.25   50.97190   50.97190  -54.47090    5.34910    3.72160    4.50220    0.42620    8.30120    8.30120    -999.25    -999.25    3.72160    4.50220    5.34910  268.70160    -999.25    -999.25    -999.25
 3450.00000  -62.48980    -999.25    -999.25   37.43760   37.43760  -83.34710    7.10420    3.19740    4.07990    0.84580    8.72080    8.72080    -999.25    -999.25    3.19740    4.07990    7.10420  312.75410    -999.25    -999.25    -999.25
 3500.00000  -11.65670    -999.25    -999.25   87.89530   87.89530  -31.22750    3.79530    3.42070    3.55060    0.94000    8.81500    8.81500    -999.25    -999.25    3.42070    3.55060    3.79530  292.33780    -999.25    -999.25    -999.25
 3550.00000  -15.70850    -999.25    -999.25   82.61520   82.61520  -34.99440    5.04340    3.60760    4.07470    0.37900    8.25400    8.25400    -999.25    -999.25    3.60760    4.07470    5.04340  277.19260    -999.25    -999.25    -999.25
 3600.00000   -8.76700    -999.25    -999.25   91.34910   91.34910  -29.60310    4.62680    2.72420    2.89880    0.58360    8.45860    8.45860    -999.25    -999.25    2.72420    2.89880    4.62680  367.08020    -999.25    -999.25    -999.25
 3650.00000  -47.92960    -999.25    -999.25   48.25700   48.25700  -68.10570   16.39660    7.25050    8.87510   -0.26120    7.61380    7.61380    -999.25    -999.25    7.25050    8.87510   16.39660  137.92150    -999.25    -999.25    -999.25
 3700.00000    1.17990    -999.25    -999.25   95.83150   95.83150  -17.70700    3.59990    3.26110    3.29650    0.99860    8.87360    8.87360    -999.25    -999.25    3.26110    3.29650    3.59990  306.64500    -999.25    -999.25    -999.25
 3750.00000  -47.06270    -999.25    -999.25   62.68190   62.68190  -64.91820    7.07820    2.62210    3.38830   -0.44130    7.43370    7.43370    -999.25    -999.25    2.62210    3.38830    7.07820  381.37370    -999.25    -999.25    -999.25
 3800.00000  -41.94670    -999.25    -999.25   55.39270   55.39270  -58.71640    6.83130    2.78280    3.48880   -0.46200    7.41300    7.41300    -999.25    -999.25    2.78280    3.48880    6.83130  359.35030    -999.25    -999.25    -999.25
 3850.00000  -50.68920    -999.25    -999.25   60.82960   60.82960  -66.37320    6.52100    2.56400    2.94610   -0.69980    7.17520    7.17520    -999.25    -999.25    2.56400    2.94610    6.52100  390.01560    -999.25    -999.25    -999.25
 3900.00000  -15.64070    -999.25    -999.25  105.52620  105.52620  -30.23900    4.56620    3.28880    3.62110   -0.47940    7.39560    7.39560    -999.25    -999.25    3.28880    3.62110    4.56620  304.06230    -999.25    -999.25    -999.25
 3950.00000  -15.10060    -999.25    -999.25  107.93890  107.93890  -27.42850    5.23580    4.54700    4.71430   -0.93970    6.93530    6.93530    -999.25    -999.25    4.54700    4.71430    5.23580  219.92520    -999.25    -999.25    -999.25
 4000.00000  -27.25230    -999.25    -999.25   93.46260   93.46260  -40.94170    6.26830    3.01960    3.24820   -0.81550    7.05950    7.05950    -999.25    -999.25    3.01960    3.24820    6.26830  331.16970    -999.25    -999.25    -999.25
 4050.00000  -63.34820    -999.25    -999.25   52.82250   52.82250  -74.52000    7.84710    2.30620    2.87510   -1.04100    6.83400    6.83400    -999.25    -999.25    2.30620    2.87510    7.84710  433.61370    -999.25    -999.25    -999.25
 4100.00000   -6.26800    -999.25    -999.25   90.62960   90.62960  -18.88790    4.52910    3.25310    2.83760   -0.74660    7.12840    7.12840    -999.25    -999.25    3.25310    2.83760    4.52910  307.39910    -999.25    -999.25    -999.25
 4150.00000   -7.82710    -999.25    -999.25   95.50380   95.50380  -16.50740    3.93560    3.19290    3.33900   -0.27460    7.60040    7.60040    -999.25    -999.25    3.19290    3.33900    3.93560  313.19490    -999.25    -999.25    -999.25
 4200.00000   -5.33540    -999.25    -999.25   90.42720   90.42720  -15.04750    3.51690    2.68790    2.81290   -0.22840    7.64660    7.64660    -999.25    -999.25    2.68790    2.81290    3.51690  372.03760    -999.25    -999.25    -999.25
 4250.00000   -7.90940    -999.25    -999.25   97.14350   97.14350  -17.71990    3.25150    3.25880    3.41450   -0.38400    7.49100    7.49100    -999.25    -999.25    3.25880    3.41450    3.25150  306.86140    -999.25    -999.25    -999.25
 4300.00000   -6.97960    -999.25    -999.25   90.32040   90.32040  -18.98090    3.67530    2.99200    3.20180   -0.62850    7.24650    7.24650    -999.25    -999.25    2.99200    3.20180    3.67530  334.22460    -999.25    -999.25    -999.25
 4350.00000    6.11770    -999.25    -999.25  102.60870  102.60870   -9.65730    2.62920    2.57380    2.59600   -0.23370    7.64130    7.64130    -999.25    -999.25    2.57380    2.59600    2.62920  388.53060    -999.25    -999.25    -999.25
 4400.00000    0.12720    -999.25    -999.25   96.28470   96.28470  -12.92100    2.40810    2.28600    2.31580    0.22970    8.10470    8.10470    -999.25    -999.25    2.28600    2.31580    2.40810  437.44530    -999.25    -999.25    -999.25
 4450.00000   -3.76000    -999.25    -999.25  110.49390  110.49390  -17.80340    2.47370    2.26460    2.37400   -0.14280    7.73220    7.73220    -999.25    -999.25    2.26460    2.37400    2.47370  441.57910    -999.25    -999.25    -999.25
 4500.00000   -1.65550    -999.25    -999.25  104.07020  104.07020  -15.38530    1.98910    1.77650    1.83430    0.31940    8.19440    8.19440    -999.25    -999.25    1.77650    1.83430    1.98910  562.90460    -999.25    -999.25    -999.25
 4550.00000   -1.51410    -999.25    -999.25   93.01600   93.01600  -14.93030    2.05920    1.99930    2.05210    0.76260    8.63760    8.63760    -999.25    -999.25    1.99930    2.05210    2.05920  500.17500    -999.25    -999.25    -999.25
 4600.00000   -4.82100    -999.25    -999.25  105.61920  105.61920  -17.92360    1.54390    1.37220    1.42740    1.80940    9.68440    9.68440    -999.25    -999.25    1.37220    1.42740    1.54390  728.75670    -999.25    -999.25    -999.25
 4650.00000   -0.92040    -999.25    -999.25  105.27820  105.27820  -13.70940    1.46900    1.34550    1.39710    1.71200    9.58700    9.58700    -999.25    -999.25    1.34550    1.39710    1.46900  743.21810    -999.25    -999.25    -999.25
 4700.00000   -1.59630    -999.25    -999.25  113.72660  113.72660   -7.23460    1.63340    1.46730    1.52090    1.70240    9.57740    9.57740    -999.25    -999.25    1.46730    1.52090    1.63340  681.52390    -999.25    -999.25    -999.25
 4750.00000   -1.28630    -999.25    -999.25  102.59950  102.59950   -5.74130    1.54870    1.41640    1.49320    1.05300    8.92800    8.92800    -999.25    -999.25    1.41640    1.49320    1.54870  706.01530    -999.25    -999.25    -999.25
