~Version ---------------------------------------------------
VERS. 2.0 : CWLS log ASCII Standard -VERSION 2.0
WRAP.  NO : ONE LINE PER DEPTH STEP
~Well ------------------------------------------------------
STRT.F                   300.0 : START DEPTH
STOP.F                 13400.0 : STOP DEPTH
STEP.F                50.00000 : STEP LENGTH
NULL.                  -999.25 : NULL VALUE
COMP.     SUNDANCE OIL COMPANY : COMPANY
WELL.           J.A. WILLIS #1 : WELL
FLD .               FARRAR, SE : FIELD
LOC .                          : LOCATION
CNTY.                LIMESTONE : COUNTY
STAT.                    TEXAS : STATE
CTRY. UNITED STATES OF AMERICA : COUNTRY
SRVC.             Schlumberger : SERVICE COMPANY
DATE.              09-Dec-1978 : LOGDATE
API .           42293304160000 : API NUMBER
UWI .           42293304160000 : UNIQUE WELL ID
SLAT.WGS84       31.3529369313 : SURFACE LATITUDE
SLON.WGS84      -96.3516884125 : SURFACE LONGITUDE
~Curve Information -----------------------------------------
DEPT   .F                 : 
ILD    .OHMM 07 120 46 00 : INDUCTION DEEP RESISTIVITY
ILM    .OHMM 07 120 44 00 : INDUCTION MEDIUM RESISTIVITY
GRR    .GAPI 07 310 01 00 : GAMMA RAY FROM RESISTIVITY LOG
SPR    .MV   07 010 01 00 : SPONTANEOUS POTENTIAL FROM RESISTIVITY LOG
SFL    .OHMM 07 220 01 00 : SPHERICALLY FOCUSED LOG
CALD   .IN   45 280 60 00 : CALIPER FROM DENSITY LOG
DPHI_LS.DEC  45 890 10 00 : DENSITY POROSITY LIMESTONE
DRHO   .G/C3 45 356 01 00 : BULK DENSITY CORRECTION
GRD    .GAPI 45 310 01 00 : GAMMA RAY FROM DENSITY LOG
RHOB   .G/C3 45 350 01 00 : BULK DENSITY
CNL_LS .DEC  42 890 01 00 : COMPENSATED NEUTRON POROSITY (LIMESTONE)
DPHI_SS.DEC  45 890 12 00 : DENSITY POROSITY SANDSTONE
CNL_SS .DEC  42 890 03 00 : COMPENSATED NEUTRON POROSITY (SANDSTONE)
~Params ----------------------------------------------------
PD  .                     GL : PERMANENT DATUM
EPD .FT                394.3 : ELEVATION PERMANENT DATUM
LMF .                     KB : LOG MEASURED FROM
DAPD.FT                   17 : FEET ABOVE PERMANENT DATUM
DMF .                     KB : DRILLING MEASURED FROM
EKB .FT                  411 : KELLY BUSHING
EGL .FT                394.3 : GROUND LEVEL
DATE.               12/09/78 : RUN DATE
RUN .                      3 : RUN NUMBER
DD  .FT                13635 : DEPTH DRILLER
DL  .FT                13421 : DEPTH LOGGER
BLI .FT                13415 : BOTTOM LOG INTERVAL
TLI .FT                12749 : TOP LOG INTERVAL
CS  .IN                   7" : CASING SIZE
CBD .FT                12770 : CASING BOTTOM DRILLER
CBL .FT                12749 : CASING BOTTOM LOGGER
BS  .IN                   6" : BIT SIZE
BSD .FT                13635 : BIT SIZE AT DEPTH
DFT .               OIL BASE : DRILLING FLUID TYPE
DFD .                   12.5 : DRILLING FLUID DENSITY
DFV .                    130 : DRILLING FLUID VISCOSITY
DFL .                    8.5 : DRILLING FLUID LOSS
MSS .                    PIT : MUD SAMPLE SOURCE
TCS .HRS                2000 : TIME CIRCULATED STOPPED
TLAB.HRS                1300 : TIME LOGGER AT BOTTOM
LUN .                   7708 : LOGGING UNIT NUMBER
LUL .                  TYLER : LOGGING UNIT LOCATION
ENGI.                COLLINS : RECORDING ENGINEER
CLNT.                A2DTECH : CLIENT CODE
ORIG.            1" 5" PRINT : ORIGIN OF DATA
UWI .         42293304160000 : UNIQUE WELL ID
DICO. A2D Technologies, Inc. : DIGITIZING COMPANY
~Other -----------------------------------------------------
~ASCII -----------------------------------------------------
# ...
 8100.00000    6.04760    7.00930    -999.25  -45.89490    8.00800    9.99400    0.01650    0.01230   47.43980    2.66220    0.12470    -999.25    -999.25
 8150.00000   11.04230   10.98030    -999.25  -46.15380   10.12390    9.87390    0.01530   -0.00230   37.72590    2.67440    0.08670    -999.25    -999.25
 8200.00000    3.87940    3.86140    -999.25  -42.97340    4.67820   10.81100    0.15900    0.06830   44.57840    2.44160    0.15180    -999.25    -999.25
 8250.00000    3.26500    3.43820    -999.25  -42.38160    4.27360   13.40730    0.16170    0.12910   65.06020    2.43490    0.33840    -999.25    -999.25
 8300.00000    4.78620    3.01900    -999.25  -41.05030    4.22640   10.47450    0.02780    0.01430   61.44650    2.62770    0.12560    -999.25    -999.25
 8350.00000   25.13780   25.60010    -999.25  -47.31880   24.82350    9.58860    0.02340    0.00680   45.86090    2.64820    0.10030    -999.25    -999.25
 8400.00000    2.34820    3.37600    -999.25  -44.60060    3.75020   12.73550    0.25690    0.06530   61.89760    2.31090    0.35060    -999.25    -999.25
 8450.00000    2.84580    2.82100    -999.25  -48.87200    3.58710   10.23420   -0.00180   -0.01200   39.45920    2.66390    0.12350    -999.25    -999.25
 8500.00000  622.28520   28.95640    -999.25  -72.44830   32.04630    9.33330   -0.01530    0.01130   35.69280    2.72160    0.01810    -999.25    -999.25
 8550.00000  195.60980  146.59560    -999.25  -92.47450  632.46850    9.61850    0.02870    0.02860   22.59040    2.68640    0.00540    -999.25    -999.25
 8600.00000   97.35460  145.60990    -999.25  -98.96450  234.03410    9.51370    0.06200   -0.00230   26.65880    2.61680    0.00990    -999.25    -999.25
 8650.00000  131.71690  317.08790    -999.25  -79.10510  363.87310    9.66350    0.02650    0.01680   31.32530    2.66770    0.00900    -999.25    -999.25
 8700.00000  131.80700  190.82780    -999.25  -58.06210  652.69380    9.27330    0.00000    0.01130   29.36750    2.71560    0.01270    -999.25    -999.25
 8750.00000    9.41670    7.18430    -999.25  -50.70270  130.48520   11.48050    0.33520    0.00830   56.47890    2.01800    0.28220    -999.25    -999.25
 8800.00000   14.77970   15.30940    -999.25  -68.26940   12.39690    9.86250    -999.25    0.00300   39.76200    2.69160    -999.25   -0.02370    0.06200
 8850.00000    4.11900    4.80930    -999.25  -68.67600    6.85340    9.92240    -999.25   -0.00300   55.42280    2.53810    -999.25    0.04430    0.16620
 8900.00000    5.85620    6.96550    -999.25  -64.34910    7.38320    9.01840    -999.25    0.03440   35.39050    2.65920    -999.25   -0.00400    0.05930
 8950.00000    1.70870    1.92940    -999.25  -93.97190    2.08820   11.62880    -999.25    0.02250   32.07830    2.55160    -999.25    0.06270    0.12660
 9000.00000    5.97200   11.63940    -999.25  -95.63610    4.86170    9.35330    -999.25    0.01050   31.62650    2.55610    -999.25    0.04880    0.05210
 9050.00000    2.13690    2.31350    -999.25  -68.67600    2.14510   11.86810    -999.25    0.02540   46.53250    2.52170    -999.25    0.11600    0.20570
 9100.00000    9.38440    9.86260    -999.25  -65.82840   14.71620    9.53290    -999.25    0.02940   50.60240    2.59490    -999.25    0.03270    0.09070
 9150.00000   10.86690   11.35660    -999.25  -76.69230   15.36310    9.42810    -999.25    0.02100   42.69580    2.62260    -999.25    0.03270    0.08080
 9200.00000   11.73710   16.28340    -999.25  -81.76780   47.30610    9.38320    -999.25    0.01200   47.57820    2.61730    -999.25    0.02190    0.07210
 9250.00000    5.69910    6.90990    -999.25  -66.76230    7.05880    9.84730    -999.25    0.01120   42.24530    2.63750    -999.25    0.01120    0.10210
 9300.00000    8.37240    9.77280    -999.25 -101.18390   17.80700    9.64670    -999.25    0.02190   33.43370    2.58750    -999.25    0.03090    0.07950
 9350.00000   16.17530   18.30610    -999.25  -77.94110   23.14950    9.21860    -999.25    0.01350   75.45400    2.60610    -999.25    0.03000    0.12440
 9400.00000    9.11140   11.25700    -999.25  -87.20410   10.96230    9.10030    -999.25    0.02150   37.80000    2.59190    -999.25    0.01930    0.07450
 9450.00000   12.94760   12.85220    -999.25  -96.44910   11.05640    9.86230    -999.25    0.01370   41.11450    2.59420    -999.25    0.03850    0.08550
 9500.00000   11.79150   17.86340    -999.25 -138.16570   30.86430    9.17360    -999.25    0.01200   43.37350    2.58000    -999.25    0.04430    0.07990
 9550.00000   12.76240   13.60100    -999.25  -92.30770   20.03180    9.47300    -999.25    0.00670   26.20480    2.59120    -999.25    0.02290    0.04360
 9600.00000   23.70940   29.09130    -999.25  -88.46150   48.02420    8.93410    -999.25    0.01700   28.01210    2.57850    -999.25    0.04520    0.04880
 9650.00000   20.68510   25.99360    -999.25 -111.53860   36.10850    8.81440    -999.25    0.01650   34.26200    2.58320    -999.25    0.04120    0.04020
 9700.00000   23.73450   41.49530    -999.25 -113.94230   63.27480    8.51500    -999.25    0.00600   24.84830    2.58000    -999.25    0.04070    0.04610
 9750.00000   16.82430   26.29000    -999.25  -99.21390   56.42210    8.61990    -999.25    0.00820   38.17860    2.58970    -999.25    0.04880    0.08090
 9800.00000   27.87840   50.44470    -999.25 -139.57100  102.54610    8.46870    -999.25    0.00450   19.37420    2.53510    -999.25    0.05150    0.06770
 9850.00000   18.05820   24.35540    -999.25 -110.61250   47.30550    8.63510    -999.25    0.02100   31.98470    2.55750    -999.25    0.04930    0.08880
 9900.00000   19.19490   24.42520    -999.25 -118.38020   43.15250    8.74900    -999.25    0.03140   20.27030    2.59790    -999.25    0.02460    0.04430
 9950.00000   21.50830   14.12780    -999.25 -100.46240   33.53380    8.78440    -999.25    0.04340   32.65770    2.55750    -999.25    0.05600    0.07470
 10000.00000   17.18370   17.31930    -999.25  -68.19530   44.99790    9.44310    -999.25    0.00900   52.70270    2.64430    -999.25    0.00110    0.11460
 10050.00000   10.54330   12.12740    -999.25  -79.04820   13.27430    8.78440    -999.25    0.03290   44.14860    2.67490    -999.25    0.05370    0.07150
 10100.00000   36.66290   45.51690    -999.25  -88.86940   35.26310    8.75050    -999.25    0.00600   20.27470    2.58450    -999.25    0.04790    0.02760
 10150.00000   38.10110   41.85460    -999.25  -94.91490   49.87190    8.76940    -999.25    0.04870   28.69240    2.58520    -999.25    0.02950    0.04040
 10200.00000   22.84350   27.04500    -999.25  -84.76180   23.40340    8.81600    -999.25    0.02790   28.91570    2.59190    -999.25    0.05510    0.03530
 10250.00000   27.84820   28.10950    -999.25 -111.77880   44.03110    9.04900    -999.25    0.02020   17.62050    2.59190    -999.25    0.02960    0.03570
 10300.00000   17.62020   19.57400    -999.25  -74.55580   16.93690    8.89020    -999.25    0.01350   37.64950    2.62630    -999.25    0.01300    0.06320
 10350.00000   19.26090   20.52110    -999.25  -77.77360   29.16340    8.67960    -999.25    0.04340   43.60030    2.59040    -999.25    0.04030    0.11810
 10400.00000   34.53030   39.56250    -999.25  -95.61130   40.42670    8.66550    -999.25    0.03590   20.33130    2.63230    -999.25    0.00760    0.04070
 10450.00000   28.75910   33.02650    -999.25  -99.47090   32.61070    9.22850    -999.25    0.00750   24.84860    2.62930    -999.25    0.00400    0.04520
 10500.00000   10.67800   12.00390    -999.25  -76.55330   13.09470    9.33590    -999.25    0.01800   46.53610    2.65020    -999.25   -0.01300    0.10370
 10550.00000   15.40250   24.17540    -999.25  -75.62870   22.97440    8.79950    -999.25    0.00900   33.66090    2.62630    -999.25   -0.00310    0.05460
 10600.00000   20.96440   25.96760    -999.25 -110.42940   45.09680    8.78720    -999.25    0.02400   14.75910    2.56500    -999.25    0.03270    0.03520
 10650.00000   18.42220   22.47440    -999.25 -113.86830   32.11920    8.69480    -999.25    0.02400   17.24400    2.58740    -999.25    0.04340    0.03530
