~Version ---------------------------------------------------
VERS. 2.0 : CWLS log ASCII Standard -VERSION 2.0
WRAP. YES : Multiple lines per depth step
~Well ------------------------------------------------------
STRT.FT                   3400.0 : START DEPTH
STOP.FT                  16600.0 : STOP DEPTH
STEP.FT                 50.00000 : STEP LENGTH
NULL.                    -999.25 : NULL VALUE
COMP. CHAMPLIN PETROLEUM COMPANY : COMPANY
WELL.      CHARLES C. CHARTER #1 : WELL
FLD .                    WILDCAT : FIELD
LOC .                            : LOCATION
CNTY.                     BRAZOS : COUNTY
STAT.                      TEXAS : STATE
CTRY.   UNITED STATES OF AMERICA : COUNTRY
SRVC.                            : SERVICE COMPANY
DATE.                            : LOGDATE
API .             42041304470000 : API NUMBER
UWI .             42041304470000 : UNIQUE WELL ID
SLAT.WGS84         30.8464717491 : SURFACE LATITUDE
SLON.WGS84        -96.3676910928 : SURFACE LONGITUDE
~Curve Information -----------------------------------------
DEPT  .FT    : DEPTH
CALDED.IN    : CALIPER FROM DENSITY LOG
CALWS .IN    : CALIPER [CALDED]
CONDWS.MMHO  : CONDUCTIVITY [1000/DRESWS]
DCORWS.G/C3  : DENSITY CORRECTION [DRHOED]
DENWS .G/C3  : BULK DENSITY [RHOBED]
DPOWS .V/V   : DENSITY POROSITY [3434 M=2.71 F=1.0, 11632 M=2.65 F=1.0, 15400 M=2.71 F=1.0] [CALCULATED FROM RHOBED]
DRESWS.OHMM  : DEEP RESISTIVITY [ILDED]
DRHOED.G/C3  : DENSITY CORRECTION FROM DENSITY LOG
DTED  .US/F  : DELTA TIME FROM SONIC LOG
DTWS  .US/F  : DELTA TIME [DTED]
GRDED .GAPI  : GAMMA RAY FROM DENSITY LOG
GRRED .GAPI  : GAMMA RAY FROM RESISTIVITY LOG
GRWS  .GAPI  : GAMMA RAY [GRDED]
ILDED .OHMM  : INDUCTION LOG DEEP RESISTIVITY
ILMED .OHMM  : INDUCTION LOG MEDIUM RESISTIVITY
MRESWS.OHMM  : MEDIUM RESISTIVITY [ILMED]
NPHIED.V/V   : NEUTRON POROSITY 3434 LIMESTONE 11632 SANDSTONE 15400 LIMESTONE FROM DENSITY LOG
NPOWS .V/V   : NEUTRON POROSITY 3434 LIMESTONE 11632 SANDSTONE 15400 LIMESTONE [NPHIED]
RHOBED.G/C3  : BULK DENSITY FROM DENSITY LOG
SFLED .OHMM  : SPHERICALLY FOCUSED LOG RESISTIVITY
SPED  .MV    : SPONTANEOUS POTENTIAL [BASELINE 0 MV] FROM RESISTIVITY LOG
SPWS  .MV    : SPONTANEOUS POTENTIAL [SPED]
SRESWS.OHMM  : SHALLOW RESISTIVITY [SFLED]
~Params ----------------------------------------------------
EKB .F                 368.0 : Kelly bushing
EGL .F                 346.0 : Ground level
EDF .F                 367.0 : Drilling floor
EPD .F                 346.0 : Permanent datum
TD  .F               16600.0 : Total depth
DATE.            01-OCT-1979 : DATE LOGGED
CLNT.                A2DTECH : CLIENT CODE
SL  . 100' FSEL & 3100' FNEL : SURFACE LOCATION
PD  .                     GL : PERMANENT DATUM
LMF .                     KB : LOG MEASURED FROM
DMF .                     KB : DRILLING MEASURED FROM
DAPD.F                    22 : FEET ABOVE PERMANENT DATUM
DD  .F                 16600 : DEPTH DRILLER
DL  .F                 16600 : DEPTH LOGGER
BLI .F                 16593 : BOTTOM LOG INTERVAL
TLI .F                 10338 : TOP LOG INTERVAL
CS1 .IN                9.625 : CASING SIZE
CBD1.        9.625" @ 10324' : CASING DRILLER 1
CBL1.F                 10338 : CASING LOGGER 1
BS1 .IN                  8.5 : BIT SIZE
BSD1.F                 16600 : DEPTH DRILLED WITH BIT1
DFT .             SPER XP-20 : TYPE FLUID IN HOLE
DFD .                   12.2 : DENSITY
DFV .                     47 : VISCOSITY
DFPH.                   10.5 : PH
DFL .                    5.3 : FLUID LOSS
MSS .                    PIT : SOURCE OF SAMPLE
RMS .OHMM               0.21 : RM
RMF .OHMM               0.16 : RMF
RMC .OHMM               0.32 : RMC
MFSS.                   CALC : SOURCE RMF.
MCSS.                   CALC : SOURCE RMC.
RMB .OHMM               0.04 : RM. AT BHT
BHT .F                   334 : BHT.
TCS .HRS                 600 : TIME CIRC. STOPPED
TLAB.HRS                 530 : TIME LOGGER AT BOTTOM
LUN .                   8101 : LOGGING UNIT NUMBER
LUL .                BRENHAM : LOGGING UNIT LOCATION
ENGI.                   EAST : RECORDED BY
WITN.           LANNY CRAMER : WITNESSED BY
ORIG.               5" PRINT : ORIGIN OF DATA
UWI .         42041304470000 : UNIQUE WELL ID
DICO. A2D TECHNOLOGIES, INC. : DIGITIZING COMPANY
~Other -----------------------------------------------------
~ASCII -----------------------------------------------------
# ...
 8050.00000   13.19800   13.19800   40.94670   -0.01000    2.60700    0.06020   24.42200   -0.01000   52.67100   52.67100   17.15400   13.47800   17.15400   24.42200    -999.25    -999.25    0.01100    0.01100    2.60700   26.89100  -43.87340  -43.87340   26.89100
 8100.00000   14.94900   14.94900   44.52560    0.12500    2.58400    0.07370   22.45900    0.12500   57.07900   57.07900   20.12300   17.11500   20.12300   22.45900    -999.25    -999.25    0.01200    0.01200    2.58400   26.35600  -47.49380  -47.49380   26.35600
 8150.00000   13.02500   13.02500   17.38500    0.01600    2.64300    0.03920   57.52100    0.01600   52.23400   52.23400   16.27700   13.73500   16.27700   57.52100    -999.25    -999.25    0.00900    0.00900    2.64300   62.98000  -49.20110  -49.20110   62.98000
 8200.00000   12.80300   12.80300   78.98890   -0.00300    2.67200    0.02220   12.66000   -0.00300   56.55300   56.55300   26.57700   22.84100   26.57700   12.66000    -999.25    -999.25    0.03800    0.03800    2.67200   18.13300  -36.21850  -36.21850   18.13300
 8250.00000   13.65700   13.65700   44.28890    0.09300    2.62600    0.04910   22.57900    0.09300   52.65400   52.65400   19.94400   16.67200   19.94400   22.57900    -999.25    -999.25    0.02100    0.02100    2.62600   29.36700  -40.68080  -40.68080   29.36700
 8300.00000   13.59300   13.59300  188.32390   -0.01000    2.55500    0.09060    5.31000   -0.01000   57.42800   57.42800   77.60800   66.29400   77.60800    5.31000    -999.25    -999.25    0.17400    0.17400    2.55500    3.01200  -23.18910  -23.18910    3.01200
 8350.00000   13.32000   13.32000   27.84510    0.01200    2.66100    0.02870   35.91300    0.01200   51.84700   51.84700   24.71300   18.81900   24.71300   35.91300    -999.25    -999.25   -0.00400   -0.00400    2.66100   94.69000  -44.62250  -44.62250   94.69000
 8400.00000   13.59400   13.59400   59.73360   -0.01000    2.66000    0.02920   16.74100   -0.01000   54.45800   54.45800   34.47700   28.85500   34.47700   16.74100    -999.25    -999.25    0.00100    0.00100    2.66000   28.61100  -35.78280  -35.78280   28.61100
 8450.00000   13.46900   13.46900   21.25440   -0.00200    2.65400    0.03270   47.04900   -0.00200   52.55200   52.55200   22.57700   18.80600   22.57700   47.04900    -999.25    -999.25    0.00200    0.00200    2.65400   54.18600  -48.45920  -48.45920   54.18600
 8500.00000   13.10900   13.10900   44.27910   -0.00700    2.65900    0.02980   22.58400   -0.00700   53.50100   53.50100   25.53300   20.68200   25.53300   22.58400    -999.25    -999.25    0.00100    0.00100    2.65900   56.73600  -36.60750  -36.60750   56.73600
 8550.00000   13.21600   13.21600   84.53090   -0.00500    2.64600    0.03740   11.83000   -0.00500   55.29300   55.29300   40.90900   33.46800   40.90900   11.83000    -999.25    -999.25    0.02400    0.02400    2.64600   20.14600  -13.88280  -13.88280   20.14600
 8600.00000   13.52200   13.52200  158.27790   -0.00100    2.62700    0.04850    6.31800   -0.00100   63.24100   63.24100   65.04500   55.27400   65.04500    6.31800    -999.25    -999.25    0.08600    0.08600    2.62700    7.51600  -13.40220  -13.40220    7.51600
 8650.00000   14.43600   14.43600  446.62790    0.12500    2.52300    0.10940    2.23900    0.12500   83.54300   83.54300   68.09200   55.95400   68.09200    2.23900    -999.25    -999.25    0.28400    0.28400    2.52300    2.16700   -6.71450   -6.71450    2.16700
 8700.00000   13.00000   13.00000   82.12200   -0.00500    2.67300    0.02160   12.17700   -0.00500   58.56000   58.56000   41.43600   34.79500   41.43600   12.17700    -999.25    -999.25    0.05000    0.05000    2.67300   16.03100  -19.04090  -19.04090   16.03100
 8750.00000   12.90500   12.90500   67.30380    0.00300    2.67300    0.02160   14.85800    0.00300   60.14200   60.14200   36.57900   31.01100   36.57900   14.85800    -999.25    -999.25    0.02800    0.02800    2.67300   38.47600  -23.64820  -23.64820   38.47600
 8800.00000   13.46800   13.46800  220.02200    0.03900    2.62900    0.04740    4.54500    0.03900   66.17000   66.17000   42.73300   35.64700   42.73300    4.54500    -999.25    -999.25    0.13500    0.13500    2.62900    5.61300   -7.23750   -7.23750    5.61300
 8850.00000   14.03000   14.03000  384.91150    0.05300    2.50000    0.12280    2.59800    0.05300   73.73300   73.73300   55.43300   46.50600   55.43300    2.59800    -999.25    -999.25    0.22900    0.22900    2.50000    2.44000   -1.53920   -1.53920    2.44000
 8900.00000   13.59000   13.59000  387.29670    0.06500    2.49200    0.12750    2.58200    0.06500   79.87700   79.87700   60.26800   49.79000   60.26800    2.58200    -999.25    -999.25    0.20800    0.20800    2.49200    3.53800   -4.66640   -4.66640    3.53800
 8950.00000   13.07800   13.07800  239.98080   -0.01000    2.64300    0.03920    4.16700   -0.01000   69.12100   69.12100   50.14900   42.24300   50.14900    4.16700    -999.25    -999.25    0.14000    0.14000    2.64300    5.02600  -14.04960  -14.04960    5.02600
 9000.00000   12.72000   12.72000   36.63670    0.01800    2.63200    0.04560   27.29500    0.01800   53.70500   53.70500   32.81800   27.13600   32.81800   27.29500    -999.25    -999.25    0.07300    0.07300    2.63200   53.20300  -10.17480  -10.17480   53.20300
 9050.00000   12.79800   12.79800   86.55760    0.02800    2.62500    0.04970   11.55300    0.02800   60.43300   60.43300   37.62000   30.39900   37.62000   11.55300    -999.25    -999.25    0.18700    0.18700    2.62500    9.02500  -20.86000  -20.86000    9.02500
 9100.00000   13.09900   13.09900   81.18860    0.00100    2.69300    0.00990   12.31700    0.00100   56.10800   56.10800   29.82000   24.98600   29.82000   12.31700    -999.25    -999.25    0.11300    0.11300    2.69300   13.49700  -12.78720  -12.78720   13.49700
 9150.00000   12.92000   12.92000   54.05410    0.00100    2.67200    0.02220   18.50000    0.00100   52.64100   52.64100   38.22800   31.81600   38.22800   18.50000    -999.25    -999.25    0.06300    0.06300    2.67200   56.94300  -23.33540  -23.33540   56.94300
 9200.00000   13.04000   13.04000   73.88800   -0.00900    2.66500    0.02630   13.53400   -0.00900   56.25700   56.25700   35.18100   29.05900   35.18100   13.53400    -999.25    -999.25    0.06200    0.06200    2.66500   27.54600  -15.56760  -15.56760   27.54600
 9250.00000   13.26600   13.26600  302.93850    0.03300    2.53700    0.10120    3.30100    0.03300   71.15500   71.15500   63.81200   53.38100   63.81200    3.30100    -999.25    -999.25    0.21900    0.21900    2.53700    3.48600   -5.13980   -5.13980    3.48600
 9300.00000   12.97600   12.97600   55.48160   -0.00200    2.68800    0.01290   18.02400   -0.00200   54.35800   54.35800   65.15000   53.26000   65.15000   18.02400    -999.25    -999.25    0.01200    0.01200    2.68800   68.32900   -9.10100   -9.10100   68.32900
 9350.00000   12.99400   12.99400   69.49750   -0.00300    2.66300    0.02750   14.38900   -0.00300   58.98000   58.98000   53.70500   44.86200   53.70500   14.38900    -999.25    -999.25    0.02100    0.02100    2.66300   34.04200  -13.71220  -13.71220   34.04200
 9400.00000   13.04500   13.04500  115.86140   -0.00300    2.64800    0.03630    8.63100   -0.00300   65.27000   65.27000   57.24800   50.71100   57.24800    8.63100    -999.25    -999.25    0.12700    0.12700    2.64800   10.85500  -15.18340  -15.18340   10.85500
 9450.00000   12.98000   12.98000   62.84570   -0.00900    2.65400    0.03270   15.91200   -0.00900   54.69500   54.69500   48.41400   39.88500   48.41400   15.91200    -999.25    -999.25    0.03900    0.03900    2.65400   21.91600   -7.60060   -7.60060   21.91600
 9500.00000   12.86800   12.86800   57.35260   -0.00700    2.67900    0.01810   17.43600   -0.00700   53.41000   53.41000   49.20800   41.31300   49.20800   17.43600    -999.25    -999.25    0.01200    0.01200    2.67900   49.00300  -14.71280  -14.71280   49.00300
 9550.00000   12.87300   12.87300  334.44820   -0.00500    2.56100    0.08710    2.99000   -0.00500   68.98200   68.98200   58.33600   51.86100   58.33600    2.99000    -999.25    -999.25    0.11900    0.11900    2.56100    4.77000   -6.18490   -6.18490    4.77000
