~Version ---------------------------------------------------
VERS. 2.0 : CWLS log ASCII Standard -VERSION 2.0
WRAP.  NO : ONE LINE PER DEPTH STEP
~Well ------------------------------------------------------
STRT.F                       300.0 : START DEPTH
STOP.F                     13400.0 : STOP DEPTH
STEP.F                    50.00000 : STEP LENGTH
NULL.                      -999.25 : NULL VALUE
COMP. HOWELL DRILLING INCORPORATED : COMPANY
WELL.       WOYTEK EDWARDS UNIT #1 : WELL
FLD .                      WILDCAT : FIELD
LOC .                              : LOCATION
CNTY.                       LAVACA : COUNTY
STAT.                        TEXAS : STATE
CTRY.     UNITED STATES OF AMERICA : COUNTRY
SRVC.                 Schlumberger : SERVICE COMPANY
DATE.                  23-Jun-1979 : LOGDATE
API .               42285313800000 : API NUMBER
UWI .               42285313800000 : UNIQUE WELL ID
SLAT.WGS84           29.4772205613 : SURFACE LATITUDE
SLON.WGS84          -96.9257390391 : SURFACE LONGITUDE
~Curve Information -----------------------------------------
DEPT.F                 : 
SPR .MV   06 010 01 00 : SPONTANEOUS POTENTIAL FROM RESISTIVITY LOG
SFL .OHMM 07 220 01 00 : SPHERICALLY FOCUSED LOG
ILD .OHMM 06 120 46 00 : INDUCTION DEEP RESISTIVITY
CILD.MMHO 07 110 46 00 : INDUCTION DEEP CONDUCTIVITY
CALR.IN   07 280 01 00 : CALIPER FROM RESISTIVITY LOG
ILM .OHMM 07 120 44 00 : INDUCTION MEDIUM RESISTIVITY
DT  .US/F 60 500 00 00 : DELTA-T (INTERVAL TRANSIT TIME)
GRD .GAPI 45 310 01 00 : GAMMA RAY FROM DENSITY LOG
CALD.IN   45 280 60 00 : CALIPER FROM DENSITY LOG
CORR.G/C3 45 356 01 00 : DENSITY CORRECTION
RHOB.G/C3 45 350 01 00 : BULK DENSITY
NPHI.DEC  42 890 03 00 : NEUTRON POROSITY
DPHI.DEC  45 890 12 00 : DENSITY POROSITY
~Params ----------------------------------------------------
PD  .                     GL : PERMANENT DATUM
EPD .FT                304.8 : ELEVATION PERMANENT DATUM
LMF .                     KB : LOG MEASURED FROM
DAPD.FT                   18 : FEET ABOVE PERMANENT DATUM
DMF .                     KB : DRILLING MEASURED FROM
EKB .FT                322.8 : KELLY BUSHING
EDF .FT                321.8 : DRILLING FLOOR
EGL .FT                304.8 : GROUND LEVEL
DATE.               06/23/79 : RUN DATE
RUN .                      3 : RUN NUMBER
DD  .FT                13474 : DEPTH DRILLER
BLI .FT                13442 : BOTTOM LOG INTERVAL
TLI .FT                 9552 : TOP LOG INTERVAL
CS  .IN                7.625 : CASING SIZE
CBD .FT                 9555 : CASING BOTTOM DRILLER
CBL .FT                 9552 : CASING BOTTOM LOGGER
BS  .IN                6.625 : BIT SIZE
BSD .FT                13474 : BIT SIZE AT DEPTH
DFT .         LIGNOSULFONATE : DRILLING FLUID TYPE
DFD .                   12.2 : DRILLING FLUID DENSITY
DFV .                     43 : DRILLING FLUID VISCOSITY
DFPH.                     10 : DRILLING FLUID PH
DFL .                    6.3 : DRILLING FLUID LOSS
MSS .               CIRC PIT : MUD SAMPLE SOURCE
RMS .OHMM               1.31 : RESISTIVITY MUD SAMPLE
MST .DEGF                 75 : MUD SAMPLE TEMPERATURE
RMF .OHMM                1.2 : RESISTIVITY MUD FILTRATE SAMPLE
MFST.DEGF                 75 : MUD FILTRATE SAMPLE TEMPERATURE
RMC .OHMM               1.97 : RESISTIVITY MUD CAKE
MCST.DEGF                 75 : MUD CAKE SAMPLE TEMPERATURE
MFSS.                      M : MUD FILTRATE SAMPLE SOURCE
MCSS.                      C : MUD CAKE SAMPLE SOURCE
TCS .HRS                1000 : TIME CIRCULATED STOPPED
TLAB.HRS                 400 : TIME LOGGER AT BOTTOM
LUN .                   8005 : LOGGING UNIT NUMBER
LUL .               VICTORIA : LOGGING UNIT LOCATION
ENGI.              BENAVIDES : RECORDING ENGINEER
WITN.           HOWELL BROWN : WITNESSED BY
CLNT.                A2DTECH : CLIENT CODE
ORIG.            1" 5" PRINT : ORIGIN OF DATA
UWI .         42285313800000 : UNIQUE WELL ID
DICO. A2D Technologies, Inc. : DIGITIZING COMPANY
~Other -----------------------------------------------------
~ASCII -----------------------------------------------------
# ...
 8100.00000 -132.33980    8.87340    1.14330    -999.25    9.77490    1.71070   82.78430    -999.25    -999.25    -999.25    -999.25    -999.25    -999.25
 8150.00000 -129.67380    6.92230    0.81040    -999.25    9.65680    1.16950   87.90560    -999.25    -999.25    -999.25    -999.25    -999.25    -999.25
 8200.00000  -69.73250    4.19400    1.98650    -999.25   10.48520    2.43540   88.34810    -999.25    -999.25    -999.25    -999.25    -999.25    -999.25
 8250.00000  -35.60830    4.35780    3.47510    -999.25   14.15380    3.56260   85.39820    -999.25    -999.25    -999.25    -999.25    -999.25    -999.25
 8300.00000  -40.35610    4.15600    3.19570    -999.25   10.60400    3.23940   78.31810    -999.25    -999.25    -999.25    -999.25    -999.25    -999.25
 8350.00000  -57.26790   10.27470    4.36780    -999.25   10.89940    4.93690   76.25320    -999.25    -999.25    -999.25    -999.25    -999.25    -999.25
 8400.00000 -149.55920   11.47740    0.90800    -999.25   10.01180    1.43380   83.99070    -999.25    -999.25    -999.25    -999.25    -999.25    -999.25
 8450.00000 -145.99410   10.32260    1.75780    -999.25    9.77480    2.24020   83.48080    -999.25    -999.25    -999.25    -999.25    -999.25    -999.25
 8500.00000  -90.80120   13.70850    4.63390    -999.25    9.76680    5.80970   72.12320    -999.25    -999.25    -999.25    -999.25    -999.25    -999.25
 8550.00000 -147.18050   11.87300    0.98010    -999.25    9.83430    1.43380   82.15340    -999.25    -999.25    -999.25    -999.25    -999.25    -999.25
 8600.00000 -128.78110    7.24190    1.18230    -999.25    9.89350    1.68770   79.62600    -999.25    -999.25    -999.25    -999.25    -999.25    -999.25
 8650.00000  -46.88430    4.04500    3.53840    -999.25   10.66270    3.53850   77.43360    -999.25    -999.25    -999.25    -999.25    -999.25    -999.25
 8700.00000  -78.93180   22.59190    3.37420    -999.25   10.48520    3.91800  123.45130    -999.25    -999.25    -999.25    -999.25    -999.25    -999.25
 8750.00000 -110.38580    8.63620    2.33860    -999.25   10.13020    3.44360   86.47900    -999.25    -999.25    -999.25    -999.25    -999.25    -999.25
 8800.00000 -123.32140   11.41340    2.30660    -999.25   10.11480    3.42030   79.89230    -999.25    -999.25    -999.25    -999.25    -999.25    -999.25
 8850.00000  -59.93970    4.60030    3.28340    -999.25   10.83990    3.76150   81.12090    -999.25    -999.25    -999.25    -999.25    -999.25    -999.25
 8900.00000  -45.63140    4.30000    3.63110    -999.25   11.31320    3.68600   79.14000    -999.25    -999.25    -999.25    -999.25    -999.25    -999.25
 8950.00000  -99.10980   12.03490    3.21750    -999.25   10.24810    4.33810   79.20590    -999.25    -999.25    -999.25    -999.25    -999.25    -999.25
 9000.00000  -75.00800    6.41150    2.53800    -999.25   10.14500    3.02650   79.79110    -999.25    -999.25    -999.25    -999.25    -999.25    -999.25
 9050.00000  -44.41080    1.89440    1.84330    -999.25   19.47850    1.56620  107.71750    -999.25    -999.25    -999.25    -999.25    -999.25    -999.25
 9100.00000  -45.69730    1.64700    1.91780    -999.25   20.44620    1.51390  134.07080    -999.25    -999.25    -999.25    -999.25    -999.25    -999.25
 9150.00000  -54.59940    5.19750    4.05340    -999.25   12.73370    5.00370   75.95870    -999.25    -999.25    -999.25    -999.25    -999.25    -999.25
 9200.00000  -49.25820    1.61930    1.64990    -999.25   21.72760    1.16940  200.76350    -999.25    -999.25    -999.25    -999.25    -999.25    -999.25
 9250.00000  -46.29180    1.49470    1.59840    -999.25   21.43170    1.16950  137.90560    -999.25    -999.25    -999.25    -999.25    -999.25    -999.25
 9300.00000  -46.29180    1.92030    1.66500    -999.25   21.72750    1.52350   92.47930    -999.25    -999.25    -999.25    -999.25    -999.25    -999.25
 9350.00000  -43.91550    1.80680    1.75790    -999.25   20.07100    1.66490   99.60780    -999.25    -999.25    -999.25    -999.25    -999.25    -999.25
 9400.00000  -42.73000    1.72310    1.68770    -999.25   16.10310    1.52780   89.82540    -999.25    -999.25    -999.25    -999.25    -999.25    -999.25
 9450.00000  -41.83980    1.64340    1.35800    -999.25   17.05330    1.34880   96.60880    -999.25    -999.25    -999.25    -999.25    -999.25    -999.25
 9500.00000  -42.73040    2.67980    2.53670    -999.25   12.73370    2.57140   80.08850    -999.25    -999.25    -999.25    -999.25    -999.25    -999.25
 9550.00000    -999.25    -999.25    -999.25    -999.25    -999.25    -999.25    -999.25   54.19790    -999.25    -999.25    -999.25    0.45520    -999.25
 9600.00000    1.28570    1.44790    1.62150    -999.25    -999.25    -999.25    -999.25   88.60570   11.21260    0.05330    2.35480    0.32690    0.19910
 9650.00000   -2.27980    2.23250    3.07720    -999.25    -999.25    -999.25    -999.25   89.05640    9.35620    0.02100    2.45090    0.23990    0.13140
 9700.00000   -3.32570    1.74250    2.07350    -999.25    -999.25    -999.25    -999.25   78.93770   10.31450   -0.02450    2.19880    0.32650    0.28700
 9750.00000   -7.07640    1.62700    1.73400    -999.25    -999.25    -999.25    -999.25   82.30880   11.22750   -0.00750    2.38560    0.33860    0.17620
 9800.00000  -12.17190    2.97960    3.33300    -999.25    -999.25    -999.25    -999.25   77.13460   10.43400    0.05180    2.33530    0.26100    0.24040
 9850.00000  -13.07340    9.78550    5.91690    -999.25    -999.25    -999.25    -999.25   58.46860   10.08980    0.00600    2.34580    0.23990    0.19100
 9900.00000  -15.17160    2.01390    2.33070    -999.25    -999.25    -999.25    -999.25   73.98800   11.34730    0.03530    2.28660    0.29240    0.25830
 9950.00000  -13.13780    1.60730    1.63070    -999.25    -999.25    -999.25    -999.25   84.10790   11.69160    0.00530    2.37660    0.34390    0.18030
 10000.00000  -18.17090    1.27930    1.45990    -999.25    -999.25    -999.25    -999.25   82.08580   12.99080    0.05200    2.28130    0.38700    0.23470
 10050.00000  -13.07490    1.40640    1.44000    -999.25    -999.25    -999.25    -999.25   90.18100   14.64070   -0.00330    2.42280    0.35830    0.14750
 10100.00000  -13.93590    1.46080    1.45000    -999.25    -999.25    -999.25    -999.25   74.43960   11.36230    0.00530    2.24830    0.35160    0.25610
 10150.00000  -11.70260    2.34280    2.25210    -999.25    -999.25    -999.25    -999.25  104.79760    8.81720    0.00830    2.57240    0.26680    0.06230
 10200.00000  -10.67300    2.76260    2.76800    -999.25    -999.25    -999.25    -999.25   81.40710    8.95230    0.00530    2.62870    0.23230    0.03680
 10250.00000  -12.17390    3.11600    3.04780    -999.25    -999.25    -999.25    -999.25   88.60570    8.91390    0.01650    2.59790    0.23450    0.04300
 10300.00000  -14.23360    2.39120    2.44570    -999.25    -999.25    -999.25    -999.25  100.52500    8.87730    0.02180    2.48610    0.25920    0.10450
 10350.00000  -12.77530    2.61480    2.46250    -999.25    -999.25    -999.25    -999.25   96.47680    8.58270    0.03410    2.45990    0.26910    0.10700
 10400.00000  -12.75010    2.76270    2.53130    -999.25    -999.25    -999.25    -999.25  102.77360    8.66770    0.00600    2.57770    0.26280    0.06280
 10450.00000  -11.60640    2.80090    2.60020    -999.25    -999.25    -999.25    -999.25   87.47940    8.67130    0.01880    2.59790    0.23990    0.05290
 10500.00000  -11.57420    2.56140    2.34680    -999.25    -999.25    -999.25    -999.25   86.58170    9.14660    0.00450    2.50040    0.27760    0.10270
 10550.00000  -11.57520    2.26330    2.10220    -999.25    -999.25    -999.25    -999.25   94.45200    9.68570    0.02850    2.32480    0.31790    0.17480
 10600.00000  -11.57570    2.35910    2.22120    -999.25    -999.25    -999.25    -999.25   91.75530   10.23950    0.06680    2.43160    0.30330    0.13720
 10650.00000  -10.30070    2.70630    2.51400    -999.25    -999.25    -999.25    -999.25   91.30440   10.20970    0.12240    2.53110    0.26190    0.08480
