~Version ---------------------------------------------------
VERS. 2.0 : CWLS log ASCII Standard -VERSION 2.0
WRAP.  NO : ONE LINE PER DEPTH STEP
~Well ------------------------------------------------------
STRT.F                       300.0 : START DEPTH
STOP.F                     14150.0 : STOP DEPTH
STEP.F                    50.00000 : STEP LENGTH
NULL.                      -999.25 : NULL VALUE
COMP. HOWELL DRILLING INCORPORATED : COMPANY
WELL.           CARSON GAS UNIT #1 : WELL
FLD .                      WILDCAT : FIELD
LOC .                              : LOCATION
CNTY.                       LAVACA : COUNTY
STAT.                        TEXAS : STATE
CTRY.     UNITED STATES OF AMERICA : COUNTRY
SRVC.                 Schlumberger : SERVICE COMPANY
DATE.                  12-Nov-1978 : LOGDATE
API .               42285313350000 : API NUMBER
UWI .               42285313350000 : UNIQUE WELL ID
SLAT.WGS84           29.5916068374 : SURFACE LATITUDE
SLON.WGS84          -96.8551872622 : SURFACE LONGITUDE
~Curve Information -----------------------------------------
DEPT.F                 : 
DPHI.DEC  45 890 10 00 : DENSITY POROSITY
NPHI.DEC  42 890 01 00 : NEUTRON POROSITY
RHOB.G/C3 45 350 01 00 : BULK DENSITY
CALD.IN   45 280 60 00 : CALIPER FROM DENSITY LOG
CORR.G/C3 45 356 01 00 : DENSITY CORRECTION
GRD .GAPI 45 310 01 00 : GAMMA RAY FROM DENSITY LOG
ASFL.OHMM 06 221 01 00 : AMPLIFIED SPHERICALLY FOCUSED LOG
CILD.MMHO 06 110 46 00 : INDUCTION DEEP CONDUCTIVITY
SPR .MV   06 010 01 00 : SPONTANEOUS POTENTIAL FROM RESISTIVITY LOG
RILD.OHMM 06 120 46 00 : RAW DEEP INDUCTION RESISTIVITY
~Params ----------------------------------------------------
PD  .                          GL : PERMANENT DATUM
EPD .FT                     308.4 : ELEVATION PERMANENT DATUM
LMF .                          KB : LOG MEASURED FROM
DAPD.FT                        17 : FEET ABOVE PERMANENT DATUM
DMF .                          KB : DRILLING MEASURED FROM
EKB .FT                     325.4 : KELLY BUSHING
EDF .FT                     324.5 : DRILLING FLOOR
EGL .FT                     308.4 : GROUND LEVEL
DATE.                    11/12/78 : RUN DATE
RUN .                           2 : RUN NUMBER
DD  .FT                     14209 : DEPTH DRILLER
DL  .FT                     14205 : DEPTH LOGGER
BLI .FT                     14198 : BOTTOM LOG INTERVAL
TLI .FT                      3902 : TOP LOG INTERVAL
CS  .IN                     10.75 : CASING SIZE
CBD .FT                      3905 : CASING BOTTOM DRILLER
CBL .FT                      3902 : CASING BOTTOM LOGGER
BS  .IN                     9.875 : BIT SIZE
BSD .FT                     14209 : BIT SIZE AT DEPTH
DFT .                         GYP : DRILLING FLUID TYPE
DFD .                        10.6 : DRILLING FLUID DENSITY
DFV .                          44 : DRILLING FLUID VISCOSITY
DFPH.                         8.5 : DRILLING FLUID PH
DFL .                         8.8 : DRILLING FLUID LOSS
MSS .                    CIRC PIT : MUD SAMPLE SOURCE
RMS .OHMM                    1.19 : RESISTIVITY MUD SAMPLE
MST .DEGF                      90 : MUD SAMPLE TEMPERATURE
RMF .OHMM                    0.96 : RESISTIVITY MUD FILTRATE SAMPLE
MFST.DEGF                      77 : MUD FILTRATE SAMPLE TEMPERATURE
RMC .OHMM                    1.79 : RESISTIVITY MUD CAKE
MCST.DEGF                      90 : MUD CAKE SAMPLE TEMPERATURE
MFSS.                           M : MUD FILTRATE SAMPLE SOURCE
MCSS.                           C : MUD CAKE SAMPLE SOURCE
RMB .OHMM                    0.37 : RESISTIVITY MUD AT BHT
TCS .HRS                      130 : TIME CIRCULATED STOPPED
TLAB.HRS                     1430 : TIME LOGGER AT BOTTOM
LUN .                        8013 : LOGGING UNIT NUMBER
LUL .                        VICT : LOGGING UNIT LOCATION
ENGI.            HENDERICK FISLER : RECORDING ENGINEER
WITN. RYAN HOWELL WILLIAMS GARCIA : WITNESSED BY
CLNT.                     A2DTECH : CLIENT CODE
ORIG.                    1" PRINT : ORIGIN OF DATA
UWI .              42285313350000 : UNIQUE WELL ID
DICO.      A2D Technologies, Inc. : DIGITIZING COMPANY
~Other -----------------------------------------------------
~ASCII -----------------------------------------------------
# ...
 10200.00000    -999.25    -999.25    -999.25    -999.25    -999.25    -999.25    3.33630  340.34030  -43.17840    2.92970
 10250.00000    -999.25    -999.25    -999.25    -999.25    -999.25    -999.25    4.04340  285.28530  -45.80840    3.51270
 10300.00000    -999.25    -999.25    -999.25    -999.25    -999.25    -999.25    3.31640  354.35430  -45.50900    2.81020
 10350.00000    -999.25    -999.25    -999.25    -999.25    -999.25    -999.25    3.00900  387.88620  -45.80840    2.48130
 10400.00000    -999.25    -999.25    -999.25    -999.25    -999.25    -999.25    2.97160  377.37740  -40.71860    2.57100
 10450.00000    -999.25    -999.25    -999.25    -999.25    -999.25    -999.25    2.85400  429.85660  -42.81440    2.29450
 10500.00000    -999.25    -999.25    -999.25    -999.25    -999.25    -999.25    2.45740  462.46250  -43.11380    2.18240
 10550.00000    -999.25    -999.25    -999.25    -999.25    -999.25    -999.25    3.15690  382.66720  -44.61080    2.54110
 10600.00000    -999.25    -999.25    -999.25    -999.25    -999.25    -999.25    2.22880  505.74710  -44.21140    2.15250
 10650.00000    -999.25    -999.25    -999.25    -999.25    -999.25    -999.25    2.24770  522.59940  -44.61080    1.85350
 10700.00000    -999.25    -999.25    -999.25    -999.25    -999.25    -999.25    2.03080  554.71660  -44.41120    1.77880
 10750.00000    -999.25    -999.25    -999.25    -999.25    -999.25    -999.25    2.22630  520.45490  -46.78130    1.74140
 10800.00000    -999.25    -999.25    -999.25    -999.25    -999.25    -999.25    2.14930  494.75260  -32.03590    1.85350
 10850.00000    0.17710    0.29050    2.38150   14.58250    0.12670   83.82390    2.11960  512.74400  -41.64090    1.97310
 10900.00000    0.04410    0.20290    2.60800   10.80730    0.00420   80.57310    3.69200  329.82980  -44.06220    3.09910
 10950.00000    0.02500    0.17610    2.63630   10.19110    0.01390   63.39010    5.54210  213.96400  -42.58980    4.64870
 11000.00000    0.06960    0.23630    2.49270    9.80800   -0.00190   79.17940    2.92780  398.39840  -44.74030    2.49130
 11050.00000    0.14330    0.36320    2.42860   12.00650    0.11130   69.70770    2.65350  439.81940  -42.29000    2.15250
 11100.00000    0.07650    0.29560    2.53510   11.50300    0.08670   85.44930    2.26900  554.05260  -41.61680    1.82360
 11150.00000    0.13120    0.32600    2.42080   12.54820    0.07280   75.00110    2.06280  541.29080  -42.81380    1.91330
 11200.00000    0.11930    0.23950    2.45510   11.21670    0.07130   77.88130    2.30990  466.46650  -41.91620    1.85350
 11250.00000    0.08580    0.31640    2.53280   13.22910    0.09210   79.64340    1.85650  635.88590  -40.54410    1.52470
 11300.00000    0.06680    0.29840    2.54900   12.12600    0.10360   83.53850    2.17830  542.04200  -51.04790    1.91330
 11350.00000    0.11550    0.29370    2.49730   11.60370    0.05430   78.46150    2.65180  442.19070  -50.67370    2.32440
 11400.00000    0.02500    0.14920    2.63320    9.99390    0.00270   54.10260    7.80470  156.15620  -54.69120    6.11860
 11450.00000    0.08950    0.26830    2.52970   13.07260    0.07590   81.38640    2.05080  535.82030  -45.36040    1.86700
 11500.00000    0.17390    0.28930    2.38380   13.46130    0.08740   94.96950    2.27710  462.46250  -51.04790    2.13760
 11550.00000    -999.25    -999.25    -999.25    -999.25    -999.25    -999.25    2.38120  460.31380  -52.47030    2.28200
 11600.00000    -999.25    -999.25    -999.25    -999.25    -999.25    -999.25    2.00900  525.52550  -51.79640    1.88340
 11650.00000    -999.25    -999.25    -999.25    -999.25    -999.25    -999.25    2.14550  501.25120  -52.61980    1.95820
 11700.00000    -999.25    -999.25    -999.25    -999.25    -999.25    -999.25    2.82410  376.87690  -52.84430    2.38160
 11750.00000    -999.25    -999.25    -999.25    -999.25    -999.25    -999.25    2.60090  408.65870  -51.57190    2.37670
 11800.00000    -999.25    -999.25    -999.25    -999.25    -999.25    -999.25    2.22620  503.50340  -52.09580    2.03290
 11850.00000    -999.25    -999.25    -999.25    -999.25    -999.25    -999.25    2.15540  496.99850  -54.32230    2.10760
 11900.00000    -999.25    -999.25    -999.25    -999.25    -999.25    -999.25    3.05930  373.87390  -54.14150    2.54110
 11950.00000    -999.25    -999.25    -999.25    -999.25    -999.25    -999.25    2.38170  478.97740  -52.39520    2.05530
 12000.00000    -999.25    -999.25    -999.25    -999.25    -999.25    -999.25    2.27200  350.35030  -52.39520    2.22230
 12050.00000    -999.25    -999.25    -999.25    -999.25    -999.25    -999.25    2.76380  347.59760  -55.16470    2.67800
 12100.00000    -999.25    -999.25    -999.25    -999.25    -999.25    -999.25    2.39060  353.85390  -55.53890    2.69060
 12150.00000    -999.25    -999.25    -999.25    -999.25    -999.25    -999.25    3.10160  355.10360  -58.60780    2.83760
 12200.00000    -999.25    -999.25    -999.25    -999.25    -999.25    -999.25    3.99400  261.26130  -56.68660    3.89640
 12250.00000    -999.25    -999.25    -999.25    -999.25    -999.25    -999.25    2.48190  438.17650  -56.41200    2.30190
 12300.00000    0.44150    0.32140    2.21620   10.45300   -0.00080   77.55010    4.28800  295.79580  -58.98200    3.49770
 12350.00000    0.18750    0.26320    2.63090   10.55910    0.01000   45.54990   13.62210   86.33710  -60.77840   10.31390
 12400.00000    0.20900    0.29510    2.60540   10.76120    0.00620   73.84340    7.49970  220.55890  -55.38920    5.41110
 12450.00000    0.18530    0.31880    2.63630   10.66860    0.01930    -999.25    6.41510  194.61080  -58.75750    5.08220
 12500.00000    -999.25    -999.25    -999.25    -999.25    -999.25    -999.25    5.50070  233.53290  -57.93410    4.72350
 12550.00000    -999.25    -999.25    -999.25    -999.25    -999.25    -999.25    4.67930  264.11380  -57.70950    4.29750
 12600.00000    -999.25    -999.25    -999.25    -999.25    -999.25    -999.25    3.88060  330.93100  -56.88620    3.13900
 12650.00000    -999.25    -999.25    -999.25    -999.25    -999.25    -999.25    4.05720  327.77750  -57.03610    3.32590
 12700.00000    -999.25    -999.25    -999.25    -999.25    -999.25    -999.25    8.69160  147.69770  -58.98200    7.10010
 12750.00000    -999.25    -999.25    -999.25    -999.25    -999.25    -999.25    3.96270  340.91580  -60.32930    3.40060
 12800.00000    -999.25    -999.25    -999.25    -999.25    -999.25    -999.25    3.43280  378.27830  -59.38090    2.74060
 12850.00000    0.25600    0.31960    2.28090   15.38180    0.08410   68.85680    2.69400  399.23020  -59.58080    2.10500
 12900.00000    0.29130    0.07600    2.20830   10.72950   -0.04090   56.10450    7.51710  134.68450  -60.97790    6.60190
 12950.00000    0.06480    0.02120    2.56710   10.36730    0.00200   25.03830   18.26120  137.69980  -65.91830   10.69950
 13000.00000    0.06810    0.04300    2.47380   10.44440   -0.01020   40.86590   13.91630  187.38740  -72.45510   13.65200
 13050.00000    0.03700    0.04410    2.64040   10.55960   -0.00080   31.52890   35.48280   53.47780  -68.26350   18.72200
 13100.00000    0.03410    0.05100    2.63970   11.02550    0.01320   28.98160   30.16620   44.64390  -73.55310   23.24180
 13150.00000    0.04710    0.04720    2.61500   11.63180   -0.00390   27.58890   44.66190   35.75650  -79.94010   28.26370
 13200.00000    0.02630    0.03650    2.65350   11.27040    0.00700   25.27010   48.52020   39.03900  -76.04790   31.24070
 13250.00000    0.05140    0.05090    2.61960   10.85320    0.01690   37.32560   53.83930   34.08440  -88.92220   31.27800
 13300.00000    0.03510    0.07000    2.64430   10.95990    0.01000   21.56100  121.22670   28.92890  -82.33530   32.41310
 13350.00000   -0.00340    0.01960    2.71220   10.34450    0.01160   20.37060  114.64780   18.86860  -95.11020   63.09320
 13400.00000    0.01200   -0.00060    2.68670    9.98630    0.00230   15.50910  264.57400    6.00600 -196.50760  157.10010
 13450.00000    0.06970    0.01330    2.58490    9.45500    0.04180   23.84260  144.35730   11.01100 -172.28030   79.85800
