~Version ---------------------------------------------------
VERS. 2.0 : CWLS log ASCII Standard -VERSION 2.0
WRAP.  NO : ONE LINE PER DEPTH STEP
~Well ------------------------------------------------------
STRT.F                     1200.0 : START DEPTH
STOP.F                     9700.0 : STOP DEPTH
STEP.F                   50.00000 : STEP LENGTH
NULL.                     -999.25 : NULL VALUE
COMP.  HERD PRODUCING COMPANY INC : COMPANY
WELL. CARPENTER GAS UNIT NO. 1 #2 : WELL
FLD .                  FARRAR, SE : FIELD
LOC .                             : LOCATION
CNTY.                   LIMESTONE : COUNTY
STAT.                       TEXAS : STATE
CTRY.    UNITED STATES OF AMERICA : COUNTRY
SRVC.                Schlumberger : SERVICE COMPANY
DATE.                 01-Mar-1988 : LOGDATE
API .              42293308740000 : API NUMBER
UWI .              42293308740000 : UNIQUE WELL ID
SLAT.WGS84          31.4078157413 : SURFACE LATITUDE
SLON.WGS84         -96.2878876316 : SURFACE LONGITUDE
~Curve Information -----------------------------------------
DEPT   .F    0   1   0  0 : 1 MEASURED DEPTH
ILD    .OHMM 07 120 46 00 : INDUCTION DEEP RESISTIVITY
ILM    .OHMM 07 120 44 00 : INDUCTION MEDIUM RESISTIVITY
SFLU   .OHMM 07 220 01 00 : SHALLOW FOCUSED RESISTIVITY (UNAVERAGED)
SPR    .MV   07 010 01 00 : SPONTANEOUS POTENTIAL FROM RESISTIVITY LOG
NPHI_LS.DEC  42 890 01 00 : NEUTRON POROSITY LIMESTONE
GRD    .GAPI 45 310 01 00 : GAMMA RAY FROM DENSITY LOG
DPHI_LS.DEC  45 890 10 00 : DENSITY POROSITY LIMESTONE
DRHO   .G/C3 45 356 01 00 : BULK DENSITY CORRECTION
CALD   .IN   45 280 60 00 : CALIPER FROM DENSITY LOG
~Params ----------------------------------------------------
PD  .                     GL : PERMANENT DATUM
EPD .FT                  423 : ELEVATION PERMANENT DATUM
LMF .                    RKB : LOG MEASURED FROM
DAPD.FT                   18 : FEET ABOVE PERMANENT DATUM
DMF .                    RKB : DRILLING MEASURED FROM
EKB .FT                  441 : KELLY BUSHING
EDF .FT                  440 : DRILLING FLOOR
EGL .FT                  423 : GROUND LEVEL
DATE.               03/01/88 : RUN DATE
RUN .                      1 : RUN NUMBER
DD  .FT                 9721 : DEPTH DRILLER
DL  .FT                 9722 : DEPTH LOGGER
BLI .FT                 9716 : BOTTOM LOG INTERVAL
TLI .FT                 1173 : TOP LOG INTERVAL
CS  .IN                8.625 : CASING SIZE
CBD .FT                 1175 : CASING BOTTOM DRILLER
CBL .FT                 1173 : CASING BOTTOM LOGGER
BS  .IN                7.875 : BIT SIZE
BSD .FT                 9721 : BIT SIZE AT DEPTH
DFT .                    LIG : DRILLING FLUID TYPE
DFD .                    9.6 : DRILLING FLUID DENSITY
DFV .                     50 : DRILLING FLUID VISCOSITY
DFPH.                   10.0 : DRILLING FLUID PH
DFL .                    9.8 : DRILLING FLUID LOSS
MSS .               FLOWLINE : MUD SAMPLE SOURCE
RMS .OHMM               1.47 : RESISTIVITY MUD SAMPLE
MST .DEGF                102 : MUD SAMPLE TEMPERATURE
RMF .OHMM               2.75 : RESISTIVITY MUD FILTRATE SAMPLE
MFST.DEGF                 74 : MUD FILTRATE SAMPLE TEMPERATURE
RMC .OHMM               2.81 : RESISTIVITY MUD CAKE
MCST.DEGF                 74 : MUD CAKE SAMPLE TEMPERATURE
MFSS.                   MEAS : MUD FILTRATE SAMPLE SOURCE
MCSS.                   MEAS : MUD CAKE SAMPLE SOURCE
RMB .OHMM              0.688 : RESISTIVITY MUD AT BHT
TCS .HRS                1100 : TIME CIRCULATED STOPPED
TLAB.HRS                1630 : TIME LOGGER AT BOTTOM
LUN .                   8407 : LOGGING UNIT NUMBER
LUL .               TYLER OH : LOGGING UNIT LOCATION
ENGI.                  RICKS : RECORDING ENGINEER
WITN.                  FEARS : WITNESSED BY
CLNT.                A2DTECH : CLIENT CODE
ORIG.         1" 2" 5" PRINT : ORIGIN OF DATA
UWI .         42293308740000 : UNIQUE WELL ID
DICO. A2D Technologies, Inc. : DIGITIZING COMPANY
~Other -----------------------------------------------------
~ASCII -----------------------------------------------------
# ...
 4850.00000    1.63930    1.58020    1.99020  -35.34870    0.26600  104.41370    0.13140    0.04870   16.29550
 4900.00000    2.10830    2.01120    2.88450  -34.75570    0.29270  107.18520    0.12420    0.10770   14.04540
 4950.00000    2.77280    2.71530    4.08970  -32.30510    0.34750  105.50710    0.15840    0.02630   12.74910
 5000.00000    2.54170    2.41750    3.44570  -38.43640    0.19310   61.51840    0.26780    0.10590   11.69230
 5050.00000    4.44820    4.30160    4.83740  -39.22780    0.12360   59.66460    0.04980    0.07250   11.11840
 5100.00000    1.76400    1.69940    1.79200  -33.21230    0.34460   81.61870    0.22730    0.14780   14.63910
 5150.00000    1.17930    1.12720    1.73410  -47.67680    0.35520   85.92740    0.22220    0.09740   14.44820
 5200.00000    1.42080    1.38230    1.78800  -48.90030    0.28450   74.78750    0.34360    0.10510   16.27770
 5250.00000    1.46900    1.42800    1.97830  -49.20480    0.36620   76.46970    0.32370    0.16310   15.01630
 5300.00000    6.84220    6.65980    7.71900  -47.40160    0.06340   27.13520    0.03280    0.01990   10.84700
 5350.00000   10.72920   11.68730   11.68010  -55.02480    0.03460   21.90540    0.04260    0.05410   10.08110
 5400.00000    5.00630    4.60910    6.00500  -44.14650    0.16340   42.88670    0.08230    0.02480   11.92670
 5450.00000    7.19150    6.90860    8.79500  -43.29970    0.05160   25.83350    0.03040    0.01730   11.40750
 5500.00000   10.64450   11.08100    9.86530  -46.42860    0.04880   23.89330    0.03380    0.00210   10.52650
 5550.00000    6.07720    6.30750   15.45500  -50.31920    0.10940   25.99990    0.10840    0.05340   10.25590
 5600.00000   15.05460   16.30510   15.34080  -60.47610    0.02250   14.48560    0.04890    0.02840   10.39730
 5650.00000   13.53680   16.81790   22.31770  -51.04000    0.05490   19.46610    0.10300    0.07060   10.58680
 5700.00000   17.62640   20.77160   15.84740  -50.76330    0.01840   14.46680    0.08020    0.06050   10.09070
 5750.00000   11.49680   10.05720   15.08270  -49.37240    0.05240   18.69720    0.04550    0.04250    9.93500
 5800.00000    6.58820    6.33900    6.47390  -40.44920    0.08490   28.65910    0.05140    0.02090   11.46540
 5850.00000   10.47470   10.92260   12.64120  -40.51290    0.03410   25.18290    0.04740    0.00600   10.52330
 5900.00000   10.70760   11.27190    9.75860  -54.01370    0.04190   20.93650    0.03970    0.02050   10.08550
 5950.00000    6.40840    6.16400    8.76420  -39.27280    0.13360   45.47030    0.10650    0.08480   10.69790
 6000.00000   14.53820   15.32660   14.90740  -55.92740    0.03270   25.63290    0.06040    0.01570    9.95630
 6050.00000   12.72860   12.90810   13.10320  -43.24460    0.02990   47.39190    0.04010    0.00330   10.67880
 6100.00000   21.01040   20.61980   21.83120  -56.65020    0.01850   30.31950    0.04830    0.01130   10.22410
 6150.00000    8.11270    8.40590    8.78440  -36.43720    0.04620   47.46230    0.04650    0.01090   11.11390
 6200.00000    1.91790    1.66170    1.78070  -37.69930    0.40280   77.30870    0.24970    0.18960   12.91870
 6250.00000    7.04510    6.19380    8.01590  -35.29840    0.09590   54.65180    0.06140    0.01410   10.47580
 6300.00000    5.99470    5.26510    7.72490  -33.96260    0.14760   51.93810    0.10400    0.04990   11.35440
 6350.00000   13.22210   14.09220   10.73420  -36.45990    0.03720   34.51410    0.03230    0.00510    9.63140
 6400.00000    3.69220    3.85620    4.59420  -30.58530    0.15690   40.71810    0.11470    0.03860   11.00260
 6450.00000    1.26730    1.14500    1.78660  -33.88840    0.37980   50.50260    0.48860    0.06450   14.87600
 6500.00000    2.41280    2.03120    3.18140  -30.83160    0.30180   37.76850    0.37120    0.08880   11.49030
 6550.00000    7.44550    7.61030    8.60570  -27.92340    0.06520   33.21650    0.04540    0.00710    9.93400
 6600.00000    2.96530    2.78150    3.02990  -29.23500    0.22340   45.40590    0.28650    0.09050   11.53070
 6650.00000   10.45850   11.11150   12.28740  -29.33690    0.03200   26.44080    0.02680    0.00220   10.09920
 6700.00000    7.47650    7.96950    8.19530  -27.19150    0.06380   29.00940    0.03960    0.01030   10.63090
 6750.00000    4.20060    3.95250    2.88380  -31.28180    0.07470   36.40450    0.19010   -0.00210   10.73850
 6800.00000    4.12670    5.25320    4.71930  -26.15890    0.09080   44.23480    0.03720    0.02380   10.07690
 6850.00000    4.57150    3.90290    6.37260  -37.10040    0.09950   53.97010    0.13640    0.02440   10.69230
 6900.00000    4.08390    4.62320    4.42300  -38.66380    0.10210   47.77720    0.16840    0.01210   10.67210
 6950.00000   12.22390   11.57360   17.32720  -36.35630    0.04230   39.23400    0.04730   -0.00190   10.53360
 7000.00000    9.89290   11.00540   13.83460  -35.34210    0.07940   45.51970    0.03070    0.00770   10.50220
 7050.00000    4.19610    4.30990    4.93460  -32.98060    0.14990   52.04560    0.03680    0.00970   10.67730
 7100.00000    4.25320   16.38370   21.57240  -37.01530    0.20060   57.90020    0.27920    0.06050   11.44670
 7150.00000    8.89350    9.17400   11.13720  -33.09280    0.06640   45.01830    0.03120    0.01280   10.53480
 7200.00000   24.45390   26.89050   37.59450  -40.50910    0.01140   42.37940    0.01760    0.00710   10.22980
 7250.00000    2.62100    2.04960    3.82350  -40.74750    0.31440   53.48660    0.49950    0.11700   12.06260
 7300.00000   26.86460   26.52280   30.71830  -36.71280    0.01190   31.82150    0.01470    0.01290    9.93420
 7350.00000   12.42760   14.15350   17.89010  -35.45100    0.02790   32.49960    0.02400    0.00770    9.78870
 7400.00000    2.94680    3.33950    4.25500  -42.37890    0.09000   40.45980    0.09350    0.00100   10.91370
 7450.00000   13.35350   18.00670   18.39590  -39.96330    0.02400   34.70600    0.08450    0.00990   11.74600
 7500.00000   25.40530   27.00170   39.25780  -34.71840    0.01560   29.14900    0.00060    0.01000   10.08910
 7550.00000   26.62090   26.04970   26.53540  -36.11750    0.01280   42.91610    0.02460    0.01730   10.79140
 7600.00000   17.65380   20.45230   27.07290  -36.17720    0.00280   25.05480    0.00710    0.06810   10.80250
 7650.00000   21.33590   22.03690   49.15250 -101.01390    0.01460   23.97960    0.05890    0.01270   10.38730
 7700.00000   37.36910   42.36060   53.10600  -49.16430    0.00850   46.28490    0.04060    0.01010   10.82180
 7750.00000  178.97690  203.16810  702.62920  -35.95470   -0.01150   10.01690   -0.12230    0.01090   10.52690
 7800.00000    8.41270    8.54040   12.27210  -26.21960    0.10100   47.23870    0.02920   -0.00100   10.10870
 7850.00000   15.48530   16.51770   18.19860  -41.58390    0.02930   46.45970    0.01750    0.01220   10.82170
 7900.00000   56.64580   63.54550   81.25710  -79.28560    0.00200   18.17060    0.01720    0.01760   10.37910
 7950.00000    3.79250    5.06680   26.68030 -158.09590    0.04380   13.06330    0.08730    0.05440   10.10390
 8000.00000   30.11120   29.90850   55.41440  -33.79950    0.03370   36.14800    0.02040    0.00850    9.48980
 8050.00000   47.41080   43.91230   46.82760  -38.08810    0.01350   39.89270    0.02500    0.00320    9.49060
 8100.00000   28.34920   27.54890   33.84590  -32.01380    0.02170   36.68330    0.00820    0.01560    9.87000
 8150.00000    5.55970    6.95930    7.66920  -32.10930    0.06310   49.87390    0.02740    0.01390   10.06070
 8200.00000   18.90190   25.58440   69.13670  -41.58520    0.10430   51.32040    0.46590   -0.01090   10.46520
 8250.00000    5.24190    5.19410    6.88810  -29.52500    0.22830   90.23830    0.28240    0.17960   11.79530
 8300.00000    3.17360    3.09110    4.17970  -32.68400    0.29460   86.01020    0.27270    0.19800   13.43070
 8350.00000   34.59690   47.16900   71.44790  -27.48350    0.02020   46.79240    0.00980   -0.00040    9.26740
 8400.00000   14.12640   13.26710   16.73110  -26.70900    0.08760   53.43340    0.13070    0.01250    9.58870
 8450.00000    4.95830    4.80260    4.73730  -32.96060    0.24860   87.00980    0.27040    0.03970   11.37990
