~Version ---------------------------------------------------
VERS. 2.0 : CWLS log ASCII Standard -VERSION 2.0
WRAP.  NO : ONE LINE PER DEPTH STEP
~Well ------------------------------------------------------
STRT.F                   3900.0 : START DEPTH
STOP.F                  13650.0 : STOP DEPTH
STEP.F                 50.00000 : STEP LENGTH
NULL.                   -999.25 : NULL VALUE
COMP.  CLAYTON W. WILLIAMS, JR. : COMPANY
WELL. W. M. HUTCHINGS ESTATE #1 : WELL
FLD .       CLAY NORTHEAST DEEP : FIELD
LOC .                           : LOCATION
CNTY.                WASHINGTON : COUNTY
STAT.                     TEXAS : STATE
CTRY.  UNITED STATES OF AMERICA : COUNTRY
SRVC.              Schlumberger : SERVICE COMPANY
DATE.               11-May-1984 : LOGDATE
API .            42477305490000 : API NUMBER
UWI .            42477305490000 : UNIQUE WELL ID
SLAT.WGS84            30.343847 : SURFACE LATITUDE
SLON.WGS84           -96.350056 : SURFACE LONGITUDE
~Curve Information -----------------------------------------
DEPT.F                 : 
NPHI.DEC  42 890 03 00 : NEUTRON POROSITY SANDSTONE.
DRHO.G/C3 45 356 01 00 : DENSITY CORRECTION
SPR .MV   07 010 01 00 : SPONTANEOUS POTENTIAL
GRR .GAPI 07 310 01 00 : GAMMA RAY FROM RESISTIVITY
ILD .OHMM 07 120 46 00 : DEEP INDUCTION RESISTIVITY
SFLA.OHMM 07 220 01 00 : SPHERICALLY FOCUSED LOG UNAVERAGED RESISTIVITY
CALD.IN   45 280 60 00 : CALIPER
RHOB.G/C3 45 350 01 00 : BULK DENSITY
~Params ----------------------------------------------------
EKB .F                 307.0 : KELLY BUSHING
EGL .F                   285 : ELEVATION GROUND LEVEL
EDF .F                   306 : ELEVATION DERRICK FLOOR
EPD .F                   285 : ELEVATION PERMANENT DATUM
TD  .F               13670.0 : TOTAL DEPTH
CLNT.                A2DTECH : CLIENT CODE
SL  .  4180' FWL & 2490' FSL : SURFACE LOCATION
PD  .                     GL : PERMANENT DATUM
LMF .                     KB : LOG MEASURED FROM
DMF .                     KB : DRILLING MEASURED FROM
DAPD.F                    22 : FEET ABOVE PERMANENT DATUM
DATE.            11-MAY-1984 : DATE LOGGED [DD-MMM-YYYY]
DD  .F                 13670 : DEPTH DRILLER
DL  .F                 13662 : DEPTH LOGGER
BLI .F                 13657 : BOTTOM LOG INTERVAL
TLI .F                 11700 : TOP LOG INTERVAL
CS1 .IN                  5.5 : CASING SIZE
CBL1.F                 12764 : CASING LOGGER 1
BS1 .IN                 4.75 : BIT SIZE
BSD1.F                 13670 : DEPTH DRILLED WITH BIT1
DFT .                    LSN : TYPE FLUID IN HOLE
DFD .                   10.1 : DENSITY
DFV .                     36 : VISCOSITY
DFPH.                   10.5 : PH
MSS .                   TANK : SOURCE OF SAMPLE
RMS .OHMM               0.92 : RM
RMF .OHMM               0.69 : RMF
MFSS.                   CALC : SOURCE RMF.
RMB .OHMM              0.294 : RM. AT BHT
BHT .F                   315 : BHT.
TCS .HRS                2100 : TIME CIRC. STOPPED
TLAB.HRS                 715 : TIME LOGGER AT BOTTOM
LUL .                   BREN : LOGGING UNIT LOCATION
ORIG.          1" & 5" PRINT : ORIGIN OF DATA
DICO. A2D TECHNOLOGIES, INC. : DIGITIZING COMPANY
CBD1.          5.5" @ 12800' : CASING DRILLER 1
DFL .                   10.8 : FLUID LOSS
RMC .OHMM               1.38 : RMC
MCSS.                   CALC : SOURCE RMC.
UWI .         42477305490000 : UNIQUE WELL ID
~Other -----------------------------------------------------
~ASCII -----------------------------------------------------
 3900.00000    -999.25    -999.25  -27.05540   55.41610    1.89330    1.89440    -999.25    -999.25
 3950.00000    -999.25    -999.25  -21.37030   61.11910    1.42750    1.52720    -999.25    -999.25
 4000.00000    -999.25    -999.25  -29.00000   51.11190    1.01640    1.23170    -999.25    -999.25
 4050.00000    -999.25    -999.25  -58.01730   49.86970    2.15250    2.17750    -999.25    -999.25
 4100.00000    -999.25    -999.25  -21.75710   56.49250    0.92680    1.00350    -999.25    -999.25
 4150.00000    -999.25    -999.25  -20.78630   51.66090    1.24810    1.04830    -999.25    -999.25
 4200.00000    -999.25    -999.25  -20.34990   62.01510    0.98160    1.04530    -999.25    -999.25
 4250.00000    -999.25    -999.25  -22.23880   56.17540    1.03890    1.10110    -999.25    -999.25
 4300.00000    -999.25    -999.25  -85.57210   45.07460    2.78030    5.72500    -999.25    -999.25
 4350.00000    -999.25    -999.25  -60.59700   48.41430    2.69800    4.24580    -999.25    -999.25
 4400.00000    -999.25    -999.25  -62.08930   69.17970    2.84500    4.17940    -999.25    -999.25
 4450.00000    -999.25    -999.25  -79.97140   38.89930    2.03540    4.75190    -999.25    -999.25
 4500.00000    -999.25    -999.25  -48.05970   71.41790    2.13250    2.43250    -999.25    -999.25
 4550.00000    -999.25    -999.25  -41.02480   76.17510    2.27950    2.72350    -999.25    -999.25
 4600.00000    -999.25    -999.25  -79.38110   40.93290    2.00300    4.36970    -999.25    -999.25
 4650.00000    -999.25    -999.25  -38.64010   63.30220    1.89840    2.45440    -999.25    -999.25
 4700.00000    -999.25    -999.25  -44.74530   57.08960    2.11260    3.49480    -999.25    -999.25
 4750.00000    -999.25    -999.25  -94.93450   70.07420    1.94820    2.84110    -999.25    -999.25
 4800.00000    -999.25    -999.25  -35.55850   71.30590    1.86340    2.60390    -999.25    -999.25
 4850.00000    -999.25    -999.25  -28.15250   68.84360    1.84610    2.77730    -999.25    -999.25
 4900.00000    -999.25    -999.25  -60.00000   67.31370    1.40510    2.68760    -999.25    -999.25
 4950.00000    -999.25    -999.25  -51.16930   74.60820    1.80870    3.37670    -999.25    -999.25
 5000.00000    -999.25    -999.25 -115.31300   38.76870    0.59790    3.37930    -999.25    -999.25
 5050.00000    -999.25    -999.25 -108.76470   42.29480    1.62930    9.38450    -999.25    -999.25
 5100.00000    -999.25    -999.25  -91.44110   55.00000    1.55460    5.42600    -999.25    -999.25
 5150.00000    -999.25    -999.25  -82.99950   58.86200    1.70400    3.32440    -999.25    -999.25
 5200.00000    -999.25    -999.25  -87.75340   64.81340    2.15250    5.53960    -999.25    -999.25
 5250.00000    -999.25    -999.25  -63.88060   81.06340    1.84600    3.66070    -999.25    -999.25
 5300.00000    -999.25    -999.25  -85.37310   54.62650    1.97310    5.99210    -999.25    -999.25
 5350.00000    -999.25    -999.25  -84.03010   51.02450    1.82110    7.05530    -999.25    -999.25
 5400.00000    -999.25    -999.25  -49.15420   69.73830    1.98800    2.78920    -999.25    -999.25
 5450.00000    -999.25    -999.25  -59.10450   70.80250    2.08520    3.79070    -999.25    -999.25
 5500.00000    -999.25    -999.25  -60.39840   60.82090    1.67420    3.72200    -999.25    -999.25
 5550.00000    -999.25    -999.25 -117.43790   49.19790    0.93670    4.58140    -999.25    -999.25
 5600.00000    -999.25    -999.25 -103.73180   40.18660    1.17590    5.52570    -999.25    -999.25
 5650.00000    -999.25    -999.25  -69.45600   55.54050    1.66910    9.58150    -999.25    -999.25
 5700.00000    -999.25    -999.25  -20.09950   84.55220    2.48130    3.33930    -999.25    -999.25
 5750.00000    -999.25    -999.25 -109.90050   50.76490    1.37520    5.07030    -999.25    -999.25
 5800.00000    -999.25    -999.25  -55.12440   74.06770    2.15250    4.06420    -999.25    -999.25
 5850.00000    -999.25    -999.25 -124.42780   42.36880    0.54810    1.78930    -999.25    -999.25
 5900.00000    -999.25    -999.25 -112.53730   46.41790    0.83710    4.85000    -999.25    -999.25
 5950.00000    -999.25    -999.25  -82.16350   64.70340    1.45490    3.77400    -999.25    -999.25
 6000.00000    -999.25    -999.25  -14.92540   84.85070    2.48130    3.14800    -999.25    -999.25
 6050.00000    -999.25    -999.25  -31.64320   67.76140    1.52470    2.65170    -999.25    -999.25
 6100.00000    -999.25    -999.25  -39.70150   72.68650    1.64420    2.73740    -999.25    -999.25
 6150.00000    -999.25    -999.25 -125.82090   41.80970    0.68010    3.89690    -999.25    -999.25
 6200.00000    -999.25    -999.25  -11.54230   89.10430    2.57600    3.05530    -999.25    -999.25
 6250.00000    -999.25    -999.25 -108.80600   57.05120    1.42750    8.07120    -999.25    -999.25
 6300.00000    -999.25    -999.25  -90.64570   59.77610    1.54460    3.91930    -999.25    -999.25
 6350.00000    -999.25    -999.25  -16.54070   75.67110    1.96810    2.64320    -999.25    -999.25
 6400.00000    -999.25    -999.25 -109.44170   68.50750    1.41010    6.01400    -999.25    -999.25
 6450.00000    -999.25    -999.25 -107.52990   47.01400    0.42600    1.99540    -999.25    -999.25
 6500.00000    -999.25    -999.25 -103.60430   58.50720    1.19580    3.44100    -999.25    -999.25
 6550.00000    -999.25    -999.25 -124.63180   43.32090    0.58290    3.54740    -999.25    -999.25
 6600.00000    -999.25    -999.25 -132.09300   45.59730    1.73390    5.92430    -999.25    -999.25
 6650.00000    -999.25    -999.25 -103.02390   46.00750    0.53810    0.47230    -999.25    -999.25
 6700.00000    -999.25    -999.25  -94.01260   76.11940    1.95320    4.79820    -999.25    -999.25
 6750.00000    -999.25    -999.25  -55.35290   85.96930    1.41240    1.82210    -999.25    -999.25
 6800.00000    -999.25    -999.25 -133.25580   51.64150    1.27060    6.95960    -999.25    -999.25
 6850.00000    -999.25    -999.25  -27.85720   51.26870    0.78480    3.95360    -999.25    -999.25
 6900.00000    -999.25    -999.25  -21.29350   86.93960    2.53110    3.15400    -999.25    -999.25
 6950.00000    -999.25    -999.25  -14.32840   73.43280    4.13300    5.00750    -999.25    -999.25
 7000.00000    -999.25    -999.25  -19.50250   62.16420    2.09770    2.49930    -999.25    -999.25
 7050.00000    -999.25    -999.25  -31.38880   38.84250    3.86420   11.37520    -999.25    -999.25
 7100.00000    -999.25    -999.25  -39.10450   74.32840    2.57090    3.85350    -999.25    -999.25
 7150.00000    -999.25    -999.25  -38.85530   86.08250    2.27950    6.27050    -999.25    -999.25
 7200.00000    -999.25    -999.25  -71.34330   62.16310    1.85350    6.10360    -999.25    -999.25
 7250.00000    -999.25    -999.25  -94.17940   68.47080    1.75890    5.72740    -999.25    -999.25
 7300.00000    -999.25    -999.25  -76.11940   48.13430    2.91960    7.38970    -999.25    -999.25
 7350.00000    -999.25    -999.25  -22.93550   87.35150    3.66960    4.67120    -999.25    -999.25
 7400.00000    -999.25    -999.25  -84.47760   69.47520    1.81860    4.94770    -999.25    -999.25
 7450.00000    -999.25    -999.25 -125.64660   40.07410    1.50220   12.55100    -999.25    -999.25
 7500.00000    -999.25    -999.25  -55.42620   72.46380    1.98310    4.27010    -999.25    -999.25
 7550.00000    -999.25    -999.25 -111.04870   38.73050    1.53220    7.10010    -999.25    -999.25
 7600.00000    -999.25    -999.25 -123.17370   43.73180    0.82220    4.44940    -999.25    -999.25
 7650.00000    -999.25    -999.25  -98.17370   59.85020    2.05530    8.66970    -999.25    -999.25
 7700.00000    -999.25    -999.25 -109.40120   54.62690    2.27200    9.41210    -999.25    -999.25
 7750.00000    -999.25    -999.25  -91.66700   86.52970    1.90580    5.24220    -999.25    -999.25
 7800.00000    -999.25    -999.25  -40.39220   80.93280    2.12260    5.34740    -999.25    -999.25
 7850.00000    -999.25    -999.25 -120.49020   43.43300    1.80120   12.46790    -999.25    -999.25
