~Version ---------------------------------------------------
VERS. 2.0 : CWLS log ASCII Standard -VERSION 2.0
WRAP.  NO : ONE LINE PER DEPTH STEP
~Well ------------------------------------------------------
STRT.F                        3850.0 : START DEPTH
STOP.F                        8250.0 : STOP DEPTH
STEP.F                      50.00000 : STEP LENGTH
NULL.                        -999.25 : NULL VALUE
COMP. COLUMBIA GAS DEVELOPMENT CORP. : COMPANY
WELL.     MARION J. FILIPPONE FEE #3 : WELL
FLD .                       GIDDINGS : FIELD
LOC .                                : LOCATION
CNTY.                       BURLESON : COUNTY
STAT.                          TEXAS : STATE
CTRY.       UNITED STATES OF AMERICA : COUNTRY
SRVC.                   Schlumberger : SERVICE COMPANY
DATE.                    23-Jun-1979 : LOGDATE
API .                 42051303970000 : API NUMBER
UWI .                 42051303970000 : UNIQUE WELL ID
SLAT.WGS84             30.4270780332 : SURFACE LATITUDE
SLON.WGS84            -96.7155435742 : SURFACE LONGITUDE
~Curve Information -----------------------------------------
DEPT.F                 : 
DPHI.DEC  45 890 10 00 : DENSITY POROSITY LIMESTONE
NPHI.DEC  42 890 01 00 : NEUTRON POROSITY LIMESTONE
GRD .GAPI 42 310 01 00 : GAMMA RAY
CALD.IN   45 280 60 00 : CALIPER FDC LOG
CORR.G/C3 45 356 01 00 : DENSITY CORRECTION
RHOB.G/C3 45 350 01 00 : BULK DENSITY
DT  .US/F 60 520 00 00 : INTERVAL TRANSIT TIME
ILD .OHMM 07 120 46 00 : INDUCTION LOG DEEP
CALR.IN   07 280 01 00 : CALIPER FROM RESISTIVITY
ILM .OHMM 07 120 44 00 : INDUCTION LOG MEDIUM
SFL .OHMM 07 220 01 00 : SHALLOW FOCUSED LOG RESISTIVITY
SPR .MV   07 010 01 00 : SPONTANEOUS POTENTIAL FROM RES.
~Params ----------------------------------------------------
PD  .                     GL : PERMANENT DATUM
EPD .FT                  360 : ELEVATION PERMANENT DATUM
LMF .                     KB : LOG MEASURED FROM
DAPD.FT                   15 : FEET ABOVE PERMANENT DATUM
DMF .                     KB : DRILLING MEASURED FROM
EKB .FT                  375 : KELLY BUSHING
EDF .FT                  374 : DRILLING FLOOR
EGL .FT                  360 : GROUND LEVEL
DATE.               06/23/79 : RUN DATE
RUN .                      2 : RUN NUMBER
DD  .FT                 8275 : DEPTH DRILLER
DL  .FT                 8284 : DEPTH LOGGER
BLI .FT                 8277 : BOTTOM LOG INTERVAL
TLI .FT                 7673 : TOP LOG INTERVAL
CS  .IN                10.75 : CASING SIZE
BS  .IN                9.875 : BIT SIZE
BSD .FT                 8275 : BIT SIZE AT DEPTH
DFT .                  BENEX : DRILLING FLUID TYPE
DFD .                    9.4 : DRILLING FLUID DENSITY
DFV .                     38 : DRILLING FLUID VISCOSITY
DFPH.                    9.5 : DRILLING FLUID PH
DFL .                      7 : DRILLING FLUID LOSS
MSS .                    PIT : MUD SAMPLE SOURCE
RMS .OHMM               2.31 : RESISTIVITY MUD SAMPLE
MST .DEGF                 75 : MUD SAMPLE TEMPERATURE
RMF .OHMM                1.8 : RESISTIVITY MUD FILTRATE SAMPLE
MFST.DEGF                 75 : MUD FILTRATE SAMPLE TEMPERATURE
RMC .OHMM               3.45 : RESISTIVITY MUD CAKE
MCST.DEGF                 75 : MUD CAKE SAMPLE TEMPERATURE
MFSS.                      M : MUD FILTRATE SAMPLE SOURCE
MCSS.                      C : MUD CAKE SAMPLE SOURCE
RMB .OHMM               1.02 : RESISTIVITY MUD AT BHT
TCS .HRS                1530 : TIME CIRCULATED STOPPED
TLAB.HRS                2100 : TIME LOGGER AT BOTTOM
LUN .                   8101 : LOGGING UNIT NUMBER
LUL .                BRENHAM : LOGGING UNIT LOCATION
ENGI.                   EAST : RECORDING ENGINEER
WITN.                  ONEAL : WITNESSED BY
CLNT.                A2DTECH : CLIENT CODE
ORIG.            2" 5" PRINT : ORIGIN OF DATA
UWI .         42051303970000 : UNIQUE WELL ID
DICO. A2D Technologies, Inc. : DIGITIZING COMPANY
~Other -----------------------------------------------------
~ASCII -----------------------------------------------------
 3850.00000    0.33660    -999.25   52.61430   10.79530    0.09550    2.18450  119.23820    4.97820   15.24240    5.41970    3.83310  -40.45510
 3900.00000    0.20280    -999.25  103.51880    9.10200    0.00620    2.36390   97.81410    5.61800   11.34510    6.71630    6.67120  -63.56740
 3950.00000    0.24720    -999.25   94.02620   10.35290    0.02500    2.28560  114.31020    2.92420   13.14590    3.08800    2.92050  -50.59650
 4000.00000    0.25090    -999.25   94.79800    8.47310    0.00350    2.28070  100.95510    6.56120   10.38170    6.09630    7.93790  -73.69930
 4050.00000    0.19860    -999.25   99.48590    8.20950    0.02930    2.37230   96.49750    5.14360   10.43980    5.57650    6.40290  -61.47650
 4100.00000    0.25850    -999.25   77.83150    8.03330    0.00550    2.26420   91.75980    6.24730   11.25610    7.86300    9.11270  -60.06260
 4150.00000    0.28350    -999.25   87.73650    8.19280    0.05020    2.23880   99.44280    3.44760   11.20500    3.75420    5.04950  -56.55140
 4200.00000    0.17720    -999.25  104.67560    8.58460    0.08630    2.40780  102.20810    3.08720   11.35840    3.19910    2.86210  -49.25380
 4250.00000    0.26590    -999.25   86.22470    7.97760    0.00030    2.25450   96.58020    3.35520   10.63320    4.24290    5.52090  -80.88640
 4300.00000    0.17870    -999.25  105.92810    9.15590    0.04720    2.41170   98.42530    3.17830   11.85720    2.91250    2.80660  -46.11860
 4350.00000    0.18370    -999.25  105.83210    7.93640    0.05290    2.39130   97.93530    2.37010   11.54580    3.00610    2.65180  -55.30710
 4400.00000    -999.25    -999.25    -999.25    -999.25    -999.25    -999.25   97.19600    2.69120   11.19680    2.95220    3.03760  -46.90590
 4450.00000    -999.25    -999.25    -999.25    -999.25    -999.25    -999.25   97.62420    2.57540   10.63380    2.95470    3.11820  -48.75430
 4500.00000    -999.25    -999.25    -999.25    -999.25    -999.25    -999.25   91.57210    2.94300   11.95350    3.26600    3.80560  -49.71420
 4550.00000    -999.25    -999.25    -999.25    -999.25    -999.25    -999.25   98.62980    2.11010   12.25480    2.24160    2.39530  -44.26490
 4600.00000    -999.25    -999.25    -999.25    -999.25    -999.25    -999.25   96.56840    2.23600   12.02900    2.28850    2.52170  -43.29160
 4650.00000    -999.25    -999.25    -999.25    -999.25    -999.25    -999.25   99.00620    1.83190   11.91480    2.02230    2.20970  -43.47600
 4700.00000    -999.25    -999.25    -999.25    -999.25    -999.25    -999.25   95.36180    2.10180   12.27620    2.31020    2.36840  -43.60390
 4750.00000    -999.25    -999.25    -999.25    -999.25    -999.25    -999.25   97.95110    1.75800   12.28600    1.94990    2.11380  -43.23520
 4800.00000    -999.25    -999.25    -999.25    -999.25    -999.25    -999.25  104.76190    1.45500   12.36020    1.65570    1.73440  -42.61830
 4850.00000    -999.25    -999.25    -999.25    -999.25    -999.25    -999.25  102.43200    1.50790   12.26530    1.71560    1.81180  -45.41510
 4900.00000    -999.25    -999.25    -999.25    -999.25    -999.25    -999.25  106.04030    1.34280   12.16540    1.51600    1.65130  -44.54380
 4950.00000    -999.25    -999.25    -999.25    -999.25    -999.25    -999.25   98.61550    1.62590   12.09210    1.88280    1.97380  -41.43120
 5000.00000    -999.25    -999.25    -999.25    -999.25    -999.25    -999.25   99.68860    1.51740   11.45560    1.66260    1.74280  -42.76640
 5050.00000    -999.25    -999.25    -999.25    -999.25    -999.25    -999.25  102.76610    1.19810   11.72010    1.38040    1.43340  -39.71270
 5100.00000    -999.25    -999.25    -999.25    -999.25    -999.25    -999.25  109.59480    0.95520   11.94750    1.08000    1.15430  -39.32580
 5150.00000    -999.25    -999.25    -999.25    -999.25    -999.25    -999.25   99.91360    1.49170   12.11990    1.72870    1.83110  -40.74310
 5200.00000    -999.25    -999.25    -999.25    -999.25    -999.25    -999.25   95.12150    1.52740   12.44890    1.78950    1.89520  -45.08100
 5250.00000    -999.25    -999.25    -999.25    -999.25    -999.25    -999.25  107.32430    1.14010   12.50860    1.29670    1.36830  -43.63740
 5300.00000    -999.25    -999.25    -999.25    -999.25    -999.25    -999.25  107.99640    1.06460   13.05210    1.23450    1.38800  -42.35880
 5350.00000    -999.25    -999.25    -999.25    -999.25    -999.25    -999.25   93.38300    1.83930   12.32270    1.90290    2.24280  -44.23350
 5400.00000    -999.25    -999.25    -999.25    -999.25    -999.25    -999.25   93.30690    1.67380   13.54640    1.92990    2.02760  -45.10810
 5450.00000    -999.25    -999.25    -999.25    -999.25    -999.25    -999.25   91.88120    1.51950   12.27160    1.65930    1.86250  -47.39550
 5500.00000    -999.25    -999.25    -999.25    -999.25    -999.25    -999.25  108.83150    0.98590   12.19650    1.15580    1.26330  -43.37530
 5550.00000    -999.25    -999.25    -999.25    -999.25    -999.25    -999.25  101.28470    1.27850   12.34790    1.46300    1.68100  -42.89010
 5600.00000    -999.25    -999.25    -999.25    -999.25    -999.25    -999.25  107.39560    0.95300   12.42890    1.11940    1.31730  -47.20540
 5650.00000    -999.25    -999.25    -999.25    -999.25    -999.25    -999.25   80.37570    3.68460   11.75950    3.98140    4.18300  -39.31760
 5700.00000    -999.25    -999.25    -999.25    -999.25    -999.25    -999.25   98.03630    1.15090   11.92950    1.36330    1.45320  -39.57150
 5750.00000    -999.25    -999.25    -999.25    -999.25    -999.25    -999.25   94.35030    1.39140   11.87500    1.50760    1.62780  -43.40320
 5800.00000    -999.25    -999.25    -999.25    -999.25    -999.25    -999.25   91.32340    1.54210   13.31910    1.62250    1.84660  -41.92470
 5850.00000    -999.25    -999.25    -999.25    -999.25    -999.25    -999.25   93.91290    1.30550   11.23410    1.40520    1.21900  -41.32030
 5900.00000    -999.25    -999.25    -999.25    -999.25    -999.25    -999.25   93.40920    1.59840   11.79980    1.66740    1.79910  -43.92680
 5950.00000    -999.25    -999.25    -999.25    -999.25    -999.25    -999.25   98.94450    1.31080   11.43270    1.37890    1.42490  -43.26200
 6000.00000    -999.25    -999.25    -999.25    -999.25    -999.25    -999.25   99.66100    1.30370   11.98340    1.42650    1.50800  -41.93880
 6050.00000    -999.25    -999.25    -999.25    -999.25    -999.25    -999.25   98.34760    1.23970   12.72490    1.46290    1.51500  -40.65940
 6100.00000    -999.25    -999.25    -999.25    -999.25    -999.25    -999.25  104.79900    0.98650   11.90650    1.14890    1.23600  -39.57750
 6150.00000    -999.25    -999.25    -999.25    -999.25    -999.25    -999.25   89.72320    1.81320   13.85310    1.90800    2.10210  -40.19580
 6200.00000    -999.25    -999.25    -999.25    -999.25    -999.25    -999.25   88.38150    1.88170   11.79380    2.08500    2.19920  -39.82740
 6250.00000    -999.25    -999.25    -999.25    -999.25    -999.25    -999.25   89.33640    1.82430   11.41000    2.02590    2.15700  -39.55630
 6300.00000    -999.25    -999.25    -999.25    -999.25    -999.25    -999.25   91.43890    1.61050   11.75860    1.87010    1.99770  -40.85020
 6350.00000    -999.25    -999.25    -999.25    -999.25    -999.25    -999.25   93.46180    1.57280   12.93390    1.78400    1.92980  -38.83960
 6400.00000    0.11130    0.21350  100.19800   11.40490    0.02010    2.47880   93.60940    1.57430   13.10780    1.79790    1.92270  -41.17470
 6450.00000    0.15240    0.25000   94.88450   10.73400    0.11870    2.50290   97.77650    1.41610   13.76300    1.63540    1.76500  -43.51500
 6500.00000    0.15540    0.26210  111.37720    9.55420    0.04630    2.44670   96.68950    1.48200   13.03960    1.77810    1.93640  -41.85810
 6550.00000    0.10640    0.23930   75.39020    9.73890    0.07990    2.49800   92.36590    1.64630   12.96960    1.83690    1.99180  -41.23570
 6600.00000    0.07980    0.14000   61.94920    8.45230   -0.01090    2.56470   78.44700    3.02630   10.75180    3.57490    3.52940  -38.89800
