~Version ---------------------------------------------------
VERS.      2.0 : CWLS log ASCII Standard -VERSION 2.0
WRAP.      YES : Multiple lines per depth step
CREA. 07/19/12 : LAS Creation Date
~Well ------------------------------------------------------
STRT.FT                  3700.0 : START DEPTH
STOP.FT                  8100.0 : STOP DEPTH
STEP.FT                50.00000 : STEP LENGTH
NULL.                   -999.25 : NULL VALUE
COMP. BRITTANY DRILLING COMPANY : COMPANY
WELL.           WENKE UNIT A #1 : WELL
FLD .                  GIDDINGS : FIELD
LOC .                           : LOCATION
CNTY.                       LEE : COUNTY
STAT.                     TEXAS : STATE
CTRY.  UNITED STATES OF AMERICA : COUNTRY
SRVC.              Schlumberger : SERVICE COMPANY
DATE.               14-Apr-1981 : LOGDATE
API .            42287309140000 : API NUMBER
UWI .            42287309140000 : UNIQUE WELL ID
SLAT.WGS84        30.1151179696 : SURFACE LATITUDE
SLON.WGS84       -97.0048315462 : SURFACE LONGITUDE
~Curve Information -----------------------------------------
DEPT    .FT    : DEPTH FEET
CALDED  .IN    : CALIPER FROM COMPENSATED NEUTRON-FORMATION DENSITY LOG
CALRED  .IN    : CALIPER FROM DUAL INDUCTION-SFL-SONIC LOG
CALWS   .IN    : CALIPER [CALRED SPL. TO CALDED @ 8077.5']
CONDWS  .MMHO  : CONDUCTIVITY [1000/DRESWS]
DCORWS  .G/C3  : DENSITY CORRECTION [DRHOED]
DENWS   .G/C3  : FORMATION BULK DENSITY [RHOBED]
DPHILSED.V/V   : DENSITY POROSITY LIMESTONE [M=2.71 F=1.0] FROM COMPENSATED NEUTRON-FORMATION DENSITY LOG
DPOWS   .V/V   : DENSITY POROSITY LIMESTONE [DPHILSED]
DRESWS  .OHMM  : DEEP RESISTIVITY [ILDED]
DRHOED  .G/C3  : DENSITY CORRECTION FROM COMPENSATED NEUTRON-FORMATION DENSITY LOG
DTED    .US/F  : INTERVAL TRANSIT TIME FROM DUAL INDUCTION-SFL-SONIC LOG
DTWS    .US/F  : COMPRESSIONAL SONIC [DTED]
GRDED   .GAPI  : GAMMA RAY FROM COMPENSATED NEUTRON-FORMATION DENSITY LOG
GRWS    .GAPI  : GAMMA RAY [GRDED]
ILDED   .OHMM  : DEEP INDUCTION FROM DUAL INDUCTION-SFL-SONIC LOG
ILMED   .OHMM  : MEDIUM INDUCTION FROM DUAL INDUCTION-SFL-SONIC LOG
MRESWS  .OHMM  : MEDIUM RESISTIVITY [ILMED]
NPHILSED.V/V   : NEUTRON POROSITY LIMESTONE FROM COMPENSATED NEUTRON-FORMATION DENSITY LOG
NPOWS   .V/V   : NEUTRON POROSITY LIMESTONE[NPHILSED]
RHOBED  .G/C3  : BULK DENSITY FROM COMPENSATED NEUTRON-FORMATION DENSITY LOG
SFLUED  .OHMM  : SHALLOW FOCUS RESISTIVITY UNAVERAGED FROM DUAL INDUCTION-SFL-SONIC LOG
SPRED   .MV    : SPONTANEOUS POTENTIAL FROM DUAL INDUCTION-SFL-SONIC LOG
SPWS    .MV    : SPONTANEOUS POTENTIAL [BASELINE 0 MV, SPRED]
SRESWS  .OHMM  : SHALLOW RESISTIVITY [SFLUED]
~Params ----------------------------------------------------
PD  .                     GL : PERMANENT DATUM
EPD .FT                  432 : ELEVATION PERMANENT DATUM
LMF .                    RKB : LOG MEASURED FROM
DAPD.FT                   16 : FEET ABOVE PERMANENT DATUM
DMF .                    RKB : DRILLING MEASURED FROM
EKB .FT                  448 : KELLY BUSHING
EDF .FT                  447 : DRILLING FLOOR
EGL .FT                  432 : GROUND LEVEL
DATE.               04/14/81 : RUN DATE
RUN .                      1 : RUN NUMBER
DD  .FT                 8140 : DEPTH DRILLER
DL  .FT                 8136 : DEPTH LOGGER
BLI .FT                 8129 : BOTTOM LOG INTERVAL
TLI .FT                 3699 : TOP LOG INTERVAL
CS  .IN                8.625 : CASING SIZE
CBD .FT                 3700 : CASING BOTTOM DRILLER
CBL .FT                 3699 : CASING BOTTOM LOGGER
BS  .IN                7.875 : BIT SIZE
BSD .FT                 8140 : BIT SIZE AT DEPTH
DFT .             LOW SOLIDS : DRILLING FLUID TYPE
DFD .                    9.2 : DRILLING FLUID DENSITY
DFV .                     38 : DRILLING FLUID VISCOSITY
DFPH.                    9.5 : DRILLING FLUID PH
DFL .                    6.6 : DRILLING FLUID LOSS
MSS .               CIRC PIT : MUD SAMPLE SOURCE
RMS .OHMM                2.6 : RESISTIVITY MUD SAMPLE
MST .DEGF                 75 : MUD SAMPLE TEMPERATURE
RMF .OHMM               3.54 : RESISTIVITY MUD FILTRATE SAMPLE
MFST.DEGF                 75 : MUD FILTRATE SAMPLE TEMPERATURE
RMC .OHMM                3.9 : RESISTIVITY MUD CAKE
MCST.DEGF                 75 : MUD CAKE SAMPLE TEMPERATURE
MFSS.                      M : MUD FILTRATE SAMPLE SOURCE
MCSS.                      C : MUD CAKE SAMPLE SOURCE
RMB .OHMM               0.98 : RESISTIVITY MUD AT BHT
TCS .HRS                2000 : TIME CIRCULATED STOPPED
TLAB.HRS                 155 : TIME LOGGER AT BOTTOM
LUN .                   8005 : LOGGING UNIT NUMBER
LUL .               VICTORIA : LOGGING UNIT LOCATION
ENGI.              BENAVIDES : RECORDING ENGINEER
WITN.                 KURTIN : WITNESSED BY
CLNT.                A2DTECH : CLIENT CODE
ORIG.               5" PRINT : ORIGIN OF DATA
UWI .         42287309140000 : UNIQUE WELL ID
DICO. A2D Technologies, Inc. : DIGITIZING COMPANY
~Other -----------------------------------------------------
~ASCII -----------------------------------------------------
 3700.00000    -999.25    8.08320    8.08320    -999.25    -999.25    -999.25    -999.25    -999.25    -999.25    -999.25    -999.25    -999.25    -999.25    -999.25    -999.25    -999.25    -999.25    -999.25    -999.25    -999.25    -999.25    -999.25    -999.25    -999.25
 3750.00000    -999.25    8.65440    8.65440  228.77540    -999.25    -999.25    -999.25    -999.25    4.37110    -999.25  108.93320  108.93320    -999.25    -999.25    4.37110    5.69480    5.69480    -999.25    -999.25    -999.25    7.46880  -68.15480  -46.94000    7.46880
 3800.00000    -999.25    8.17570    8.17570  218.13580    -999.25    -999.25    -999.25    -999.25    4.58430    -999.25  106.80290  106.80290    -999.25    -999.25    4.58430    5.98020    5.98020    -999.25    -999.25    -999.25    8.44440  -68.80840  -48.64430    8.44440
 3850.00000    -999.25    8.69970    8.69970  294.76790    -999.25    -999.25    -999.25    -999.25    3.39250    -999.25  111.43300  111.43300    -999.25    -999.25    3.39250    4.33800    4.33800    -999.25    -999.25    -999.25    6.21610  -71.81130  -52.69780    6.21610
 3900.00000    -999.25    8.11680    8.11680  194.24260    -999.25    -999.25    -999.25    -999.25    5.14820    -999.25   95.30670   95.30670    -999.25    -999.25    5.14820    5.55360    5.55360    -999.25    -999.25    -999.25    7.23730  -38.35280  -20.29000    7.23730
 3950.00000    -999.25    8.42160    8.42160  243.96190    -999.25    -999.25    -999.25    -999.25    4.09900    -999.25  102.28630  102.28630    -999.25    -999.25    4.09900    4.29560    4.29560    -999.25    -999.25    -999.25    5.40640  -33.57920  -16.56710    5.40640
 4000.00000    -999.25    8.74250    8.74250  403.99140    -999.25    -999.25    -999.25    -999.25    2.47530    -999.25  111.54500  111.54500    -999.25    -999.25    2.47530    2.45120    2.45120    -999.25    -999.25    -999.25    2.38530  -18.97670   -3.01530    2.38530
 4050.00000    -999.25    8.40050    8.40050  243.62320    -999.25    -999.25    -999.25    -999.25    4.10470    -999.25   96.12640   96.12640    -999.25    -999.25    4.10470    4.39350    4.39350    -999.25    -999.25    -999.25    6.16800  -28.29000  -13.37930    6.16800
 4100.00000    -999.25    7.84340    7.84340  299.96700    -999.25    -999.25    -999.25    -999.25    3.33370    -999.25   88.17260   88.17260    -999.25    -999.25    3.33370    4.42330    4.42330    -999.25    -999.25    -999.25    5.48880  -47.63300  -33.36320    5.48880
 4150.00000    -999.25    7.76950    7.76950  307.72070    -999.25    -999.25    -999.25    -999.25    3.24970    -999.25  100.48590  100.48590    -999.25    -999.25    3.24970    4.18250    4.18250    -999.25    -999.25    -999.25    6.80640  -63.49920  -49.22940    6.80640
 4200.00000    -999.25    7.75610    7.75610  419.04120    -999.25    -999.25    -999.25    -999.25    2.38640    -999.25  103.80300  103.80300    -999.25    -999.25    2.38640    3.13480    3.13480    -999.25    -999.25    -999.25    6.43980  -72.69980  -58.43000    6.43980
 4250.00000    -999.25    7.91590    7.91590  273.61280    -999.25    -999.25    -999.25    -999.25    3.65480    -999.25   97.16210   97.16210    -999.25    -999.25    3.65480    4.34730    4.34730    -999.25    -999.25    -999.25    6.36840  -47.30720  -33.03740    6.36840
 4300.00000    -999.25    7.80030    7.80030  362.92370    -999.25    -999.25    -999.25    -999.25    2.75540    -999.25  106.21640  106.21640    -999.25    -999.25    2.75540    3.16680    3.16680    -999.25    -999.25    -999.25    2.64040  -40.99880  -26.72900    2.64040
 4350.00000    -999.25    8.33200    8.33200  280.23760    -999.25    -999.25    -999.25    -999.25    3.56840    -999.25   98.23130   98.23130    -999.25    -999.25    3.56840    3.39750    3.39750    -999.25    -999.25    -999.25    3.24150  -27.99690  -13.72710    3.24150
 4400.00000    -999.25    8.01960    8.01960  261.59520    -999.25    -999.25    -999.25    -999.25    3.82270    -999.25   77.66280   77.66280    -999.25    -999.25    3.82270    4.93580    4.93580    -999.25    -999.25    -999.25   13.62990  -59.63480  -44.41900   13.62990
 4450.00000    -999.25    7.81040    7.81040  325.51020    -999.25    -999.25    -999.25    -999.25    3.07210    -999.25   96.44310   96.44310    -999.25    -999.25    3.07210    3.62830    3.62830    -999.25    -999.25    -999.25    5.45770  -49.47550  -33.77780    5.45770
 4500.00000    -999.25    7.63750    7.63750  431.70440    -999.25    -999.25    -999.25    -999.25    2.31640    -999.25   94.76320   94.76320    -999.25    -999.25    2.31640    3.19380    3.19380    -999.25    -999.25    -999.25    6.97870  -72.80460  -59.14680    6.97870
 4550.00000    -999.25    8.17070    8.17070  363.57030    -999.25    -999.25    -999.25    -999.25    2.75050    -999.25   95.10770   95.10770    -999.25    -999.25    2.75050    2.86450    2.86450    -999.25    -999.25    -999.25    3.58860  -12.41860   -0.80070    3.58860
 4600.00000    -999.25    8.17630    8.17630  317.04770    -999.25    -999.25    -999.25    -999.25    3.15410    -999.25   96.58440   96.58440    -999.25    -999.25    3.15410    3.12240    3.12240    -999.25    -999.25    -999.25    3.23330  -13.79800   -4.22000    3.23330
 4650.00000    -999.25    7.68590    7.68590  372.57820    -999.25    -999.25    -999.25    -999.25    2.68400    -999.25   95.43750   95.43750    -999.25    -999.25    2.68400    3.25490    3.25490    -999.25    -999.25    -999.25    6.20130  -59.85010  -46.13780    6.20130
 4700.00000    -999.25    8.20320    8.20320  385.32680    -999.25    -999.25    -999.25    -999.25    2.59520    -999.25   96.64430   96.64430    -999.25    -999.25    2.59520    2.76500    2.76500    -999.25    -999.25    -999.25    2.82730  -14.92280   -1.89310    2.82730
 4750.00000    -999.25    8.66880    8.66880  404.12200    -999.25    -999.25    -999.25    -999.25    2.47450    -999.25   97.07660   97.07660    -999.25    -999.25    2.47450    2.57150    2.57150    -999.25    -999.25    -999.25    2.59650  -14.01900   -4.32090    2.59650
 4800.00000    -999.25    8.25220    8.25220  381.98560    -999.25    -999.25    -999.25    -999.25    2.61790    -999.25   93.49090   93.49090    -999.25    -999.25    2.61790    2.71780    2.71780    -999.25    -999.25    -999.25    2.56140  -12.56490   -5.93760    2.56140
 4850.00000    -999.25    8.25110    8.25110  428.48570    -999.25    -999.25    -999.25    -999.25    2.33380    -999.25   93.01250   93.01250    -999.25    -999.25    2.33380    2.42590    2.42590    -999.25    -999.25    -999.25    2.88270  -12.94650   -5.92590    2.88270
 4900.00000    -999.25    9.00840    9.00840  608.82800    -999.25    -999.25    -999.25    -999.25    1.64250    -999.25   99.01840   99.01840    -999.25    -999.25    1.64250    1.70690    1.70690    -999.25    -999.25    -999.25    1.89280  -12.04050   -4.62670    1.89280
 4950.00000    -999.25    9.27930    9.27930  490.94210    -999.25    -999.25    -999.25    -999.25    2.03690    -999.25   95.25980   95.25980    -999.25    -999.25    2.03690    2.11320    2.11320    -999.25    -999.25    -999.25    2.29830  -12.86490   -5.05780    2.29830
 5000.00000    -999.25    9.38960    9.38960  630.43750    -999.25    -999.25    -999.25    -999.25    1.58620    -999.25  100.55740  100.55740    -999.25    -999.25    1.58620    1.64570    1.64570    -999.25    -999.25    -999.25    1.84850  -12.10000   -3.89970    1.84850
 5050.00000    -999.25    9.10120    9.10120  674.67280    -999.25    -999.25    -999.25    -999.25    1.48220    -999.25  103.20710  103.20710    -999.25    -999.25    1.48220    1.53840    1.53840    -999.25    -999.25    -999.25    1.69810  -11.49740   -2.90380    1.69810
 5100.00000    -999.25    8.72470    8.72470  712.60600    -999.25    -999.25    -999.25    -999.25    1.40330    -999.25  103.65760  103.65760    -999.25    -999.25    1.40330    1.45590    1.45590    -999.25    -999.25    -999.25    1.69680  -11.73640   -2.74960    1.69680
