~Version ---------------------------------------------------
VERS. 2.0 : CWLS log ASCII Standard -VERSION 2.0
WRAP. YES : MULTIPLE LINES PER DEPTH STEP
~Well ------------------------------------------------------
STRT.FT                  300.0 : START DEPTH
STOP.FT                14000.0 : STOP DEPTH
STEP.FT               50.00000 : STEP LENGTH
NULL.                  -999.25 : NULL VALUE
COMP.      MGF OIL CORPORATION : COMPANY
WELL.                 BOONE #1 : WELL
FLD .                  WILDCAT : FIELD
LOC .                          : LOCATION
CNTY.                      BEE : COUNTY
STAT.                    TEXAS : STATE
CTRY. UNITED STATES OF AMERICA : COUNTRY
SRVC.             Schlumberger : SERVICE COMPANY
DATE.              11-Feb-1976 : LOGDATE
API .           42025304380000 : API NUMBER
UWI .           42025304380000 : UNIQUE WELL ID
SLAT.WGS84       28.6868031711 : SURFACE LATITUDE
SLON.WGS84       -97.929230078 : SURFACE LONGITUDE
~Curve Information -----------------------------------------
DEPT    .FT    : DEPTH FEET
ALL8ED  .OHMM  : AMP. LATEROLOG 8
CALDED  .IN    : CALIPER FROM DENSITY LOG
CALSED  .IN    : CALIPER FROM SONIC LOG
CALWS   .IN    : CALIPER [CALDED]
CILDED  .MMHO  : CONDUCTIVITY FROM RESISTIVITY LOG
CONDWS  .MMHO  : CONDUCTIVITY [1000/DRESWS]
CORRED  .G/C3  : DENSITY CORRECTION FROM DENSITY LOG
DCORWS  .G/C3  : DENSITY CORRECTION [CORRED]
DENWS   .G/C3  : BULK DENSITY [M=2.65/2.71 FROM 13350-TD F=1.0] [RHOBED]
DPHILSED.V/V   : DENSITY POROSITY LIMESTONE FROM DENSITY LOG
DPHISSED.V/V   : DENSITY POROSITY SANDSTONE FROM DENSITY LOG
DPOWS   .V/V   : DENSITY POROSITY [M=2.65/2.71 FROM 13350-TD F=1.0] [CALCULATED FROM DENWS]
DRESWS  .OHMM  : DEEP RESISTIVITY [ILDED] FROM 3588 IF ILDED<1;1000/CILDED;ELSE ILDED
DTED    .US/F  : DELTA TIME FROM SONIC LOG [DEPTH ADJ TO ALL8]
DTWS    .US/F  : DELTA TIME [DTED]
GRDED   .GAPI  : GAMMA RAY FROM DENSITY LOG [DEPTH ADJ TO SPR]
GRSED   .GAPI  : GAMMA RAY FROM SONIC LOG
GRWS    .GAPI  : GAMMA RAY [GRDED]
ILDED   .OHMM  : INDUCTION LOG DEEP RESISTIVITY
NPHILSED.V/V   : NEUTRON POROSITY LIMESTONE FROM DENSITY LOG
NPHISSED.V/V   : NEUTRON POROSITY SANDSTONE FROM DENSITY LOG
NPOWS   .V/V   : NEUTRON POROSITY [MERGED NPHISSED/NPHILSED FROM 13350-TD]
RHOBED  .G/C3  : BULK DENSITY FROM DENSITY LOG
SPRED   .MV    : SPONTANEOUS POTENTIAL FROM RESISTIVITY LOG SHIFTED
SPWS    .MV    : SPONTANEOUS POTENTIAL [SHIFTED/BASELINE 0 MV] [SPRED]
SRESWS  .OHMM  : SHALLOW RESISTIVITY [ALL8ED]
~Params ----------------------------------------------------
PD  .                     GL : PERMANENT DATUM
EPD .FT                  503 : ELEVATION PERMANENT DATUM
LMF .                     KB : LOG MEASURED FROM
DAPD.FT                   21 : FEET ABOVE PERMANENT DATUM
DMF .                     KB : DRILLING MEASURED FROM
EKB .FT                  524 : KELLY BUSHING
EDF .FT                  523 : DRILLING FLOOR
EGL .FT                  503 : GROUND LEVEL
DATE.               02/11/76 : RUN DATE
RUN .                      2 : RUN NUMBER
DD  .FT                14000 : DEPTH DRILLER
DL  .FT                14017 : DEPTH LOGGER
BLI .FT                14014 : BOTTOM LOG INTERVAL
TLI .FT                 3588 : TOP LOG INTERVAL
CS  .IN                10.75 : CASING SIZE
CBD .FT                 3536 : CASING BOTTOM DRILLER
CBL .FT                 3588 : CASING BOTTOM LOGGER
BS  .IN                 8.75 : BIT SIZE
BSD .FT                14000 : BIT SIZE AT DEPTH
DFT .             RD 111 OIL : DRILLING FLUID TYPE
DFD .                   11.1 : DRILLING FLUID DENSITY
DFV .                     59 : DRILLING FLUID VISCOSITY
DFPH.                    9.5 : DRILLING FLUID PH
DFL .                    3.7 : DRILLING FLUID LOSS
MSS .             RETURN PIT : MUD SAMPLE SOURCE
RMS .OHMM               0.59 : RESISTIVITY MUD SAMPLE
MST .DEGF                101 : MUD SAMPLE TEMPERATURE
RMF .OHMM               0.62 : RESISTIVITY MUD FILTRATE SAMPLE
MFST.DEGF                 76 : MUD FILTRATE SAMPLE TEMPERATURE
RMC .OHMM               0.75 : RESISTIVITY MUD CAKE
MCST.DEGF                101 : MUD CAKE SAMPLE TEMPERATURE
MFSS.                   MEAS : MUD FILTRATE SAMPLE SOURCE
MCSS.                  CHART : MUD CAKE SAMPLE SOURCE
RMB .OHMM               0.19 : RESISTIVITY MUD AT BHT
TCS .HRS                  24 : TIME CIRCULATED STOPPED
LUN .                   7676 : LOGGING UNIT NUMBER
LUL .                  PLEAS : LOGGING UNIT LOCATION
ENGI.                 POWELL : RECORDING ENGINEER
WITN.                  ADAMS : WITNESSED BY
CLNT.                A2DTECH : CLIENT CODE
ORIG.               1" PRINT : ORIGIN OF DATA
UWI .         42025304380000 : UNIQUE WELL ID
DICO. A2D Technologies, Inc. : DIGITIZING COMPANY
~Other -----------------------------------------------------
~ASCII -----------------------------------------------------
# ...
 8400.00000    2.29050   11.81900   12.14750   12.14750  534.15030  534.15030    0.04940    0.04940    2.49100    -999.25    0.10470    0.09640    1.87210   90.88790   90.88790   89.84770   75.91390   75.91390    2.08330    -999.25    0.37640    0.37640    2.49100    5.70610   -2.05410    2.29050
 8450.00000    2.43150   11.33390   11.40360   11.40360  502.74230  502.74230    0.06960    0.06960    2.47450    -999.25    0.10920    0.10640    1.98910   91.64920   91.64920   90.93260   73.44100   73.44100    2.20240    -999.25    0.35400    0.35400    2.47450    4.77750   -2.89000    2.43150
 8500.00000    5.85120   11.20620   10.16500   10.16500  272.04780  272.04780    0.02540    0.02540    2.42890    -999.25    0.14470    0.13400    3.67580   80.55470   80.55470   60.71550   49.27280   49.27280    3.55160    -999.25    0.21750    0.21750    2.42890  -16.96460  -24.53940    5.85120
 8550.00000    3.64580   13.60180   11.61260   11.61260  321.37520  321.37520    0.00260    0.00260    2.50970    -999.25    0.08590    0.08500    3.11160   80.47670   80.47670   85.50340   78.81520   78.81520    3.39290    -999.25    0.20450    0.20450    2.50970    0.29850   -7.18360    3.64580
 8600.00000    1.68970   15.34930   12.50750   12.50750  759.84750  759.84750    0.03250    0.03250    2.47450    -999.25    0.10970    0.10640    1.31610   95.99550   95.99550   91.17640   79.48710   79.48710    1.60710    -999.25    0.35230    0.35230    2.47450    5.72150   -1.66790    1.68970
 8650.00000    1.53870   14.85320   12.32900   12.32900  899.85060  899.85060    0.03400    0.03400    2.45730    -999.25    0.11820    0.11680    1.11130  101.01950  101.01950   91.15010   79.48570   79.48570    1.45830    -999.25    0.38230    0.38230    2.45730    4.57680   -2.71980    1.53870
 8700.00000    2.06550   13.56910   11.70230   11.70230  595.91770  595.91770    0.04150    0.04150    2.45650    -999.25    0.10510    0.11730    1.67810   88.80060   88.80060   85.23530   75.01330   75.01330    1.96430    -999.25    0.33010    0.33010    2.45650    3.13430   -4.06960    2.06550
 8750.00000    1.88190   13.50400   11.62020   11.62020  660.68760  660.68760    0.03620    0.03620    2.45440    -999.25    0.12540    0.11850    1.51360   89.99410   89.99410   92.50340   81.29250   81.29250    1.39880    -999.25    0.33370    0.33370    2.45440    3.88060   -3.23060    1.88190
 8800.00000    1.64290   12.08920   11.76240   11.76240  741.40510  741.40510    0.06390    0.06390    2.48130    -999.25    0.10430    0.10220    1.34880   95.71650   95.71650   91.33500   80.18640   80.18640    1.30950    -999.25    0.35470    0.35470    2.48130    5.70330   -1.31520    1.64290
 8850.00000    1.24600   12.81580   11.41660   11.41660 1059.78020 1059.78020    0.03330    0.03330    2.43640    -999.25    0.13210    0.12950    0.94360  101.25560  101.25560   85.90760   82.00240   82.00240    1.25000    -999.25    0.38230    0.38230    2.43640    5.42280   -1.50300    1.24600
 8900.00000    1.19440    -999.25   11.10440   11.10440  986.53530  986.53530    -999.25    -999.25    -999.25    -999.25    -999.25    -999.25    1.01360   99.90420   99.90420    -999.25   75.68130   75.68130    0.95240    -999.25    -999.25    -999.25    -999.25    3.43280   -3.40030    1.19440
 8950.00000    1.30950    -999.25   11.68720   11.68720 1113.61850 1113.61850    -999.25    -999.25    -999.25    -999.25    -999.25    -999.25    0.89800  101.25640  101.25640    -999.25   76.57670   76.57670    1.07150    -999.25    -999.25    -999.25    -999.25    2.53730   -4.20310    1.30950
 9000.00000    1.10640    -999.25   12.10510   12.10510 1153.96110 1153.96110    -999.25    -999.25    -999.25    -999.25    -999.25    -999.25    0.86660  101.25510  101.25510    -999.25   75.45730   75.45730    1.07140    -999.25    -999.25    -999.25    -999.25    3.38720   -3.26040    1.10640
 9050.00000    1.14880    -999.25   11.98570   11.98570 1077.71670 1077.71670    -999.25    -999.25    -999.25    -999.25    -999.25    -999.25    0.92790   99.22780   99.22780    -999.25   80.38530   80.38530    0.84820    -999.25    -999.25    -999.25    -999.25    2.98510   -3.56980    1.14880
 9100.00000    1.26190    -999.25   12.29910   12.29910  985.54480  985.54470    -999.25    -999.25    -999.25    -999.25    -999.25    -999.25    1.01470   99.90530   99.90530    -999.25   73.91870   73.91870    1.04170    -999.25    -999.25    -999.25    -999.25    0.74630   -5.71590    1.26190
 9150.00000    1.80360    -999.25   11.19500   11.19500  802.68300  802.68300    -999.25    -999.25    -999.25    -999.25    -999.25    -999.25    1.24580   93.49120   93.49120    -999.25   69.85790   69.85790    1.35420    -999.25    -999.25    -999.25    -999.25    3.28430   -3.08520    1.80360
 9200.00000    1.38100    -999.25   11.65960   11.65960  968.57660  968.57670    -999.25    -999.25    -999.25    -999.25    -999.25    -999.25    1.03240   99.38440   99.38440    -999.25   70.52240   70.52240    0.95240    -999.25    -999.25    -999.25    -999.25    4.02990   -2.24690    1.38100
 9250.00000    1.74400    -999.25   11.49970   11.49970  840.09380  840.09380    -999.25    -999.25    -999.25    -999.25    -999.25    -999.25    1.19030   97.43540   97.43540    -999.25   84.39890   84.39890    1.21530    -999.25    -999.25    -999.25    -999.25    2.68660   -3.49750    1.74400
 9300.00000    1.17860    -999.25   12.53730   12.53730 1146.98430 1146.98430    -999.25    -999.25    -999.25    -999.25    -999.25    -999.25    0.87190  105.39060  105.39060    -999.25   76.71250   76.71250    0.90270    -999.25    -999.25    -999.25    -999.25    3.13430   -2.95710    1.17860
 9350.00000    1.41070    -999.25   12.04390   12.04390  959.14240  959.14250    -999.25    -999.25    -999.25    -999.25    -999.25    -999.25    1.04260   96.38120   96.38120    -999.25   73.61220   73.61220    1.08630    -999.25    -999.25    -999.25    -999.25    2.38810   -3.61050    1.41070
 9400.00000    1.38890    -999.25   11.94030   11.94030 1004.48440 1004.48440    -999.25    -999.25    -999.25    -999.25    -999.25    -999.25    0.99550  103.10310  103.10310    -999.25   74.33350   74.33350    0.95240    -999.25    -999.25    -999.25    -999.25    2.23880   -3.66710    1.38890
 9450.00000    1.40480    -999.25   10.97200   10.97200  862.48130  862.48130    -999.25    -999.25    -999.25    -999.25    -999.25    -999.25    1.15940  100.66550  100.66550    -999.25   70.75510   70.75510    1.24990    -999.25    -999.25    -999.25    -999.25    3.43280   -2.38040    1.40480
 9500.00000    1.53770    -999.25   11.32520   11.32520  750.37370  750.37370    -999.25    -999.25    -999.25    -999.25    -999.25    -999.25    1.33270   98.84360   98.84360    -999.25   74.41230   74.41230    1.39880    -999.25    -999.25    -999.25    -999.25    2.23880   -3.48170    1.53770
 9550.00000    1.71130    -999.25   10.00060   10.00060  766.81620  766.81620    -999.25    -999.25    -999.25    -999.25    -999.25    -999.25    1.30410   97.02270   97.02270    -999.25   80.15700   80.15700    1.19050    -999.25    -999.25    -999.25    -999.25    2.83580   -2.79200    1.71130
 9600.00000    1.38840    -999.25   10.95390   10.95390  950.67260  950.67270    -999.25    -999.25    -999.25    -999.25    -999.25    -999.25    1.05190   99.80060   99.80060    -999.25   81.30470   81.30470    1.06810    -999.25    -999.25    -999.25    -999.25    4.02990   -1.50520    1.38840
 9650.00000    1.55650    -999.25   11.46300   11.46300  847.53360  847.53360    -999.25    -999.25    -999.25    -999.25    -999.25    -999.25    1.17990   94.56120   94.56120    -999.25   74.33750   74.33750    1.25990    -999.25    -999.25    -999.25    -999.25    1.79100   -3.65140    1.55650
 9700.00000    1.48010    -999.25   10.97050   10.97050  890.88200  890.88200    -999.25    -999.25    -999.25    -999.25    -999.25    -999.25    1.12250   97.27630   97.27630    -999.25   81.50150   81.50150    1.16070    -999.25    -999.25    -999.25    -999.25    1.94030   -3.40930    1.48010
