~Version ---------------------------------------------------
VERS. 2.0 : CWLS log ASCII Standard -VERSION 2.0
WRAP. YES : Multiple lines per depth step
~Well ------------------------------------------------------
STRT.FT                  2300.0 : START DEPTH
STOP.FT                 10600.0 : STOP DEPTH
STEP.FT                50.00000 : STEP LENGTH
NULL.                   -999.25 : NULL VALUE
COMP. PAUL E CAMERON, JR., INC. : COMPANY
WELL.           FREEMAN UNIT #1 : WELL
FLD .                    BEDIAS : FIELD
LOC .                           : LOCATION
CNTY.                    GRIMES : COUNTY
STAT.                     TEXAS : STATE
CTRY.  UNITED STATES OF AMERICA : COUNTRY
SRVC.                     Welex : SERVICE COMPANY
DATE.               15-Aug-1981 : LOGDATE
API .            42185302840000 : API NUMBER
UWI .            42185302840000 : UNIQUE WELL ID
SLAT.WGS84        30.7842928206 : SURFACE LATITUDE
SLON.WGS84        -95.978471058 : SURFACE LONGITUDE
~Curve Information -----------------------------------------
DEPT    .FT    : DEPTH
CALDED  .IN    : CALIPER FROM DENSITY LOG (ADJ TO RES.)
CALWS   .IN    : CALIPER (CALDED)
CONDWS  .MMHO  : CONDUCTIVITY (1000/DRESWS)
CORRED  .G/C3  : DENSITY CORRECTION (ADJ TO RES.)
DCORWS  .G/C3  : DENSITY CORRECTION (CORRED)
DENWS   .G/C3  : BULK DENSITY  (RHOBED LS)
DPORLSED.V/V   : DENSITY POROSITY  LIMESTONE (ADJ TO RES.)
DPOWS   .V/V   : DENSITY POROSITY (M=2.71 F=1 DPORLSED)
DRESWS  .OHMM  : DEEP RESISTIVITY (ILDED0
GRDED   .GAPI  : GAMMA RAY FROM DENSITY LOG (ADJ TO RES.)
GRRED   .GAPI  : GAMMA RAY FROM RESISTIVITY LOG
GRWS    .GAPI  : GAMMA RAY (GRRED)
ILDED   .OHMM  : DEEP INDUCTION RESISTIVITY
ILMED   .OHMM  : MEDIUM INDUCTION RESISTIVITY
MRESWS  .OHMM  : MEDIUM RESISTIVITY (ILMED)
NEUTED  .NAPI  : Neutron from Neutron Gamma Log (ADJ TO RES.)
NEUTWS  .NAPI  : Neutron from Neutron Gamma Log (NEUTED)
RHOBED  .G/C3  : BULK DENSITY (ADJ TO RES.)
SGUARDED.OHMM  : SHORT GUARD LOG RESISTIVITY
SPRED   .MV    : Spontaneous Potential from Resistivity Log
SPWS    .MV    : SPONTANEOUS POTENTIAL BASELINE 0 MV (SPRED)
SRESWS  .OHMM  : SHALLOW RESISTIVITY (SGUARDED)
~Params ----------------------------------------------------
PD  .                     GL : PERMANENT DATUM
LMF .                    TKB : LOG MEASURED FROM
DAPD.FT                 18.2 : FEET ABOVE PERMANENT DATUM
DMF .                    TKB : DRILLING MEASURED FROM
DATE.               08/15/81 : RUN DATE
RUN .                      1 : RUN NUMBER
DD  .FT                10631 : DEPTH DRILLER
DL  .FT                10612 : DEPTH LOGGER
BLI .FT                10610 : BOTTOM LOG INTERVAL
TLI .FT                 2287 : TOP LOG INTERVAL
CS  .IN                9.625 : CASING SIZE
CBD .FT                 2294 : CASING BOTTOM DRILLER
CBL .FT                 2287 : CASING BOTTOM LOGGER
BS  .IN                 8.75 : BIT SIZE
BSD .FT                10631 : BIT SIZE AT DEPTH
DFT .     LIGNOSULFONATE MUD : DRILLING FLUID TYPE
DFD .                    9.9 : DRILLING FLUID DENSITY
DFV .                     50 : DRILLING FLUID VISCOSITY
DFPH.                    1.8 : DRILLING FLUID PH
DFL .                      6 : DRILLING FLUID LOSS
MSS .                    PIT : MUD SAMPLE SOURCE
RMS .OHMM               1.84 : RESISTIVITY MUD SAMPLE
MST .DEGF                 75 : MUD SAMPLE TEMPERATURE
RMF .OHMM               1.64 : RESISTIVITY MUD FILTRATE SAMPLE
MFST.DEGF                 75 : MUD FILTRATE SAMPLE TEMPERATURE
RMC .OHMM               1.41 : RESISTIVITY MUD CAKE
MCST.DEGF                 75 : MUD CAKE SAMPLE TEMPERATURE
MFSS.                   MEAS : MUD FILTRATE SAMPLE SOURCE
MCSS.                   MEAS : MUD CAKE SAMPLE SOURCE
RMB .OHMM               0.62 : RESISTIVITY MUD AT BHT
TCS .HRS                   7 : TIME CIRCULATED STOPPED
LUN .                   1123 : LOGGING UNIT NUMBER
LUL .                   BRYN : LOGGING UNIT LOCATION
ENGI.                  SMITH : RECORDING ENGINEER
CLNT.                A2DTECH : CLIENT CODE
ORIG.            1" 5" PRINT : ORIGIN OF DATA
UWI .         42185302840000 : UNIQUE WELL ID
DICO. A2D Technologies, Inc. : DIGITIZING COMPANY
~Other -----------------------------------------------------
~ASCII -----------------------------------------------------
 2300.00000    -999.25    -999.25  885.73960    -999.25    -999.25    -999.25    -999.25    -999.25    1.12900    -999.25   53.97880   53.97880    1.12900    1.08660    1.08660    -999.25    -999.25    -999.25    1.52600  -44.00160   -4.00160    1.52600
 2350.00000    -999.25    -999.25  360.80240    -999.25    -999.25    -999.25    -999.25    -999.25    2.77160    -999.25   59.57600   59.57600    2.77160    2.65800    2.65800    -999.25    -999.25    -999.25    2.99730  -56.41670   -3.85800    2.99730
 2400.00000    -999.25    -999.25  200.34460    -999.25    -999.25    -999.25    -999.25    -999.25    4.99140    -999.25   49.12820   49.12820    4.99140    4.81110    4.81110    -999.25    -999.25    -999.25    4.45670  -59.85330   -8.72900    4.45670
 2450.00000    -999.25    -999.25  257.04300    -999.25    -999.25    -999.25    -999.25    -999.25    3.89040    -999.25   60.98480   60.98480    3.89040    3.60850    3.60850    -999.25    -999.25    -999.25    4.27980  -58.53900   -8.84920    4.27980
 2500.00000    -999.25    -999.25  227.79040    -999.25    -999.25    -999.25    -999.25    -999.25    4.39000    -999.25   50.56180   50.56180    4.39000    4.50610    4.50610    -999.25    -999.25    -999.25    4.64160  -59.16970  -10.91440    4.64160
 2550.00000    -999.25    -999.25  226.05000    -999.25    -999.25    -999.25    -999.25    -999.25    4.42380    -999.25   60.51670   60.51670    4.42380    4.61170    4.61170    -999.25    -999.25    -999.25    4.80750  -61.77880  -14.95790    4.80750
 2600.00000    -999.25    -999.25  270.04400    -999.25    -999.25    -999.25    -999.25    -999.25    3.70310    -999.25   74.05000   74.05000    3.70310    3.94900    3.94900    -999.25    -999.25    -999.25    3.94280  -60.50540  -15.11900    3.94280
 2650.00000    -999.25    -999.25  419.67430    -999.25    -999.25    -999.25    -999.25    -999.25    2.38280    -999.25   80.36350   80.36350    2.38280    2.48930    2.48930    -999.25    -999.25    -999.25    2.97740  -51.13740   -7.18550    2.97740
 2700.00000    -999.25    -999.25  270.87790    -999.25    -999.25    -999.25    -999.25    -999.25    3.69170    -999.25   53.80200   53.80200    3.69170    4.04160    4.04160    -999.25    -999.25    -999.25    4.14230  -65.92620  -23.40870    4.14230
 2750.00000    -999.25    -999.25  634.43730    -999.25    -999.25    -999.25    -999.25    -999.25    1.57620    -999.25   77.86020   77.86020    1.57620    1.47510    1.47510    -999.25    -999.25    -999.25    2.08550  -43.42700   -2.34400    2.08550
 2800.00000    -999.25    -999.25  342.33680    -999.25    -999.25    -999.25    -999.25    -999.25    2.92110    -999.25   54.87890   54.87890    2.92110    3.43400    3.43400    -999.25    -999.25    -999.25    3.84820  -69.34990  -28.21850    3.84820
 2850.00000    -999.25    -999.25  250.75850    -999.25    -999.25    -999.25    -999.25    -999.25    3.98790    -999.25   51.91290   51.91290    3.98790    4.42900    4.42900    -999.25    -999.25    -999.25    4.57620  -53.91070  -12.66910    4.57620
 2900.00000    -999.25    -999.25  321.83320    -999.25    -999.25    -999.25    -999.25    -999.25    3.10720    -999.25   73.28760   73.28760    3.10720    3.61960    3.61960    -999.25    -999.25    -999.25    4.64910  -60.27250  -18.92080    4.64910
 2950.00000    -999.25    -999.25  320.12290    -999.25    -999.25    -999.25    -999.25    -999.25    3.12380    -999.25   50.65720   50.65720    3.12380    4.06850    4.06850    -999.25    -999.25    -999.25    5.46470  -70.34690  -28.88500    5.46470
 3000.00000    -999.25    -999.25  364.36510    -999.25    -999.25    -999.25    -999.25    -999.25    2.74450    -999.25   71.10310   71.10310    2.74450    3.54280    3.54280    -999.25    -999.25    -999.25    4.17900  -74.92770  -33.35560    4.17900
 3050.00000    -999.25    -999.25  310.74240    -999.25    -999.25    -999.25    -999.25    -999.25    3.21810    -999.25   72.58870   72.58870    3.21810    3.52350    3.52350    -999.25    -999.25    -999.25    4.05130  -57.72070  -16.03850    4.05130
 3100.00000    -999.25    -999.25  350.98800    -999.25    -999.25    -999.25    -999.25    -999.25    2.84910    -999.25   87.75570   87.75570    2.84910    3.12580    3.12580    -999.25    -999.25    -999.25    3.68450  -54.11510  -12.32270    3.68450
 3150.00000    -999.25    -999.25  328.51510    -999.25    -999.25    -999.25    -999.25    -999.25    3.04400    -999.25   74.51630   74.51630    3.04400    3.46110    3.46110    -999.25    -999.25    -999.25    4.19830  -59.70860  -17.80600    4.19830
 3200.00000    -999.25    -999.25  322.51820    -999.25    -999.25    -999.25    -999.25    -999.25    3.10060    -999.25   83.25650   83.25650    3.10060    3.46690    3.46690    -999.25    -999.25    -999.25    4.00860  -58.64640  -16.63370    4.00860
 3250.00000    -999.25    -999.25  339.20150    -999.25    -999.25    -999.25    -999.25    -999.25    2.94810    -999.25   69.27610   69.27610    2.94810    3.72920    3.72920    -999.25    -999.25    -999.25    4.11110  -71.17160  -29.04870    4.11110
 3300.00000    -999.25    -999.25  444.97840    -999.25    -999.25    -999.25    -999.25    -999.25    2.24730    -999.25   80.73520   80.73520    2.24730    2.40100    2.40100    -999.25    -999.25    -999.25    2.35260  -51.83930   -9.60620    2.35260
 3350.00000    -999.25    -999.25  268.47080    -999.25    -999.25    -999.25    -999.25    -999.25    3.72480    -999.25   66.88320   66.88320    3.72480    4.32840    4.32840    -999.25    -999.25    -999.25    4.64380  -67.35050  -25.00730    4.64380
 3400.00000    -999.25    -999.25  294.29080    -999.25    -999.25    -999.25    -999.25    -999.25    3.39800    -999.25   90.27200   90.27200    3.39800    3.91000    3.91000    -999.25    -999.25    -999.25    3.84020  -64.00610  -21.55270    3.84020
 3450.00000    -999.25    -999.25  308.32790    -999.25    -999.25    -999.25    -999.25    -999.25    3.24330    -999.25   81.68370   81.68370    3.24330    3.42160    3.42160    -999.25    -999.25    -999.25    4.41390  -58.20550  -15.64190    4.41390
 3500.00000    -999.25    -999.25  298.08040    -999.25    -999.25    -999.25    -999.25    -999.25    3.35480    -999.25   78.41390   78.41390    3.35480    3.70590    3.70590    -999.25    -999.25    -999.25    4.19310  -61.05860  -18.38490    4.19310
 3550.00000    -999.25    -999.25  233.08940    -999.25    -999.25    -999.25    -999.25    -999.25    4.29020    -999.25   79.66790   79.66790    4.29020    4.63310    4.63310    -999.25    -999.25    -999.25    5.15400  -64.59110  -21.80720    5.15400
 3600.00000    -999.25    -999.25  245.18820    -999.25    -999.25    -999.25    -999.25    -999.25    4.07850    -999.25   48.05250   48.05250    4.07850    4.66080    4.66080    -999.25    -999.25    -999.25    5.26910  -70.50100  -27.60700    5.26910
 3650.00000    -999.25    -999.25  321.78140    -999.25    -999.25    -999.25    -999.25    -999.25    3.10770    -999.25   78.11550   78.11550    3.10770    3.34270    3.34270    -999.25    -999.25    -999.25    3.40720  -54.84460  -11.84040    3.40720
 3700.00000    -999.25    -999.25  526.53750    -999.25    -999.25    -999.25    -999.25    -999.25    1.89920    -999.25   93.26070   93.26070    1.89920    2.03570    2.03570    -999.25    -999.25    -999.25    2.37590  -47.94360   -4.84290    2.37590
 3750.00000    -999.25    -999.25  265.42800    -999.25    -999.25    -999.25    -999.25    -999.25    3.76750    -999.25   75.91820   75.91820    3.76750    4.57140    4.57140    -999.25    -999.25    -999.25    5.10700  -70.51220  -27.34160    5.10700
 3800.00000    -999.25    -999.25  281.70600    -999.25    -999.25    -999.25    -999.25    -999.25    3.54980    -999.25   87.73120   87.73120    3.54980    4.21410    4.21410    -999.25    -999.25    -999.25    5.10120  -73.02930  -29.78880    5.10120
 3850.00000    -999.25    -999.25  267.85950    -999.25    -999.25    -999.25    -999.25    -999.25    3.73330    -999.25   71.64540   71.64540    3.73330    4.58810    4.58810    -999.25    -999.25    -999.25    5.82930  -72.57870  -29.26830    5.82930
