~Version ---------------------------------------------------
VERS. 2.0 : CWLS log ASCII Standard -VERSION 2.0
WRAP. YES : Multiple lines per depth step
~Well ------------------------------------------------------
STRT.FT                   4050.0 : START DEPTH
STOP.FT                   9250.0 : STOP DEPTH
STEP.FT                 50.00000 : STEP LENGTH
NULL.                    -999.25 : NULL VALUE
COMP. CHAMPLIN PETROLEUM COMPANY : COMPANY
WELL.      ALBERT SCHULTZ JR. #1 : WELL
FLD .                   GIDDINGS : FIELD
LOC .                            : LOCATION
CNTY.                   BURLESON : COUNTY
STAT.                      TEXAS : STATE
CTRY.   UNITED STATES OF AMERICA : COUNTRY
SRVC.               Schlumberger : SERVICE COMPANY
DATE.                08-Nov-1980 : LOGDATE
API .             42051310590000 : API NUMBER
UWI .             42051310590000 : UNIQUE WELL ID
SLAT.WGS84         30.3972386436 : SURFACE LATITUDE
SLON.WGS84        -96.6361204842 : SURFACE LONGITUDE
~Curve Information -----------------------------------------
DEPT    .FT    : DEPTH FEET
CALWS   .IN    : CALIPER [DCALED+BITS]
CONDWS  .MMHO  : CONDUCTIVITY [1000/DRESWS]
DCALED  .IN    : DIFFERENTIAL CALIPER FROM DIL-SFL-CNFD LOG
DCORWS  .G/C3  : DENSITY CORRECTION [DRHOED]
DENWS   .G/C3  : FORMATION BULK DENSITY [M=2.71, F=1.0] [CALCULATED FROM DPOWS]
DPHILSED.V/V   : DENSITY POROSITY LIMESTONE [M=2.71, F=1.0] FROM DIL-SFL-CNFD LOG
DPHISSED.V/V   : DENSITY POROSITY SANDSTONE [M=2.65, F=1.0] FROM DIL-SFL-CNFD LOG
DPOWS   .V/V   : DENSITY POROSITY LIMESTONE [DPHISSED CONVERTED TO LIMESTONE [M=2.71, F=1.0] & SPL.TO DPHILSED @ 7398']
DRESWS  .OHMM  : DEEP RESISTIVITY [ILDED]
DRHOED  .G/C3  : DENSITY CORRECTION FROM DIL-SFL-CNFD LOG
GRRED   .GAPI  : GAMMA RAY FROM DIL-SFL-CNFD LOG
GRWS    .GAPI  : GAMMA RAY [GRRED]
ILDED   .OHMM  : DEEP INDUCTION FROM DIL-SFL-CNFD LOG
ILMED   .OHMM  : MEDIUM INDUCTION FROM DIL-SFL-CNFD LOG
MRESWS  .OHMM  : MEDIUM RESISTIVITY [ILMED]
NPHILSED.V/V   : NEUTRON POROSITY LIMESTONE FROM DIL-SFL-CNFD LOG [ADJ. TO DPHILSED]
NPHISSED.V/V   : NEUTRON POROSITY SANDSTONE FROM DIL-SFL-CNFD LOG [ADJ. TO DPHISSED]
NPOWS   .V/V   : NEUTRON POROSITY LIMESTONE [NPHISSED MATRIX CONVERTED TO LIMESTONE & SPL.TO NPHILSED @7398']
SFLUED  .OHMM  : SHALLOW FOCUSED RESISTIVITY FROM DIL-SFL-CNFD LOG
SPRED   .MV    : SPONTANEOUS POTENTIAL FROM DIL-SFL-CNFD LOG
SPWS    .MV    : SPONTANEOUS POTENTIAL [BASELINE 0 MV, SPRED]
SRESWS  .OHMM  : SHALLOW RESISTIVITY [SFLUED]
~Params ----------------------------------------------------
PD  .                     GL : PERMANENT DATUM
EPD .FT                  337 : ELEVATION PERMANENT DATUM
LMF .                     KB : LOG MEASURED FROM
DAPD.FT                   14 : FEET ABOVE PERMANENT DATUM
DMF .                     KB : DRILLING MEASURED FROM
EKB .FT                  351 : KELLY BUSHING
EDF .FT                  350 : DRILLING FLOOR
EGL .FT                  337 : GROUND LEVEL
DATE.               11/08/80 : RUN DATE
RUN .                      1 : RUN NUMBER
DD  .FT                 9270 : DEPTH DRILLER
DL  .FT                 9276 : DEPTH LOGGER
BLI .FT                 9270 : BOTTOM LOG INTERVAL
TLI .FT                 4030 : TOP LOG INTERVAL
CS  .IN                9.625 : CASING SIZE
CBD .FT                 4030 : CASING BOTTOM DRILLER
CBL .FT                 4030 : CASING BOTTOM LOGGER
BS  .IN                 8.75 : BIT SIZE
BSD .FT                 9270 : BIT SIZE AT DEPTH
DFT .                  BENEX : DRILLING FLUID TYPE
DFD .                    9.8 : DRILLING FLUID DENSITY
DFV .                     50 : DRILLING FLUID VISCOSITY
DFPH.                    8.5 : DRILLING FLUID PH
DFL .                      5 : DRILLING FLUID LOSS
MSS .              CIRC TANK : MUD SAMPLE SOURCE
RMS .OHMM               1.52 : RESISTIVITY MUD SAMPLE
MST .DEGF                110 : MUD SAMPLE TEMPERATURE
RMF .OHMM               1.46 : RESISTIVITY MUD FILTRATE SAMPLE
MFST.DEGF                 75 : MUD FILTRATE SAMPLE TEMPERATURE
RMC .OHMM               2.26 : RESISTIVITY MUD CAKE
MCST.DEGF                110 : MUD CAKE SAMPLE TEMPERATURE
MFSS.                      M : MUD FILTRATE SAMPLE SOURCE
MCSS.                      C : MUD CAKE SAMPLE SOURCE
RMB .OHMM               0.78 : RESISTIVITY MUD AT BHT
TCS .HRS                 330 : TIME CIRCULATED STOPPED
TLAB.HRS                 730 : TIME LOGGER AT BOTTOM
LUN .                   8101 : LOGGING UNIT NUMBER
LUL .                BRENHAM : LOGGING UNIT LOCATION
ENGI.       HARDER GILLILAND : RECORDING ENGINEER
WITN.                 SCHELL : WITNESSED BY
CLNT.                A2DTECH : CLIENT CODE
ORIG.          1" 2.5" PRINT : ORIGIN OF DATA
UWI .         42051310590000 : UNIQUE WELL ID
DICO. A2D Technologies, Inc. : DIGITIZING COMPANY
~Other -----------------------------------------------------
~ASCII -----------------------------------------------------
 4050.00000   11.57000   33.95230    2.82000    0.03530    2.10900    -999.25    0.32790    0.35150   29.45310    0.03530   59.27230   59.27230   29.45310   17.53910   17.53910    -999.25    0.31010    0.26620   16.15390   -3.76100   -5.84440   16.15390
 4100.00000    9.35510   49.66670    0.60510    0.01570    2.11540    -999.25    0.32400    0.34770   20.13420    0.01570   39.60840   39.60840   20.13420   21.33460   21.33460    -999.25    0.26640    0.22240   25.69800  -30.82520  -29.14060   25.69800
 4150.00000    8.93030  115.04830    0.18030    0.03660    2.33270    -999.25    0.19230    0.22060    8.69200    0.03660   91.24140   91.24140    8.69200    8.18030    8.18030    -999.25    0.28320    0.23920    9.17690  -28.55680  -23.10420    9.17690
 4200.00000    9.03740  133.26760    0.28740    0.03030    2.33390    -999.25    0.19160    0.22000    7.50370    0.03030  107.30950  107.30950    7.50370    7.04400    7.04400    -999.25    0.28310    0.23910    7.77970  -38.59790  -29.37720    7.77970
 4250.00000   10.10460   36.73970    1.35460   -0.03680    1.66000    -999.25    0.60000    0.61400   27.21850   -0.03680   41.86020   41.86020   27.21850   20.80140   20.80140    -999.25    0.60080    0.55910  193.48920  -34.07490  -21.08620  193.48920
 4300.00000    9.41690  141.18310    0.66690    0.01820    2.32640    -999.25    0.19610    0.22430    7.08300    0.01820  104.93570  104.93570    7.08300    7.63870    7.63870    -999.25    0.26780    0.22380   10.28380  -40.22390  -26.30700   10.28380
 4350.00000    9.74040  277.98630    0.99040    0.08340    2.07040    -999.25    0.35130    0.37410    3.59730    0.08340   98.64210   98.64210    3.59730    3.34680    3.34680    -999.25    0.44710    0.40530    2.85490  -31.20370  -17.82140    2.85490
 4400.00000   12.60240  390.97630    3.85240   -0.00490    1.67490    -999.25    0.59100    0.60540    2.55770   -0.00490  114.12840  114.12840    2.55770    2.28250    2.28250    -999.25    0.48680    0.44510    3.62000  -24.13050  -11.28280    3.62000
 4450.00000    9.93420  281.29400    1.18420    0.04990    2.28060    -999.25    0.22390    0.25110    3.55500    0.04990  149.62170  149.62170    3.55500    3.16170    3.16170    -999.25    0.41210    0.36950    4.68890  -16.19880   -3.88570    4.68890
 4500.00000    9.29440  432.15210    0.54440    0.01080    2.18670    -999.25    0.28080    0.30600    2.31400    0.01080   69.12960   69.12960    2.31400    3.09680    3.09680    -999.25    0.30520    0.26120    7.83800  -70.83530  -59.05690    7.83800
 4550.00000    9.78720  324.52780    1.03720    0.02110    2.31750    -999.25    0.20150    0.22950    3.08140    0.02110   97.25510   97.25510    3.08140    3.61960    3.61960    -999.25    0.27760    0.23360    5.34770  -41.39110  -30.16050    5.34770
 4600.00000    9.48590  494.63320    0.73590    0.01270    2.19150    -999.25    0.27790    0.30320    2.02170    0.01270   64.60420   64.60420    2.02170    2.65890    2.65890    -999.25    0.28840    0.24440    6.56070  -74.41270  -63.76390    6.56070
 4650.00000   11.54060  384.88180    2.79060    0.01330    1.65770    -999.25    0.60140    0.61540    2.59820    0.01330   98.95230   98.95230    2.59820    2.01780    2.01780    -999.25    0.50300    0.46130    2.40880  -12.56860   -2.50150    2.40880
 4700.00000    9.42480  293.94470    0.67480    0.03410    2.32000    -999.25    0.20000    0.22810    3.40200    0.03410   97.70650   97.70650    3.40200    3.45750    3.45750    -999.25    0.28580    0.24180    5.87450  -25.11300  -15.62770    5.87450
 4750.00000    8.86430  365.05680    0.11430    0.04010    2.30420    -999.25    0.20960    0.23730    2.73930    0.04010   84.96390   84.96390    2.73930    3.46910    3.46910    -999.25    0.27550    0.23150    7.20030  -61.96880  -53.06520    7.20030
 4800.00000    8.75840  416.57990    0.00840    0.02200    2.25220    -999.25    0.24110    0.26770    2.40050    0.02200   95.40860   95.40860    2.40050    3.35450    3.35450    -999.25    0.29690    0.25290    8.23480  -69.92260  -61.60080    8.23480
 4850.00000    8.83500  588.13150    0.08500    0.02670    2.19060    -999.25    0.27840    0.30370    1.70030    0.02670   72.81780   72.81780    1.70030    2.42840    2.42840    -999.25    0.29680    0.25280    6.50930  -68.02360  -60.28360    6.50930
 4900.00000    9.30980  361.97780    0.55980    0.02740    2.39230    -999.25    0.15620    0.18580    2.76260    0.02740  101.36300  101.36300    2.76260    2.95500    2.95500    -999.25    0.29890    0.25490    3.03340  -27.76720  -20.60890    3.03340
 4950.00000   10.44800  466.67910    1.69800    0.05320    2.38850    -999.25    0.15850    0.18800    2.14280    0.05320  121.04700  121.04700    2.14280    1.99330    1.99330    -999.25    0.33640    0.29260    2.23810   -7.31910   -0.74870    2.23810
 5000.00000    8.50400  471.65360   -0.24600    0.04430    2.34900    -999.25    0.18240    0.21110    2.12020    0.04430   76.47040   76.47040    2.12020    2.85460    2.85460    -999.25    0.26850    0.22450   10.04910  -68.07100  -62.23530   10.04910
 5050.00000    8.53660  490.72530   -0.21340    0.02200    2.28160    -999.25    0.22330    0.25060    2.03780    0.02200  102.57550  102.57550    2.03780    2.50020    2.50020    -999.25    0.27360    0.22960    5.73080  -49.80140  -44.70030    5.73080
 5100.00000    9.19670  396.51070    0.44670    0.00440    2.36740    -999.25    0.17130    0.20040    2.52200    0.00440  121.29490  121.29490    2.52200    2.47790    2.47790    -999.25    0.27190    0.22790    4.08900  -20.82940  -14.70900    4.08900
 5150.00000    9.32410  404.56350    0.57410    0.03190    2.40980    -999.25    0.14560    0.17560    2.47180    0.03190  112.79770  112.79770    2.47180    2.38970    2.38970    -999.25    0.30850    0.26460    2.39970  -14.76590   -7.49500    2.39970
 5200.00000    9.01000  393.20540    0.26000    0.06620    2.47710    -999.25    0.10480    0.13620    2.54320    0.06620  105.42700  105.42700    2.54320    2.37180    2.37180    -999.25    0.29940    0.25540    2.84580  -11.34480   -4.57850    2.84580
 5250.00000    9.00830  406.42150    0.25830    0.09550    2.47920    -999.25    0.10350    0.13500    2.46050    0.09550  116.41660  116.41660    2.46050    2.31810    2.31810    -999.25    0.29430    0.25030    2.57990   -9.58510   -3.32340    2.57990
 5300.00000    9.18910  380.79280    0.43910    0.04070    2.44900    -999.25    0.12180    0.15260    2.62610    0.04070  118.21290  118.21290    2.62610    2.48020    2.48020    -999.25    0.26740    0.22340    2.80040  -12.23770   -6.48060    2.80040
 5350.00000    9.26860  355.87190    0.51860    0.02310    2.46720    -999.25    0.11080    0.14200    2.81000    0.02310  127.65750  127.65750    2.81000    2.53200    2.53200    -999.25    0.25890    0.21500    2.83550  -13.65660   -8.40410    2.83550
 5400.00000    9.54980  437.63680    0.79980    0.05480    2.47660    -999.25    0.10510    0.13650    2.28500    0.05480  119.40150  119.40150    2.28500    2.18440    2.18440    -999.25    0.28290    0.23890    2.36480   -8.09760   -3.34970    2.36480
 5450.00000    9.87630  440.35400    1.12630    0.08670    2.49390    -999.25    0.09460    0.12640    2.27090    0.08670  118.00300  118.00300    2.27090    2.12270    2.12270    -999.25    0.25780    0.21390    2.53280   -8.25200   -4.00870    2.53280
 5500.00000   11.48270  473.64180    2.73270    0.08990    2.47410    -999.25    0.10660    0.13790    2.11130    0.08990  118.22740  118.22740    2.11130    1.97510    1.97510    -999.25    0.26280    0.21880    2.19700   -6.96390   -3.22520    2.19700
 5550.00000   12.63010  615.30890    3.88010    0.04550    2.41320    -999.25    0.14350    0.17360    1.62520    0.04550  128.11090  128.11090    1.62520    1.54800    1.54800    -999.25    0.29700    0.25300    1.71970   -6.57590   -3.34180    1.71970
 5600.00000   12.07310  584.00980    3.32310    0.06110    2.48570    -999.25    0.09960    0.13120    1.71230    0.06110  119.20360  119.20360    1.71230    1.63830    1.63830    -999.25    0.29240    0.24840    1.89540   -5.35840   -2.68870    1.89540
