~Version ---------------------------------------------------
VERS. 2.0 : CWLS log ASCII Standard -VERSION 2.0
WRAP. YES : MULTIPLE LINES PER DEPTH STEP
~Well ------------------------------------------------------
STRT.FT                           3600.0 : START DEPTH
STOP.FT                           8500.0 : STOP DEPTH
STEP.FT                         50.00000 : STEP LENGTH
NULL.                            -999.25 : NULL VALUE
COMP. SANTA FE-WINDSOR PRODUCING COMPANY : COMPANY
WELL.                        ALBRECHT #1 : WELL
FLD .                           GIDDINGS : FIELD
LOC .                                    : LOCATION
CNTY.                                LEE : COUNTY
STAT.                              TEXAS : STATE
CTRY.           UNITED STATES OF AMERICA : COUNTRY
SRVC.                       Schlumberger : SERVICE COMPANY
DATE.                        08-Jun-1982 : LOGDATE
API .                     42287312490000 : API NUMBER
UWI .                     42287312490000 : UNIQUE WELL ID
SLAT.WGS84                 30.1138880763 : SURFACE LATITUDE
SLON.WGS84                -96.9639704608 : SURFACE LONGITUDE
~Curve Information -----------------------------------------
DEPT    .FT    : DEPTH FEET
CALWS   .IN    : CALIPER [DCALED+9.625]
CONDWS  .MMHO  : CONDUCTIVITY [1000/DRESWS]
DCALED  .IN    : DIFFERENTIAL CALIPER FROM DENSITY LOG
DCORWS  .G/C3  : DENSITY CORRECTION [DRHOED]
DENWS   .G/C3  : BULK DENSITY [M=2.71 F=1.0] [CALCULATED FROM DPOWS]
DPHILSED.V/V   : DENSITY POROSITY [M=2.71 F=1.0] FROM DENSITY LOG
DPOWS   .V/V   : DENSITY POROSITY [M=2.71 F=1.0] [DPHILSED]
DRESWS  .OHMM  : DEEP RESISTIVITY [ILDED]
DRHOED  .G/C3  : DENSITY CORRECTION FROM DENSITY LOG
GRNED   .GAPI  : GAMMA RAY FROM NEUTRON LOG [DEPTH ADJ. TO GRRED]
GRRED   .GAPI  : GAMMA RAY FROM RESISTIVITY LOG
GRWS    .GAPI  : GAMMA RAY [GRNED]
ILDED   .OHMM  : INDUCTION LOG DEEP RESISTIVITY
ILMED   .OHMM  : INDUCTION LOG MEDIUM RESISTIVITY
MRESWS  .OHMM  : MEDIUM RESISTIVITY [ILMED]
NEUTED  .NAPI  : NEUTRON FROM NEUTRON LOG [DEPTH ADJ. TO GRRED]
NEUTWS  .NAPI  : NEUTRON [NEUTED]
SFLUED  .OHMM  : SPHERICALLY FOCUSED LOG RESISTIVITY
SPRED   .MV    : SPONTANEOUS POTENTIAL FROM RESISTIVITY LOG
SPWS    .MV    : SPONTANEOUS POTENTIAL [BASELINE 0 MV] [SPRED]
SRESWS  .OHMM  : SHALLOW RESISTIVITY [SFLUED]
~Params ----------------------------------------------------
PD  .                     GL : PERMANENT DATUM
EPD .FT                  440 : ELEVATION PERMANENT DATUM
LMF .                    RKB : LOG MEASURED FROM
DAPD.FT                   17 : FEET ABOVE PERMANENT DATUM
DMF .                    RKB : DRILLING MEASURED FROM
EKB .FT                  457 : KELLY BUSHING
EDF .FT                  456 : DRILLING FLOOR
EGL .FT                  440 : GROUND LEVEL
DATE.               06/08/82 : RUN DATE
RUN .                      1 : RUN NUMBER
DD  .FT                 8565 : DEPTH DRILLER
DL  .FT                 8550 : DEPTH LOGGER
BLI .FT                 8544 : BOTTOM LOG INTERVAL
TLI .FT                 3611 : TOP LOG INTERVAL
CS  .IN                9.625 : CASING SIZE
CBD .FT                 3650 : CASING BOTTOM DRILLER
CBL .FT                 3611 : CASING BOTTOM LOGGER
BS  .IN                 8.75 : BIT SIZE
BSD .FT                 8565 : BIT SIZE AT DEPTH
DFT .                    LNS : DRILLING FLUID TYPE
DFD .                    9.6 : DRILLING FLUID DENSITY
DFV .                     42 : DRILLING FLUID VISCOSITY
DFPH.                    9.5 : DRILLING FLUID PH
DFL .                    7.4 : DRILLING FLUID LOSS
MSS .                   TANK : MUD SAMPLE SOURCE
RMS .OHMM               1.54 : RESISTIVITY MUD SAMPLE
MST .DEGF                104 : MUD SAMPLE TEMPERATURE
RMF .OHMM               2.06 : RESISTIVITY MUD FILTRATE SAMPLE
MFST.DEGF                 87 : MUD FILTRATE SAMPLE TEMPERATURE
RMC .OHMM               4.12 : RESISTIVITY MUD CAKE
MCST.DEGF                 87 : MUD CAKE SAMPLE TEMPERATURE
MFSS.                   MEAS : MUD FILTRATE SAMPLE SOURCE
MCSS.                   CALC : MUD CAKE SAMPLE SOURCE
RMB .OHMM              0.858 : RESISTIVITY MUD AT BHT
TCS .HRS                 800 : TIME CIRCULATED STOPPED
TLAB.HRS                1300 : TIME LOGGER AT BOTTOM
LUN .                   8262 : LOGGING UNIT NUMBER
LUL .                BRENHAM : LOGGING UNIT LOCATION
ENGI.                MARFICE : RECORDING ENGINEER
WITN.                  IRVIN : WITNESSED BY
CLNT.                A2DTECH : CLIENT CODE
ORIG.               5" PRINT : ORIGIN OF DATA
UWI .         42287312490000 : UNIQUE WELL ID
DICO. A2D Technologies, Inc. : DIGITIZING COMPANY
~Other -----------------------------------------------------
~ASCII -----------------------------------------------------
 3600.00000    -999.25    -999.25    -999.25    -999.25    -999.25    -999.25    -999.25    -999.25    -999.25    -999.25   53.26550   53.26550    -999.25    -999.25    -999.25    -999.25    -999.25    -999.25    -999.25    -999.25    -999.25
 3650.00000    9.89140  301.07790    0.26640    -999.25    -999.25    -999.25    -999.25    3.32140    -999.25    -999.25   56.70990   56.70990    3.32140    4.39320    4.39320    -999.25    -999.25    6.71570 -149.34520  -49.36770    6.71570
 3700.00000    9.81780  267.35110    0.19280    -999.25    -999.25    -999.25    -999.25    3.74040    -999.25    -999.25   48.42740   48.42740    3.74040    4.86070    4.86070    -999.25    -999.25    7.78240 -154.37790  -54.64610    7.78240
 3750.00000   11.46560  381.01040    1.84060    -999.25    -999.25    -999.25    -999.25    2.62460    -999.25    -999.25   47.13970   47.13970    2.62460    3.38660    3.38660    -999.25    -999.25    5.29290 -152.33460  -52.84860    5.29290
 3800.00000   12.32630  531.12380    2.70130    -999.25    -999.25    -999.25    -999.25    1.88280    -999.25    -999.25   52.77240   52.77240    1.88280    1.95840    1.95840    -999.25    -999.25    1.90120 -106.82110   -7.58080    1.90120
 3850.00000   10.58560  282.69350    0.96060    -999.25    -999.25    -999.25    -999.25    3.53740    -999.25    -999.25   37.64730   37.64730    3.53740    4.49290    4.49290    -999.25    -999.25    6.05460 -141.00400  -42.00940    6.05460
 3900.00000   10.65490  329.76090    1.02990    -999.25    -999.25    -999.25    -999.25    3.03250    -999.25    -999.25   48.86050   48.86050    3.03250    3.35890    3.35890    -999.25    -999.25    3.74250 -122.24140  -23.49260    3.74250
 3950.00000   11.57750  257.80510    1.95250    -999.25    -999.25    -999.25    -999.25    3.87890    -999.25    -999.25   49.25640   49.25640    3.87890    4.14810    4.14810    -999.25    -999.25   14.02830 -113.80390  -15.30080   14.02830
 4000.00000   12.33250  592.62770    2.70750    -999.25    -999.25    -999.25    -999.25    1.68740    -999.25    -999.25   85.89680   85.89680    1.68740    1.72760    1.72760    -999.25    -999.25    2.10620 -102.99140   -4.73400    2.10620
 4050.00000   12.81700  333.01140    3.19200    -999.25    -999.25    -999.25    -999.25    3.00290    -999.25    -999.25   77.93580   77.93580    3.00290    3.05420    3.05420    -999.25    -999.25    3.11630 -100.44010   -2.42850    3.11630
 4100.00000    9.99360  421.53190    0.36860    -999.25    -999.25    -999.25    -999.25    2.37230    -999.25    -999.25   27.41040   27.41040    2.37230    3.27650    3.27650    -999.25    -999.25    6.16330 -148.22960  -51.42030    6.16330
 4150.00000    9.73960  369.87720    0.11460    -999.25    -999.25    -999.25    -999.25    2.70360    -999.25    -999.25   55.80840   55.80840    2.70360    3.87870    3.87870    -999.25    -999.25    7.30660 -152.27460  -56.69720    7.30660
 4200.00000    9.84350  406.52060    0.21850    -999.25    -999.25    -999.25    -999.25    2.45990    -999.25    -999.25   52.76560   52.76560    2.45990    3.34460    3.34460    -999.25    -999.25    6.24110 -147.32300  -52.97760    6.24110
 4250.00000   10.65470  351.16060    1.02970    -999.25    -999.25    -999.25    -999.25    2.84770    -999.25    -999.25   57.95900   57.95900    2.84770    3.66380    3.66380    -999.25    -999.25    4.60150 -141.42320  -48.30970    4.60150
 4300.00000    9.24220  294.54210   -0.38280    -999.25    -999.25    -999.25    -999.25    3.39510    -999.25    -999.25   73.51040   73.51040    3.39510    3.79790    3.79790    -999.25    -999.25    5.32260 -112.30120  -20.41960    5.32260
 4350.00000    9.17250  365.04350   -0.45250    -999.25    -999.25    -999.25    -999.25    2.73940    -999.25    -999.25   42.91270   42.91270    2.73940    3.25290    3.25290    -999.25    -999.25    5.85730 -146.29470  -55.64500    5.85730
 4400.00000    9.77050  377.37270    0.14550    -999.25    -999.25    -999.25    -999.25    2.64990    -999.25    -999.25   97.88410   97.88410    2.64990    2.69630    2.69630    -999.25    -999.25    2.44180  -92.54020   -3.12250    2.44180
 4450.00000    9.13800  521.21340   -0.48700    0.02210    2.23820    0.27590    0.27590    1.91860    0.02210    -999.25   39.81600   39.81600    1.91860    2.38790    2.38790    -999.25    -999.25    5.88000 -153.25410  -65.06830    5.88000
 4500.00000    9.34820  647.87820   -0.27680    0.02270    2.17780    0.31120    0.31120    1.54350    0.02270    -999.25   44.33130   44.33130    1.54350    1.98630    1.98630    -999.25    -999.25    4.94570 -156.39820  -69.44430    4.94570
 4550.00000    9.15850  732.11800   -0.46650    0.02140    2.16620    0.31800    0.31800    1.36590    0.02140    -999.25   47.53430   47.53430    1.36590    1.79730    1.79730    -999.25    -999.25    3.71500 -153.64570  -67.92370    3.71500
 4600.00000    9.37290  368.26990   -0.25210    0.02320    2.31600    0.23040    0.23040    2.71540    0.02320    -999.25   97.98150   97.98150    2.71540    2.77550    2.77550    -999.25    -999.25    3.82510  -88.00620   -3.51610    3.82510
 4650.00000    9.04650  759.64750   -0.57850    0.01650    2.18980    0.30420    0.30420    1.31640    0.01650    -999.25   57.27110   57.27110    1.31640    1.72700    1.72700    -999.25    -999.25    5.00550 -158.76350  -71.14250    5.00550
 4700.00000    8.99370  517.49120   -0.63130    0.03820    2.32390    0.22580    0.22580    1.93240    0.03820    -999.25   62.20860   62.20860    1.93240    2.47570    2.47570    -999.25    -999.25    4.87140 -141.05220  -52.47650    4.87140
 4750.00000    9.42280  352.80830   -0.20220    0.04710    2.45560    0.14880    0.14880    2.83440    0.04710    -999.25   85.02370   85.02370    2.83440    2.89820    2.89820    -999.25    -999.25    3.29910  -95.38640   -7.70780    3.29910
 4800.00000    9.26330  350.59430   -0.36170    0.00570    2.39310    0.18530    0.18530    2.85230    0.00570    -999.25   78.92440   78.92440    2.85230    3.29710    3.29710    -999.25    -999.25    5.17180 -111.33100  -24.54950    5.17180
 4850.00000    9.53150  404.10570   -0.09350    0.07800    2.38440    0.19040    0.19040    2.47460    0.07800    -999.25   99.86010   99.86010    2.47460    2.52060    2.52060    -999.25    -999.25    2.62200  -85.84110    0.04330    2.62200
 4900.00000    9.62450  374.04150   -0.00050    0.03100    2.35480    0.20770    0.20770    2.67350    0.03100    -999.25   84.49690   84.49690    2.67350    2.87990    2.87990    -999.25    -999.25    4.20030  -99.72550  -14.73820    4.20030
 4950.00000    9.97660  386.11530    0.35160    0.05300    2.42730    0.16530    0.16530    2.58990    0.05300    -999.25   83.15960   83.15960    2.58990    2.81010    2.81010    -999.25    -999.25    3.35810 -103.27760  -19.18740    3.35810
 5000.00000    9.25610  476.57630   -0.36890    0.03660    2.36780    0.20010    0.20010    2.09830    0.03660    -999.25   82.44980   82.44980    2.09830    2.71270    2.71270    -999.25    -999.25    4.05150 -118.87510  -35.68200    4.05150
 5050.00000   10.29460  447.88820    0.66960    0.05110    2.48360    0.13240    0.13240    2.23270    0.05110    -999.25   85.55220   85.55220    2.23270    2.28210    2.28210    -999.25    -999.25    2.53880  -85.26020   -3.02020    2.53880
 5100.00000   10.16850  412.20110    0.54350    0.02840    2.44670    0.15400    0.15400    2.42600    0.02840    -999.25   93.97980   93.97980    2.42600    2.47950    2.47950    -999.25    -999.25    2.68640  -87.63080   -6.40690    2.68640
 5150.00000   10.19100  454.00890    0.56600    0.09560    2.52070    0.11070    0.11070    2.20260    0.09560    -999.25   86.83780   86.83780    2.20260    2.22930    2.22930    -999.25    -999.25    2.43040  -85.86560   -5.65790    2.43040
 5200.00000    9.89120  455.76780    0.26620    -999.25    -999.25    -999.25    -999.25    2.19410    -999.25    -999.25   88.94510   88.94510    2.19410    2.23920    2.23920    -999.25    -999.25    2.49590  -83.39490   -4.20330    2.49590
