~Version ---------------------------------------------------
VERS. 2.0 : CWLS log ASCII Standard -VERSION 2.0
WRAP. YES : MULTIPLE LINES PER DEPTH STEP
~Well ------------------------------------------------------
STRT.FT                 1050.0 : START DEPTH
STOP.FT                 5550.0 : STOP DEPTH
STEP.FT               50.00000 : STEP LENGTH
NULL.                  -999.25 : NULL VALUE
COMP.             CATLETT, E G : COMPANY
WELL.          TALLEY J. E. #1 : WELL
FLD .                       WC : FIELD
LOC .                          : LOCATION
CNTY.                 GONZALES : COUNTY
STAT.                    TEXAS : STATE
CTRY. UNITED STATES OF AMERICA : COUNTRY
SRVC.             Schlumberger : SERVICE COMPANY
DATE.              21-Feb-1981 : LOGDATE
API .           42177307700000 : API NUMBER
UWI .           42177307700000 : UNIQUE WELL ID
SLAT.WGS84       29.5350845878 : SURFACE LATITUDE
SLON.WGS84      -97.5648931406 : SURFACE LONGITUDE
~Curve Information -----------------------------------------
DEPT    .FT    : DEPTH FEET
CALWS   .IN    : CALIPER [DCALED+7.875]
CONDWS  .MMHO  : CONDUCTIVITY [1000/DRESWS]
DCALRED .IN    : DIFFERENTIAL CALIPER FROM RESISTIVITY LOG
DCORWS  .G/C3  : DENSITY CORRECTION [DRHOED]
DENWS   .G/C3  : BULK DENSITY [CALCULATED FROM DPHISSED SPL WITH DPHILSED @4593F]
DPHILSED.V/V   : DENSITY POROSITY [M=2.71 F=1.0] FROM DENSITY LOG
DPHISSED.V/V   : DENSITY POROSITY [M=2.65 F=1.0] FROM DENSITY LOG
DPOWS   .V/V   : DENSITY POROSITY [M=2.71 F=1.0] [CALCULATED FROM DENWS]
DRESWS  .OHMM  : DEEP RESISTIVITY [ILDED]
DRHOED  .G/C3  : DENSITY CORRECTION FROM DENSITY LOG
GRRED   .GAPI  : GAMMA RAY FROM RESISTIVITY LOG
GRWS    .GAPI  : GAMMA RAY [GRRED, CSG ABOVE 1216F]
ILDED   .OHMM  : INDUCTION LOG DEEP RESISTIVITY
ILMED   .OHMM  : INDUCTION LOG MEDIUM RESISTIVITY
MRESWS  .OHMM  : MEDIUM RESISTIVITY [ILMED]
NPHILSED.V/V   : NEUTRON POROSITY LIMESTONE FROM DENSITY LOG
NPHISSED.V/V   : NEUTRON POROSITY SANDSTONE FROM DENSITY LOG
NPOWS   .V/V   : NEUTRON POROSITY LIMESTONE [CONVERTED NPHISSED TO LIMESTONE AND SPL WITH NPHILSED @4593F, CSG ABOVE 1216F]
SFLUED  .OHMM  : SPHERICALLY FOCUSED LOG RESISTIVITY
SPRED   .MV    : SPONTANEOUS POTENTIAL FROM RESISTIVITY LOG
SPWS    .MV    : SPONTANEOUS POTENTIAL [BASELINE 0 MV] [SPRED]
SRESWS  .OHMM  : SHALLOW RESISTIVITY [SFLUED]
~Params ----------------------------------------------------
PD  .                     GL : PERMANENT DATUM
EPD .FT                  430 : ELEVATION PERMANENT DATUM
LMF .                     KB : LOG MEASURED FROM
DAPD.FT                   12 : FEET ABOVE PERMANENT DATUM
DMF .                     KB : DRILLING MEASURED FROM
EKB .FT                  442 : KELLY BUSHING
EDF .FT                  441 : DRILLING FLOOR
EGL .FT                  420 : GROUND LEVEL
DATE.               02/21/81 : RUN DATE
RUN .                      1 : RUN NUMBER
DD  .FT                 5592 : DEPTH DRILLER
DL  .FT                 5586 : DEPTH LOGGER
BLI .FT                 5580 : BOTTOM LOG INTERVAL
TLI .FT                 1016 : TOP LOG INTERVAL
CS  .IN                8.625 : CASING SIZE
CBD .FT                 1017 : CASING BOTTOM DRILLER
CBL .FT                 1016 : CASING BOTTOM LOGGER
BS  .IN                7.875 : BIT SIZE
BSD .FT                 5592 : BIT SIZE AT DEPTH
DFT .                    LNS : DRILLING FLUID TYPE
DFD .                    9.5 : DRILLING FLUID DENSITY
DFV .                     53 : DRILLING FLUID VISCOSITY
DFPH.                      9 : DRILLING FLUID PH
DFL .                    5.8 : DRILLING FLUID LOSS
MSS .                   TANK : MUD SAMPLE SOURCE
RMS .OHMM               1.68 : RESISTIVITY MUD SAMPLE
MST .DEGF                 75 : MUD SAMPLE TEMPERATURE
RMF .OHMM               1.54 : RESISTIVITY MUD FILTRATE SAMPLE
MFST.DEGF                 75 : MUD FILTRATE SAMPLE TEMPERATURE
RMC .OHMM               2.52 : RESISTIVITY MUD CAKE
MCST.DEGF                 75 : MUD CAKE SAMPLE TEMPERATURE
MFSS.                      M : MUD FILTRATE SAMPLE SOURCE
MCSS.                      C : MUD CAKE SAMPLE SOURCE
RMB .OHMM               0.88 : RESISTIVITY MUD AT BHT
TCS .HRS                1100 : TIME CIRCULATED STOPPED
TLAB.HRS                1400 : TIME LOGGER AT BOTTOM
LUN .                   8101 : LOGGING UNIT NUMBER
LUL .                BRENHAM : LOGGING UNIT LOCATION
CLNT.                A2DTECH : CLIENT CODE
ORIG.             2.5" PRINT : ORIGIN OF DATA
UWI .         42177307700000 : UNIQUE WELL ID
DICO. A2D Technologies, Inc. : DIGITIZING COMPANY
~Other -----------------------------------------------------
~ASCII -----------------------------------------------------
# ...
 4250.00000    8.90360  605.73020    1.02860    -999.25    -999.25    -999.25    -999.25    -999.25    1.65090    -999.25    -999.25    -999.25    1.65090    1.67480    1.67480    -999.25    -999.25    -999.25    1.91760   -5.52420   -7.08900    1.91760
 4300.00000    8.19250  454.54540    0.31750    -999.25    -999.25    -999.25    -999.25    -999.25    2.20000    -999.25    -999.25    -999.25    2.20000    2.23200    2.23200    -999.25    -999.25    -999.25    2.40380    0.00350   -1.68420    2.40380
 4350.00000    9.56770 1266.62440    1.69270    -999.25    -999.25    -999.25    -999.25    -999.25    0.78950    -999.25    -999.25    -999.25    0.78950    0.80300    0.80300    -999.25    -999.25    -999.25    0.86510   -1.95100   -3.76170    0.86510
 4400.00000    9.59530  731.58250    1.72030    -999.25    -999.25    -999.25    -999.25    -999.25    1.36690    -999.25    -999.25    -999.25    1.36690    1.38690    1.38690    -999.25    -999.25    -999.25    1.42690   -0.21250   -2.14610    1.42690
 4450.00000    9.67820  987.55680    1.80320    -999.25    -999.25    -999.25    -999.25    -999.25    1.01260    -999.25    -999.25    -999.25    1.01260    1.07120    1.07120    -999.25    -999.25    -999.25    1.26700    0.35770   -1.69890    1.26700
 4500.00000   10.72330 1261.19300    2.84830    -999.25    -999.25    -999.25    -999.25    -999.25    0.79290    -999.25    -999.25    -999.25    0.79290    0.80480    0.80480    -999.25    -999.25    -999.25    0.95280    1.14030   -1.03920    0.95280
 4550.00000   11.07890 1024.17040    3.20390    -999.25    -999.25    -999.25    -999.25    -999.25    0.97640    -999.25    -999.25    -999.25    0.97640    0.99220    0.99220    -999.25    -999.25    -999.25    0.99600    0.00160   -2.26740    0.99600
 4600.00000   11.29770  899.44240    3.42270    -999.25    2.46320    0.14430    -999.25    0.14430    1.11180    -999.25  105.41700  105.41700    1.11180    1.16730    1.16730    0.35090    -999.25    0.35090    1.25450   -1.60820   -3.84790    1.25450
 4650.00000   11.82700 1059.65880    3.95200    -999.25    2.47980    0.13460    -999.25    0.13460    0.94370    -999.25   98.64150   98.64150    0.94370    0.96270    0.96270    0.34060    -999.25    0.34060    1.19000   -3.96350   -6.17400    1.19000
 4700.00000   11.98470 1002.60680    4.10970    -999.25    2.48310    0.13270    -999.25    0.13270    0.99740    -999.25  102.65950  102.65950    0.99740    1.04730    1.04730    0.33720    -999.25    0.33720    1.16430   -2.32840   -4.50960    1.16430
 4750.00000   10.22080  693.72190    2.34580    -999.25    2.55680    0.08960    -999.25    0.08960    1.44150    -999.25   96.05910   96.05910    1.44150    1.48160    1.48160    0.29660    -999.25    0.29660    1.58280   -3.33040   -5.48230    1.58280
 4800.00000    9.38490  523.77960    1.50990    -999.25    2.60810    0.05960    -999.25    0.05960    1.90920    -999.25   98.66750   98.66750    1.90920    1.95400    1.95400    0.25480    -999.25    0.25480    2.12200    0.92380   -1.19890    2.12200
 4850.00000    9.23410  457.14290    1.35910    -999.25    2.62830    0.04780    -999.25    0.04780    2.18750    -999.25   87.77620   87.77620    2.18750    2.21990    2.21990    0.22350    -999.25    0.22350    2.32290    2.85530    0.76190    2.32290
 4900.00000   12.09440  855.13940    4.21940    -999.25    2.52750    0.10670    -999.25    0.10670    1.16940    -999.25  103.30220  103.30220    1.16940    1.18670    1.18670    0.33140    -999.25    0.33140    1.31520   -3.07870   -5.14280    1.31520
 4950.00000   12.08830  766.16610    4.21330    -999.25    2.57340    0.07990    -999.25    0.07990    1.30520    -999.25   90.41730   90.41730    1.30520    1.35060    1.35060    0.29910    -999.25    0.29910    1.48430   -4.57110   -6.60600    1.48430
 5000.00000   12.38670  789.95180    4.51170    0.09650    2.50310    0.12100    -999.25    0.12100    1.26590    0.09650   95.30860   95.30860    1.26590    1.32060    1.32060    0.27710    -999.25    0.27710    1.40340   -3.85110   -5.85670    1.40340
 5050.00000    9.94370  393.99550    2.06870    0.02860    2.57530    0.07880    -999.25    0.07880    2.53810    0.02860   52.31890   52.31890    2.53810    2.73470    2.73470    0.19400    -999.25    0.19400    3.20760   -1.65110   -3.62740    3.20760
 5100.00000    9.89280  272.56870    2.01780    0.02790    2.57000    0.08190    -999.25    0.08190    3.66880    0.02790   53.90290   53.90290    3.66880    3.72200    3.72200    0.14140    -999.25    0.14140    4.06460  -11.09110  -13.03820    4.06460
 5150.00000   10.03180  222.51890    2.15680    0.04020    2.61830    0.05360    -999.25    0.05360    4.49400    0.04020   34.20080   34.20080    4.49400    4.62370    4.62370    0.10500    -999.25    0.10500    5.07670    0.31880   -1.59900    5.07670
 5200.00000    9.88640  151.50830    2.01140    0.01760    2.63070    0.04640    -999.25    0.04640    6.60030    0.01760   27.55280   27.55280    6.60030    6.70530    6.70530    0.07020    -999.25    0.07020    6.81520   -5.56540   -7.45390    6.81520
 5250.00000    9.34960  169.88890    1.47460    0.00320    2.60500    0.06140    -999.25    0.06140    5.88620    0.00320   29.99460   29.99460    5.88620    5.97130    5.97130    0.06900    -999.25    0.06900    6.71690   -9.16780  -11.02710    6.71690
 5300.00000    9.08910  347.78980    1.21410    0.04450    2.59830    0.06530    -999.25    0.06530    2.87530    0.04450   25.35350   25.35350    2.87530    2.92050    2.92050    0.11490    -999.25    0.11490    3.39230  -41.13440  -42.96440    3.39230
 5350.00000    9.05700  238.53820    1.18200    0.06490    2.65390    0.03280    -999.25    0.03280    4.19220    0.06490   29.41980   29.41980    4.19220    4.25880    4.25880    0.09920    -999.25    0.09920    4.52730  -24.44910  -26.24980    4.52730
 5400.00000    9.02350  239.49800    1.14850    0.02630    2.61820    0.05370    -999.25    0.05370    4.17540    0.02630   33.65420   33.65420    4.17540    4.27210    4.27210    0.11410    -999.25    0.11410    4.53260   -6.46300   -8.23450    4.53260
 5450.00000    9.06900  362.41080    1.19400    0.09450    2.61950    0.05290    -999.25    0.05290    2.75930    0.09450  189.75500  189.75500    2.75930    2.96900    2.96900    0.17220    -999.25    0.17220    9.35500   -1.30070   -3.04290    9.35500
 5500.00000    8.18310   77.40060    0.30810    0.04130    2.66840    0.02430    -999.25    0.02430   12.91980    0.04130   19.03880   19.03880   12.91980   13.63290   13.63290    0.05560    -999.25    0.05560   14.14200  -29.57300  -31.28590   14.14200
 5550.00000    7.98390  155.94060    0.10890    0.08610    2.69610    0.00810    -999.25    0.00810    6.41270    0.08610    -999.25    -999.25    6.41270    6.56160    6.56160    0.10070    -999.25    0.10070    6.68910   -5.72550   -7.40920    6.68910
