~Version ---------------------------------------------------
VERS. 2.0 : CWLS log ASCII Standard -VERSION 2.0
WRAP.  NO : ONE LINE PER DEPTH STEP
~Well ------------------------------------------------------
STRT.FT                  2450.0 : START DEPTH
STOP.FT                  6950.0 : STOP DEPTH
STEP.FT                50.00000 : STEP LENGTH
NULL.                   -999.25 : NULL VALUE
COMP. EVERGREEN OIL CORPORATION : COMPANY
WELL.       GILLETTE ELEANOR #2 : WELL
FLD .                      COST : FIELD
LOC .                           : LOCATION
CNTY.                  GONZALES : COUNTY
STAT.                     TEXAS : STATE
CTRY.  UNITED STATES OF AMERICA : COUNTRY
SRVC.              Schlumberger : SERVICE COMPANY
DATE.               23-Mar-1981 : LOGDATE
API .            42177308170000 : API NUMBER
UWI .            42177308170000 : UNIQUE WELL ID
SLAT.WGS84        29.3955893297 : SURFACE LATITUDE
SLON.WGS84       -97.5864825388 : SURFACE LONGITUDE
~Curve Information -----------------------------------------
DEPT  .FT    : DEPTH FEET
SPWS  .MV    : SPONTANEOUS POTENTIAL [BASELINE 0 MV] [SPRED]
GRRED .GAPI  : GAMMA RAY FROM RESISTIVITY LOG
GRWS  .GAPI  : GAMMA RAY [GRRED]
DRHOED.G/C3  : DENSITY CORRECTION FROM DENSITY LOG
DCALED.IN    : DIFFERENTIAL CALIPER FROM DENSITY LOG
ILDED .OHMM  : INDUCTION LOG DEEP RESISTIVITY
ILMED .OHMM  : INDUCTION LOG MEDIUM RESISTIVITY
SFLUED.OHMM  : SPHERICALLY FOCUSED LOG RESISTIVITY
SPRED .MV    : SPONTANEOUS POTENTIAL FROM RESISTIVITY LOG
TENRED.LBF   : TENSION FROM RESISTIVITY LOG
NPHIED.V/V   : NEUTRON POROSITY FROM DENSITY LOG
DPHIED.V/V   : DENSITY POROSITY FROM DENSITY LOG
CALWS .IN    : CALIPER [DCALED+BIT]
DCORWS.G/C3  : DENSITY CORRECTION [DRHOED]
DRESWS.OHMM  : DEEP RESISTIVITY [ILDED]
MRESWS.OHMM  : MEDIUM RESISTIVITY [ILMED]
SRESWS.OHMM  : SHALLOW RESISTIVITY [SFLUED]
CONDWS.MMHO  : CONDUCTIVITY [1000/DRESWS]
DENWS .G/C3  : BULK DENSITY [CALCULATED FROM DPHIED]2446-6329' (SS_2.68);6329-TD (LS_2.71)
DPOWS .V/V   : DENSITY POROSITY LIME [CALCULATED FROM DENWS]
NPOWS .V/V   : NEUTRON POROSITY LIME [CONV NPHIED] 2446-6329' (SS_2.68);6329-TD (LS_2.71)
~Params ----------------------------------------------------
PD  .                     GL : PERMANENT DATUM
EPD .FT                  307 : ELEVATION PERMANENT DATUM
LMF .                     KB : LOG MEASURED FROM
DAPD.FT                   15 : FEET ABOVE PERMANENT DATUM
DMF .                     KB : DRILLING MEASURED FROM
EKB .FT                  322 : KELLY BUSHING
EDF .FT                  321 : DRILLING FLOOR
EGL .FT                  307 : GROUND LEVEL
DATE.               03/23/81 : RUN DATE
RUN .                      1 : RUN NUMBER
DD  .FT                 6945 : DEPTH DRILLER
DL  .FT                 6970 : DEPTH LOGGER
BLI .FT                 6964 : BOTTOM LOG INTERVAL
TLI .FT                 2446 : TOP LOG INTERVAL
CS  .IN                8.625 : CASING SIZE
CBD .FT                 2446 : CASING BOTTOM DRILLER
CBL .FT                 2446 : CASING BOTTOM LOGGER
BS  .IN                7.875 : BIT SIZE
BSD .FT                 6945 : BIT SIZE AT DEPTH
DFT .            ASTRA VIS V : DRILLING FLUID TYPE
DFD .                    9.6 : DRILLING FLUID DENSITY
DFV .                     34 : DRILLING FLUID VISCOSITY
DFPH.                    8.5 : DRILLING FLUID PH
DFL .                    6.8 : DRILLING FLUID LOSS
MSS .               CIRC PIT : MUD SAMPLE SOURCE
RMS .OHMM               3.54 : RESISTIVITY MUD SAMPLE
MST .DEGF                 75 : MUD SAMPLE TEMPERATURE
RMF .OHMM               3.76 : RESISTIVITY MUD FILTRATE SAMPLE
MFST.DEGF                 75 : MUD FILTRATE SAMPLE TEMPERATURE
RMC .OHMM               5.31 : RESISTIVITY MUD CAKE
MCST.DEGF                 75 : MUD CAKE SAMPLE TEMPERATURE
MFSS.                      M : MUD FILTRATE SAMPLE SOURCE
MCSS.                      C : MUD CAKE SAMPLE SOURCE
RMB .OHMM               1.56 : RESISTIVITY MUD AT BHT
TCS .HRS                 800 : TIME CIRCULATED STOPPED
TLAB.HRS                1330 : TIME LOGGER AT BOTTOM
LUN .                   8038 : LOGGING UNIT NUMBER
LUL .                   2303 : LOGGING UNIT LOCATION
ENGI.                   FAIR : RECORDING ENGINEER
CLNT.                A2DTECH : CLIENT CODE
ORIG.            1" 5" PRINT : ORIGIN OF DATA
UWI .         42177308170000 : UNIQUE WELL ID
DICO. A2D Technologies, Inc. : DIGITIZING COMPANY
~Other -----------------------------------------------------
ALL LOGS RUN IN COMBO.
MTRX CHANGE 2446-6329' (SS_2.68);6329-TD (LS_2.71).
~ASCII -----------------------------------------------------
# ...
 4100.00000   -3.12990   90.72200   90.72200    0.10000    1.10080    2.24810    2.61000    2.56580    4.48570 1860.25670    0.36060    0.20220    8.97580    0.10000    2.24810    2.61000    2.56580  444.82010    2.34030    0.21620    0.31710
 4150.00000  -18.71950   77.96740   77.96740    0.04210    0.47050    3.24790    4.07770    6.60170  -10.85310 1855.60500    0.32020    0.21910    8.34550    0.04210    3.24790    4.07770    6.60170  307.89130    2.31190    0.23280    0.27630
 4200.00000   -3.09710   87.90930   87.90930    0.09810    0.80590    2.57280    2.90890    2.71820    4.03100 1825.96190    0.32400    0.16820    8.68090    0.09810    2.57280    2.90890    2.71820  388.68160    2.39740    0.18280    0.28010
 4250.00000   -5.88690   95.95650   95.95650    0.01630    0.60190    3.07560    3.52790    4.09230    0.50290 1878.94560    0.31250    0.19770    8.47690    0.01630    3.07560    3.52790    4.09230  325.13980    2.34790    0.21180    0.26860
 4300.00000   -3.58600   79.78310   79.78310    0.09340    0.65070    2.56290    2.94060    3.09680    2.06550 1866.33940    0.33080    0.17910    8.52570    0.09340    2.56290    2.94060    3.09680  390.18300    2.37910    0.19350    0.28700
 4350.00000   -2.61530   83.44520   83.44520    0.06380    0.95330    2.58100    2.94660    2.65870    3.37780 1864.62940    0.28550    0.15110    8.82830    0.06380    2.58100    2.94660    2.65870  387.44670    2.42620    0.16600    0.24150
 4400.00000   -1.72630   76.01170   76.01170    0.09230    1.25490    2.34620    2.60990    2.74400    5.23020 1934.27610    0.30440    0.14220    9.12990    0.09230    2.34620    2.60990    2.74400  426.22110    2.44110    0.15720    0.26040
 4450.00000   -0.42080   86.92350   86.92350    0.04540    1.23360    2.42470    2.74600    2.58230    5.97110 1956.14760    0.29930    0.16500    9.10860    0.04540    2.42470    2.74600    2.58230  412.42210    2.40280    0.17960    0.25530
 4500.00000   -1.67950   88.12270   88.12270    0.10000    2.29900    1.83890    2.07720    2.01380    4.14770 1933.70690    0.31680    0.17670   10.17400    0.10000    1.83890    2.07720    2.01380  543.80330    2.38310    0.19110    0.27290
 4550.00000    0.46190   80.00090   80.00090    0.09620    2.45340    1.62820    2.02770    1.52570    5.34800 1967.14650    0.38250    0.16070   10.32840    0.09620    1.62820    2.02770    1.52570  614.17520    2.41000    0.17540    0.33930
 4600.00000   -0.50490   84.84800   84.84800    0.10000    2.12880    1.50360    1.77620    1.72140    3.34600 1996.87610    0.38610    0.22220   10.00380    0.10000    1.50360    1.77620    1.72140  665.07050    2.30670    0.23580    0.34300
 4650.00000   -2.49810   81.26900   81.26900    0.10000    3.63090    1.23010    1.44240    1.49240    2.43700 1944.37270    0.45200    0.24630   11.50590    0.10000    1.23010    1.44240    1.49240  812.94200    2.26620    0.25950    0.41030
 4700.00000   -1.12290   86.12680   86.12680    0.05540    2.33040    1.26520    1.47170    1.48980    4.40090 2013.66220    0.40370    0.17030   10.20540    0.05540    1.26520    1.47170    1.48980  790.38890    2.39390    0.18490    0.36090
 4750.00000   -1.07190   83.70210   83.70210    0.10000    2.22980    0.96940    1.16200    1.06380    4.21960 2009.75790    0.40070    0.18370   10.10480    0.10000    0.96940    1.16200    1.06380 1031.56590    2.37140    0.19800    0.35780
 4800.00000   -2.25320   83.21060   83.21060    0.06580    2.43150    0.98500    1.19770    1.07940    4.97620 2010.12050    0.39920    0.20430   10.30650    0.06580    0.98500    1.19770    1.07940 1015.22840    2.33680    0.21830    0.35630
 4850.00000   -1.90040   76.25730   76.25730    0.09970    1.84620    1.17740    1.40330    1.03730    6.41130 1999.35550    0.36220    0.18450    9.72120    0.09970    1.17740    1.40330    1.03730  849.32900    2.37000    0.19880    0.31870
 4900.00000   -3.51030   77.07320   77.07320    0.10000    2.55330    0.99280    1.15330    1.06430    4.85550 2017.71240    0.36180    0.21730   10.42830    0.10000    0.99280    1.15330    1.06430 1007.25220    2.31490    0.23100    0.31830
 4950.00000   -2.73170   88.23150   88.23150    0.04750    0.46090    1.93110    2.22280    2.05880    5.36350 2051.27660    0.27040    0.15320    8.33590    0.04750    1.93110    2.22280    2.05880  517.83960    2.42260    0.16810    0.22640
 5000.00000   -3.98100   76.35010   76.35010    0.00370    0.18370    2.68800    2.97590    2.48560    6.01900 2068.44430    0.27240    0.13250    8.05870    0.00370    2.68800    2.97590    2.48560  372.02380    2.45740    0.14770    0.22840
 5050.00000   -4.86640   72.39070   72.39070    0.10000    0.71220    1.58620    1.90610    1.86480    4.74930 2126.33400    0.28520    0.14990    8.58720    0.10000    1.58620    1.90610    1.86480  630.43750    2.42820    0.16480    0.24120
 5100.00000   -4.51770   75.73690   75.73690    0.10000    2.49280    1.37620    1.59630    1.54950    4.37280 2199.63180    0.37050    0.19930   10.36780    0.10000    1.37620    1.59630    1.54950  726.63860    2.34520    0.21330    0.32710
 5150.00000   -4.12480   74.98770   74.98770    0.10000    0.66310    1.73570    2.02780    1.94400    5.92810 2134.58720    0.31920    0.14060    8.53810    0.10000    1.73570    2.02780    1.94400  576.13640    2.44380    0.15570    0.27530
 5200.00000   -5.10400   68.66380   68.66380    0.10000    2.41650    1.38670    1.62250    1.58730    3.67990 2095.67920    0.33320    0.17770   10.29150    0.10000    1.38670    1.62250    1.58730  721.13650    2.38150    0.19210    0.28940
 5250.00000   -1.22890   67.69920   67.69920    0.10000    3.11550    1.49300    1.79730    1.73060    5.54030 2140.48970    0.31060    0.12520   10.99050    0.10000    1.49300    1.79730    1.73060  669.79240    2.46970    0.14050    0.26670
 5300.00000   -1.78190   73.60380   73.60380    0.10000    4.02440    1.11150    1.33060    1.28700    3.38000 2129.71830    0.46350    0.17440   11.89940    0.10000    1.11150    1.33060    1.28700  899.68510    2.38700    0.18890    0.42180
 5350.00000   -3.43520   66.74360   66.74360    0.10000    2.92420    1.39970    1.66190    1.60370    1.40920 2175.92820    0.41040    0.16450   10.79920    0.10000    1.39970    1.66190    1.60370  714.43880    2.40360    0.17920    0.36770
 5400.00000   -3.90730   69.78850   69.78850    0.10000    2.40610    1.47530    1.72160    1.69020    0.61970 2186.45950    0.34370    0.14970   10.28110    0.10000    1.47530    1.72160    1.69020  677.82820    2.42850    0.16460    0.30000
 5450.00000   -2.83370   69.58440   69.58440    0.10000    1.63280    1.59430    1.91050    1.87980    1.64790 2181.33300    0.34660    0.16630    9.50780    0.10000    1.59430    1.91050    1.87980  627.23450    2.40060    0.18090    0.30290
 5500.00000   -4.38310   79.35000   79.35000    0.10000    2.69940    1.29770    1.50330    1.54680    0.91490 2227.23220    0.40180    0.13300   10.57440    0.10000    1.29770    1.50330    1.54680  770.59410    2.45660    0.14820    0.35900
 5550.00000   -2.41740   70.62870   70.62870    0.06490    0.18040    1.88120    2.10980    1.91470    5.77160 2216.08300    0.31490    0.09440    8.05540    0.06490    1.88120    2.10980    1.91470  531.57560    2.52140    0.11030    0.27100
 5600.00000   -5.68450   67.94090   67.94090    0.09590    1.02300    1.79770    1.99040    1.71070    5.25090 2237.14920    0.33230    0.12730    8.89800    0.09590    1.79770    1.99040    1.71070  556.26630    2.46610    0.14260    0.28850
 5650.00000   -3.98680   80.94050   80.94050    0.09190    1.24330    1.63600    1.92630    2.07880    5.24000 2275.57740    0.23620    0.12570    9.11830    0.09190    1.63600    1.92630    2.07880  611.24690    2.46880    0.14100    0.19240
 5700.00000   -6.87730   93.28560   93.28560    0.08630    3.77760    0.91870    1.08080    0.89510    2.57620 2249.76680    0.41910    0.24360   11.65260    0.08630    0.91870    1.08080    0.89510 1088.49460    2.27080    0.25690    0.37660
