~Version ---------------------------------------------------
VERS. 2.0 : CWLS log ASCII Standard -VERSION 2.0
WRAP.  NO : ONE LINE PER DEPTH STEP
~Well ------------------------------------------------------
STRT.F                             3500.0 : START DEPTH
STOP.F                             8750.0 : STOP DEPTH
STEP.F                           50.00000 : STEP LENGTH
NULL.                             -999.25 : NULL VALUE
COMP. HILL PRODUCTION COMPANY - WISCONSIN : COMPANY
WELL.                   HARRIS-PRESNAL #1 : WELL
FLD .                              KURTEN : FIELD
LOC .                                     : LOCATION
CNTY.                              BRAZOS : COUNTY
STAT.                               TEXAS : STATE
CTRY.            UNITED STATES OF AMERICA : COUNTRY
SRVC.                       Dresser Atlas : SERVICE COMPANY
DATE.                         16-May-1983 : LOGDATE
API .                      42041309330000 : API NUMBER
UWI .                      42041309330000 : UNIQUE WELL ID
SLAT.WGS84                  30.7821637081 : SURFACE LATITUDE
SLON.WGS84                 -96.3400003001 : SURFACE LONGITUDE
~Curve Information -----------------------------------------
DEPT.F    0   1   0  0 : 1 MEASURED DEPTH
GRR .GAPI 07 310 01 00 : GAMMA RAY FROM RESISTIVITY LOG
RFOC.OHMM 07 220 06 00 : SHALLOW FOCUSED LOG RESISTIVITY
RILD.OHMM 07 120 46 00 : INDUCTION DEEP RESISTIVITY
RILM.OHMM 07 120 44 00 : INDUCTION MEDIUM RESISTIVITY
SPR .MV   07 010 01 00 : SPONTANEOUS POTENTIAL FROM RESISTIVITY LOG
CALR.IN   07 280 01 00 : CALIPER FROM RESISTIVITY LOG
~Params ----------------------------------------------------
PD  .                     GL : PERMANENT DATUM
EPD .FT                  341 : ELEVATION PERMANENT DATUM
LMF .                     KB : LOG MEASURED FROM
DAPD.FT                   18 : FEET ABOVE PERMANENT DATUM
DMF .                     KB : DRILLING MEASURED FROM
EKB .FT                  359 : KELLY BUSHING
EDF .FT                  358 : DRILLING FLOOR
EGL .FT                  341 : GROUND LEVEL
DATE.               05/16/83 : RUN DATE
RUN .                      1 : RUN NUMBER
DD  .FT                 8782 : DEPTH DRILLER
DL  .FT                 8764 : DEPTH LOGGER
BLI .FT                 8762 : BOTTOM LOG INTERVAL
TLI .FT                 3520 : TOP LOG INTERVAL
CS  .IN                9.625 : CASING SIZE
CBD .FT                 3515 : CASING BOTTOM DRILLER
CBL .FT                 3520 : CASING BOTTOM LOGGER
BS  .IN                7.875 : BIT SIZE
BSD .FT                 8782 : BIT SIZE AT DEPTH
DFT .         LIGNOSULFONATE : DRILLING FLUID TYPE
DFD .                    9.4 : DRILLING FLUID DENSITY
DFV .                     78 : DRILLING FLUID VISCOSITY
DFPH.                     10 : DRILLING FLUID PH
DFL .                     55 : DRILLING FLUID LOSS
MSS .               FLOWLINE : MUD SAMPLE SOURCE
RMS .OHMM                2.3 : RESISTIVITY MUD SAMPLE
MST .DEGF                 75 : MUD SAMPLE TEMPERATURE
RMF .OHMM                1.7 : RESISTIVITY MUD FILTRATE SAMPLE
MFST.DEGF                 75 : MUD FILTRATE SAMPLE TEMPERATURE
RMC .OHMM                2.9 : RESISTIVITY MUD CAKE
MCST.DEGF                 75 : MUD CAKE SAMPLE TEMPERATURE
MFSS.                    CAL : MUD FILTRATE SAMPLE SOURCE
MCSS.                    CAL : MUD CAKE SAMPLE SOURCE
RMB .OHMM                0.9 : RESISTIVITY MUD AT BHT
TCS .HRS                   4 : TIME CIRCULATED STOPPED
LUN .                   6304 : LOGGING UNIT NUMBER
CLNT.                A2DTECH : CLIENT CODE
ORIG.             2.5" PRINT : ORIGIN OF DATA
UWI .         42041309330000 : UNIQUE WELL ID
DICO. A2D Technologies, Inc. : DIGITIZING COMPANY
~Other -----------------------------------------------------
~ASCII -----------------------------------------------------
 3500.00000   48.87570    -999.25    -999.25    -999.25    -999.25    -999.25
 3550.00000   54.14360    9.50770    8.76210    9.83160    4.27440   14.70310
 3600.00000   65.32830   10.16110    8.51530    8.92320    3.70790   12.87950
 3650.00000   74.20330    6.94700    6.37720    6.59930   10.27940   14.84660
 3700.00000   54.61690    9.51370    7.56080    9.08900   -3.49100   14.24710
 3750.00000   63.81740    9.46610    6.52540    9.25460   -7.89260   12.43990
 3800.00000   50.94050    7.10100    5.00590    6.08940    1.88050   15.02640
 3850.00000   76.20870    7.64830    4.96150    6.06990   -3.98610   11.88510
 3900.00000   83.39710    6.07690    4.40470    5.93890   -8.87680   11.58020
 3950.00000   88.60470    4.42960    3.62200    3.94650   -1.50490    8.32670
 4000.00000  105.51680    2.93970    2.77490    2.84760    5.19390   10.35830
 4050.00000   85.20620    3.82940    3.19660    3.28080    3.41040    9.65280
 4100.00000   90.42640    2.35560    2.00120    2.05330    5.70250   11.51040
 4150.00000   85.70210    2.36660    2.05460    2.11250    3.96470   10.73360
 4200.00000   88.92910    2.55940    2.09190    2.22350    5.20700   10.62910
 4250.00000   76.29040    5.41200    4.10040    4.38800    3.54870    9.32990
 4300.00000   92.27230    2.61630    2.42300    2.48950    2.75900   11.35810
 4350.00000   90.78030    2.40260    2.13210    2.19100    1.31080   11.03340
 4400.00000   86.52630    2.10580    1.81020    1.89470    4.18570   12.31930
 4450.00000   94.41790    2.02430    1.60190    1.67550    5.57450   11.68740
 4500.00000   92.93340    1.91880    1.45720    1.49490    5.86020   11.86830
 4550.00000   93.30350    1.88880    1.45180    1.48460    6.87080   11.96970
 4600.00000   97.17010    1.81910    1.40790    1.44770    5.87900   12.02180
 4650.00000  102.76640    2.37970    2.03570    2.08810    2.43840   10.23080
 4700.00000  100.43240    2.28160    1.91190    1.96190    4.66460   11.06150
 4750.00000  105.52780    2.10260    1.81310    1.86090    4.86470   10.80260
 4800.00000   79.49200    2.72670    2.51850    2.59310    3.26420    9.20900
 4850.00000   82.51350    1.96940    1.53380    1.57380    5.66360   10.49880
 4900.00000   83.30960    1.71560    1.25150    1.28420    8.64460    9.83620
 4950.00000   83.56900    1.71510    1.31390    1.35080    7.71020   10.41100
 5000.00000   72.14830    2.01070    2.06910    2.18050    7.11360   10.07230
 5050.00000   87.62960    1.45120    0.89840    0.92150    8.20110   10.65210
 5100.00000   82.74720    1.60520    1.07460    1.12040    9.04900   11.01520
 5150.00000   88.97130    1.77020    1.29370    1.32820    5.70840   11.70360
 5200.00000   84.60330    1.60490    1.09210    1.12200    6.32740   12.03850
 5250.00000   75.42610    1.56960    0.99240    1.02030    6.11810   14.50310
 5300.00000   75.12210    1.56870    1.00440    1.03090    7.44810   12.65660
 5350.00000   85.66850    1.53070    0.97190    0.99720    7.10330   12.26850
 5400.00000   83.08570    1.91500    1.60170    1.65150    3.80130   11.88210
 5450.00000   83.78060    2.16120    1.87940    1.92990    3.84290    9.93400
 5500.00000   76.87040    2.02310    1.57430    1.61800    6.48070   10.54260
 5550.00000   65.08230    2.90870    2.74630    2.82350    3.67120    9.04610
 5600.00000   71.91590    2.67380    2.32630    2.38670    5.67610    9.20960
 5650.00000   74.30710    1.67000    1.25260    1.29240    7.78500   12.10160
 5700.00000   88.81530    1.41990    1.02800    1.06250    9.45880   10.88730
 5750.00000   95.87610    1.69330    1.30090    1.33450    8.62900   13.14910
 5800.00000   90.64660    1.69520    1.33030    1.36530    9.47710   13.04810
 5850.00000   85.92670    1.77080    1.42940    1.46890    8.03780   12.52620
 5900.00000   86.49660    1.62300    1.19090    1.25480    8.27080   12.97800
 5950.00000   85.42640    1.67130    1.24980    1.28230    9.57790   12.78570
 6000.00000   86.00530    1.57620    1.10350    1.13270    8.25460   13.00730
 6050.00000   84.63070    1.55120    1.09620    1.12450    9.85200   12.54470
 6100.00000   88.73950    1.53420    1.00630    1.03420    9.54170   12.88830
 6150.00000   90.15120    1.49950    0.97900    1.00500   11.06370   12.44120
 6200.00000   91.92900    1.51090    1.00270    1.02850   10.15730   12.58940
 6250.00000   95.87270    1.61630    1.14440    1.20900    8.78460   12.58900
 6300.00000   95.13250    1.78310    1.33590    1.37030    9.56150   12.13440
 6350.00000  105.05400    2.08790    1.76840    1.82470    9.79670   11.22710
 6400.00000  102.14450    2.29780    1.99490    2.04680    7.30480   11.34430
 6450.00000  103.88450    1.97730    1.48020    1.51840    9.14380   11.61450
 6500.00000   88.46410    1.90930    1.44940    1.49070    9.53710   13.21090
 6550.00000   90.27390    1.93530    1.53310    1.57260    7.67860   13.18890
 6600.00000  120.04880    1.94390    1.59720    1.63870    9.53580   12.24440
 6650.00000   81.89430    1.79380    1.33430    1.36950    8.91780   13.81160
 6700.00000   78.24200    2.19870    1.83130    1.87850    7.21620   13.11260
 6750.00000   77.48800    2.15640    1.80030    1.84680    8.41280   13.02060
 6800.00000  112.83500    2.12100    1.51380    1.55290    9.60530   11.50640
 6850.00000   78.25960    2.26460    1.66720    1.71060    9.69940   14.70280
 6900.00000   76.43080    1.99160    1.61590    1.66190    8.31780   15.60130
 6950.00000   81.39660    2.69500    2.28680    2.39400    8.57580   13.59560
 7000.00000   76.10110    2.15620    1.66710    1.71030    8.58320   15.91160
 7050.00000   78.01430    2.17550    1.72910    1.77380    9.20630   15.37670
 7100.00000   77.69380    2.11310    1.58980    1.63090    8.81500   16.14940
 7150.00000   75.78510    2.16180    1.70740    1.75130    9.97780   15.12330
 7200.00000   71.07320    2.38920    1.97560    2.03080    9.59180   15.00250
 7250.00000   77.26250    1.99890    1.49230    1.53040    8.93210   16.00200
 7300.00000   75.84680    2.81660    2.43050    2.49330    7.14970   11.08100
 7350.00000   84.17470    2.84380    2.28540    2.38210    6.74990   11.97280
 7400.00000   80.71630    2.16670    1.75850    1.80780    6.36950   12.93090
 7450.00000   52.71330    4.05660    3.69510    3.80250    1.96750   10.71060
 7500.00000   46.70960    5.14460    4.31550    4.50800   -0.95230   10.24350
 7550.00000   48.22920    5.67420    6.40680    6.94240   -4.71730   10.30620
 7600.00000   49.68380    5.36070    5.78850    5.96350   -1.26170   10.20760
 7650.00000   58.93540    5.37150    3.73350    4.23800    0.80080   11.13650
 7700.00000   30.42020   16.25990   28.79780   30.59480  -15.45540    9.14020
 7750.00000   85.59900    2.32410    1.32440    1.35850    8.69880   15.21770
 7800.00000   80.31750    1.71910    1.15390    1.18360   10.95090   16.05110
 7850.00000   87.72560    2.14090    1.62850    1.67100    9.56220   14.80340
 7900.00000   85.82410    2.06030    1.43270    1.50050   12.46400   14.02780
 7950.00000   84.34410    2.22850    1.49710    1.54060   10.70030   14.37670
 8000.00000   84.69760    2.91480    2.39810    1.88880    3.56340   14.20080
 8050.00000   74.82150    2.75660    2.01240    2.08290    7.13100   14.79400
 8100.00000   94.48210    4.14450    3.28740    3.31190    6.06750   11.34500
 8150.00000   98.38320    3.83140    2.40500    2.59300   12.48320   10.47410
 8200.00000  131.50290    8.84310    6.87490    7.30800    5.04920    8.65460
 8250.00000   93.02730    4.30650    3.12790    3.05370    3.62900   12.76310
 8300.00000   66.24080    3.63310    3.22580    3.30880    1.81750    9.27500
 8350.00000   20.54260   17.40700   34.22030   24.87060  -43.37060   10.64240
 8400.00000   22.46460   17.39010   20.69180   19.56160  -13.79940    9.56620
 8450.00000   19.04530   22.06230   33.23490   32.25230  -36.85830    8.67190
 8500.00000   21.26740   29.81430   62.48830   51.60050  -51.81300    8.96130
 8550.00000   19.13600   27.14230   50.99350   38.11270  -54.94620    9.33160
 8600.00000   30.06510   13.45630   13.10760   12.89690  -25.09950    8.00090
