~Version ---------------------------------------------------
VERS. 2.0 : CWLS log ASCII Standard -VERSION 2.0
WRAP. YES : Multiple lines per depth step
~Well ------------------------------------------------------
STRT.FT                   2500.0 : START DEPTH
STOP.FT                  17250.0 : STOP DEPTH
STEP.FT                 50.00000 : STEP LENGTH
NULL.                    -999.25 : NULL VALUE
COMP. CHAMPLIN PETROLEUM COMPANY : COMPANY
WELL.    FRIAR RANCH GAS UNIT #1 : WELL
FLD .                    WILDCAT : FIELD
LOC .                            : LOCATION
CNTY.                    DE WITT : COUNTY
STAT.                      TEXAS : STATE
CTRY.   UNITED STATES OF AMERICA : COUNTRY
SRVC.                    Unknown : SERVICE COMPANY
DATE.                27-Nov-1979 : LOGDATE
API .             42123309830000 : API NUMBER
UWI .             42123309830000 : UNIQUE WELL ID
SLAT.WGS84           29.12059862 : SURFACE LATITUDE
SLON.WGS84          -97.21043026 : SURFACE LONGITUDE
~Curve Information -----------------------------------------
DEPT    .FT    : DEPTH FEET
ACED    .US/F  : DELTA TIME (ACOUSTIC) FROM SONIC LOG [DEP ADJ TO DTED]
CALDED  .IN    : CALIPER FROM DENSITY LOG [DEP ADJ TO GRRED]
CALRED  .IN    : CALIPER FROM RESISTIVITY LOG
CALWS   .IN    : CALIPER [CALDED]
CONDWS  .MMHO  : CONDUCTIVITY [1000/DRESWS]
CORRED  .G/C3  : DENSITY CORRECTION FROM DENSITY LOG
DCORWS  .G/C3  : DENSITY CORRECTION [CORRED]
DENWS   .G/C3  : BULK DENSITY [M=2.71 F=1.0] [RHOBED]
DPHILSED.V/V   : DENSITY POROSITY [M=2.71 F=1.0] FROM DENSITY LOG [DEP ADJ TO GRRED]
DPHISSED.V/V   : DENSITY POROSITY [M=2.65 F=1.0][7100-10800F M=2.68] FROM DENSITY LOG
DPOLSWS .V/V   : DENSITY POROSITY [M=2.71 F=1.0] [CAL FR DENWS]
DRESWS  .OHMM  : DEEP RESISTIVITY [ILDED]
DTED    .US/F  : DELTA TIME FROM SONIC LOG
DTWS    .US/F  : DELTA TIME [2490 DTED 15878 ACED]
GRDED   .GAPI  : GAMMA RAY FROM DENSITY LOG [DEP ADJ TO GRRED]
GRRED   .GAPI  : GAMMA RAY FROM RESISTIVITY LOG
GRWS    .GAPI  : GAMMA RAY [2490 GRDED 17231 GRRED]
ILDED   .OHMM  : INDUCTION LOG DEEP RESISTIVITY
ILMED   .OHMM  : INDUCTION LOG MEDIUM RESISTIVITY
MRESWS  .OHMM  : MEDIUM RESISTIVITY [ILMED]
NPHILSED.V/V   : NEUTRON POROSITY LIMESTONE FROM DENSITY LOG [DEP ADJ TO GRRED]
NPHISSED.V/V   : NEUTRON POROSITY SANDSTONE FROM DENSITY LOG
NPOLSWS .V/V   : NEUTRON POROSITY LIMESTONE [2490 NPOLSCAL 14943 NPHILSED] [NPHISSED WAS CONVERTED TO NPOLSCAL USING POWERLOG MODULE]
RHOBED  .G/C3  : BULK DENSITY FROM DENSITY LOG [DEP ADJ TO GRRED]
SFLED   .OHMM  : SPHERICALLY FOCUSED LOG RESISTIVITY
SPHILSED.V/V   : SONIC POROSITY FROM SONIC LOG [DEP ADJ TO DTED] [LIMESTONE M=47.5, F=189]
SPOWS   .V/V   : SONIC POROSITY [CAL FR DTWS] [LIMESTONE M=47.5, F=189]
SPRED   .MV    : SPONTANEOUS POTENTIAL FROM RESISTIVITY LOG [SHIFTS ARE REMOVED]
SPWS    .MV    : SPONTANEOUS POTENTIAL [BASELINE 0 MV] [SPRED]
SRESWS  .OHMM  : SHALLOW RESISTIVITY [SFLED]
~Params ----------------------------------------------------
PD  .                     GL : PERMANENT DATUM
EPD .FT                223.8 : ELEVATION PERMANENT DATUM
LMF .                     KB : LOG MEASURED FROM
DAPD.FT                   26 : FEET ABOVE PERMANENT DATUM
DMF .                     KB : DRILLING MEASURED FROM
EKB .FT                249.8 : KELLY BUSHING
EDF .FT                248.8 : DRILLING FLOOR
EGL .FT                223.8 : GROUND LEVEL
DATE.               11/27/79 : RUN DATE
RUN .                      1 : RUN NUMBER
DD  .FT                17252 : DEPTH DRILLER
DL  .FT                17259 : DEPTH LOGGER
BLI .FT                17258 : BOTTOM LOG INTERVAL
TLI .FT                15013 : TOP LOG INTERVAL
CS  .IN                    7 : CASING SIZE
CBD .FT                15015 : CASING BOTTOM DRILLER
CBL .FT                15018 : CASING BOTTOM LOGGER
BS  .IN                5.875 : BIT SIZE
BSD .FT                17252 : BIT SIZE AT DEPTH
DFT .               OIL FAZE : DRILLING FLUID TYPE
DFD .                   12.8 : DRILLING FLUID DENSITY
DFV .                     45 : DRILLING FLUID VISCOSITY
DFL .                   13.6 : DRILLING FLUID LOSS
TCS .HRS                 545 : TIME CIRCULATED STOPPED
TLAB.HRS                1500 : TIME LOGGER AT BOTTOM
LUN .                   8011 : LOGGING UNIT NUMBER
LUL .                   VICT : LOGGING UNIT LOCATION
ENGI.                   SHEA : RECORDING ENGINEER
WITN.            BLANKENSHIP : WITNESSED BY
CLNT.                A2DTECH : CLIENT CODE
ORIG.            1" 5" PRINT : ORIGIN OF DATA
UWI .         42123309830000 : UNIQUE WELL ID
DICO. A2D Technologies, Inc. : DIGITIZING COMPANY
~Other -----------------------------------------------------
~ASCII -----------------------------------------------------
# ...
 12100.00000    -999.25   15.23170    -999.25   15.23170  918.44240   -0.04510   -0.04510    2.52020    -999.25    0.08030    0.11100    1.08880   95.36670   95.36670   64.32840    -999.25   64.32840    1.08880    1.03040    1.03040    -999.25    0.31040    0.26650    2.52020    1.23150    -999.25    0.33830  -17.95000   -1.57410    1.23150
 12150.00000    -999.25   13.91280    -999.25   13.91280  866.85160   -0.02540   -0.02540    2.54600    -999.25    0.05730    0.09590    1.15360   92.33320   92.33320   70.78960    -999.25   70.78960    1.15360    1.09390    1.09390    -999.25    0.27850    0.23450    2.54600    1.38000    -999.25    0.31680  -18.84730   -2.32480    1.38000
 12200.00000    -999.25   12.86440    -999.25   12.86440  905.46900   -0.04380   -0.04380    2.52520    -999.25    0.07920    0.10810    1.10440   96.90020   96.90020   75.91290    -999.25   75.91290    1.10440    1.00480    1.00480    -999.25    0.31090    0.26700    2.52520    1.22860    -999.25    0.34910  -19.31790   -2.64880    1.22860
 12250.00000    -999.25   12.19260    -999.25   12.19260  873.28620   -0.02010   -0.02010    2.58450    -999.25    0.03830    0.07340    1.14510   95.77530   95.77530   73.05830    -999.25   73.05830    1.14510    1.08630    1.08630    -999.25    0.27590    0.23190    2.58450    1.32800    -999.25    0.34120  -19.54620   -2.73060    1.32800
 12300.00000    -999.25   12.02000    -999.25   12.02000  400.41640    0.01630    0.01630    2.65620    -999.25   -0.00330    0.03150    2.49740   82.25580   82.25580   69.10210    -999.25   69.10210    2.49740    2.41630    2.41630    -999.25    0.21880    0.17510    2.65620    2.66510    -999.25    0.24560  -22.03450   -5.07230    2.66510
 12350.00000    -999.25   12.70000    -999.25   12.70000  666.04500   -0.04880   -0.04880    2.46890    -999.25    0.10960    0.14100    1.50140   92.76510   92.76510   77.28960    -999.25   77.28960    1.50140    1.43880    1.43880    -999.25    0.30660    0.26260    2.46890    1.85960    -999.25    0.31990  -19.66680   -2.55800    1.85960
 12400.00000    -999.25   13.42610    -999.25   13.42610  776.45780   -0.02120   -0.02120    2.54960    -999.25    0.06060    0.09380    1.28790   91.45500   91.45500   67.50670    -999.25   67.50670    1.28790    1.18600    1.18600    -999.25   -0.02450   -0.04350    2.54960    1.46070    -999.25    0.31060  -19.54430   -2.28890    1.46070
 12450.00000    -999.25   13.07380    -999.25   13.07380  464.27410   -0.04940   -0.04940    2.46150    -999.25    0.11200    0.14530    2.15390   96.40610   96.40610   51.03930    -999.25   51.03930    2.15390    1.80140    1.80140    -999.25    0.19620    0.15280    2.46150    2.25610    -999.25    0.34560  -19.86660   -2.48270    2.25610
 12500.00000    -999.25    -999.25    -999.25    -999.25  864.90220    -999.25    -999.25    -999.25    -999.25    -999.25    -999.25    1.15620   96.40520   96.40520    -999.25    -999.25    -999.25    1.15620    1.09700    1.09700    -999.25    -999.25    -999.25    -999.25    1.23510    -999.25    0.34560  -19.35330   -1.92920    1.23510
 12550.00000    -999.25   11.71240    -999.25   11.71240  752.10590    0.01490    0.01490    2.63170    -999.25    0.01060    0.04580    1.32960   90.96250   90.96250   83.82430    -999.25   83.82430    1.32960    1.26900    1.26900    -999.25    0.31040    0.26650    2.63170    1.71200    -999.25    0.30720  -20.39930   -2.93490    1.71200
 12600.00000    -999.25   13.77160    -999.25   13.77160  704.22540   -0.09710   -0.09710    2.55020    -999.25    0.06390    0.09350    1.42000   89.52190   89.52190   59.36400    -999.25   59.36400    1.42000    1.33320    1.33320    -999.25    0.29970    0.25570    2.55020    1.46640    -999.25    0.29700  -20.56840   -3.06370    1.46640
 12650.00000    -999.25   12.15470    -999.25   12.15470  666.88900   -0.18390   -0.18390    2.51640    -999.25    0.08120    0.11320    1.49950   89.61900   89.61900   51.09880    -999.25   51.09880    1.49950    1.43150    1.43150    -999.25    0.33420    0.29040    2.51640    1.52830    -999.25    0.29770  -20.51110   -2.96620    1.52830
 12700.00000    -999.25   12.18060    -999.25   12.18060  573.75640   -0.11900   -0.11900    2.52350    -999.25    0.07770    0.10910    1.74290   85.05400   85.05400   59.90960    -999.25   59.90960    1.74290    1.62120    1.62120    -999.25    0.35160    0.30800    2.52350    1.61980    -999.25    0.26540  -21.51350   -3.92830    1.61980
 12750.00000    -999.25   13.14610    -999.25   13.14610  728.27910   -0.07660   -0.07660    2.49050    -999.25    0.09740    0.12840    1.37310   98.10370   98.10370   60.49990    -999.25   60.49990    1.37310    1.26780    1.26780    -999.25    0.35150    0.30790    2.49050    1.52690    -999.25    0.35760  -19.65690   -2.03150    1.52690
 12800.00000    -999.25   11.54350    -999.25   11.54350  498.70340   -0.02400   -0.02400    2.59010    -999.25    0.03270    0.07010    2.00520   86.82610   86.82610   54.16890    -999.25   54.16890    2.00520    1.79650    1.79650    -999.25    0.19520    0.15180    2.59010    2.05640    -999.25    0.27790  -20.41770   -2.75200    2.05640
 12850.00000    -999.25   14.20050    -999.25   14.20050  497.51250   -0.01750   -0.01750    2.55410    -999.25    0.05780    0.09120    2.01000   86.39760   86.39760   96.36750    -999.25   96.36750    2.01000    1.87170    1.87170    -999.25    0.26770    0.22370    2.55410    2.14750    -999.25    0.27490  -22.04570   -4.33980    2.14750
 12900.00000    -999.25   16.63920    -999.25   16.63920  593.01430   -0.03540   -0.03540    2.50090    -999.25    0.08670    0.12230    1.68630   85.49510   85.49510   78.45590    -999.25   78.45590    1.68630    1.57040    1.57040    -999.25    0.26480    0.22080    2.50090    1.81830    -999.25    0.26850  -22.85030   -5.10410    1.81830
 12950.00000    -999.25   18.73250    -999.25   18.73250  840.12430   -0.02090   -0.02090    2.50620    -999.25    0.09060    0.11920    1.19030   97.07230   97.07230   81.78800    -999.25   81.78800    1.19030    1.09020    1.09020    -999.25    0.30980    0.26590    2.50620    1.36700    -999.25    0.35030  -21.60260   -3.81620    1.36700
 13000.00000    -999.25   19.22840    -999.25   19.22840  809.58540   -0.09000   -0.09000    2.34600    -999.25    0.18370    0.21290    1.23520   99.36370   99.36370   75.15090    -999.25   75.15090    1.23520    1.14160    1.14160    -999.25    0.32920    0.28540    2.34600    1.23500    -999.25    0.36650  -22.56260   -4.73590    1.23500
 13050.00000    -999.25   17.08970    -999.25   17.08970  736.75680   -0.00830   -0.00830    2.60110    -999.25    0.03320    0.06370    1.35730   92.11720   92.11720    -999.25    -999.25    -999.25    1.35730    1.23620    1.23620    -999.25    0.31760    0.27370    2.60110    1.46090    -999.25    0.31530  -21.16820   -3.30130    1.46090
 13100.00000    -999.25   12.00540    -999.25   12.00540  780.82300   -0.01670   -0.01670    2.58990    -999.25    0.03650    0.07020    1.28070   91.82950   91.82950   59.82620    -999.25   59.82620    1.28070    1.22020    1.22020    -999.25    0.26730    0.22330    2.58990    1.53660    -999.25    0.31330  -21.53480   -3.62760    1.53660
 13150.00000    -999.25   11.68620    -999.25   11.68620  786.47270   -0.01040   -0.01040    2.57340    -999.25    0.04880    0.07990    1.27150   90.47020   90.47020   64.91360    -999.25   64.91360    1.27150    1.21520    1.21520    -999.25    0.24030    0.19650    2.57340    1.55950    -999.25    0.30370  -21.99130   -4.04390    1.55950
 13200.00000    -999.25   11.49760    -999.25   11.49760  656.03880   -0.01480   -0.01480    2.57050    -999.25    0.04930    0.08160    1.52430   90.92730   90.92730   65.63200    -999.25   65.63200    1.52430    1.38150    1.38150    -999.25    0.24130    0.19740    2.57050    1.85940    -999.25    0.30690  -22.89700   -4.90930    1.85940
 13250.00000    -999.25   11.80350    -999.25   11.80350  661.15700   -0.01540   -0.01540    2.58830    -999.25    0.03610    0.07120    1.51250   88.64830   88.64830   72.39490    -999.25   72.39490    1.51250    1.39210    1.39210    -999.25    0.22630    0.18260    2.58830    1.83060    -999.25    0.29080  -22.82500   -4.79700    1.83060
