~Version ---------------------------------------------------
VERS. 2.0 : CWLS log ASCII Standard -VERSION 2.0
WRAP.  NO : ONE LINE PER DEPTH STEP
~Well ------------------------------------------------------
STRT.FT                   3250.0 : START DEPTH
STOP.FT                   7500.0 : STOP DEPTH
STEP.FT                 50.00000 : STEP LENGTH
NULL.                    -999.25 : NULL VALUE
COMP. CHAMPLIN EXPLORATION, INC. : COMPANY
WELL.        URNER-ELIAS UNIT #1 : WELL
FLD .                   GIDDINGS : FIELD
LOC .                            : LOCATION
CNTY.                    FAYETTE : COUNTY
STAT.                      TEXAS : STATE
CTRY.   UNITED STATES OF AMERICA : COUNTRY
SRVC.               Schlumberger : SERVICE COMPANY
DATE.                08-Jan-1981 : LOGDATE
API .             42149307960000 : API NUMBER
UWI .             42149307960000 : UNIQUE WELL ID
SLAT.WGS84         29.9677724595 : SURFACE LATITUDE
SLON.WGS84        -97.1114740856 : SURFACE LONGITUDE
~Curve Information -----------------------------------------
DEPT  .FT    : DEPTH FEET
DRHOED.G/C3  : DENSITY CORRECTION FROM DENSITY LOG
RHOBED.G/C3  : BULK DENSITY FROM DENSITY LOG
SPWS  .MV    : SPONTANEOUS POTENTIAL [BASELINE 0 MV] [SPRED]
GRWS  .GAPI  : GAMMA RAY [GRRED]
GRRED .GAPI  : GAMMA RAY FROM RESISTIVITY LOG
SPRED .MV    : SPONTANEOUS POTENTIAL FROM RESISTIVITY LOG
SFLUED.OHMM  : SPHERICALLY FOCUSED LOG RESISTIVITY
ILDED .OHMM  : INDUCTION LOG DEEP RESISTIVITY
ILMED .OHMM  : INDUCTION LOG MEDIUM RESISTIVITY
DCALED.IN    : DIFFERENTIAL CALIPER FROM DENSITY LOG
NPHIED.V/V   : NEUTRON POROSITY LIMESTONE FROM DENSITY LOG [DEPTH ADJ TO RES LOG]
DPHIED.V/V   : DENSITY POROSITY [M=2.71 F=1.0] FROM DENSITY LOG
CALRED.IN    : CALIPER FROM RESISTIVITY LOG
CALWS .IN    : CALIPER [CALRED]
DCORWS.G/C3  : DENSITY CORRECTION [DRHOED]
DRESWS.OHMM  : DEEP RESISTIVITY [ILDED]
MRESWS.OHMM  : MEDIUM RESISTIVITY [ILMED]
SRESWS.OHMM  : SHALLOW RESISTIVITY [SFLUED]
CONDWS.MMHO  : CONDUCTIVITY [1000/DRESWS]
NPOWS .V/V   : NEUTRON POROSITY [NPHIED]
DENWS .G/C3  : BULK DENSITY [M=2.71 F=1] [CALCULATED FROM DPHIED]
DPOWS .V/V   : DENSITY POROSITY [M=2.71 F=1] [CALCULATED FROM DENWS]
~Params ----------------------------------------------------
PD  .                     GL : PERMANENT DATUM
EPD .FT                  302 : ELEVATION PERMANENT DATUM
LMF .                    RKB : LOG MEASURED FROM
DAPD.FT                   15 : FEET ABOVE PERMANENT DATUM
DMF .                    RKB : DRILLING MEASURED FROM
EKB .FT                  317 : KELLY BUSHING
EDF .FT                  316 : DRILLING FLOOR
EGL .FT                  302 : GROUND LEVEL
DATE.               01/08/81 : RUN DATE
RUN .                      1 : RUN NUMBER
DD  .FT                 7528 : DEPTH DRILLER
DL  .FT                 7532 : DEPTH LOGGER
BLI .FT                 7526 : BOTTOM LOG INTERVAL
TLI .FT                 3242 : TOP LOG INTERVAL
CS  .IN                8.625 : CASING SIZE
CBD .FT                 3250 : CASING BOTTOM DRILLER
CBL .FT                 3242 : CASING BOTTOM LOGGER
BS  .IN                7.875 : BIT SIZE
BSD .FT                 7528 : BIT SIZE AT DEPTH
DFT .         LIGNOSULFONATE : DRILLING FLUID TYPE
DFD .                    9.2 : DRILLING FLUID DENSITY
DFV .                     29 : DRILLING FLUID VISCOSITY
DFPH.                     10 : DRILLING FLUID PH
DFL .                    6.5 : DRILLING FLUID LOSS
MSS .               CIRC PIT : MUD SAMPLE SOURCE
RMS .OHMM               2.12 : RESISTIVITY MUD SAMPLE
MST .DEGF                 65 : MUD SAMPLE TEMPERATURE
RMF .OHMM               2.26 : RESISTIVITY MUD FILTRATE SAMPLE
MFST.DEGF                 65 : MUD FILTRATE SAMPLE TEMPERATURE
RMC .OHMM               1.45 : RESISTIVITY MUD CAKE
MCST.DEGF                 65 : MUD CAKE SAMPLE TEMPERATURE
MFSS.                   MEAS : MUD FILTRATE SAMPLE SOURCE
MCSS.                   CALC : MUD CAKE SAMPLE SOURCE
RMB .OHMM               0.78 : RESISTIVITY MUD AT BHT
TCS .HRS                 600 : TIME CIRCULATED STOPPED
TLAB.HRS                1230 : TIME LOGGER AT BOTTOM
LUN .                   8102 : LOGGING UNIT NUMBER
LUL .               CARTHAGE : LOGGING UNIT LOCATION
ENGI.                 MCSHAN : RECORDING ENGINEER
WITN.                BECKHAM : WITNESSED BY
CLNT.                A2DTECH : CLIENT CODE
ORIG.            2" 5" PRINT : ORIGIN OF DATA
UWI .         42149307960000 : UNIQUE WELL ID
DICO. A2D Technologies, Inc. : DIGITIZING COMPANY
~Other -----------------------------------------------------
ALL LOGS RUN IN COMBO
~ASCII -----------------------------------------------------
# ...
 6450.00000    -999.25    -999.25   -1.19310   71.92510   71.92510  -37.57590    2.94100    2.59040    2.75490    1.87490    -999.25    -999.25    9.74990    9.74990    -999.25    2.59040    2.75490    2.94100  386.04080    -999.25    -999.25    -999.25
 6500.00000    -999.25    -999.25   -0.99340   74.15260   74.15260  -36.80470    3.25390    2.55330    2.74960    1.67210    -999.25    -999.25    9.54710    9.54710    -999.25    2.55330    2.74960    3.25390  391.65000    -999.25    -999.25    -999.25
 6550.00000    -999.25    -999.25   -1.08270   69.57280   69.57280  -38.25240    3.18620    3.06100    3.27320    1.74120    -999.25    -999.25    9.61620    9.61620    -999.25    3.06100    3.27320    3.18620  326.69060    -999.25    -999.25    -999.25
 6600.00000    -999.25    -999.25   -3.14740   57.77790   57.77790  -41.16880    4.83340    3.77650    4.13070    1.89370    -999.25    -999.25    9.76870    9.76870    -999.25    3.77650    4.13070    4.83340  264.79540    -999.25    -999.25    -999.25
 6650.00000    0.07020    2.50180   -2.96720   84.76210   84.76210  -41.45810    2.28950    1.92090    2.06790    2.14220    0.25750    0.11770   10.01720   10.01720    0.07020    1.92090    2.06790    2.28950  520.58930    0.25750    2.50870    0.11770
 6700.00000    0.01490    2.63320   -8.34080   28.56720   28.56720  -47.43470    6.47040    4.88550    5.35910    1.15670    0.07810    0.04010    9.03170    9.03170    0.01490    4.88550    5.35910    6.47040  204.68730    0.07810    2.64140    0.04010
 6750.00000   -0.00280    2.59720   -6.73460   24.34840   24.34840  -46.48080   11.02370    6.87660    8.31290    1.21150    0.06830    0.06470    9.08650    9.08650   -0.00280    6.87660    8.31290   11.02370  145.42070    0.06830    2.59940    0.06470
 6800.00000    0.01610    2.64100  -10.20800   25.52100   25.52100  -50.60650   12.36420    8.21020    9.60890    0.91440    0.05250    0.03890    8.78940    8.78940    0.01610    8.21020    9.60890   12.36420  121.79970    0.05250    2.64350    0.03890
 6850.00000    0.09570    2.66310   -9.50350   34.89470   34.89470  -50.55430   11.83850    7.02750    7.76020    0.90190    0.06850    0.02850    8.77690    8.77690    0.09570    7.02750    7.76020   11.83850  142.29810    0.06850    2.66130    0.02850
 6900.00000    0.01140    2.63250  -17.35930   21.82840   21.82840  -59.06240   12.44810    7.21640    8.33800    0.85550    0.05760    0.04460    8.73050    8.73050    0.01140    7.21640    8.33800   12.44810  138.57320    0.05760    2.63370    0.04460
 6950.00000    0.11230    2.59090   -2.81340   93.44140   93.44140  -45.16880    3.60090    2.44020    2.29170    0.76920    0.18580    0.07550    8.64420    8.64420    0.11230    2.44020    2.29170    3.60090  409.80250    0.18580    2.58090    0.07550
 7000.00000    0.00930    2.61610   -4.36140   33.99890   33.99890  -47.08280    9.64220    6.46240    7.33240    0.86460    0.06180    0.05290    8.73960    8.73960    0.00930    6.46240    7.33240    9.64220  154.74130    0.06180    2.61950    0.05290
 7050.00000    0.01050    2.62370   -2.47410   36.04590   36.04590  -45.20010    7.73070    6.58260    7.04530    0.52730    0.06810    0.04960    8.40230    8.40230    0.01050    6.58260    7.04530    7.73070  151.91560    0.06810    2.62520    0.04960
 7100.00000    0.00560    2.59840   -5.54070   32.50400   32.50400  -47.11870    7.80020    5.77930    6.10890    0.39050    0.07020    0.06160    8.26550    8.26550    0.00560    5.77930    6.10890    7.80020  173.03130    0.07020    2.60470    0.06160
 7150.00000    0.01820    2.60990   -1.27870   43.37030   43.37030  -41.63650    6.67970    5.36170    5.49430    0.08920    0.09540    0.06000    7.96420    7.96420    0.01820    5.36170    5.49430    6.67970  186.50800    0.09540    2.60740    0.06000
 7200.00000    0.02010    2.61640   -5.05730   43.68200   43.68200  -45.57460    8.34890    5.99230    6.72860    0.00990    0.08320    0.05340    7.88490    7.88490    0.02010    5.99230    6.72860    8.34890  166.88080    0.08320    2.61870    0.05340
 7250.00000    0.00420    2.62160   -3.19160   45.07920   45.07920  -43.88240   13.11060   10.03370   10.63180    0.00960    0.07180    0.05190    7.88460    7.88460    0.00420   10.03370   10.63180   13.11060   99.66410    0.07180    2.62130    0.05190
 7300.00000    0.01370    2.65170  -16.17530   27.72900   27.72900  -53.06130   28.66790   21.00500   25.80810    0.00450    0.04420    0.03410    7.87950    7.87950    0.01370   21.00500   25.80810   28.66790   47.60770    0.04420    2.65170    0.03410
 7350.00000    0.20700    2.54930  -14.63220  119.62940  119.62940  -47.11490    4.42630    3.43350    3.10830    0.40560    0.33620    0.09400    8.28060    8.28060    0.20700    3.43350    3.10830    4.42630  291.24800    0.33620    2.54930    0.09400
 7400.00000    0.00810    -999.25  -20.97240   14.48260   14.48260  -52.90830   30.43490   25.34340   29.59460   -0.08100    0.02240    -999.25    7.79400    7.79400    0.00810   25.34340   29.59460   30.43490   39.45800    0.02240    -999.25    -999.25
 7450.00000    0.02380    -999.25   -7.93090   32.48590   32.48590  -39.32000   15.78730    9.87820   11.53010   -0.07310    0.06450   -0.00170    7.80190    7.80190    0.02380    9.87820   11.53010   15.78730  101.23300    0.06450    2.71290   -0.00170
 7500.00000    0.07780    -999.25  -26.61120    -999.25    -999.25  -64.42220   69.73180   34.56350   49.33710   -0.23940    -999.25    0.00800    7.63560    7.63560    0.07780   34.56350   49.33710   69.73180   28.93230    -999.25    2.69630    0.00800
