~Version ---------------------------------------------------
VERS. 2.0 : CWLS log ASCII Standard -VERSION 2.0
WRAP. YES : MULTIPLE LINES PER DEPTH STEP
~Well ------------------------------------------------------
STRT.FT                  300.0 : START DEPTH
STOP.FT                18600.0 : STOP DEPTH
STEP.FT               50.00000 : STEP LENGTH
NULL.                  -999.25 : NULL VALUE
COMP.        SHELL OIL COMPANY : COMPANY
WELL. PAWELEK BEN A ET AL A #1 : WELL
FLD .    PERSON AREA (WILDCAT) : FIELD
LOC .                          : LOCATION
CNTY.                   KARNES : COUNTY
STAT.                    TEXAS : STATE
CTRY. UNITED STATES OF AMERICA : COUNTRY
SRVC.             Schlumberger : SERVICE COMPANY
DATE.              22-May-1978 : LOGDATE
API .           42255305980000 : API NUMBER
UWI .           42255305980000 : UNIQUE WELL ID
SLAT.WGS84       29.0241796548 : SURFACE LATITUDE
SLON.WGS84      -97.8796797249 : SURFACE LONGITUDE
~Curve Information -----------------------------------------
DEPT    .FT    : DEPTH FEET
CALDED  .IN    : CALIPER FROM DENSITY LOG [DEP ADJ TO GRSED]
CALMED  .IN    : CALIPER FROM MICROLOG [DEP ADJ TO SFLED]
CALSED  .IN    : CALIPER FROM SONIC LOG
CALWS   .IN    : CALIPER [10 CALDED 4845.5 CALMED 4849 CALDED 17451 CALSED 17577 CALDED]
CONDWS  .MMHO  : CONDUCTIVITY [1000/DRESWS]
DCORWS  .G/C3  : DENSITY CORRECTION [DRHOED]
DENWS   .G/C3  : BULK DENSITY [M=2.71 F=1.0] [RHOBED]
DPHILSED.V/V   : DENSITY POROSITY [M=2.71 F=1.0] FROM DENSITY LOG [DEP ADJ TO GRSED/RHOBED]
DPHISSED.V/V   : DENSITY POROSITY [M=2.65 F=1.0] FROM DENSITY LOG [DEP ADJ TO GRSED/RHOBED]
DPOLSWS .V/V   : DENSITY POROSITY [M=2.71 F=1.0] [CAL FR DENWS]
DRESWS  .OHMM  : DEEP RESISTIVITY [ILDED]
DRHOED  .G/C3  : DENSITY CORRECTION FROM DENSITY LOG [DEP ADJ TO GRSED]
DTED    .US/F  : DELTA TIME FROM SONIC LOG
DTWS    .US/F  : DELTA TIME [DTED]
GRDED   .GAPI  : GAMMA RAY FROM DENSITY LOG
GRRED   .GAPI  : GAMMA RAY FROM RESISTIVITY LOG [DEP ADJ TO GRSED]
GRSED   .GAPI  : GAMMA RAY FROM SONIC LOG
GRWS    .GAPI  : GAMMA RAY [70 GRDED 4800.5 GRDEDNRM [0-100 TO 0-140]4844.5 GRSED 4853.5 GRDED 12903.5 GRSED 12939.5 GRDED 12962 GRSED 17526 GRDED 17550 GRRED 18607 GRDED]
ILDED   .OHMM  : INDUCTION LOG DEEP RESISTIVITY
ILMED   .OHMM  : INDUCTION LOG MEDIUM RESISTIVITY
MRESWS  .OHMM  : MEDIUM RESISTIVITY [ILMED]
NPHILSED.V/V   : NEUTRON POROSITY LISTONE FROM DENSITY LOG [DEP ADJ TO GRSED/RHOBED]
NPHISSED.V/V   : NEUTRON POROSITY SANDSTONE FROM DENSITY LOG [DEP ADJ TO GRSED/RHOBED]
NPOLSWS .V/V   : NEUTRON POROSITY LIMESTONE [10 NPOLSCAL 9446 NPHILSED] [NPHISSED IS CONVERTED TO NPOLSCAL USING POWERLOG MODULE]
PROXED  .OHMM  : PROXIMITY RESISTIVITY FROM MICROLOG [DEP ADJ TO SFLED]
RHOBED  .G/C3  : BULK DENSITY FROM DENSITY LOG [DEP ADJ TO GRSED]
SFLED   .OHMM  : SPHERICALLY FOCUSED LOG RESISTIVITY
SPRED   .MV    : SPONTANEOUS POTENTIAL FROM RESISTIVITY LOG [SHIFTS ARE REMOVED]
SPWS    .MV    : SPONTANEOUS POTENTIAL [BASELINE 0 MV] [SPRED][PL. USE W/ RESERVATIONS]
SRESWS  .OHMM  : SHALLOW RESISTIVITY [SFLED]
TENDED  .LBF   : TENSION FROM DENSITY LOG [DEP ADJ TO GRSED]
~Params ----------------------------------------------------
PD  .                     GL : PERMANENT DATUM
EPD .FT                  335 : ELEVATION PERMANENT DATUM
LMF .                     KB : LOG MEASURED FROM
DAPD.FT                   28 : FEET ABOVE PERMANENT DATUM
DMF .                     KB : DRILLING MEASURED FROM
EKB .FT                  363 : KELLY BUSHING
EDF .FT                  362 : DRILLING FLOOR
EGL .FT                  335 : GROUND LEVEL
DATE.               05/22/78 : RUN DATE
RUN .                      4 : RUN NUMBER
DD  .FT                18626 : DEPTH DRILLER
DL  .FT                18642 : DEPTH LOGGER
BLI .FT                18637 : BOTTOM LOG INTERVAL
TLI .FT                17550 : TOP LOG INTERVAL
CS  .IN                    7 : CASING SIZE
CBD .FT                17544 : CASING BOTTOM DRILLER
CBL .FT                17550 : CASING BOTTOM LOGGER
BS  .IN                    6 : BIT SIZE
BSD .FT                18626 : BIT SIZE AT DEPTH
DFT .               INVERMUL : DRILLING FLUID TYPE
DFD .                   17.6 : DRILLING FLUID DENSITY
DFV .                     70 : DRILLING FLUID VISCOSITY
DFL .                      2 : DRILLING FLUID LOSS
LUN .                   7799 : LOGGING UNIT NUMBER
LUL .                  PLEAS : LOGGING UNIT LOCATION
ENGI.             TURBEVILLE : RECORDING ENGINEER
WITN.                JARRELL : WITNESSED BY
CLNT.                A2DTECH : CLIENT CODE
ORIG.            2" 5" PRINT : ORIGIN OF DATA
UWI .         42255305980000 : UNIQUE WELL ID
DICO. A2D Technologies, Inc. : DIGITIZING COMPANY
~Other -----------------------------------------------------
~ASCII -----------------------------------------------------
# ...
 17550.00000    6.72830    -999.25   11.18620   11.18620    -999.25    0.10530    2.57580    0.08320    -999.25    0.07850    -999.25    0.10530   55.06730   55.06730    -999.25   10.11800    -999.25    -999.25    -999.25    -999.25    -999.25    0.07950    -999.25    0.07950    -999.25    2.57580    -999.25  -69.19700  -68.30810    -999.25    -999.25
 17600.00000    4.48920    -999.25    -999.25    4.48920   29.79910   -0.01490    2.70700    0.00230    -999.25    0.00180   33.55810   -0.01490   52.17330   52.17330    0.74970    5.64490    0.93220    5.64490   33.55810    -999.25    -999.25    0.03580    -999.25    0.03580    -999.25    2.70700    -999.25    -999.25    -999.25    -999.25    -999.25
 17650.00000    4.00480    -999.25    -999.25    4.00480    5.86430    0.00410    2.83040   -0.07430    -999.25   -0.07040  170.52440    0.00410   50.00870   50.00870    4.72660   14.15120    5.12440   14.15120  170.52440    -999.25    -999.25    0.02290    -999.25    0.02290    -999.25    2.83040    -999.25    -999.25    -999.25    -999.25    -999.25
 17700.00000    -999.25    -999.25    -999.25    -999.25   10.02690    0.00360    2.87770   -0.09830    -999.25   -0.09810   99.73140    0.00360   47.59510   47.59510    5.99360   10.04360    6.10140   10.04360   99.73140    -999.25    -999.25    0.04640    -999.25    0.04640    -999.25    2.87770    -999.25    -999.25    -999.25    -999.25    -999.25
 17750.00000    6.11340    -999.25    -999.25    6.11340  187.86750   -0.00620    2.75320   -0.02720    -999.25   -0.02530    5.32290   -0.00620   52.15510   52.15510    1.91800    4.31580    2.19480    4.31580    5.32290    -999.25    -999.25    0.08670    -999.25    0.08670    -999.25    2.75320    -999.25    -999.25    -999.25    -999.25    -999.25
 17800.00000    5.22060    -999.25    -999.25    5.22060   14.92010    0.00180    2.91830   -0.12980    -999.25   -0.12180   67.02380    0.00180   47.15890   47.15890    3.84880   12.32360    3.64230   12.32360   67.02380    -999.25    -999.25    0.04390    -999.25    0.04390    -999.25    2.91830    -999.25    -999.25    -999.25    -999.25    -999.25
 17850.00000    5.43980    -999.25    -999.25    5.43980    7.94860    0.00680    2.80800   -0.05480    -999.25   -0.05730  125.80820    0.00680   52.25020   52.25020    5.91350    9.35980    4.77370    9.35980  125.80820    -999.25    -999.25    0.01310    -999.25    0.01310    -999.25    2.80800    -999.25    -999.25    -999.25    -999.25    -999.25
 17900.00000    6.18110    -999.25    -999.25    6.18110   21.72410   -0.00930    2.77220   -0.03800    -999.25   -0.03640   46.03190   -0.00930   57.95920   57.95920   13.15410   29.97790   12.70730   29.97790   46.03190    -999.25    -999.25    0.08130    -999.25    0.08130    -999.25    2.77220    -999.25    -999.25    -999.25    -999.25    -999.25
 17950.00000    6.36210    -999.25    -999.25    6.36210   20.04820   -0.01010    2.78830   -0.04570    -999.25   -0.04580   49.87980   -0.01010   54.01430   54.01430   11.62570   22.75710   11.07460   22.75710   49.87980    -999.25    -999.25    0.06780    -999.25    0.06780    -999.25    2.78830    -999.25    -999.25    -999.25    -999.25    -999.25
 18000.00000    6.23830    -999.25    -999.25    6.23830    8.12310   -0.00210    2.81590   -0.06550    -999.25   -0.06190  123.10600   -0.00210   50.63180   50.63180    4.11490    9.86250    3.54620    9.86250  123.10600    -999.25    -999.25    0.01800    -999.25    0.01800    -999.25    2.81590    -999.25    -999.25    -999.25    -999.25    -999.25
 18050.00000    6.71250    -999.25    -999.25    6.71250   80.83940   -0.01340    2.76600   -0.03470    -999.25   -0.03270   12.37020   -0.01340   62.88950   62.88950   20.86050   47.17200   20.90590   47.17200   12.37020    -999.25    -999.25    0.10860    -999.25    0.10860    -999.25    2.76600    -999.25    -999.25    -999.25    -999.25    -999.25
 18100.00000    6.15480    -999.25    -999.25    6.15480  118.67460   -0.01770    2.71700   -0.00500    -999.25   -0.00410    8.42640   -0.01770   61.11360   61.11360   25.98140   53.14140   25.18730   53.14140    8.42640    -999.25    -999.25    0.11560    -999.25    0.11560    -999.25    2.71700    -999.25    -999.25    -999.25    -999.25    -999.25
 18150.00000    6.07220    -999.25    -999.25    6.07220   87.03220   -0.00270    2.77360   -0.03830    -999.25   -0.03720   11.49000   -0.00270   61.49640   61.49640   19.93190   36.31540   21.05270   36.31540   11.49000    -999.25    -999.25    0.10150    -999.25    0.10150    -999.25    2.77360    -999.25    -999.25    -999.25    -999.25    -999.25
 18200.00000    6.09590    -999.25    -999.25    6.09590   71.88920   -0.01430    2.72950   -0.01790    -999.25   -0.01140   13.91030   -0.01430   62.72650   62.72650   18.74540   39.12870   18.46930   39.12870   13.91030    -999.25    -999.25    0.09090    -999.25    0.09090    -999.25    2.72950    -999.25    -999.25    -999.25    -999.25    -999.25
 18250.00000    5.93860    -999.25    -999.25    5.93860  151.02320   -0.01910    2.74920   -0.02420    -999.25   -0.02290    6.62150   -0.01910   66.89960   66.89960   26.59780   54.86460   27.72900   54.86460    6.62150    -999.25    -999.25    0.12940    -999.25    0.12940    -999.25    2.74920    -999.25    -999.25    -999.25    -999.25    -999.25
 18300.00000    6.01600    -999.25    -999.25    6.01600  107.69360   -0.00190    2.72880   -0.01090    -999.25   -0.01100    9.28560   -0.00190   62.23150   62.23150   24.53350   55.62370   24.44060   55.62370    9.28560    -999.25    -999.25    0.10910    -999.25    0.10910    -999.25    2.72880    -999.25    -999.25    -999.25    -999.25    -999.25
 18350.00000    5.72010    -999.25    -999.25    5.72010   20.53250   -0.00230    2.79200   -0.04930    -999.25   -0.04800   48.70320   -0.00230   53.47030   53.47030    9.65410   15.07700   10.29680   15.07700   48.70320    -999.25    -999.25    0.04830    -999.25    0.04830    -999.25    2.79200    -999.25    -999.25    -999.25    -999.25    -999.25
 18400.00000    5.52400    -999.25    -999.25    5.52400   80.54060   -0.02280    2.75450   -0.02880    -999.25   -0.02600   12.41610   -0.02280   58.61220   58.61220   19.09970   36.80920   19.11270   36.80920   12.41610    -999.25    -999.25    0.07630    -999.25    0.07630    -999.25    2.75450    -999.25    -999.25    -999.25    -999.25    -999.25
 18450.00000    5.72070    -999.25    -999.25    5.72070   59.71040   -0.01170    2.75370   -0.02260    -999.25   -0.02560   16.74750   -0.01170   59.46520   59.46520   18.90850   35.73170   19.01650   35.73170   16.74750    -999.25    -999.25    0.07940    -999.25    0.07940    -999.25    2.75370    -999.25    -999.25    -999.25    -999.25    -999.25
 18500.00000    5.95390    -999.25    -999.25    5.95390   41.11470   -0.00960    2.75370   -0.02350    -999.25   -0.02560   24.32220   -0.00960   58.14550   58.14550   22.46950   44.39770   22.58370   44.39770   24.32220    -999.25    -999.25    0.05910    -999.25    0.05910    -999.25    2.75370    -999.25    -999.25    -999.25    -999.25    -999.25
 18550.00000    5.50880    -999.25    -999.25    5.50880   50.07340   -0.01630    2.74200   -0.01850    -999.25   -0.01870   19.97070   -0.01630   55.33750   55.33750   33.39330   80.89900   34.16840   80.89900   19.97070    -999.25    -999.25    0.05950    -999.25    0.05950    -999.25    2.74200    -999.25    -999.25    -999.25    -999.25    -999.25
 18600.00000    4.74660    -999.25    -999.25    4.74660   37.31390   -0.00990    2.72650   -0.00900    -999.25   -0.00960   26.79970   -0.00990   57.22360   57.22360    7.44870   21.74730    7.81390   21.74730   26.79970    -999.25    -999.25    0.04730    -999.25    0.04730    -999.25    2.72650    -999.25    -999.25    -999.25    -999.25    -999.25
