~Version ---------------------------------------------------
VERS. 2.0 : CWLS log ASCII Standard -VERSION 2.0
WRAP.  NO : ONE LINE PER DEPTH STEP
~Well ------------------------------------------------------
STRT.F                  1000.0 : START DEPTH
STOP.F                  6100.0 : STOP DEPTH
STEP.F                50.00000 : STEP LENGTH
NULL.                  -999.25 : NULL VALUE
COMP.           MID-GULF, INC. : COMPANY
WELL.                WOMBLE #1 : WELL
FLD .                 GIDDINGS : FIELD
LOC .                          : LOCATION
CNTY.                 BURLESON : COUNTY
STAT.                    TEXAS : STATE
CTRY. UNITED STATES OF AMERICA : COUNTRY
SRVC.                    Welex : SERVICE COMPANY
DATE.              03-Jan-1985 : LOGDATE
API .           42051327690000 : API NUMBER
UWI .           42051327690000 : UNIQUE WELL ID
SLAT.WGS84       30.5543832201 : SURFACE LATITUDE
SLON.WGS84       -96.890199278 : SURFACE LONGITUDE
~Curve Information -----------------------------------------
DEPT  .F                 : 
SPR   .MV   07 010 01 00 : SPONTANEOUS POTENTIAL FROM RESISTIVITY LOG
GRR   .GAPI 07 310 01 00 : GAMMA RAY FROM RESISTIVITY LOG
SGUARD.OHMM 07 120 05 00 : SHALLOW/SHORT GUARD RESISTIVITY
ILD   .OHMM 07 120 46 00 : INDUCTION DEEP RESISTIVITY
ILM   .OHMM 07 120 44 00 : INDUCTION MEDIUM RESISTIVITY
MCAL  .IN   15 280 01 00 : MLT (MICROLOG) CALIPER
NPHI  .DEC  42 890 00 00 : NEUTRON POROSITY
GRD   .GAPI 42 310 01 00 : GAMMA RAY FROM DENSITY LOG
~Params ----------------------------------------------------
PD  .                     GL : PERMANENT DATUM
EPD .FT                  405 : ELEVATION PERMANENT DATUM
LMF .                    TKB : LOG MEASURED FROM
DAPD.FT                   12 : FEET ABOVE PERMANENT DATUM
DMF .                    TKB : DRILLING MEASURED FROM
EKB .FT                  417 : KELLY BUSHING
EDF .FT                  416 : DRILLING FLOOR
EGL .FT                  405 : GROUND LEVEL
DATE.               01/03/85 : RUN DATE
RUN .                      1 : RUN NUMBER
DD  .FT                 6126 : DEPTH DRILLER
DL  .FT                 6064 : DEPTH LOGGER
BLI .FT                 6062 : BOTTOM LOG INTERVAL
TLI .FT                 1062 : TOP LOG INTERVAL
CS  .IN                8.625 : CASING SIZE
CBD .FT                 1024 : CASING BOTTOM DRILLER
CBL .FT                 1032 : CASING BOTTOM LOGGER
BS  .IN                7.875 : BIT SIZE
BSD .FT                 6126 : BIT SIZE AT DEPTH
DFT .          DISPERSED MUD : DRILLING FLUID TYPE
DFD .                    9.7 : DRILLING FLUID DENSITY
DFV .                     48 : DRILLING FLUID VISCOSITY
DFPH.                    9.5 : DRILLING FLUID PH
DFL .                    9.2 : DRILLING FLUID LOSS
MSS .               FLOWLINE : MUD SAMPLE SOURCE
RMS .OHMM                4.1 : RESISTIVITY MUD SAMPLE
MST .DEGF                 75 : MUD SAMPLE TEMPERATURE
RMF .OHMM               4.72 : RESISTIVITY MUD FILTRATE SAMPLE
MFST.DEGF                 75 : MUD FILTRATE SAMPLE TEMPERATURE
RMC .OHMM               7.35 : RESISTIVITY MUD CAKE
MCST.DEGF                 75 : MUD CAKE SAMPLE TEMPERATURE
MFSS.                   MEAS : MUD FILTRATE SAMPLE SOURCE
MCSS.                   MEAS : MUD CAKE SAMPLE SOURCE
RMB .OHMM                  2 : RESISTIVITY MUD AT BHT
TCS .HRS                   4 : TIME CIRCULATED STOPPED
TLAB.HRS                1545 : TIME LOGGER AT BOTTOM
LUN .                   2909 : LOGGING UNIT NUMBER
LUL .                  BRYAN : LOGGING UNIT LOCATION
ENGI.       MCFAFLING JUNIEL : RECORDING ENGINEER
WITN.               MCCOLLUM : WITNESSED BY
CLNT.                A2DTECH : CLIENT CODE
ORIG.         1" 2" 5" PRINT : ORIGIN OF DATA
UWI .         42051327690000 : UNIQUE WELL ID
DICO. A2D Technologies, Inc. : DIGITIZING COMPANY
~Other -----------------------------------------------------
~ASCII -----------------------------------------------------
 1000.00000    -999.25   60.48080    -999.25    -999.25    -999.25    -999.25    -999.25    -999.25
 1050.00000  -33.36630   40.24750    8.86690   20.09820    9.09610    -999.25    -999.25    -999.25
 1100.00000  -29.61890   56.28710   13.09240   25.72130   16.39670    -999.25    -999.25    -999.25
 1150.00000  -36.97430   34.60400   31.56790   11.15100   12.44190    -999.25    -999.25    -999.25
 1200.00000  -37.89420   75.37130    6.16070    5.84120    6.50760    -999.25    -999.25    -999.25
 1250.00000  -36.23140   74.70300    7.00060    8.24840    6.81150    -999.25    -999.25    -999.25
 1300.00000  -35.54460   63.71290   12.43360   14.75000   13.13520    -999.25    -999.25    -999.25
 1350.00000  -33.77320   49.86760   17.76210   24.44810   20.93400    -999.25    -999.25    -999.25
 1400.00000  -29.66560   53.78000   18.76630   28.03560   22.92730    -999.25    -999.25    -999.25
 1450.00000  -40.76460   18.51130   20.37000   24.67230   23.35730    -999.25    -999.25    -999.25
 1500.00000  -29.90030   85.39600    4.90370    4.55840    4.12290    -999.25    -999.25    -999.25
 1550.00000  -29.79200   72.40400    5.06610    4.62840    4.33160    -999.25    -999.25    -999.25
 1600.00000  -43.76250   65.54450   16.59290   25.58110   20.50750    -999.25    -999.25    -999.25
 1650.00000  -50.33520   59.25740   26.23290   57.66170   32.14950    -999.25    -999.25    -999.25
 1700.00000  -49.30720   31.93070   39.27770   64.46620   44.92900    -999.25    -999.25    -999.25
 1750.00000  -21.68260   73.66060    7.39470    6.33180    5.88590    -999.25    -999.25    -999.25
 1800.00000  -39.11960   43.57140   17.67870   26.65360   18.47920    -999.25    -999.25    -999.25
 1850.00000  -43.15620   26.28710   32.77140   72.04620   36.40860    -999.25    -999.25    -999.25
 1900.00000  -19.70300   93.20730    8.82900   10.40800    7.51210    -999.25    -999.25    -999.25
 1950.00000  -37.32670   53.84960   17.60070   34.11480   19.86830    -999.25    -999.25    -999.25
 2000.00000  -29.56230   66.46000   13.75600   13.14230   11.67170    -999.25    -999.25    -999.25
 2050.00000  -29.45550   52.46290   16.36120   23.73370   17.35770    -999.25    -999.25    -999.25
 2100.00000  -29.25740   59.55450   15.31090   22.89180   17.78320    -999.25    -999.25    -999.25
 2150.00000  -18.01570   82.83540    4.42250    4.37000    4.05150   10.52290    -999.25    -999.25
 2200.00000  -22.87070   53.91090    6.47140    6.84940    6.26860    8.71370    -999.25    -999.25
 2250.00000  -28.21430   65.19800   10.97500   14.58870   12.83170    8.33600    -999.25    -999.25
 2300.00000  -28.86740   69.65350   12.55030   18.59150   14.07120    8.70950    -999.25    -999.25
 2350.00000  -32.05110   77.97030    6.68820    6.58440    5.93400    8.74570    -999.25    -999.25
 2400.00000  -22.26530   91.35840    2.81000    2.52120    2.43080   11.42070    -999.25    -999.25
 2450.00000  -26.59490   83.64910    3.01640    2.73430    2.79150    9.95550    -999.25    -999.25
 2500.00000  -32.65640   82.12870    3.34210    3.03150    3.23700    9.01190    -999.25    -999.25
 2550.00000  -33.37900   77.64620    3.81370    3.13560    3.36680    9.40950    -999.25    -999.25
 2600.00000  -24.39090   82.99510    3.05320    2.82510    2.77730   10.60240    -999.25    -999.25
 2650.00000  -21.68610   80.64540    2.15890    2.02780    1.84360   12.92560    -999.25    -999.25
 2700.00000  -22.87850   78.86140    2.09820    2.06500    1.93480    -999.25    -999.25    -999.25
 2750.00000  -23.47720   83.60390    1.95040    1.79660    1.67010    -999.25    -999.25    -999.25
 2800.00000  -22.90770  105.36580    1.69900    1.51520    1.40950    -999.25    0.16350   69.16030
 2850.00000  -22.78360   96.98020    1.68750    1.55610    1.46000    -999.25    0.17600   62.38930
 2900.00000  -21.88120  119.55450    2.32190    2.16190    2.08440    -999.25    0.13080   67.98320
 2950.00000  -22.47560   96.16180    1.96660    1.75500    1.66150    -999.25    0.16950   67.98400
 3000.00000  -23.26130   96.34160    1.73450    1.58040    1.49620    -999.25    0.16650   61.39720
 3050.00000  -18.49490   86.88120    1.25350    1.08050    1.04250    -999.25    0.17150   65.38920
 3100.00000  -18.99520   83.11260    1.16420    0.81570    0.78940   11.51770    0.21000   53.21360
 3150.00000  -24.45550   69.95050    1.68360    1.52430    1.44970   12.00600    0.22080   41.73700
 3200.00000  -22.54700   89.02290    1.62810    1.42100    1.36420   11.31490    0.19070   48.59360
 3250.00000  -20.29700   65.66470    1.57930    1.11060    1.06080   11.76690    0.20850   52.81440
 3300.00000  -22.57500   71.20570    1.88050    1.98410    1.88190    9.63550    0.14000   51.81640
 3350.00000  -23.46610   65.49500    2.03530    1.91510    1.84220    9.54820    0.20540   33.05390
 3400.00000  -18.19530   88.31060    1.40720    1.06740    1.02990    9.11750    0.22230   49.91920
 3450.00000  -21.58370   74.10890    1.55250    1.27000    1.23570   10.94980    0.21310   47.62470
 3500.00000  -21.92840   82.13350    1.37870    1.11390    1.08380   12.23790    0.22080   48.22350
 3550.00000  -22.16180   73.21780    1.45640    1.23210    1.19880    -999.25    0.23150   53.81240
 3600.00000  -21.78980   75.84870    1.36940    1.09010    1.06070    -999.25    0.24850   47.87500
 3650.00000  -22.37010   81.08910    1.45970    1.17300    1.14540    -999.25    0.23150   51.01800
 3700.00000  -21.28710   84.57250    1.51050    1.45460    1.39360    -999.25    0.17700   58.47820
 3750.00000  -16.32980   72.62380    1.27930    1.14870    1.11770    -999.25    0.17300   48.42310
 3800.00000  -20.65840   77.97030    1.82970    1.75350    1.70300    -999.25    0.12580   40.63870
 3850.00000  -18.84130   85.69310    1.44090    1.33260    1.29660    -999.25    0.17800   73.57290
 3900.00000  -17.26370   89.60850    1.24620    1.09860    1.05090    -999.25    0.18530   72.98750
 3950.00000  -17.89990   84.76040    1.26420    1.17260    1.12600    -999.25    0.17950   61.54070
 4000.00000  -19.30640   84.66180    1.31170    1.02570    0.99540    -999.25    0.17800   63.99200
 4050.00000  -17.98550   77.67330    1.61320    1.50060    1.47540    -999.25    0.19400   54.81040
 4100.00000  -17.19780  105.29700    1.50370    1.34150    1.38690    -999.25    0.23000   52.01600
 4150.00000  -20.09900   75.94800    1.59820    1.47480    1.43760    -999.25    0.25180   47.83590
 4200.00000  -21.08910   77.07920    1.45670    1.23050    1.20980    -999.25    0.30530   67.78440
 4250.00000  -21.93820   96.08910    1.53430    1.35280    1.33210    -999.25    0.26610   63.59280
 4300.00000  -20.89110   69.64880    1.84650    1.71390    1.67970    -999.25    0.23540   60.00000
 4350.00000  -19.13470   83.70680    1.87810    1.75140    1.68540    -999.25    0.20920   77.96410
 4400.00000  -19.94850   77.37620    1.97210    1.75470    1.71640    -999.25    0.20080   62.19560
 4450.00000  -20.09900   79.75250    1.55360    1.29270    1.27070    -999.25    0.27860   51.41720
 4500.00000  -20.29700   70.48520    1.39270    1.12790    1.10750    -999.25    0.34790   58.80240
 4550.00000  -21.08910   48.83370    2.48030    2.32500    2.43240    -999.25    0.08430   35.34930
 4600.00000  -20.94640   34.60400    2.87850    2.76420    2.87530    -999.25    0.05220   18.88220
 4650.00000  -15.86720   55.09900    2.56480    2.23960    2.31980    -999.25    0.06170   15.68860
 4700.00000  -17.12870   75.58100    2.18290    1.80990    1.78030    -999.25    0.10310   41.63670
 4750.00000  -20.29700   73.23560    2.11200    1.91000    1.86520    -999.25    0.17800   55.20960
 4800.00000  -16.93070   73.81190    1.82680    1.58110    1.62130    -999.25    0.19870   71.58830
 4850.00000  -18.31760   70.84160    2.20720    1.86140    1.89210    -999.25    0.13290   66.38720
 4900.00000  -18.19040   65.85870    1.71960    1.45550    1.46550    -999.25    0.24540   61.40510
 4950.00000  -20.09900   63.39770    1.82050    1.63990    1.63050    -999.25    0.30000   75.16970
