~Version ---------------------------------------------------
VERS. 2.0 : CWLS log ASCII Standard -VERSION 2.0
WRAP. YES : Multiple lines per depth step
~Well ------------------------------------------------------
STRT.FT                           300.0 : START DEPTH
STOP.FT                          7550.0 : STOP DEPTH
STEP.FT                        50.00000 : STEP LENGTH
NULL.                           -999.25 : NULL VALUE
COMP.         MACHII ROSS PETROLEUM CO. : COMPANY
WELL. TURNEY WINN EXPLORATION CO INC #3 : WELL
FLD .                       LOS CUATROS : FIELD
LOC .                                   : LOCATION
CNTY.                          MAVERICK : COUNTY
STAT.                             TEXAS : STATE
CTRY.          UNITED STATES OF AMERICA : COUNTRY
SRVC.                      Schlumberger : SERVICE COMPANY
DATE.                       20-Oct-1978 : LOGDATE
API .                    42323312460000 : API NUMBER
UWI .                    42323312460000 : UNIQUE WELL ID
SLAT.WGS84                28.8188606342 : SURFACE LATITUDE
SLON.WGS84              -100.5070554984 : SURFACE LONGITUDE
~Curve Information -----------------------------------------
DEPT  .FT    : DEPTH
ASNED .OHMM  : AMPLIFIED SHORT NORMAL 16 IN.
CALDED.IN    : CALIPER FROM DENSITY LOG (ADJ TO RES.)
CALSED.IN    : CALIPER FROM SONIC LOG (ADJ TO RES.)
CALWS .IN    : CALIPER (CALSED/CALDED @ 6098)
CILDED.MMHO  : CONDUCTIVITY FROM LOG
CONDWS.MMHO  : CONDUCTIVITY (1000/DRESWS)
CORRED.G/C3  : DENSITY CORRECTION (ADJ TO RES.)
DCORWS.G/C3  : DENSITY CORRECTION (CORRED)
DENWS .G/C3  : BULK DENSITY  (RHOBED LS)
DPHIED.V/V   : DENSITY POROSITY  (CREATED FROM RHOBED LS)
DPOWS .V/V   : DENSITY POROSITY (M=2.71 F=1 DPHIED)
DRESWS.OHMM  : DEEP RESISTIVITY (IF ILDED<1, THEN 1000/CILDED)
DTED  .US/F  : DELTA TIME  (ADJ TO RES.)
DTWS  .US/F  : DELTA TIME  (DTED)
GRRED .GAPI  : GAMMA RAY FROM RESISTIVITY LOG
GRWS  .GAPI  : GAMMA RAY (GRRED)
ILDED .OHMM  : DEEP INDUCTION RESISTIVITY
LL8ED .OHMM  : LATEROLOG-8 RESISTIVITY
NPHIED.V/V   : NEUTRON POROSITY (ADJ TO RES.)
NPOWS .V/V   : NEUTRON POROSITY LIMESTONE (NPHIED)
RHOBED.G/C3  : BULK DENSITY (ADJ TO RES.)
SPRED .MV    : SPONTANEOUS POTENTIAL FROM RESISTIVITY
SPWS  .MV    : SPONTANEOUS POTENTIAL BASELINE 0 MV (SPRED)
SRESWS.OHMM  : SHALLOW RESISTIVITY (ASNED/LL8ED @ 6093)
~Params ----------------------------------------------------
EKB .F                 902.9 : Kelly bushing
EGL .F                 890.0 : Ground level
EDF .F                 901.9 : Drilling floor
TD  .F                7605.0 : Total depth
CLNT.                A2DTECH : Client Code
PD  .                     GL : Permanent Datum
DD  .F                  7605 : Depth driller
DL  .F                  7600 : Depth logger
BLI .F                  7594 : Bottom log interval
TLI .F                  6825 : Top log interval
CS1 .IN                    7 : Casing size
CBL1.F                  6825 : Casing logger 1
BS1 .IN                6.125 : Bit size
BSD1.F                  7605 : Depth drilled with bit1
DFT .              LIGNOSULF : Type fluid in hole
DFD .                   16.8 : Density
DFPH.                   10.2 : pH
MSS .               FLOWLINE : Source of sample
TLAB.HRS                2130 : Time logger at bottom
ORIG.          1" 2.5" PRINT : Origin of data
UWI .         42323312460000 : Unique Well ID
DICO. A2D TECHNOLOGIES, INC. : Digitizing Company
DATE.            26-JUL-1978 : Date Logged [DD-MMM-YYYY]
SL  .  2400' FWL & 4600' FSL : Surface Location
EPD .F                   890 : Elevation Permanent Datum
LMF .                     KB : Log Measured From
DMF .                     KB : Drilling Measured From
DAPD.F                  12.9 : Feet Above Permanent Datum
CBD1.             7" @ 6830' : Casing driller 1
~Other -----------------------------------------------------
~ASCII -----------------------------------------------------
# ...
 4650.00000   23.94580    -999.25   11.83580   11.83580   69.31930   62.43800    -999.25    -999.25    -999.25    -999.25    -999.25   16.01590   53.86020   53.86020    -999.25    -999.25   16.01590    -999.25    -999.25    -999.25    -999.25  -31.06420   -9.67450   23.94580
 4700.00000   21.38550    -999.25   11.91040   11.91040   66.57150   65.87960    -999.25    -999.25    -999.25    -999.25    -999.25   15.17920   58.03280   58.03280   52.40960   52.40960   15.17920    -999.25    -999.25    -999.25    -999.25  -30.72840   -9.49060   21.38550
 4750.00000   22.03220    -999.25   11.91050   11.91050   76.57950   71.35670    -999.25    -999.25    -999.25    -999.25    -999.25   14.01410   61.18730   61.18730    -999.25    -999.25   14.01410    -999.25    -999.25    -999.25    -999.25  -35.17620  -14.09030   22.03220
 4800.00000   20.78080    -999.25   11.97010   11.97010   44.39530   54.56490    -999.25    -999.25    -999.25    -999.25    -999.25   18.32680   50.28320   50.28320    -999.25    -999.25   18.32680    -999.25    -999.25    -999.25    -999.25  -30.38170   -9.44770   20.78080
 4850.00000   23.64850    -999.25   12.00120   12.00120   54.80920   51.23080    -999.25    -999.25    -999.25    -999.25    -999.25   19.51950   55.64230   55.64230    -999.25    -999.25   19.51950    -999.25    -999.25    -999.25    -999.25  -36.67010  -15.88800   23.64850
 4900.00000   22.22220    -999.25   11.97100   11.97100   47.05510   69.37510    -999.25    -999.25    -999.25    -999.25    -999.25   14.41440   52.95930   52.95930   60.54220   60.54220   14.41440    -999.25    -999.25    -999.25    -999.25  -31.59300  -10.96270   22.22220
 4950.00000   20.48190    -999.25   11.97100   11.97100   71.82180   75.96990    -999.25    -999.25    -999.25    -999.25    -999.25   13.16310   57.87630   57.87630   50.50200   50.50200   13.16310    -999.25    -999.25    -999.25    -999.25  -32.49640  -12.01800   20.48190
 5000.00000   23.67000    -999.25   11.94210   11.94210   70.53610   62.00670    -999.25    -999.25    -999.25    -999.25    -999.25   16.12730   57.71800   57.71800    -999.25    -999.25   16.12730    -999.25    -999.25    -999.25    -999.25  -36.57330  -16.24680   23.67000
 5050.00000   21.32520    -999.25   12.30090   12.30090   64.56460   66.60010    -999.25    -999.25    -999.25    -999.25    -999.25   15.01500   57.94780   57.94780   66.52610   66.52610   15.01500    -999.25    -999.25    -999.25    -999.25  -29.82690   -9.65230   21.32520
 5100.00000   18.97590    -999.25   12.30030   12.30030   57.05710   82.52660    -999.25    -999.25    -999.25    -999.25    -999.25   12.11730   57.13180   57.13180   62.10280   62.10280   12.11730    -999.25    -999.25    -999.25    -999.25  -24.20800   -4.18530   18.97590
 5150.00000   26.65640    -999.25   12.31580   12.31580   58.55860   59.46430    -999.25    -999.25    -999.25    -999.25    -999.25   16.81680   53.76970   53.76970   63.41760   63.41760   16.81680    -999.25    -999.25    -999.25    -999.25  -38.58380  -18.41290   26.65640
 5200.00000   25.25480    -999.25   12.00040   12.00040   61.56160   54.59020    -999.25    -999.25    -999.25    -999.25    -999.25   18.31830   54.29170   54.29170   59.81300   59.81300   18.31830    -999.25    -999.25    -999.25    -999.25  -34.29130  -13.67210   25.25480
 5250.00000   20.63250    -999.25   12.12030   12.12030   78.07810   64.66130    -999.25    -999.25    -999.25    -999.25    -999.25   15.46520   61.40280   61.40280   69.57830   69.57830   15.46520    -999.25    -999.25    -999.25    -999.25  -26.89740   -5.83000   20.63250
 5300.00000   21.08430    -999.25   12.29990   12.29990   72.07210   76.38190    -999.25    -999.25    -999.25    -999.25    -999.25   13.09210   57.72550   57.72550   71.60750   71.60750   13.09210    -999.25    -999.25    -999.25    -999.25  -28.25770   -6.74200   21.08430
 5350.00000   32.07860    -999.25   12.25510   12.25510   61.06060   37.20710    -999.25    -999.25    -999.25    -999.25    -999.25   26.87660   52.86030   52.86030   62.49970   62.49970   26.87660    -999.25    -999.25    -999.25    -999.25  -36.04470  -14.08080   32.07860
 5400.00000   31.92770    -999.25   12.27010   12.27010   47.39420   38.72100    -999.25    -999.25    -999.25    -999.25    -999.25   25.82580   55.34190   55.34190   51.63210   51.63210   25.82580    -999.25    -999.25    -999.25    -999.25  -36.94550  -15.90670   31.92770
 5450.00000   32.13860    -999.25   12.00060   12.00060   38.28830   39.09960    -999.25    -999.25    -999.25    -999.25    -999.25   25.57570   54.36620   54.36620   43.87580   43.87580   25.57570    -999.25    -999.25    -999.25    -999.25  -39.82420  -26.92060   32.13860
 5500.00000   20.08450    -999.25   11.97070   11.97070   33.93500   92.89110    -999.25    -999.25    -999.25    -999.25    -999.25   10.76530   53.35320   53.35320   72.38910   72.38910   10.76530    -999.25    -999.25    -999.25    -999.25  -20.03330  -15.26480   20.08450
 5550.00000   27.55940    -999.25   12.00120   12.00120   38.78880   40.36360    -999.25    -999.25    -999.25    -999.25    -999.25   24.77480   52.06860   52.06860   54.51810   54.51810   24.77480    -999.25    -999.25    -999.25    -999.25  -34.91480  -29.48130   27.55940
 5600.00000   26.50600    -999.25   12.23970   12.23970   42.23560   58.76480    -999.25    -999.25    -999.25    -999.25    -999.25   17.01700   54.23270   54.23270    -999.25    -999.25   17.01700    -999.25    -999.25    -999.25    -999.25  -31.33020  -19.60520   26.50600
 5650.00000   21.68670    -999.25   11.62770   11.62770   66.81680   69.37800    -999.25    -999.25    -999.25    -999.25    -999.25   14.41380   59.87280   59.87280   74.75010   74.75010   14.41380    -999.25    -999.25    -999.25    -999.25  -24.06070   -6.04420   21.68670
 5700.00000   42.77110    -999.25   12.27190   12.27190   38.78270   39.05880    -999.25    -999.25    -999.25    -999.25    -999.25   25.60240   50.78200   50.78200   56.02410   56.02410   25.60240    -999.25    -999.25    -999.25    -999.25  -54.20010  -32.51920   42.77110
 5750.00000   19.96990    -999.25   11.56860   11.56860   88.33920   89.72960    -999.25    -999.25    -999.25    -999.25    -999.25   11.14460   55.96560   55.96560   64.30720   64.30720   11.14460    -999.25    -999.25    -999.25    -999.25  -45.88930  -21.12070   19.96990
 5800.00000   14.75900    -999.25   10.53730   10.53730  130.63060   85.13610    -999.25    -999.25    -999.25    -999.25    -999.25   11.74590   59.82120   59.82120   27.59060   27.59060   11.74590    -999.25    -999.25    -999.25    -999.25  -49.80090  -21.94450   14.75900
 5850.00000   16.95140    -999.25   10.50750   10.50750   82.08210   88.92760    -999.25    -999.25    -999.25    -999.25    -999.25   11.24510   57.96270   57.96270   30.02010   30.02010   11.24510    -999.25    -999.25    -999.25    -999.25  -53.81530  -22.87120   16.95140
 5900.00000   13.96120    -999.25   10.71730   10.71730  126.12610  125.28340    -999.25    -999.25    -999.25    -999.25    -999.25    7.98190   62.31370   62.31370   24.39760   24.39760    7.98190    -999.25    -999.25    -999.25    -999.25  -52.58010  -18.54830   13.96120
 5950.00000   17.71770    -999.25   10.80660   10.80660   60.05880   62.05590    -999.25    -999.25    -999.25    -999.25    -999.25   16.11450   54.50920   54.50920    -999.25    -999.25   16.11450    -999.25    -999.25    -999.25    -999.25  -45.12380   -8.00420   17.71770
 6000.00000    -999.25    -999.25    -999.25    -999.25    -999.25    -999.25    -999.25    -999.25    -999.25    -999.25    -999.25    -999.25    -999.25    -999.25    -999.25    -999.25    -999.25    -999.25    -999.25    -999.25    -999.25    -999.25    -999.25    -999.25
 6050.00000    -999.25    -999.25    -999.25    -999.25    -999.25    -999.25    -999.25    -999.25    -999.25    -999.25    -999.25    -999.25    -999.25    -999.25    -999.25    -999.25    -999.25    -999.25    -999.25    -999.25    -999.25    -999.25    -999.25    -999.25
