~Version ---------------------------------------------------
VERS. 2.0 : CWLS log ASCII Standard -VERSION 2.0
WRAP. YES : MULTIPLE LINES PER DEPTH STEP
~Well ------------------------------------------------------
STRT.FT                      500.0 : START DEPTH
STOP.FT                     8050.0 : STOP DEPTH
STEP.FT                   50.00000 : STEP LENGTH
NULL.                      -999.25 : NULL VALUE
COMP. ADDINGTON-STAMPER EXPL. INC. : COMPANY
WELL.                   MANFORD #1 : WELL
FLD .                   SMILEY, SE : FIELD
LOC .                              : LOCATION
CNTY.                     GONZALES : COUNTY
STAT.                        TEXAS : STATE
CTRY.     UNITED STATES OF AMERICA : COUNTRY
SRVC.                     Gearhart : SERVICE COMPANY
DATE.                  14-May-1982 : LOGDATE
API .               42177313020000 : API NUMBER
UWI .               42177313020000 : UNIQUE WELL ID
SLAT.WGS84           29.2601634087 : SURFACE LATITUDE
SLON.WGS84           -97.649653003 : SURFACE LONGITUDE
~Curve Information -----------------------------------------
DEPT   .FT                         : DEPTH FEET
CALWS  .IN                         : CALIPER [CALDED/CALXRED@3000,(CALXRED+CALYED)/2@7290]
CALXDED.IN                         : CALIPER X FROM DENSITY LOG
CALXRED.IN                         : CALIPER X FROM RES. LOG
CALYED .IN                         : CALIPER Y FROM DENSITY LOG [DEPTH SHIFTED TO RES.]
CDLLSED.V/V                        : DENSITY POROSITY LIMESTONE FROM DENSITY LOG [DEPTH SHIFTED TO RES.]
CDLSSED.V/V                        : DENSITY POROSITY SANDSTONE FROM DENSITY LOG
CNSLSED.V/V                        : NEUTRON POROSITY LIMESTONE FROM DENSITY LOG [DEPTH SHIFTED TO RES.]
CONDWS .MMHO                       : CONDUCTIVITY [1000/DRESWS]
DCORWS .G/C3                       : DENSITY CORRECTION [DRHOED]
DENWS  .G/C3                       : BULK DENSITY [M=2.65 F=1.0 TO 2500 FEET, THEN M=2.71, F=1 FROM 7000 FEET TO TD] [CALCULATED FROM CDLSSED AND CDLLSED]
DPOWS  .V/V                        : DENSITY POROSITY [M=2.71 F=1.0] [CALCULATED FROM DENWS]
DRESWS .OHMM                       : DEEP RESISTIVITY [RILDED]
DRHOED .G/C3                       : DENSITY CORRECTION FROM DENSITY LOG [DEPTH SHIFTED TO RES. IN DEEP SECTION]
DTED   .US/F                       : DELTA TIME FROM SONIC LOG
DTWS   .US/F                       : DELTA TIME [DTED]
GRDED  .GAPI                       : GAMMA RAY FROM DENSITY LOG [DEPTH SHIFTED TO RES. IN DEEP SECTION]
GRRED  .GAPI                       : GAMMA RAY FROM RESISTIVITY LOG
GRWS   .GAPI :   GAMMA RAY [SPLICE : GRDED/GRRED@3500, GRDED@7916]
MRESWS .OHMM                       : MEDIUM RESISTIVITY [RILMED]
NPOWS  .V/V                        : NEUTRON POROSITY LIMESTONE [CNSLSED]
RHOBED .G/C3                       : BULK DENSITY FROM DENSITY LOG [DEPTH SHIFTED TO RES. IN DEEP SECTION]
RILDED .OHMM                       : INDUCTION LOG DEEP RESISTIVITY
RILMED .OHMM                       : INDUCTION LOG MEDIUM RESISTIVITY
RLLED  .OHMM                       : LATEROLOG RESISTIVITY
SPRED  .MV                         : SPONTANEOUS POTENTIAL FROM RESISTIVITY LOG
SPWS   .MV                         : SPONTANEOUS POTENTIAL [BASELINE 0 MV] [SPRED]
SRESWS .OHMM                       : SHALLOW RESISTIVITY [SFLUED]
TENDED .LBF                        : TENSION FROM DENSITY LOG
~Params ----------------------------------------------------
PD  .                     GL : PERMANENT DATUM
EPD .FT                  261 : ELEVATION PERMANENT DATUM
LMF .                     KB : LOG MEASURED FROM
DAPD.FT                   11 : FEET ABOVE PERMANENT DATUM
DMF .                     KB : DRILLING MEASURED FROM
EKB .FT                  272 : KELLY BUSHING
EDF .FT                  271 : DRILLING FLOOR
EGL .FT                  261 : GROUND LEVEL
DATE.               05/14/82 : RUN DATE
RUN .                      1 : RUN NUMBER
DD  .FT                 8140 : DEPTH DRILLER
DL  .FT                 8090 : DEPTH LOGGER
BLI .FT                 8089 : BOTTOM LOG INTERVAL
CS  .IN                9.625 : CASING SIZE
CBD .FT                 8421 : CASING BOTTOM DRILLER
CBL .FT                 8428 : CASING BOTTOM LOGGER
BS  .IN                  8.5 : BIT SIZE
BSD .FT                 8140 : BIT SIZE AT DEPTH
DFT .          NON DISPERSED : DRILLING FLUID TYPE
DFD .                    9.2 : DRILLING FLUID DENSITY
DFV .                     50 : DRILLING FLUID VISCOSITY
DFPH.                   1.05 : DRILLING FLUID PH
DFL .                      6 : DRILLING FLUID LOSS
MSS .               FLOWLINE : MUD SAMPLE SOURCE
MST .DEGF                 75 : MUD SAMPLE TEMPERATURE
MFST.DEGF                 75 : MUD FILTRATE SAMPLE TEMPERATURE
RMC .OHMM                3.7 : RESISTIVITY MUD CAKE
MCST.DEGF                 75 : MUD CAKE SAMPLE TEMPERATURE
MFSS.                      M : MUD FILTRATE SAMPLE SOURCE
MCSS.                      M : MUD CAKE SAMPLE SOURCE
TCS .HRS                1210 : TIME CIRCULATED STOPPED
LUL .                  BRYAN : LOGGING UNIT LOCATION
CLNT.                A2DTECH : CLIENT CODE
ORIG.               5" PRINT : ORIGIN OF DATA
UWI .         42177313020000 : UNIQUE WELL ID
DICO. A2D Technologies, Inc. : DIGITIZING COMPANY
~Other -----------------------------------------------------
~ASCII -----------------------------------------------------
# ...
 4250.00000    9.14770    -999.25    9.14770    -999.25    -999.25    -999.25    -999.25  501.10240    -999.25    -999.25    -999.25    1.99560    -999.25  111.63400  111.63400    -999.25   75.09870   75.09870    1.89840    -999.25    -999.25    1.99560    1.89840    2.33960  -33.15100   -5.98640    2.33960    -999.25
 4300.00000    8.50350    -999.25    8.50350    -999.25    -999.25    -999.25    -999.25  203.86940    -999.25    -999.25    -999.25    4.90510    -999.25   96.54730   96.54730    -999.25   50.05150   50.05150    5.55990    -999.25    -999.25    4.90510    5.55990    6.16210  -50.98580  -23.82120    6.16210    -999.25
 4350.00000    9.37800    -999.25    9.37800    -999.25    -999.25    -999.25    -999.25  675.94970    -999.25    -999.25    -999.25    1.47940    -999.25  108.43340  108.43340    -999.25   74.89510   74.89510    1.39580    -999.25    -999.25    1.47940    1.39580    2.04790  -33.17690   -6.01230    2.04790    -999.25
 4400.00000    9.38880    -999.25    9.38880    -999.25    -999.25    -999.25    -999.25  284.40600    -999.25    -999.25    -999.25    3.51610    -999.25   93.51720   93.51720    -999.25   53.09610   53.09610    4.37780    -999.25    -999.25    3.51610    4.37780    5.78690  -49.70120  -22.53660    5.78690    -999.25
 4450.00000    8.43540    -999.25    8.43540    -999.25    -999.25    -999.25    -999.25  155.99160    -999.25    -999.25    -999.25    6.41060    -999.25   96.28550   96.28550    -999.25   37.55060   37.55060    7.01180    -999.25    -999.25    6.41060    7.01180    7.97300  -62.18340  -35.01880    7.97300    -999.25
 4500.00000    9.05650    -999.25    9.05650    -999.25    -999.25    -999.25    -999.25  207.51190    -999.25    -999.25    -999.25    4.81900    -999.25   97.78770   97.78770    -999.25   62.89430   62.89430    3.57850    -999.25    -999.25    4.81900    3.57850    3.64130  -38.83060  -11.66600    3.64130    -999.25
 4550.00000    8.53080    -999.25    8.53080    -999.25    -999.25    -999.25    -999.25  167.36680    -999.25    -999.25    -999.25    5.97490    -999.25   93.97400   93.97400    -999.25   43.72630   43.72630    6.83960    -999.25    -999.25    5.97490    6.83960    8.06960  -60.36330  -33.19870    8.06960    -999.25
 4600.00000    8.69690    -999.25    8.69690    -999.25    -999.25    -999.25    -999.25  170.49140    -999.25    -999.25    -999.25    5.86540    -999.25   90.83200   90.83200    -999.25   43.59020   43.59020    6.56380    -999.25    -999.25    5.86540    6.56380    7.76330  -61.22170  -34.05710    7.76330    -999.25
 4650.00000    9.08000    -999.25    9.08000    -999.25    -999.25    -999.25    -999.25  152.55060    -999.25    -999.25    -999.25    6.55520    -999.25   91.85030   91.85030    -999.25   40.17180   40.17180    6.73650    -999.25    -999.25    6.55520    6.73650    6.91240  -55.76990  -28.60530    6.91240    -999.25
 4700.00000    8.76030    -999.25    8.76030    -999.25    -999.25    -999.25    -999.25  465.24610    -999.25    -999.25    -999.25    2.14940    -999.25   96.84190   96.84190    -999.25   74.18870   74.18870    2.18800    -999.25    -999.25    2.14940    2.18800    2.22870  -31.98920   -4.82460    2.22870    -999.25
 4750.00000    7.89250    -999.25    7.89250    -999.25    -999.25    -999.25    -999.25  112.38730    -999.25    -999.25    -999.25    8.89780    -999.25   86.23300   86.23300    -999.25   45.76870   45.76870    7.94490    -999.25    -999.25    8.89780    7.94490    7.63870  -56.36340  -29.19880    7.63870    -999.25
 4800.00000    8.15340    -999.25    8.15340    -999.25    -999.25    -999.25    -999.25  107.06640    -999.25    -999.25    -999.25    9.34000    -999.25   75.28250   75.28250    -999.25   40.65020   40.65020   11.26180    -999.25    -999.25    9.34000   11.26180   12.86540  -53.92130  -26.75670   12.86540    -999.25
 4850.00000    8.93810    -999.25    8.93810    -999.25    -999.25    -999.25    -999.25  195.03060    -999.25    -999.25    -999.25    5.12740    -999.25   92.63830   92.63830    -999.25   67.77510   67.77510    5.48330    -999.25    -999.25    5.12740    5.48330    5.75610  -48.72890  -21.56430    5.75610    -999.25
 4900.00000    8.33590    -999.25    8.33590    -999.25    -999.25    -999.25    -999.25  175.86130    -999.25    -999.25    -999.25    5.68630    -999.25   85.27600   85.27600    -999.25   97.25320   97.25320    6.46010    -999.25    -999.25    5.68630    6.46010    7.36340  -57.89200  -30.72740    7.36340    -999.25
 4950.00000    9.24440    -999.25    9.24440    -999.25    -999.25    -999.25    -999.25  593.85950    -999.25    -999.25    -999.25    1.68390    -999.25  103.95850  103.95850    -999.25   86.65890   86.65890    1.75150    -999.25    -999.25    1.68390    1.75150    1.96180  -28.36800   -1.20340    1.96180    -999.25
 5000.00000    8.33050    -999.25    8.33050    -999.25    -999.25    -999.25    -999.25  348.74800    -999.25    -999.25    -999.25    2.86740    -999.25   93.54020   93.54020    -999.25   72.84740   72.84740    3.02590    -999.25    -999.25    2.86740    3.02590    3.27320  -33.49440   -6.32980    3.27320    -999.25
 5050.00000    8.73640    -999.25    8.73640    -999.25    -999.25    -999.25    -999.25  506.07290    -999.25    -999.25    -999.25    1.97600    -999.25   97.19150   97.19150    -999.25   91.62920   91.62920    2.01600    -999.25    -999.25    1.97600    2.01600    2.06270  -28.97740   -1.81280    2.06270    -999.25
 5100.00000    8.96770    -999.25    8.96770    -999.25    -999.25    -999.25    -999.25  550.41830    -999.25    -999.25    -999.25    1.81680    -999.25  101.08980  101.08980    -999.25   93.34990   93.34990    1.90970    -999.25    -999.25    1.81680    1.90970    1.95980  -32.98750   -6.12330    1.95980    -999.25
 5150.00000    8.33850    -999.25    8.33850    -999.25    -999.25    -999.25    -999.25  446.88740    -999.25    -999.25    -999.25    2.23770    -999.25   94.50660   94.50660    -999.25   86.93310   86.93310    2.34830    -999.25    -999.25    2.23770    2.34830    2.53290  -32.57320   -6.25510    2.53290    -999.25
 5200.00000    8.40820    -999.25    8.40820    -999.25    -999.25    -999.25    -999.25  350.90180    -999.25    -999.25    -999.25    2.84980    -999.25   88.49150   88.49150    -999.25   76.92150   76.92150    3.34340    -999.25    -999.25    2.84980    3.34340    4.57980  -56.13910  -30.36710    4.57980    -999.25
 5250.00000    9.39380    -999.25    9.39380    -999.25    -999.25    -999.25    -999.25  446.60800    -999.25    -999.25    -999.25    2.23910    -999.25   97.64770   97.64770    -999.25   91.26860   91.26860    2.36610    -999.25    -999.25    2.23910    2.36610    2.48960  -31.52330   -6.29750    2.48960    -999.25
 5300.00000    9.76240    -999.25    9.76240    -999.25    -999.25    -999.25    -999.25  447.78790    -999.25    -999.25    -999.25    2.23320    -999.25   94.12670   94.12670    -999.25   78.19720   78.19720    2.32430    -999.25    -999.25    2.23320    2.32430    2.38330  -33.81340   -9.13370    2.38330    -999.25
 5350.00000    9.79830    -999.25    9.79830    -999.25    -999.25    -999.25    -999.25  447.66770    -999.25    -999.25    -999.25    2.23380    -999.25   90.74690   90.74690    -999.25   74.76550   74.76550    2.31170    -999.25    -999.25    2.23380    2.31170    2.39940  -30.73510   -6.60160    2.39940    -999.25
 5400.00000    9.82920    -999.25    9.82920    -999.25    -999.25    -999.25    -999.25  498.70340    -999.25    -999.25    -999.25    2.00520    -999.25   93.20940   93.20940    -999.25   81.33470   81.33470    2.05840    -999.25    -999.25    2.00520    2.05840    2.08430  -29.94680   -6.35940    2.08430    -999.25
 5450.00000    9.83110    -999.25    9.83110    -999.25    -999.25    -999.25    -999.25  506.38040    -999.25    -999.25    -999.25    1.97480    -999.25   90.76530   90.76530    -999.25   85.76080   85.76080    2.05270    -999.25    -999.25    1.97480    2.05270    2.12690  -28.60270   -5.56140    2.12690    -999.25
