~Version ---------------------------------------------------
VERS. 2.0 : CWLS log ASCII Standard -VERSION 2.0
WRAP. YES : MULTIPLE LINES PER DEPTH STEP
~Well ------------------------------------------------------
STRT.FT                        2500.0 : START DEPTH
STOP.FT                       18000.0 : STOP DEPTH
STEP.FT                      50.00000 : STEP LENGTH
NULL.                         -999.25 : NULL VALUE
COMP. UNION PACIFIC RESOURCES COMPANY : COMPANY
WELL.       UPR T-BAR-X KING COBRA #1 : WELL
FLD .                         WILDCAT : FIELD
LOC .                                 : LOCATION
CNTY.                            LEON : COUNTY
STAT.                           TEXAS : STATE
CTRY.        UNITED STATES OF AMERICA : COUNTRY
SRVC.                    Schlumberger : SERVICE COMPANY
DATE.                     05-Nov-1997 : LOGDATE
API .                  42289312660000 : API NUMBER
UWI .                  42289312660000 : UNIQUE WELL ID
SLAT.WGS84              31.2008912115 : SURFACE LATITUDE
SLON.WGS84             -96.2874133979 : SURFACE LONGITUDE
~Curve Information -----------------------------------------
DEPT    .FT    : DEPTH FEET
AT10ED  .OHMM  : 10 INCH RESISTIVITY TWO FOOT RESOLUTION FROM AIT LOG
AT20ED  .OHMM  : 20 INCH RESISTIVITY TWO FOOT RESOLUTION FROM AIT LOG
AT30ED  .OHMM  : 30 INCH RESISTIVITY TWO FOOT RESOLUTION FROM AIT LOG
AT60ED  .OHMM  : 60 INCH RESISTIVITY TWO FOOT RESOLUTION FROM AIT LOG
AT90ED  .OHMM  : 90 INCH RESISTIVITY TWO FOOT RESOLUTION FROM AIT LOG
CALDED  .IN    : CALIPER FROM DENSITY LOG [DEP ADJ TO GRRED]
CALRED  .IN    : CALIPER FROM RESISTIVITY LOG
CALWS   .IN    : CALIPER [2484 CALICAL 15888 CALRED]
CGRDED  .GAPI  : GAMMA RAY FROM DENSITY LOG [DEP ADJ TO GRRED]
CONDWS  .MMHO  : CONDUCTIVITY [1000/DRESWS]
DCALED  .IN    : DIFFERENTIAL CALIPER FROM DENSITY LOG
DCORWS  .G/C3  : DENSITY CORRECTION [2484 DRHOED 9946 DRHED 15888.5 DRHOED]
DENWS   .G/C3  : BULK DENSITY [M=2.71 F=1.0] [CALCULATED FROM DPOWS]
DPHILSED.V/V   : DENSITY POROSITY [M=2.71 F=1.0] FROM DENSITY LOG [DEP ADJ TO GRRED]
DPOLSED .V/V   : DENSITY POROSITY HIGH RESOLUTION [M=2.71 F=1.0] FROM DENSITY LOG
DPOWS   .V/V   : DENSITY POROSITY [M=2.71 F=1.0] [2484 DPHILSED 9942 DPOLSED 15888 DPHILSED]
DRESWS  .OHMM  : DEEP RESISTIVITY [A2484 AT90ED 9948.5 IDPHED 15892 LLDED]
DRHED   .G/C3  : DENSITY CORRECTION
DRHOED  .G/C3  : DENSITY CORRECTION FROM DENSITY LOG [DEP ADJ TO GRRED]
DTCOED  .US/F  : DELTA TIME COMPRESSIONAL FROM SONIC LOG [DEP ADJ TO GRRED]
DTED    .US/F  : DELTA TIME FROM SONIC LOG
DTLED   .US/F  : DELTA TIME LONG SPACING FROM SONIC LOG
DTLFED  .US/F  : DELTA TIME LONG SPACING FAR DETECTOR FROM SONIC LOG
DTLNED  .US/F  : DELTA TIME LONG SPACING NEAR DETECTOR FROM SONIC LOG
DTSMED  .US/F  : DELTA TIME SHEAR WAVE FROM SONIC LOG [DEP ADJ TO GRRED]
DTSWS   .US/F  : DELTA TIME SHEAR [DTSMED]
DTWS    .US/F  : DELTA TIME [2484 DTLNED 10155.5 DTLFED 10297.5 DTLNED 10506.5 DTLFED 10628.5 DTLNED 10694 DTLFED 10859 DTLNED 11620 DTLFED 13285.5 DTLNED 14723 DTLFED 15057 DTLNED 15798 DTLFED 15889.5 DTED 15912.5 DTCOED]
GRRED   .GAPI  : GAMMA RAY FROM RESISTIVITY LOG
GRSED   .GAPI  : GAMMA RAY FROM SONIC LOG [DEP ADJ TO GRRED]
GRWS    .GAPI  : GAMMA RAY [2484 GRRED 9881.5 GRREDNRM 9946 GRRED 15728.5 GRSEDNRM 15878 CGRDED 16070 GRRED]
IDPHED  .OHMM  : INDUCTION DEEP PHASE RESISTIVITY
IMPHED  .OHMM  : INDUCTION MEDIUM PHASE RESISTIVITY
LLDED   .OHMM  : LATEROLOG DEEP RESISTIVITY
LLSED   .OHMM  : LATEROLOG SHALLOW RESISTIVITY
MRESWS  .OHMM  : MEDIUM RESISTIVITY [2484 AT30ED 9949.5 IMPHED]
NPHILSED.V/V   : NEUTRON POROSITY LIMESTONE FROM DENSITY LOG [DEP ADJ TO GRRED]
NPOWS   .V/V   : NEUTRON POROSITY LIMESTONE [2484 NPHILSED 15780.5 NPHILNRM 15883.5 NPHILSED]
PEFED   .B/E   : PHOTOELECTRIC FACTOR FROM DENSITY LOG
PEFLED  .B/E   : PHOTOELECTRIC FACTOR FROM DENSITY LOG
PEFWS   .B/E   : PHOTOELECTRIC FACTOR [2484 PEFED 9952.5 PEFLED]
RESED   .OHMM  : SYNTHETIC RESISTIVITY
SFLUED  .OHMM  : SPHERICALLY FOCUSED LOG RESISTIVITY
SPHILSED.V/V   : SONIC POROSITY FROM SONIC LOG [DEP ADJ TO GRRED]
SPOWS   .V/V   : SONIC POROSITY [CAL FR DTWS; M= 47.6, F=189]
SPRED   .MV    : SPONTANEOUS POTENTIAL FROM RESISTIVITY LOG [SHIFTS ARE REMOVED]
SPWS    .MV    : SPONTANEOUS POTENTIAL [BASELINE 0 MV] [SPRED]
SRESWS  .OHMM  : SHALLOW RESISTIVITY [2484 AT10ED 9945.5 SFLUED 15891.5 LLSED]
TENDED  .LBF   : TENSION FROM DENSITY LOG [DEP ADJ TO GRRED]
TENRED  .LBF   : TENSION FROM RESISTIVITY LOG
~Params ----------------------------------------------------
PD  .                     GL : PERMANENT DATUM
EPD .FT                  348 : ELEVATION PERMANENT DATUM
LMF .                     KB : LOG MEASURED FROM
DAPD.FT                   28 : FEET ABOVE PERMANENT DATUM
DMF .                     KB : DRILLING MEASURED FROM
EKB .FT                  376 : KELLY BUSHING
EDF .FT                  374 : DRILLING FLOOR
EGL .FT                  348 : GROUND LEVEL
DATE.               11/05/97 : RUN DATE
RUN .                      3 : RUN NUMBER
DD  .FT                18038 : DEPTH DRILLER
DL  .FT                18024 : DEPTH LOGGER
BLI .FT                 1800 : BOTTOM LOG INTERVAL
TLI .FT                15888 : TOP LOG INTERVAL
CS  .IN                7.625 : CASING SIZE
CBD .FT                15888 : CASING BOTTOM DRILLER
CBL .FT                15888 : CASING BOTTOM LOGGER
BS  .IN                    6 : BIT SIZE
BSD .FT                18038 : BIT SIZE AT DEPTH
DFT .                POLYMER : DRILLING FLUID TYPE
DFD .                   18.2 : DRILLING FLUID DENSITY
DFV .                     40 : DRILLING FLUID VISCOSITY
DFPH.                      9 : DRILLING FLUID PH
DFL .                    5.6 : DRILLING FLUID LOSS
MSS .       CIRCULATION TANK : MUD SAMPLE SOURCE
RMS .OHMM               1.14 : RESISTIVITY MUD SAMPLE
MST .DEGF                 90 : MUD SAMPLE TEMPERATURE
RMF .OHMM              0.969 : RESISTIVITY MUD FILTRATE SAMPLE
MFST.DEGF                 90 : MUD FILTRATE SAMPLE TEMPERATURE
RMC .OHMM              1.311 : RESISTIVITY MUD CAKE
MCST.DEGF                 90 : MUD CAKE SAMPLE TEMPERATURE
MFSS.             CALCULATED : MUD FILTRATE SAMPLE SOURCE
MCSS.             CALCULATED : MUD CAKE SAMPLE SOURCE
RMB .OHMM              0.278 : RESISTIVITY MUD AT BHT
TCS .HRS                2200 : TIME CIRCULATED STOPPED
TLAB.HRS                 445 : TIME LOGGER AT BOTTOM
LUN .                   8400 : LOGGING UNIT NUMBER
LUL .                   6450 : LOGGING UNIT LOCATION
ENGI.                SKRBICH : RECORDING ENGINEER
WITN.          BLANKE WEAVER : WITNESSED BY
CLNT.                A2DTECH : CLIENT CODE
ORIG.         1" 2" 5" PRINT : ORIGIN OF DATA
UWI .         42289312660000 : UNIQUE WELL ID
DICO. A2D Technologies, Inc. : DIGITIZING COMPANY
~Other -----------------------------------------------------
~ASCII -----------------------------------------------------
# ...
 10000.00000    -999.25    -999.25    -999.25    -999.25    -999.25    -999.25    -999.25   11.95430    -999.25  114.92800    3.45430    0.01590    2.59580    -999.25    0.06680    0.06680    8.70110    0.01590    -999.25    -999.25    -999.25    -999.25    -999.25   85.86620    -999.25    -999.25   85.86620   52.36130    -999.25   52.36130    8.70110   10.01550    -999.25    -999.25   10.01550    0.01270    0.01270    -999.25    5.63700    5.63700    5.63700   10.66250    -999.25    0.27060  -64.99100  -70.66690   10.66250    -999.25 4646.91260
 10050.00000    -999.25    -999.25    -999.25    -999.25    -999.25    -999.25    -999.25   13.11190    -999.25  139.10140    4.61190   -0.00780    2.59150    -999.25    0.06930    0.06930    7.18900   -0.00780    -999.25    -999.25    -999.25    -999.25  129.51760   80.46410    -999.25    -999.25   80.46410   76.34150    -999.25   76.34150    7.18900   12.54370    -999.25    -999.25   12.54370    0.10980    0.10980    -999.25    9.56850    9.56850    9.56850   10.90960    -999.25    0.23240   -5.51050  -15.16830   10.90960    -999.25 4590.92040
 10100.00000    -999.25    -999.25    -999.25    -999.25    -999.25    -999.25    -999.25   12.82240    -999.25  141.45870    4.32240    0.01280    2.62280    -999.25    0.05100    0.05100    7.06920    0.01280    -999.25    -999.25    -999.25    -999.25   49.63830   78.22590    -999.25    -999.25   78.22590   81.65090    -999.25   81.65090    7.06920    6.91710    -999.25    -999.25    6.91710    0.05200    0.05200    -999.25    5.53650    5.53650    5.53650    7.70170    -999.25    0.21660    8.28280   -4.38550    7.70170    -999.25 4718.20950
 10150.00000    -999.25    -999.25    -999.25    -999.25    -999.25    -999.25    -999.25   11.90290    -999.25   83.66100    3.40290    0.01400    2.69500    -999.25    0.00880    0.00880   11.95300    0.01400    -999.25    -999.25    -999.25    -999.25   87.43850   65.36580    -999.25    -999.25   65.36580   56.66080    -999.25   56.66080   11.95300   11.63560    -999.25    -999.25   11.63560    0.03150    0.03150    -999.25    5.38700    5.38700    5.38700   11.98050    -999.25    0.12560    4.80100   -9.15090   11.98050    -999.25 4639.13920
 10200.00000    -999.25    -999.25    -999.25    -999.25    -999.25    -999.25    -999.25   12.24170    -999.25  126.99380    3.74170    0.00980    2.65680    -999.25    0.03110    0.03110    7.87440    0.00980    -999.25    -999.25    -999.25    -999.25  103.92830   72.69020    -999.25    -999.25  103.92830   73.68170    -999.25   73.68170    7.87440    7.29810    -999.25    -999.25    7.29810    0.03850    0.03850    -999.25    4.90830    4.90830    4.90830    8.09240    -999.25    0.39840    0.19910  -15.03630    8.09240    -999.25 4738.45120
 10250.00000    -999.25    -999.25    -999.25    -999.25    -999.25    -999.25    -999.25   12.16280    -999.25  107.59630    3.66280   -0.00090    2.64350    -999.25    0.03890    0.03890    9.29400   -0.00090    -999.25    -999.25    -999.25    -999.25   86.02090   60.80340    -999.25    -999.25   86.02090   79.87370    -999.25   79.87370    9.29400    8.01630    -999.25    -999.25    8.01630    0.05500    0.05500    -999.25    7.40390    7.40390    7.40390    8.39130    -999.25    0.27170    6.51190  -10.00700    8.39130    -999.25 4821.69140
 10300.00000    -999.25    -999.25    -999.25    -999.25    -999.25    -999.25    -999.25   11.19920    -999.25  162.36930    2.69920   -0.02400    2.62830    -999.25    0.04780    0.04780    6.15880   -0.02400    -999.25    -999.25    -999.25    -999.25   93.31860   97.93530    -999.25    -999.25   97.93530   79.45970    -999.25   79.45970    6.15880    6.05980    -999.25    -999.25    6.05980    0.04850    0.04850    -999.25   10.01080   10.01080   10.01080    7.22790    -999.25    0.35600   10.68820   -5.70680    7.22790    -999.25 4607.85840
 10350.00000    -999.25    -999.25    -999.25    -999.25    -999.25    -999.25    -999.25   11.42820    -999.25   94.45460    2.92820    0.01940    2.63540    -999.25    0.04360    0.04360   10.58710    0.01940    -999.25    -999.25    -999.25    -999.25  101.53800   91.03840    -999.25    -999.25   91.03840   49.83230    -999.25   49.83230   10.58710   11.81200    -999.25    -999.25   11.81200    0.00370    0.00370    -999.25    9.11470    9.11470    9.11470   14.15150    -999.25    0.30720   10.35820   -5.86950   14.15150    -999.25 4627.45120
 10400.00000    -999.25    -999.25    -999.25    -999.25    -999.25    -999.25    -999.25   10.85990    -999.25   61.23700    2.35990    0.01210    2.66450    -999.25    0.02660    0.02660   16.33000    0.01210    -999.25    -999.25    -999.25    -999.25  111.76330   78.75810    -999.25    -999.25   78.75810   46.16490    -999.25   46.16490   16.33000   12.73030    -999.25    -999.25   12.73030    0.01020    0.01020    -999.25    6.95390    6.95390    6.95390   13.34610    -999.25    0.22040    3.28540  -13.54190   13.34610    -999.25 4616.10940
 10450.00000    -999.25    -999.25    -999.25    -999.25    -999.25    -999.25    -999.25   10.93080    -999.25   40.26950    2.43080    0.00640    2.59300    -999.25    0.06840    0.06840   24.83270    0.00640    -999.25    -999.25    -999.25    -999.25   67.46640   75.33520    -999.25    -999.25   75.33520   46.63440    -999.25   46.63440   24.83270   27.79310    -999.25    -999.25   27.79310    0.00250    0.00250    -999.25    8.02120    8.02120    8.02120   33.77550    -999.25    0.19610  -16.04160  -33.49210   33.77550    -999.25 4764.66210
 10500.00000    -999.25    -999.25    -999.25    -999.25    -999.25    -999.25    -999.25   11.42140    -999.25   86.23070    2.92140    0.00020    2.59540    -999.25    0.06700    0.06700   11.59680    0.00020    -999.25    -999.25    -999.25    -999.25    4.45150   99.14440    -999.25    -999.25   99.14440   35.20820    -999.25   35.20820   11.59680   12.42770    -999.25    -999.25   12.42770    0.01220    0.01220    -999.25   10.02800   10.02800   10.02800   14.28030    -999.25    0.36450  -18.78260  -36.85640   14.28030    -999.25 4613.71730
 10550.00000    -999.25    -999.25    -999.25    -999.25    -999.25    -999.25    -999.25   11.65490    -999.25   63.54210    3.15490    0.03490    2.59700    -999.25    0.06610    0.06610   15.73760    0.03490    -999.25    -999.25    -999.25    -999.25   90.69020   52.39810    -999.25    -999.25   90.69020   70.07550    -999.25   70.07550   15.73760   18.60150    -999.25    -999.25   18.60150    0.03350    0.03350    -999.25    5.77850    5.77850    5.77850   16.80510    -999.25    0.30470    1.57570  -17.12140   16.80510    -999.25 4586.86670
 10600.00000    -999.25    -999.25    -999.25    -999.25    -999.25    -999.25    -999.25   11.42100    -999.25   68.40370    2.92100    0.02170    2.68210    -999.25    0.01630    0.01630   14.61910    0.02170    -999.25    -999.25    -999.25    -999.25   74.58320   60.45240    -999.25    -999.25   74.58320   81.16180    -999.25   81.16180   14.61910   18.69020    -999.25    -999.25   18.69020    0.04130    0.04130    -999.25    7.41520    7.41520    7.41520   21.19190    -999.25    0.19080   13.79860   -5.52180   21.19190    -999.25 4656.75290
 10650.00000    -999.25    -999.25    -999.25    -999.25    -999.25    -999.25    -999.25   11.19600    -999.25   86.92630    2.69600    0.01000    2.65070    -999.25    0.03470    0.03470   11.50400    0.01000    -999.25    -999.25    -999.25    -999.25   80.81370   88.59050    -999.25    -999.25   88.59050   67.23520    -999.25   67.23520   11.50400   12.81670    -999.25    -999.25   12.81670    0.02460    0.02460    -999.25    6.77540    6.77540    6.77540   13.55590    -999.25    0.28990   14.68720   -5.77840   13.55590    -999.25 4509.16360
 10700.00000    -999.25    -999.25    -999.25    -999.25    -999.25    -999.25    -999.25   10.87880    -999.25   70.27210    2.37880    0.02010    2.66690    -999.25    0.02520    0.02520   14.23040    0.02010    -999.25    -999.25    -999.25    -999.25   75.04190   65.52550    -999.25    -999.25   75.04190   66.46010    -999.25   66.46010   14.23040   14.24330    -999.25    -999.25   14.24330    0.00410    0.00410    -999.25   10.00840   10.00840   10.00840   18.06050    -999.25    0.19410   13.33750   -8.62130   18.06050    -999.25 4419.17530
