~Version ---------------------------------------------------
VERS. 2.0 : CWLS log ASCII Standard -VERSION 2.0
WRAP.  NO : ONE LINE PER DEPTH STEP
~Well ------------------------------------------------------
STRT.F                  4250.0 : START DEPTH
STOP.F                 10250.0 : STOP DEPTH
STEP.F                50.00000 : STEP LENGTH
NULL.                  -999.25 : NULL VALUE
COMP.        WOOD ENERGY, INC. : COMPANY
WELL.            J E WEEDON #1 : WELL
FLD .          KURTEN WOODBINE : FIELD
LOC .                          : LOCATION
CNTY.                   BRAZOS : COUNTY
STAT.                    TEXAS : STATE
CTRY. UNITED STATES OF AMERICA : COUNTRY
SRVC.                          : SERVICE COMPANY
DATE.                          : LOGDATE
API .           42041306390000 : API NUMBER
UWI .           42041306390000 : UNIQUE WELL ID
SLAT.WGS84       30.6700972783 : SURFACE LATITUDE
SLON.WGS84      -96.2485479608 : SURFACE LONGITUDE
~Curve Information -----------------------------------------
DEPT.F                 : 
SPR .MV   07 010 01 00 : SPONTANEOUS POTENTIAL
SFLU.OHMM 07 220 01 00 : SPHERICALLY FOCUSED LOG UNAVERAGED RESISTIVITY
DCAL.IN   07 280 30 00 : DIFFERENTIAL CALIPER
ILM .OHMM 07 120 44 00 : INDUCTION LOG MEDIUM RESISTIVITY
ILD .OHMM 07 120 46 00 : DEEP INDUCTION RESISTIVITY
DPHI.DEC  45 890 12 00 : DENSITY POROSITY SANDSTONE
DRHO.G/C3 45 356 01 00 : DENSITY CORRECTION
GRR .GAPI 07 310 01 00 : GAMMA RAY FROM RESISTIVITY
NPHI.DEC  42 890 03 00 : NEUTRON POROSITY SANDSTONE
CALR.IN   07 280 01 00 : CALIPER FROM RESISTIVITY
CORR.G/C3 45 356 01 00 : DENSITY CORRECTION
GURD.OHMM 07 220 05 00 : GUARD LOG RESISTIVITY
~Params ----------------------------------------------------
EKB .F                 303.5 : KELLY BUSHING
EGL .F                   290 : ELEVATION GROUND LEVEL
EDF .F                 302.5 : ELEVATION DERRICK FLOOR
EPD .F                   290 : ELEVATION PERMANENT DATUM
TD  .F               10194.0 : TOTAL DEPTH
DATE.            07-OCT-1981 : DATE LOGGED
CLNT.                A2DTECH : CLIENT CODE
SL  .   602' FNL & 3434' FEL : SURFACE LOCATION
PD  .                     GL : PERMANENT DATUM
LMF .                     KB : LOG MEASURED FROM
DMF .                     KB : DRILLING MEASURED FROM
DAPD.F                  13.5 : FEET ABOVE PERMANENT DATUM
DD  .F                 10194 : DEPTH DRILLER
DL  .F                 10169 : DEPTH LOGGER
BLI .F                 10163 : BOTTOM LOG INTERVAL
TLI .F                  3800 : TOP LOG INTERVAL
CS1 .IN                9.875 : CASING SIZE
CBD1.         9.875" @ 3800' : CASING DRILLER 1
CBL1.F                  3800 : CASING LOGGER 1
BS1 .IN                 8.75 : BIT SIZE
BSD1.F                 10194 : DEPTH DRILLED WITH BIT1
DFT .                  LIGNO : TYPE FLUID IN HOLE
DFD .                    9.7 : DENSITY
DFV .                     44 : VISCOSITY
DFPH.                   10.0 : PH
DFL .                    7.2 : FLUID LOSS
MSS .                   TANK : SOURCE OF SAMPLE
RMS .OHMM               1.06 : RM
RMF .OHMM              0.795 : RMF
RMC .OHMM               1.59 : RMC
MFSS.                   CALC : SOURCE RMF.
MCSS.                   CALC : SOURCE RMC.
RMB .OHMM              0.486 : RM. AT BHT
BHT .F                   237 : BHT.
TCS .HRS                1400 : TIME CIRC. STOPPED
TLAB.HRS                 330 : TIME LOGGER AT BOTTOM
LUN .                   8101 : LOGGING UNIT NUMBER
LUL .                BRENHAM : LOGGING UNIT LOCATION
ENGI.                  BRUCK : RECORDED BY
WITN.         CARTER STATHAM : WITNESSED BY
ORIG.               5" PRINT : ORIGIN OF DATA
UWI .         42041306390000 : UNIQUE WELL ID
DICO. A2D TECHNOLOGIES, INC. : DIGITIZING COMPANY
~Other -----------------------------------------------------
~ASCII -----------------------------------------------------
# ...
 7050.00000   -4.12200    1.74400    1.93400    1.77600    1.82200    -999.25    -999.25   78.97700    -999.25    -999.25    -999.25    -999.25
 7100.00000   -2.74800    2.33100    1.49800    2.37400    2.24800    -999.25    -999.25   77.68100    -999.25    -999.25    -999.25    -999.25
 7150.00000   -1.00400    3.77100    0.24800    3.63600    3.31900    -999.25    -999.25   67.34200    -999.25    -999.25    -999.25    -999.25
 7200.00000   -3.45000    5.37700    0.32500    4.83000    4.69000    -999.25    -999.25   52.02900    -999.25    -999.25    -999.25    -999.25
 7250.00000   -1.29400    3.12900    0.33700    3.01700    2.75400    -999.25    -999.25   86.14400    -999.25    -999.25    -999.25    -999.25
 7300.00000   -3.01600    3.28100    0.55400    3.34100    3.10600    -999.25    -999.25   70.79600    -999.25    -999.25    -999.25    -999.25
 7350.00000   -2.63800    2.56000    0.39900    2.46800    2.42300    -999.25    -999.25   77.62300    -999.25    -999.25    -999.25    -999.25
 7400.00000    0.11800    2.46200    0.42300    2.37300    2.33000    -999.25    -999.25   96.26100    -999.25    -999.25    -999.25    -999.25
 7450.00000   -1.29800    1.62500    2.44600    1.68600    1.68800    -999.25    -999.25   94.40300    -999.25    -999.25    -999.25    -999.25
 7500.00000    0.22400    1.85600    3.31400    1.92500    1.96000    -999.25    -999.25   87.30200    -999.25    -999.25    -999.25    -999.25
 7550.00000   -1.85100    1.74400    3.22800    1.80900    1.84200    -999.25    -999.25   88.04000    -999.25    -999.25    -999.25    -999.25
 7600.00000   -0.81000    1.77100    2.55300    1.83700    1.87000    -999.25    -999.25   97.87700    -999.25    -999.25    -999.25    -999.25
 7650.00000   -0.53000    1.73400    1.38100    1.79800    1.83200    -999.25    -999.25  141.03500    -999.25    -999.25    -999.25    -999.25
 7700.00000    0.10700    2.14400    0.63700    2.22400    2.06700    -999.25    -999.25  112.50700    -999.25    -999.25    -999.25    -999.25
 7750.00000   -2.06600    1.92000    2.25600    1.95600    1.85100    -999.25    -999.25   88.37600    -999.25    -999.25    -999.25    -999.25
 7800.00000   -0.90700    1.73200    2.64000    1.76300    1.66900    -999.25    -999.25   86.60400    -999.25    -999.25    -999.25    -999.25
 7850.00000   -0.75000    1.79200    2.06000    1.82500    1.75900    -999.25    -999.25   92.32000    -999.25    -999.25    -999.25    -999.25
 7900.00000   -1.32300    1.83200    1.73200    1.86600    1.76700    -999.25    -999.25   95.95900    -999.25    -999.25    -999.25    -999.25
 7950.00000   -2.59000    1.79700    1.30200    1.83000    1.73200    -999.25    -999.25   91.16400    -999.25    -999.25    -999.25    -999.25
 8000.00000   -2.23600    1.98200    0.73300    2.01800    1.94600    -999.25    -999.25   89.50700    -999.25    -999.25    -999.25    -999.25
 8050.00000   -3.44400    1.64600    2.05900    1.67700    1.58700    -999.25    -999.25   95.34000    -999.25    -999.25    -999.25    -999.25
 8100.00000   -0.92500    2.30600    1.00100    2.34900    2.22400    -999.25    -999.25   86.11200    -999.25    -999.25    -999.25    -999.25
 8150.00000   -2.87000    1.80900    1.56600    1.84200    1.74400    -999.25    -999.25  111.53600    -999.25    -999.25    -999.25    -999.25
 8200.00000   -1.79700    2.10800    1.04200    2.03200    1.93200    -999.25    -999.25   96.08900    -999.25    -999.25    -999.25    -999.25
 8250.00000   -0.82200    2.17100    0.27700    2.09300    2.05600    -999.25    -999.25   89.72700    -999.25    -999.25    -999.25    -999.25
 8300.00000   -2.53800    2.44100    0.33700    2.35300    2.31100    -999.25    -999.25   81.34700    -999.25    -999.25    -999.25    -999.25
 8350.00000   -0.70000    1.95000    0.39300    1.88000    1.84600    -999.25    -999.25  107.48600    -999.25    -999.25    -999.25    -999.25
 8400.00000   -3.73100    2.35300    0.30200    2.26900    2.22800    -999.25    -999.25   95.54900    -999.25    -999.25    -999.25    -999.25
 8450.00000   -3.03500    2.07300    1.87900    1.99900    1.96300    -999.25    -999.25   93.95900    -999.25    -999.25    -999.25    -999.25
 8500.00000   -0.49500    2.83900    0.96000    2.73700    2.68800    -999.25    -999.25   67.52300    -999.25    -999.25    -999.25    -999.25
 8550.00000   -2.69700    2.46800    0.79800    2.37900    2.33600    -999.25    -999.25   76.39000    -999.25    -999.25    -999.25    -999.25
 8600.00000   -2.08900    5.33000    0.47000    4.95500    4.67800    -999.25    -999.25   52.16600    -999.25    -999.25    -999.25    -999.25
 8650.00000   -1.06300    2.03000    1.39600    1.99300    1.92100    -999.25    -999.25   79.19500    -999.25    -999.25    -999.25    -999.25
 8700.00000   -0.44500    3.32000    1.29200    4.41300    3.14300    -999.25    -999.25   65.26000    -999.25    -999.25    -999.25    -999.25
 8750.00000   -1.65600    2.50100    2.11000    2.45600    2.36800    -999.25    -999.25   85.38100    -999.25    -999.25    -999.25    -999.25
 8800.00000   -0.36000    1.91100    1.84700    1.87600    1.80900    -999.25    -999.25   85.88100    -999.25    -999.25    -999.25    -999.25
 8850.00000   -0.30700    3.24600    1.21500    3.12900    2.87400    -999.25    -999.25   93.35000    -999.25    -999.25    -999.25    -999.25
 8900.00000   -8.60600    3.16100    1.20100    3.04800    2.88500    -999.25    -999.25   89.14200    -999.25    -999.25    -999.25    -999.25
 8950.00000   -7.78100    3.17700    1.30200    3.06300    2.87800    -999.25    -999.25   88.18700    -999.25    -999.25    -999.25    -999.25
 9000.00000   -9.87300    2.66300    1.13800    2.56700    2.52100    0.06500    0.08900   86.62100    0.25500    -999.25    -999.25    -999.25
 9050.00000   -9.07300    5.66800    0.46900    5.22500    4.94200    0.04700   -0.00500   61.69900    0.15400    -999.25    -999.25    -999.25
 9100.00000   -9.21400    6.86700    0.38200    5.32000    5.61600    0.05100   -0.00400   62.07800    0.14300    -999.25    -999.25    -999.25
 9150.00000  -12.32800   11.11600    0.37600    8.86900    8.74800    0.04800   -0.00400   42.48900    0.09500    -999.25    -999.25    -999.25
 9200.00000  -11.25400    6.82300    0.52700    5.40200    6.38300    0.05600   -0.00800   54.66500    0.10300    -999.25    -999.25    -999.25
 9250.00000  -13.26800    8.40000    0.39700    6.94100    9.54100    0.04200   -0.00400   56.04400    0.10900    -999.25    -999.25    -999.25
 9300.00000  -29.13600   26.74800    0.10700   14.79400   23.36100    0.06300   -0.00400   37.53800    0.07800    -999.25    -999.25    -999.25
 9350.00000  -49.87700   68.70900    0.74400   25.65200   32.16600    0.21800    0.09400  147.98000    0.07400    -999.25    -999.25    -999.25
 9400.00000  -29.47800   14.58300    0.17800   14.26300   17.43800    0.05500    0.00700   20.25000    0.10700    -999.25    -999.25    -999.25
 9450.00000  -23.70100   40.13100   -0.21800   31.86500   54.14600    0.06800   -0.01400   32.39800    0.06400    -999.25    -999.25    -999.25
 9500.00000   -6.08400    1.80900    0.44500    1.80900    1.87600    0.07900    0.09400   92.62600    0.26500    -999.25    -999.25    -999.25
 9550.00000   -3.04500    1.71100    1.22600    1.70300    1.77200    0.09800    0.07500   96.42400    0.27500    -999.25    -999.25    -999.25
 9600.00000   -4.38400    2.41700    0.40900    2.25200    2.55800    0.09500    0.08200   98.90700    0.26800    -999.25    -999.25    -999.25
 9650.00000   -1.06700    2.17100    0.70400    2.06700    2.12800    0.07000    0.08000  100.96100    0.25400    -999.25    -999.25    -999.25
 9700.00000   -1.01400    1.59200    1.97700    1.53400    1.64100    0.08600    0.08200   93.94500    0.28900    -999.25    -999.25    -999.25
 9750.00000   -2.54500    2.31100    1.64600    2.13000    2.25300    0.11600    0.07800   96.21600    0.29700    -999.25    -999.25    -999.25
 9800.00000   -2.37100    1.89600    1.53200    1.74400    1.89900    0.10400    -999.25  100.40100    0.29800    -999.25    -999.25    -999.25
