~Version ---------------------------------------------------
VERS. 2.0 : CWLS log ASCII Standard -VERSION 2.0
WRAP.  NO : ONE LINE PER DEPTH STEP
~Well ------------------------------------------------------
STRT.F                             400.0 : START DEPTH
STOP.F                            8150.0 : STOP DEPTH
STEP.F                          50.00000 : STEP LENGTH
NULL.                            -999.25 : NULL VALUE
COMP. THE SHAMROCK OIL & GAS CORPORATION : COMPANY
WELL.               BLANCHE EUBANKS #B-9 : WELL
FLD .                                 WC : FIELD
LOC .                                    : LOCATION
CNTY.                             DIMMIT : COUNTY
STAT.                              TEXAS : STATE
CTRY.           UNITED STATES OF AMERICA : COUNTRY
SRVC.                       Schlumberger : SERVICE COMPANY
DATE.                        06-Dec-1961 : LOGDATE
API .                     42127000690000 : API NUMBER
UWI .                     42127000690000 : UNIQUE WELL ID
SLAT.WGS84                 28.5557212537 : SURFACE LATITUDE
SLON.WGS84               -100.0025373961 : SURFACE LONGITUDE
~Curve Information -----------------------------------------
DEPT.F                 : 
CILD.MMHO 05 110 46 00 : CONDUCTIVITY INDUCTION LOG DEEP
SPR .MV   05 010 01 00 : SPONTANEOUS POTENTIAL FROM RES.
ASN .OHMM 05 041 16 00 : AMPLIFIED SHORT NORMAL 16"
ILD .OHMM 05 120 46 00 : INDUCTION LOG DEEP
~Params ----------------------------------------------------
EKB .F                      723.34 : Kelly bushing
EGL .F                      713.84 : Ground level
EDF .F                         0.0 : Drilling floor
EPD .F                         0.0 : Permanent datum
TD  .F                      8185.0 : Total depth
CLNT.                      A2DTECH : Client Code
SL  .        2310' FEL & 2640' FSL : Surface Location
DATE.                  06-DEC-1961 : Date Logged [DD-MMM-YYYY]
DD  .F                        8185 : Depth driller
DL  .F                        8182 : Depth logger
BLI .F                        8176 : Bottom log interval
TLI .F                        2050 : Top log interval
BS1 .IN                       8.75 : Bit size
BSD1.F                        8165 : Depth drilled with bit1
DFT . PHOSPHATE, CAUSTIC, Q-BROXIN : Type fluid in hole
DFD .                         12.4 : Density
DFV .                           95 : Viscosity
DFPH.                           10 : pH
DFL .                          5.5 : Fluid loss
RMS .OHMM                      1.0 : Rm
RMF .OHMM                     0.63 : Rmf
RMC .OHMM                     0.65 : Rmc
RMB .OHMM                     0.37 : Rm. at BHT
BHT .F                         218 : BHT.
TCS .HRS                         2 : Time Circ. stopped
LUN .                         2595 : Logging unit number
LUL .                        C. S. : Logging unit location
ENGI.                       EDLING : Recorded By
WITN.                      BEARDEN : Witnessed by
ORIG.                     1" PRINT : Origin of data
UWI .               42127000690000 : Unique Well ID
DICO.       A2D TECHNOLOGIES, INC. : Digitizing Company
~Other -----------------------------------------------------
~ASCII -----------------------------------------------------
  400.00000  100.09060  -25.13810   10.48910   11.38430
  450.00000  203.46460  -25.92080    6.63270    6.39800
  500.00000  111.86590  -34.07000   10.48460    9.67670
  550.00000  181.72590  -28.03870    7.66760    7.20630
  600.00000  149.45650  -26.09890    8.15220    6.83060
  650.00000  189.19850  -29.46430    6.02130    5.53280
  700.00000  296.87500  -22.98520    4.00360    3.00550
  750.00000  211.84320  -33.17340    5.62050    4.84970
  800.00000  317.02910  -26.37360    3.61410    3.27870
  850.00000  371.94270  -25.73260    2.97330    2.18580
  900.00000  288.49620  -28.15890    3.75450    3.05100
  950.00000  290.76070  -26.41940    3.56660    2.86890
 1000.00000  259.51090  -26.31260    3.88590    3.68850
 1050.00000  668.25180  -21.72620    2.39810    1.51410
 1100.00000  211.95650  -35.57690    5.91030    4.98630
 1150.00000  180.02740  -22.73350    6.42440    5.70360
 1200.00000  178.13910  -23.53440    6.68480    5.19130
 1250.00000  156.02260  -30.97520    7.45240    8.70890
 1300.00000  300.72710  -25.96150    4.07610    3.57470
 1350.00000  177.98890  -29.39560    6.43340    5.49860
 1400.00000  213.52960  -23.35160    7.39130    5.40730
 1450.00000  191.91580  -23.16850    5.66130    4.64480
 1500.00000   98.50520  -30.86080   10.73360    9.08470
 1550.00000  323.02990  -28.38830    4.99090    2.75500
 1600.00000  205.16300  -27.44150    6.22280    6.10200
 1650.00000  168.13840  -28.15930    7.32110    5.69220
 1700.00000  287.13730  -23.07690    4.29350    3.32430
 1750.00000  264.26560  -23.48900    4.30480    3.79100
 1800.00000  368.20650  -24.17580    3.00720    2.45900
 1850.00000  265.96440  -25.41210    4.25950    3.96180
 1900.00000  404.21200  -24.17580    2.89400    2.52730
 1950.00000  145.04080  -24.86260    7.80570    7.61610
 2000.00000  151.09890  -24.17580    7.51810    7.10380
 2050.00000  152.47250  -25.13740    7.32340    6.93300
 2100.00000  242.21570  -20.60440    5.05430    3.50630
 2150.00000  145.83610  -39.42310   15.36680    8.90250
 2200.00000  166.20880  -26.09890    6.41300    6.09220
 2250.00000  241.41480  -38.53030    7.31870    3.88210
 2300.00000  537.77470  -25.41210    2.07430    1.57100
 2350.00000  422.04670  -25.20600    2.27350    2.01500
 2400.00000  285.71430  -25.00090    4.04890    3.18710
 2450.00000  242.55440  -62.40850    7.51360    3.79660
 2500.00000  288.22790  -68.40660    5.69750    3.76820
 2550.00000  336.87770  -23.39750    2.93030    1.98650
 2600.00000  332.40930  -22.85240    3.64130    3.48360
 2650.00000  202.60990  -25.75570    5.55710    5.41330
 2700.00000  418.04070  -22.39010    2.69020    2.19720
 2750.00000  285.02750  -35.50810    3.80430    2.71520
 2800.00000  230.76920  -28.78510    4.73730    4.37160
 2850.00000  239.80980  -24.17580    4.65130    4.30330
 2900.00000  290.76030  -23.35170    3.80440    3.41530
 2950.00000  339.90040  -47.34420    3.17260    2.80050
 3000.00000  248.18660  -48.07690    5.24460    5.05460
 3050.00000  218.97650  -28.57140    5.30770    4.89860
 3100.00000  258.15220  -22.80220    4.81130    4.52700
 3150.00000  228.26200  -23.66030    4.98430    4.94370
 3200.00000  291.21160  -22.16170    4.08810    4.00900
 3250.00000  245.13130  -34.67280    4.74840    4.35810
 3300.00000  224.86310  -23.31970    4.74390    4.12160
 3350.00000  304.68750  -21.45780    3.65230    3.34460
 3400.00000  316.12320  -20.99490    3.64780    3.37840
 3450.00000  287.59060  -23.22890    3.99600    3.75000
 3500.00000  265.39820  -20.57220    4.20040    4.12160
 3550.00000  358.24280  -21.73020    3.37600    3.41220
 3600.00000  245.82580  -22.16170    4.18930    4.59460
 3650.00000  374.88670  -21.66210    3.22100    3.20950
 3700.00000  352.58310  -21.79840    3.31540    2.63510
 3750.00000  221.58150  -23.29700    5.45820    5.10140
 3800.00000  367.30070  -21.79840    3.39170    2.02700
 3850.00000  179.91490  -23.34240    6.90930    5.93470
 3900.00000  146.96520  -24.88650    8.73760    6.55410
 3950.00000  112.20560  -28.15640   16.86400   12.01800
 4000.00000  135.86960  -25.52230    9.75740    8.64860
 4050.00000  141.41790  -25.24980    8.49510    5.97980
 4100.00000   73.38710  -29.42780    6.43180    5.63070
 4150.00000  114.99150  -27.65670    9.93690    8.67110
 4200.00000  115.94020  -26.70300   10.56910    8.37840
 4250.00000   58.55990  -33.17440   17.29450   16.82430
 4300.00000   59.78130  -35.28610   19.15980   18.20650
 4350.00000  140.52940  -26.36240   10.96210    5.43500
 4400.00000   62.50000  -30.51770   23.97520   19.56520
 4450.00000   37.63590  -35.53600   28.13000   25.13490
 4500.00000   46.28620  -32.10720   21.11970   17.11700
 4550.00000   58.56020  -33.17440   18.10320   19.39230
 4600.00000   33.44510  -36.64930   27.69650   29.18920
 4650.00000   34.91850  -34.80950   22.73710   25.63060
 4700.00000   49.36610  -35.55860   23.70370   22.52250
 4750.00000   41.16850  -41.48500   22.95390   24.18920
 4800.00000   52.45900  -39.50950   21.84280   18.82880
 4850.00000   62.70490  -46.16270   17.13710   16.55410
 4900.00000   39.98180  -43.73300   22.55380   20.94570
 4950.00000   14.89070  -47.34330   36.69800   59.66240
 5000.00000   15.57230  -42.50680   39.19350   56.21620
 5050.00000   10.51910  -48.75110   61.13380   95.69820
 5100.00000   12.29510  -40.87220   49.45800   78.78380
 5150.00000   17.34930  -35.42210   40.04020   44.12160
 5200.00000   31.69400  -31.34060   27.91310   27.47910
 5250.00000   39.07130  -30.57070   26.96490   21.46390
 5300.00000  147.81420  -24.18480   12.23420    7.88290
 5350.00000   49.81870  -32.20110   23.73630   19.34740
 5400.00000   32.41400  -36.98320   43.08940   39.37630
 5450.00000   22.59970  -41.21380   44.60260   45.13510
 5500.00000   21.64840  -35.19020   49.32270   45.85570
 5550.00000   18.74980  -47.75820   47.01900   58.71780
 5600.00000   11.02230  -49.13560   50.85900   66.29580
 5650.00000   12.09240  -41.62140   53.68560   66.32680
 5700.00000  291.03450  -19.20290    3.77590    1.44530
 5750.00000  325.00150  -19.70110    3.76690    1.37760
 5800.00000  321.38450  -20.38100    3.84820    2.43900
 5850.00000  261.95650  -22.55430    4.81030    4.67480
 5900.00000  106.97210  -35.41660   14.10100   11.87880
 5950.00000   16.57390  -59.85040   51.90080   86.65310
 6000.00000   27.82450  -72.90760   37.88620   33.60430
 6050.00000   16.80220  -50.36230   49.52570   58.33270
 6100.00000   16.26020  -49.70430   42.14090   68.29270
 6150.00000   25.56490  -29.61960   40.04060   43.76580
 6200.00000   17.88620  -42.66300   50.13550   55.73620
 6250.00000   16.21470  -37.77170   53.96990   79.78790
 6300.00000   13.54990  -45.51630   58.39230   80.35230
 6350.00000   13.41530  -55.57070   56.40010   79.67450
 6400.00000   18.42640  -57.60870   38.64500   65.31170
 6450.00000   17.38960  -61.52660   41.65310   54.40530
 6500.00000    5.32990  -45.33510   73.68560  150.01510
 6550.00000    9.62070  -39.47010   65.20330  106.66250
 6600.00000   28.18650  -25.54330   37.34420   39.83700
 6650.00000   11.92410  -39.94560   52.44310   90.48910
 6700.00000    3.79400  -51.63040   99.07360  429.89130
 6750.00000    9.16910  -49.18480   88.02920  268.91470
 6800.00000    5.59890  -87.77170   64.99550  319.02180
 6850.00000    5.96210 -102.71720   89.51230  170.46040
 6900.00000    6.86570  -99.36580   89.23190  148.05780
 6950.00000   15.98920  -80.84240   65.01350   71.34150
 7000.00000    9.75610  -75.54350   73.94770  110.02710
 7050.00000   17.23110  -89.06250   64.02440   60.95400
 7100.00000   16.66650  -91.62140   42.50250   53.97420
 7150.00000   29.06510  -79.14400   33.26580   35.88590
 7200.00000   13.36930  -89.67390   62.60160   80.21680
 7250.00000   14.00180 -114.03990   54.83300   58.73980
 7300.00000   13.82160  -89.67390   52.12270   73.30620
 7350.00000   15.76320  -86.14130   56.09780   81.70730
 7400.00000   18.16340  -80.16300   48.87100   54.74250
 7450.00000   15.08550  -93.84060   61.30980   76.82790
 7500.00000   18.51840  -87.77170   66.07050   58.67210
