~Version ---------------------------------------------------
VERS. 2.0 : CWLS log ASCII Standard -VERSION 2.0
WRAP. YES : Multiple lines per depth step
~Well ------------------------------------------------------
STRT.FT                   3400.0 : START DEPTH
STOP.FT                  16600.0 : STOP DEPTH
STEP.FT                 50.00000 : STEP LENGTH
NULL.                    -999.25 : NULL VALUE
COMP. CHAMPLIN PETROLEUM COMPANY : COMPANY
WELL.      CHARLES C. CHARTER #1 : WELL
FLD .                    WILDCAT : FIELD
LOC .                            : LOCATION
CNTY.                     BRAZOS : COUNTY
STAT.                      TEXAS : STATE
CTRY.   UNITED STATES OF AMERICA : COUNTRY
SRVC.                            : SERVICE COMPANY
DATE.                            : LOGDATE
API .             42041304470000 : API NUMBER
UWI .             42041304470000 : UNIQUE WELL ID
SLAT.WGS84         30.8464717491 : SURFACE LATITUDE
SLON.WGS84        -96.3676910928 : SURFACE LONGITUDE
~Curve Information -----------------------------------------
DEPT  .FT    : DEPTH
CALDED.IN    : CALIPER FROM DENSITY LOG
CALWS .IN    : CALIPER [CALDED]
CONDWS.MMHO  : CONDUCTIVITY [1000/DRESWS]
DCORWS.G/C3  : DENSITY CORRECTION [DRHOED]
DENWS .G/C3  : BULK DENSITY [RHOBED]
DPOWS .V/V   : DENSITY POROSITY [3434 M=2.71 F=1.0, 11632 M=2.65 F=1.0, 15400 M=2.71 F=1.0] [CALCULATED FROM RHOBED]
DRESWS.OHMM  : DEEP RESISTIVITY [ILDED]
DRHOED.G/C3  : DENSITY CORRECTION FROM DENSITY LOG
DTED  .US/F  : DELTA TIME FROM SONIC LOG
DTWS  .US/F  : DELTA TIME [DTED]
GRDED .GAPI  : GAMMA RAY FROM DENSITY LOG
GRRED .GAPI  : GAMMA RAY FROM RESISTIVITY LOG
GRWS  .GAPI  : GAMMA RAY [GRDED]
ILDED .OHMM  : INDUCTION LOG DEEP RESISTIVITY
ILMED .OHMM  : INDUCTION LOG MEDIUM RESISTIVITY
MRESWS.OHMM  : MEDIUM RESISTIVITY [ILMED]
NPHIED.V/V   : NEUTRON POROSITY 3434 LIMESTONE 11632 SANDSTONE 15400 LIMESTONE FROM DENSITY LOG
NPOWS .V/V   : NEUTRON POROSITY 3434 LIMESTONE 11632 SANDSTONE 15400 LIMESTONE [NPHIED]
RHOBED.G/C3  : BULK DENSITY FROM DENSITY LOG
SFLED .OHMM  : SPHERICALLY FOCUSED LOG RESISTIVITY
SPED  .MV    : SPONTANEOUS POTENTIAL [BASELINE 0 MV] FROM RESISTIVITY LOG
SPWS  .MV    : SPONTANEOUS POTENTIAL [SPED]
SRESWS.OHMM  : SHALLOW RESISTIVITY [SFLED]
~Params ----------------------------------------------------
EKB .F                 368.0 : Kelly bushing
EGL .F                 346.0 : Ground level
EDF .F                 367.0 : Drilling floor
EPD .F                 346.0 : Permanent datum
TD  .F               16600.0 : Total depth
DATE.            01-OCT-1979 : DATE LOGGED
CLNT.                A2DTECH : CLIENT CODE
SL  . 100' FSEL & 3100' FNEL : SURFACE LOCATION
PD  .                     GL : PERMANENT DATUM
LMF .                     KB : LOG MEASURED FROM
DMF .                     KB : DRILLING MEASURED FROM
DAPD.F                    22 : FEET ABOVE PERMANENT DATUM
DD  .F                 16600 : DEPTH DRILLER
DL  .F                 16600 : DEPTH LOGGER
BLI .F                 16593 : BOTTOM LOG INTERVAL
TLI .F                 10338 : TOP LOG INTERVAL
CS1 .IN                9.625 : CASING SIZE
CBD1.        9.625" @ 10324' : CASING DRILLER 1
CBL1.F                 10338 : CASING LOGGER 1
BS1 .IN                  8.5 : BIT SIZE
BSD1.F                 16600 : DEPTH DRILLED WITH BIT1
DFT .             SPER XP-20 : TYPE FLUID IN HOLE
DFD .                   12.2 : DENSITY
DFV .                     47 : VISCOSITY
DFPH.                   10.5 : PH
DFL .                    5.3 : FLUID LOSS
MSS .                    PIT : SOURCE OF SAMPLE
RMS .OHMM               0.21 : RM
RMF .OHMM               0.16 : RMF
RMC .OHMM               0.32 : RMC
MFSS.                   CALC : SOURCE RMF.
MCSS.                   CALC : SOURCE RMC.
RMB .OHMM               0.04 : RM. AT BHT
BHT .F                   334 : BHT.
TCS .HRS                 600 : TIME CIRC. STOPPED
TLAB.HRS                 530 : TIME LOGGER AT BOTTOM
LUN .                   8101 : LOGGING UNIT NUMBER
LUL .                BRENHAM : LOGGING UNIT LOCATION
ENGI.                   EAST : RECORDED BY
WITN.           LANNY CRAMER : WITNESSED BY
ORIG.               5" PRINT : ORIGIN OF DATA
UWI .         42041304470000 : UNIQUE WELL ID
DICO. A2D TECHNOLOGIES, INC. : DIGITIZING COMPANY
~Other -----------------------------------------------------
~ASCII -----------------------------------------------------
# ...
 12700.00000    9.19800    9.19800   46.66790   -0.00300    2.59800    0.03150   21.42800   -0.00300   56.80200   56.80200   78.13900    -999.25   78.13900   21.42800   21.57700   21.57700    0.03700    0.03700    2.59800   47.17100  -11.63260  -11.63260   47.17100
 12750.00000    9.15800    9.15800   86.70770    0.00100    2.65900   -0.00550   11.53300    0.00100   60.29450   60.29450  108.73800    -999.25  108.73800   11.53300    9.85100    9.85100    0.09400    0.09400    2.65900   16.98700   -5.00970   -5.00970   16.98700
 12800.00000    9.21900    9.21900   82.60370   -0.00100    2.63400    0.00970   12.10600   -0.00100   58.79550   58.79550  101.30500    -999.25  101.30500   12.10600   11.88700   11.88700    0.09600    0.09600    2.63400   26.27400   -6.86180   -6.86180   26.27400
 12850.00000    9.18600    9.18600   42.67490    0.00400    2.63100    0.01150   23.43300    0.00400   57.98800   57.98800   61.24400    -999.25   61.24400   23.43300   24.23800   24.23800    0.01600    0.01600    2.63100   40.97600  -12.34390  -12.34390   40.97600
 12900.00000    9.05900    9.05900   65.75050   -0.00500    2.57300    0.04670   15.20900   -0.00500   58.32950   58.32950   84.37300    -999.25   84.37300   15.20900   17.28200   17.28200    0.03100    0.03100    2.57300   38.93400  -11.81090  -11.81090   38.93400
 12950.00000   10.08800   10.08800  216.87270   -0.00700    2.65000    0.00000    4.61100   -0.00700   71.90500   71.90500  120.32000    -999.25  120.32000    4.61100    4.31600    4.31600    0.14600    0.14600    2.65000    6.30000   -5.97700   -5.97700    6.30000
 13000.00000    9.33000    9.33000   38.02280   -0.00400    2.60500    0.02730   26.30000   -0.00400   58.58500   58.58500   79.03800    -999.25   79.03800   26.30000   26.79600   26.79600    0.03500    0.03500    2.60500   63.13500   -9.92210   -9.92210   63.13500
 13050.00000    9.65300    9.65300  143.88490    0.00100    2.65100   -0.00060    6.95000    0.00100   61.45700   61.45700  118.52300    -999.25  118.52300    6.95000    7.23500    7.23500    0.15300    0.15300    2.65100   12.33800   -4.19220   -4.19220   12.33800
 13100.00000    9.33700    9.33700   62.67230   -0.00400    2.63200    0.01090   15.95600   -0.00400   59.25650   59.25650   99.08500    -999.25   99.08500   15.95600   17.83600   17.83600    0.07200    0.07200    2.63200   86.74500   -9.59530   -9.59530   86.74500
 13150.00000    9.29000    9.29000   43.60150   -0.00100    2.57000    0.04850   22.93500   -0.00100   57.45150   57.45150   60.23600    -999.25   60.23600   22.93500   27.09300   27.09300    0.03700    0.03700    2.57000   55.67800  -13.04340  -13.04340   55.67800
 13200.00000    9.71200    9.71200   35.86410   -0.00400    2.58900    0.03700   27.88300   -0.00400   56.00600   56.00600   68.64500    -999.25   68.64500   27.88300   19.19200   19.19200    0.02600    0.02600    2.58900   46.04200   -9.68340   -9.68340   46.04200
 13250.00000    9.25900    9.25900   70.73140   -0.00200    2.58800    0.03760   14.13800   -0.00200   58.48500   58.48500   94.56100    -999.25   94.56100   14.13800   12.90500   12.90500    0.07300    0.07300    2.58800   92.70000   -9.13950   -9.13950   92.70000
 13300.00000    9.10000    9.10000   25.67860    0.00000    2.60900    0.02480   38.94300    0.00000   58.16200   58.16200   82.21400    -999.25   82.21400   38.94300   20.55500   20.55500    0.04900    0.04900    2.60900   83.44400  -11.87360  -11.87360   83.44400
 13350.00000    9.17800    9.17800   26.34490   -0.00300    2.58500    0.03940   37.95800   -0.00300   57.93900   57.93900   57.84700    -999.25   57.84700   37.95800   39.43400   39.43400    0.03200    0.03200    2.58500   73.10800  -13.85070  -13.85070   73.10800
 13400.00000    9.45500    9.45500   92.47270   -0.00800    2.60400    0.02790   10.81400   -0.00800   59.36950   59.36950   82.62500    -999.25   82.62500   10.81400   11.22600   11.22600    0.06900    0.06900    2.60400   18.43500   -8.21380   -8.21380   18.43500
 13450.00000    9.27100    9.27100   42.03800   -0.00200    2.61300    0.02240   23.78800   -0.00200   56.00600   56.00600   98.79600    -999.25   98.79600   23.78800   25.35700   25.35700    0.03500    0.03500    2.61300  158.82900   -9.36090   -9.36090  158.82900
 13500.00000   10.36100   10.36100  198.41270    0.01200    2.16800    0.29210    5.04000    0.01200   80.07950   80.07950  110.43200    -999.25  110.43200    5.04000    3.97500    3.97500    0.15300    0.15300    2.16800    6.59100   -8.75990   -8.75990    6.59100
 13550.00000    9.14800    9.14800   48.20670   -0.00100    2.65100   -0.00060   20.74400   -0.00100   57.18650   57.18650  105.59700    -999.25  105.59700   20.74400   21.46000   21.46000    0.09600    0.09600    2.65100   55.59500  -10.66500  -10.66500   55.59500
 13600.00000    9.07900    9.07900   21.85270   -0.00100    2.68900   -0.02360   45.76100   -0.00100   57.60550   57.60550   89.92200    -999.25   89.92200   45.76100   47.83000   47.83000    0.05400    0.05400    2.68900   61.49800  -16.24210  -16.24210   61.49800
 13650.00000    9.07900    9.07900   24.51460    0.00200    2.61300    0.02240   40.79200    0.00200   57.11300   57.11300   52.70100    -999.25   52.70100   40.79200   41.13500   41.13500    0.01600    0.01600    2.61300   92.69100  -19.46020  -19.46020   92.69100
 13700.00000    9.05900    9.05900   18.46140    0.00200    2.59400    0.03390   54.16700    0.00200   56.20550   56.20550   47.04600    -999.25   47.04600   54.16700   56.10500   56.10500    0.01300    0.01300    2.59400  138.62000  -15.19430  -15.19430  138.62000
 13750.00000    9.08200    9.08200   24.75800   -0.00500    2.61000    0.02420   40.39100   -0.00500   57.60600   57.60600   62.07900    -999.25   62.07900   40.39100   32.44400   32.44400    0.07300    0.07300    2.61000   79.77400  -14.07640  -14.07640   79.77400
 13800.00000    9.24300    9.24300   97.35200   -0.00600    2.61500    0.02120   10.27200   -0.00600   60.99000   60.99000   51.15000    -999.25   51.15000   10.27200    9.37500    9.37500    0.06700    0.06700    2.61500   16.40100   -7.99140   -7.99140   16.40100
 13850.00000    9.02400    9.02400   29.62000   -0.00500    2.61800    0.01940   33.76100   -0.00500   55.51050   55.51050   58.52100    -999.25   58.52100   33.76100   24.56300   24.56300    0.02100    0.02100    2.61800   96.06700   -6.62650   -6.62650   96.06700
 13900.00000    9.04000    9.04000   34.32300   -0.00300    2.66400   -0.00850   29.13500   -0.00300   55.40900   55.40900   75.28100    -999.25   75.28100   29.13500   30.99700   30.99700    0.03000    0.03000    2.66400   48.04000   -8.67260   -8.67260   48.04000
 13950.00000    9.02000    9.02000   31.78540   -0.00100    2.60300    0.02850   31.46100   -0.00100   54.99600   54.99600   61.92400    -999.25   61.92400   31.46100   45.06700   45.06700    0.02800    0.02800    2.60300   60.16600   -9.75570   -9.75570   60.16600
 14000.00000    9.33900    9.33900   16.72050    0.01200    2.62800    0.01330   59.80700    0.01200   56.48050   56.48050   94.94000    -999.25   94.94000   59.80700  195.93400  195.93400    0.09600    0.09600    2.62800  125.67600   -9.43880   -9.43880  125.67600
 14050.00000    9.74100    9.74100  141.78360    0.02000    2.65100   -0.00060    7.05300    0.02000   65.52600   65.52600  113.54700    -999.25  113.54700    7.05300    7.23200    7.23200    0.19300    0.19300    2.65100   13.70800   -9.07190   -9.07190   13.70800
 14100.00000    9.25400    9.25400   52.30950   -0.00200    2.57500    0.04550   19.11700   -0.00200   59.82950   59.82950   45.63500    -999.25   45.63500   19.11700   14.53000   14.53000    0.02900    0.02900    2.57500   24.22600  -13.24900  -13.24900   24.22600
 14150.00000    9.09900    9.09900   44.54940   -0.00500    2.59700    0.03210   22.44700   -0.00500   58.22600   58.22600   41.55300    -999.25   41.55300   22.44700   41.13100   41.13100    0.01700    0.01700    2.59700   39.31500  -16.11900  -16.11900   39.31500
 14200.00000    9.04000    9.04000   52.74820   -0.00600    2.60300    0.02850   18.95800   -0.00600   58.63750   58.63750   71.46100    -999.25   71.46100   18.95800   24.11700   24.11700    0.04700    0.04700    2.60300   42.40500  -12.15710  -12.15710   42.40500
