~Version ---------------------------------------------------
VERS. 2.0 : CWLS log ASCII Standard -VERSION 2.0
WRAP. YES : MULTIPLE LINES PER DEPTH STEP
~Well ------------------------------------------------------
STRT.FT                  300.0 : START DEPTH
STOP.FT                18600.0 : STOP DEPTH
STEP.FT               50.00000 : STEP LENGTH
NULL.                  -999.25 : NULL VALUE
COMP.        SHELL OIL COMPANY : COMPANY
WELL. PAWELEK BEN A ET AL A #1 : WELL
FLD .    PERSON AREA (WILDCAT) : FIELD
LOC .                          : LOCATION
CNTY.                   KARNES : COUNTY
STAT.                    TEXAS : STATE
CTRY. UNITED STATES OF AMERICA : COUNTRY
SRVC.             Schlumberger : SERVICE COMPANY
DATE.              22-May-1978 : LOGDATE
API .           42255305980000 : API NUMBER
UWI .           42255305980000 : UNIQUE WELL ID
SLAT.WGS84       29.0241796548 : SURFACE LATITUDE
SLON.WGS84      -97.8796797249 : SURFACE LONGITUDE
~Curve Information -----------------------------------------
DEPT    .FT    : DEPTH FEET
CALDED  .IN    : CALIPER FROM DENSITY LOG [DEP ADJ TO GRSED]
CALMED  .IN    : CALIPER FROM MICROLOG [DEP ADJ TO SFLED]
CALSED  .IN    : CALIPER FROM SONIC LOG
CALWS   .IN    : CALIPER [10 CALDED 4845.5 CALMED 4849 CALDED 17451 CALSED 17577 CALDED]
CONDWS  .MMHO  : CONDUCTIVITY [1000/DRESWS]
DCORWS  .G/C3  : DENSITY CORRECTION [DRHOED]
DENWS   .G/C3  : BULK DENSITY [M=2.71 F=1.0] [RHOBED]
DPHILSED.V/V   : DENSITY POROSITY [M=2.71 F=1.0] FROM DENSITY LOG [DEP ADJ TO GRSED/RHOBED]
DPHISSED.V/V   : DENSITY POROSITY [M=2.65 F=1.0] FROM DENSITY LOG [DEP ADJ TO GRSED/RHOBED]
DPOLSWS .V/V   : DENSITY POROSITY [M=2.71 F=1.0] [CAL FR DENWS]
DRESWS  .OHMM  : DEEP RESISTIVITY [ILDED]
DRHOED  .G/C3  : DENSITY CORRECTION FROM DENSITY LOG [DEP ADJ TO GRSED]
DTED    .US/F  : DELTA TIME FROM SONIC LOG
DTWS    .US/F  : DELTA TIME [DTED]
GRDED   .GAPI  : GAMMA RAY FROM DENSITY LOG
GRRED   .GAPI  : GAMMA RAY FROM RESISTIVITY LOG [DEP ADJ TO GRSED]
GRSED   .GAPI  : GAMMA RAY FROM SONIC LOG
GRWS    .GAPI  : GAMMA RAY [70 GRDED 4800.5 GRDEDNRM [0-100 TO 0-140]4844.5 GRSED 4853.5 GRDED 12903.5 GRSED 12939.5 GRDED 12962 GRSED 17526 GRDED 17550 GRRED 18607 GRDED]
ILDED   .OHMM  : INDUCTION LOG DEEP RESISTIVITY
ILMED   .OHMM  : INDUCTION LOG MEDIUM RESISTIVITY
MRESWS  .OHMM  : MEDIUM RESISTIVITY [ILMED]
NPHILSED.V/V   : NEUTRON POROSITY LISTONE FROM DENSITY LOG [DEP ADJ TO GRSED/RHOBED]
NPHISSED.V/V   : NEUTRON POROSITY SANDSTONE FROM DENSITY LOG [DEP ADJ TO GRSED/RHOBED]
NPOLSWS .V/V   : NEUTRON POROSITY LIMESTONE [10 NPOLSCAL 9446 NPHILSED] [NPHISSED IS CONVERTED TO NPOLSCAL USING POWERLOG MODULE]
PROXED  .OHMM  : PROXIMITY RESISTIVITY FROM MICROLOG [DEP ADJ TO SFLED]
RHOBED  .G/C3  : BULK DENSITY FROM DENSITY LOG [DEP ADJ TO GRSED]
SFLED   .OHMM  : SPHERICALLY FOCUSED LOG RESISTIVITY
SPRED   .MV    : SPONTANEOUS POTENTIAL FROM RESISTIVITY LOG [SHIFTS ARE REMOVED]
SPWS    .MV    : SPONTANEOUS POTENTIAL [BASELINE 0 MV] [SPRED][PL. USE W/ RESERVATIONS]
SRESWS  .OHMM  : SHALLOW RESISTIVITY [SFLED]
TENDED  .LBF   : TENSION FROM DENSITY LOG [DEP ADJ TO GRSED]
~Params ----------------------------------------------------
PD  .                     GL : PERMANENT DATUM
EPD .FT                  335 : ELEVATION PERMANENT DATUM
LMF .                     KB : LOG MEASURED FROM
DAPD.FT                   28 : FEET ABOVE PERMANENT DATUM
DMF .                     KB : DRILLING MEASURED FROM
EKB .FT                  363 : KELLY BUSHING
EDF .FT                  362 : DRILLING FLOOR
EGL .FT                  335 : GROUND LEVEL
DATE.               05/22/78 : RUN DATE
RUN .                      4 : RUN NUMBER
DD  .FT                18626 : DEPTH DRILLER
DL  .FT                18642 : DEPTH LOGGER
BLI .FT                18637 : BOTTOM LOG INTERVAL
TLI .FT                17550 : TOP LOG INTERVAL
CS  .IN                    7 : CASING SIZE
CBD .FT                17544 : CASING BOTTOM DRILLER
CBL .FT                17550 : CASING BOTTOM LOGGER
BS  .IN                    6 : BIT SIZE
BSD .FT                18626 : BIT SIZE AT DEPTH
DFT .               INVERMUL : DRILLING FLUID TYPE
DFD .                   17.6 : DRILLING FLUID DENSITY
DFV .                     70 : DRILLING FLUID VISCOSITY
DFL .                      2 : DRILLING FLUID LOSS
LUN .                   7799 : LOGGING UNIT NUMBER
LUL .                  PLEAS : LOGGING UNIT LOCATION
ENGI.             TURBEVILLE : RECORDING ENGINEER
WITN.                JARRELL : WITNESSED BY
CLNT.                A2DTECH : CLIENT CODE
ORIG.            2" 5" PRINT : ORIGIN OF DATA
UWI .         42255305980000 : UNIQUE WELL ID
DICO. A2D Technologies, Inc. : DIGITIZING COMPANY
~Other -----------------------------------------------------
~ASCII -----------------------------------------------------
# ...
 1450.00000   15.12870    -999.25    -999.25   15.12870  216.21150    0.10160    1.86670    -999.25    -999.25    0.49320    4.62510    0.10160  143.53110  143.53110   46.94470    -999.25   40.64950   46.94470    4.62510    4.08700    4.08700    -999.25    -999.25    -999.25    -999.25    1.86670    3.62530  -75.34790   -5.29110    3.62530    -999.25
 1500.00000   15.38450    -999.25    -999.25   15.38450  365.36350    0.02500    2.05550    -999.25    -999.25    0.38270    2.73700    0.02500  136.99480  136.99480   57.51100    -999.25   55.23890   57.51100    2.73700    2.50880    2.50880    -999.25    -999.25    -999.25    -999.25    2.05550    2.41110  -78.58570   -8.57190    2.41110    -999.25
 1550.00000   15.91620    -999.25    -999.25   15.91620  276.09820    0.05010    1.97600    -999.25    -999.25    0.42920    3.62190    0.05010  147.90660  147.90660   44.65640    -999.25   37.07460   44.65640    3.62190    3.09640    3.09640    -999.25    -999.25    -999.25    -999.25    1.97600    2.82000  -76.19730   -6.22640    2.82000    -999.25
 1600.00000   16.29870    -999.25    -999.25   16.29870 1082.25110    0.03180    2.01730    -999.25    -999.25    0.40510    0.92400    0.03180  178.42050  178.42050   68.21350    -999.25   62.01780   68.21350    0.92400    0.85150    0.85150    -999.25    -999.25    -999.25    -999.25    2.01730    0.83740  -71.59860   -1.67070    0.83740    -999.25
 1650.00000   16.26630    -999.25    -999.25   16.26630  569.15200    0.01920    2.08960    -999.25    -999.25    0.36280    1.75700    0.01920  141.34090  141.34090   76.53690    -999.25   66.51270   76.53690    1.75700    1.71470    1.71470    -999.25    -999.25    -999.25    -999.25    2.08960    1.65320  -73.30570   -3.42080    1.65320    -999.25
 1700.00000   16.25780    -999.25    -999.25   16.25780  837.87180    0.02380    2.08410    -999.25    -999.25    0.36600    1.19350    0.02380  146.32890  146.32890   73.33330    -999.25   62.71390   73.33330    1.19350    1.28780    1.28780    -999.25    -999.25    -999.25    -999.25    2.08410    1.37790  -72.66700   -2.82510    1.37790    -999.25
 1750.00000   16.13470    -999.25    -999.25   16.13470  748.50300   -0.00030    2.25570    -999.25    -999.25    0.26570    1.33600   -0.00030  140.31510  140.31510   65.61180    -999.25   59.17770   65.61180    1.33600    1.42240    1.42240    -999.25    -999.25    -999.25    -999.25    2.25570    1.37110  -72.48480   -2.68590    1.37110    -999.25
 1800.00000   16.15840    -999.25    -999.25   16.15840 1003.31090    0.03440    2.10190    -999.25    -999.25    0.35560    0.99670    0.03440  158.67980  158.67980   74.39380    -999.25   64.97530   74.39380    0.99670    1.06040    1.06040    -999.25    -999.25    -999.25    -999.25    2.10190    1.11970  -72.13910   -2.38310    1.11970    -999.25
 1850.00000   16.26670    -999.25    -999.25   16.26670 1016.15690    0.03910    2.12330    -999.25    -999.25    0.34310    0.98410    0.03910  162.53190  162.53190   67.69350    -999.25   59.53000   67.69350    0.98410    1.01050    1.01050    -999.25    -999.25    -999.25    -999.25    2.12330    1.14330  -71.96010   -2.24710    1.14330    -999.25
 1900.00000   16.26140    -999.25    -999.25   16.26140  978.66500    0.03250    2.08500    -999.25    -999.25    0.36550    1.02180    0.03250  155.45110  155.45110   68.74940    -999.25   61.99500   68.74940    1.02180    1.04970    1.04970    -999.25    -999.25    -999.25    -999.25    2.08500    1.12660  -70.85040   -1.14390    1.12660    -999.25
 1950.00000   16.27790    -999.25    -999.25   16.27790 1034.34010    0.03540    2.10050    -999.25    -999.25    0.35640    0.96680    0.03540  154.25520  154.25520   71.09720    -999.25   56.45570   71.09720    0.96680    1.03210    1.03210    -999.25    -999.25    -999.25    -999.25    2.10050    0.98040  -71.93140   -2.22490    0.98040    -999.25
 2000.00000   15.98310    -999.25    -999.25   15.98310  826.71960    0.04080    2.14070    -999.25    -999.25    0.33290    1.20960    0.04080  148.08050  148.08050   62.43270    -999.25   57.37000   62.43270    1.20960    1.24110    1.24110    -999.25    -999.25    -999.25    -999.25    2.14070    1.22540  -72.10790   -2.40140    1.22540    -999.25
 2050.00000   15.23650    -999.25    -999.25   15.23650  846.74010    0.04110    2.09680    -999.25    -999.25    0.35860    1.18100    0.04110  141.18740  141.18740   59.08610    -999.25   52.00620   59.08610    1.18100    1.24840    1.24840    -999.25    -999.25    -999.25    -999.25    2.09680    1.57120  -73.69310   -3.98660    1.57120    -999.25
 2100.00000   15.41190    -999.25    -999.25   15.41190  984.63960    0.10080    2.04050    -999.25    -999.25    0.39150    1.01560    0.10080  152.06100  152.06100   65.22690    -999.25   53.45520   65.22690    1.01560    1.05810    1.05810    -999.25    -999.25    -999.25    -999.25    2.04050    1.09910  -74.54080   -4.83430    1.09910    -999.25
 2150.00000   15.43200    -999.25    -999.25   15.43200  863.18520    0.04290    2.13970    -999.25    -999.25    0.33350    1.15850    0.04290  137.50930  137.50930   61.34540    -999.25   61.39740   61.34540    1.15850    1.21800    1.21800    -999.25    -999.25    -999.25    -999.25    2.13970    1.29510  -80.14880  -10.44230    1.29510    -999.25
 2200.00000   16.04980    -999.25    -999.25   16.04980  741.28990    0.04110    2.10220    -999.25    -999.25    0.35540    1.34900    0.04110  120.84730  120.84730   60.96890    -999.25   52.74420   60.96890    1.34900    1.41520    1.41520    -999.25    -999.25    -999.25    -999.25    2.10220    1.99170 -116.63190  -46.92540    1.99170    -999.25
 2250.00000   16.20480    -999.25    -999.25   16.20480  607.57030    0.03750    2.20020    -999.25    -999.25    0.29810    1.64590    0.03750  119.84250  119.84250   55.61880    -999.25   53.67680   55.61880    1.64590    1.71570    1.71570    -999.25    -999.25    -999.25    -999.25    2.20020    1.83120  -89.90330  -20.19680    1.83120    -999.25
 2300.00000   16.25250    -999.25    -999.25   16.25250  734.16050    0.03880    2.19180    -999.25    -999.25    0.30300    1.36210    0.03880  138.18300  138.18300   65.65810    -999.25   57.40680   65.65810    1.36210    1.42030    1.42030    -999.25    -999.25    -999.25    -999.25    2.19180    1.56930  -81.84660  -12.14010    1.56930    -999.25
 2350.00000   16.23360    -999.25    -999.25   16.23360 1091.10750    0.07340    2.20660    -999.25    -999.25    0.29440    0.91650    0.07340  131.12460  131.12460  102.57500    -999.25   95.90100  102.57500    0.91650    1.01040    1.01040    -999.25    -999.25    -999.25    -999.25    2.20660    0.98130  -77.40090   -7.69440    0.98130    -999.25
 2400.00000   15.55550    -999.25    -999.25   15.55550  938.26240    0.07160    2.17620    -999.25    -999.25    0.31220    1.06580    0.07160  127.36830  127.36830   62.70990    -999.25   54.74950   62.70990    1.06580    1.10970    1.10970    -999.25    -999.25    -999.25    -999.25    2.17620    1.26570  -79.22290   -9.51640    1.26570    -999.25
 2450.00000   15.57590    -999.25    -999.25   15.57590 1000.60030    0.00080    2.10350    -999.25    -999.25    0.35470    0.99940    0.00080  126.34240  126.34240  107.18110    -999.25   93.88410  107.18110    0.99940    1.14170    1.14170    -999.25    -999.25    -999.25    -999.25    2.10350    1.45150 -113.40190  -43.69540    1.45150    -999.25
 2500.00000   15.05720    -999.25    -999.25   15.05720  963.11270    0.06940    2.09070    -999.25    -999.25    0.36220    1.03830    0.06940  141.83120  141.83120   49.39820    -999.25   45.34960   49.39820    1.03830    1.08470    1.08470    -999.25    -999.25    -999.25    -999.25    2.09070    1.28050  -81.86690  -12.16040    1.28050    -999.25
 2550.00000   16.04680    -999.25    -999.25   16.04680  685.68290    0.06450    2.17200    -999.25    -999.25    0.31460    1.45840    0.06450  107.10870  107.10870   39.48010    -999.25   39.24770   39.48010    1.45840    1.59720    1.59720    -999.25    -999.25    -999.25    -999.25    2.17200    1.78140 -108.27420  -38.56770    1.78140    -999.25
