~Version ---------------------------------------------------
VERS. 2.0 : CWLS log ASCII Standard -VERSION 2.0
WRAP.  NO : ONE LINE PER DEPTH STEP
~Well ------------------------------------------------------
STRT.F                       750.0 : START DEPTH
STOP.F                      8200.0 : STOP DEPTH
STEP.F                    50.00000 : STEP LENGTH
NULL.                      -999.25 : NULL VALUE
COMP. HAGEN-GREENBRIAR EXPL. CORP. : COMPANY
WELL.             SHELBY BAKER  #1 : WELL
FLD .                      PILGRIM : FIELD
LOC .                              : LOCATION
CNTY.                     GONZALES : COUNTY
STAT.                        TEXAS : STATE
CTRY.     UNITED STATES OF AMERICA : COUNTRY
SRVC.                        Welex : SERVICE COMPANY
DATE.                  23-Feb-1985 : LOGDATE
API .               42177315540000 : API NUMBER
UWI .               42177315540000 : UNIQUE WELL ID
SLAT.WGS84            29.386530592 : SURFACE LATITUDE
SLON.WGS84          -97.5060703108 : SURFACE LONGITUDE
~Curve Information -----------------------------------------
DEPT  .F    0   1   0  0 : 1 MEASURED DEPTH
GRR   .GAPI 07 310 01 00 : GAMMA RAY FROM RESISTIVITY LOG
DT    .US/F 60 500 00 00 : DELTA-T (INTERVAL TRANSIT TIME)
SPR   .MV   07 010 01 00 : SPONTANEOUS POTENTIAL FROM RESISTIVITY LOG
DCAL  .IN   07 280 01 00 : DIFFERENTIAL CALIPER
ILD   .OHMM 07 120 46 00 : INDUCTION DEEP RESISTIVITY
ILM   .OHMM 07 120 44 00 : INDUCTION MEDIUM RESISTIVITY
SGUARD.OHMM 07 120 05 00 : SHALLOW/SHORT GUARD RESISTIVITY
~Params ----------------------------------------------------
PD  .                     GL : PERMANENT DATUM
EPD .FT                  280 : ELEVATION PERMANENT DATUM
LMF .                    TKB : LOG MEASURED FROM
DAPD.FT                   17 : FEET ABOVE PERMANENT DATUM
DMF .                    TKB : DRILLING MEASURED FROM
EKB .FT                  297 : KELLY BUSHING
EDF .FT                  296 : DRILLING FLOOR
EGL .FT                  280 : GROUND LEVEL
DATE.               02/23/85 : RUN DATE
RUN .                      1 : RUN NUMBER
DD  .FT                 8233 : DEPTH DRILLER
DL  .FT                 8223 : DEPTH LOGGER
BLI .FT                 8221 : BOTTOM LOG INTERVAL
TLI .FT                  735 : TOP LOG INTERVAL
CS  .IN                9.625 : CASING SIZE
CBD .FT                  753 : CASING BOTTOM DRILLER
CBL .FT                  735 : CASING BOTTOM LOGGER
BS  .IN                 8.75 : BIT SIZE
BSD .FT                 8233 : BIT SIZE AT DEPTH
DFT .         LIGNOSULFONATE : DRILLING FLUID TYPE
DFD .                    9.7 : DRILLING FLUID DENSITY
DFV .                     45 : DRILLING FLUID VISCOSITY
DFPH.                   11.5 : DRILLING FLUID PH
DFL .                    5.6 : DRILLING FLUID LOSS
MSS .               MUD TANK : MUD SAMPLE SOURCE
RMS .OHMM               1.47 : RESISTIVITY MUD SAMPLE
MST .DEGF                 75 : MUD SAMPLE TEMPERATURE
RMF .OHMM               1.56 : RESISTIVITY MUD FILTRATE SAMPLE
MFST.DEGF                 75 : MUD FILTRATE SAMPLE TEMPERATURE
RMC .OHMM                1.4 : RESISTIVITY MUD CAKE
MCST.DEGF                 75 : MUD CAKE SAMPLE TEMPERATURE
MFSS.                   MEAS : MUD FILTRATE SAMPLE SOURCE
MCSS.                   MEAS : MUD CAKE SAMPLE SOURCE
RMB .OHMM               0.57 : RESISTIVITY MUD AT BHT
TCS .HRS                   5 : TIME CIRCULATED STOPPED
TLAB.HRS                1000 : TIME LOGGER AT BOTTOM
LUN .                   1904 : LOGGING UNIT NUMBER
LUL .                   VICT : LOGGING UNIT LOCATION
ENGI.                 SOLARI : RECORDING ENGINEER
WITN. HAGEN FERGUSON  BROOKS : WITNESSED BY
CLNT.                A2DTECH : CLIENT CODE
ORIG.               5" PRINT : ORIGIN OF DATA
UWI .         42177315540000 : UNIQUE WELL ID
DICO. A2D Technologies, Inc. : DIGITIZING COMPANY
~Other -----------------------------------------------------
~ASCII -----------------------------------------------------
# ...
 5250.00000   99.36470   95.38640  -42.70900    2.47800    2.16710    2.29090    2.65460
 5300.00000   79.20020   86.61320  -47.18570    1.97700    2.29820    2.42600    3.02160
 5350.00000  110.57610   95.16660  -40.09670    2.40080    2.21550    2.36480    2.79300
 5400.00000  100.28840   92.32990  -44.10690    2.05240    2.15090    2.30430    2.79410
 5450.00000  103.79590   93.12880  -39.47080    2.10540    2.12010    2.19680    2.53030
 5500.00000   96.18040   97.58300  -37.12360    2.30030    1.64610    1.63120    1.95900
 5550.00000   89.96880   92.63290  -37.82270    3.07550    2.06150    2.12340    2.31000
 5600.00000   91.85140  100.92460  -38.47520    2.76190    1.36780    1.38440    1.62510
 5650.00000   85.02680   93.85590  -38.74580    3.40290    1.37370    1.37070    1.55970
 5700.00000   76.05220  100.33210  -38.36490    2.65080    1.38970    1.40920    1.53940
 5750.00000   85.27960   96.68030  -39.20940    3.06810    1.43010    1.44700    1.64860
 5800.00000   89.60800  101.52630  -39.76220    3.55350    1.24770    1.26530    1.44400
 5850.00000   87.49140   98.61150  -36.11120    4.10830    1.31000    1.36650    1.44450
 5900.00000   71.58950   98.15690  -36.09860    4.28830    1.20170    1.24040    1.29720
 5950.00000   76.04640  100.58800  -37.37040    1.39620    1.38170    1.48690    1.62050
 6000.00000   75.97840   95.88640  -34.24090    2.03320    0.99360    1.00050    1.18470
 6050.00000   71.14210   91.60140  -41.88480    1.94260    1.52660    1.61480    1.88920
 6100.00000   83.58540  104.92030  -36.76420    2.43810    0.91630    0.93750    1.13010
 6150.00000   83.06590   93.48420  -46.90500    1.25860    1.95240    2.03460    2.29200
 6200.00000   79.29670   82.22940  -41.81790    0.86270    2.67210    2.92080    3.35140
 6250.00000   77.31580   99.47240  -48.26440    2.19560    1.32490    1.36350    1.59820
 6300.00000   77.25440   95.42550  -49.09390    2.40770    1.57970    1.63890    1.79360
 6350.00000   77.20400  102.49200  -47.54470    3.06170    1.17600    1.21260    1.42600
 6400.00000   59.32330   85.73540  -44.54900    2.50750    1.76760    1.87670    2.11550
 6450.00000   75.93760  103.00140  -45.36770    3.14210    1.09290    1.10700    1.27490
 6500.00000   83.45460  101.10710  -44.41250    3.68300    1.08200    1.11790    1.28610
 6550.00000   81.48490   93.23480  -50.00180    2.16040    1.58570    1.69500    1.87300
 6600.00000   76.23470   94.70040  -47.72680    2.59950    1.62810    1.68310    1.85770
 6650.00000   88.82140   94.88290  -52.57140    2.68720    1.58040    1.63560    1.96740
 6700.00000   94.04050   97.34980  -47.36590    2.63550    1.52980    1.62720    1.92770
 6750.00000   83.00100   90.43640  -43.43540    0.62960    2.18710    2.22540    2.64300
 6800.00000   79.34480   91.79160  -44.47180    1.24540    1.39820    1.56160    1.73250
 6850.00000   73.49270   87.71030  -47.36560    1.99600    1.51910    1.66800    1.77920
 6900.00000   82.48070   98.14680  -49.52920    2.59280    1.11490    1.17220    1.33170
 6950.00000   78.57200   94.76190  -45.15480    3.22760    1.29030    1.38200    1.57620
 7000.00000   80.53480   91.24600  -42.08760    3.45790    1.55320    1.67030    1.81760
 7050.00000   81.82390   91.19390  -46.00480    2.63480    1.59230    1.67660    1.81480
 7100.00000   78.35930   94.93270  -43.98120    2.47570    1.41180    1.48910    1.63290
 7150.00000   85.46610   92.59460  -42.50070    3.91980    1.31400    1.43280    1.65910
 7200.00000   70.49390   89.12400  -39.07770    3.54210    1.48910    1.62820    1.97110
 7250.00000   73.96860   93.44210  -49.81660    4.44860    1.22620    1.33720    1.72410
 7300.00000   72.27490   90.83980  -45.80910    3.48230    1.38900    1.51440    1.94980
 7350.00000   78.94030   93.13830  -39.43670    3.09330    1.13700    1.28140    1.74390
 7400.00000   80.56760   95.92510  -43.42610    4.54800    1.26120    1.33230    1.52280
 7450.00000   72.35930  106.22710  -46.03630    6.00050    1.14760    1.17440    1.28500
 7500.00000   71.30170  101.37550  -43.27830    4.48540    1.15960    1.24040    1.34600
 7550.00000   81.94000   85.19410  -57.46640    1.82370    1.44450    1.50570    1.61640
 7600.00000   53.24960   70.63650  -50.11360    2.70850    3.64890    4.06670    3.83960
 7650.00000   46.21700   74.35810  -48.27920    2.47060    3.43120    3.82500    4.18350
 7700.00000   56.61270   75.31590  -45.74100    2.74360    3.82400    4.14570    4.45520
 7750.00000   38.56820   61.30410  -61.38550    2.57340   10.62970   10.09320   10.70780
 7800.00000   35.20160   54.75070  -60.79270    1.88140    9.92770   14.08570   27.13810
 7850.00000   30.13750   65.53290  -49.53930    2.09020    6.51120    5.82010    5.65470
 7900.00000   29.97600   60.98610  -53.02620    1.73440   10.39220   11.12410   13.32490
 7950.00000   24.15440   68.96560  -61.08010    1.79500    9.17000    9.81490    8.64860
 8000.00000   29.03830   63.99630  -60.09270    1.94400   10.29080    8.90340    9.95070
 8050.00000   48.02080   69.35260  -48.76730    1.61840   28.20000   38.16220   47.23150
 8100.00000   83.29890   71.61400  -56.14650    1.30780   15.33970   13.09020   18.61980
 8150.00000   25.19090   59.03730  -52.58380    1.08380   16.92220   22.06660   27.35870
 8200.00000   16.29930    -999.25  -63.60280    -999.25   57.90070   70.86230   81.24670
