~Version ---------------------------------------------------
VERS. 2.0 : CWLS log ASCII Standard -VERSION 2.0
WRAP. YES : MULTIPLE LINES PER DEPTH STEP
~Well ------------------------------------------------------
STRT.FT                  1600.0 : START DEPTH
STOP.FT                 11000.0 : STOP DEPTH
STEP.FT                50.00000 : STEP LENGTH
NULL.                   -999.25 : NULL VALUE
COMP.      EP OPERATING COMPANY : COMPANY
WELL. KELLNER ET AL GAS UNIT #3 : WELL
FLD .                   FASHING : FIELD
LOC .                           : LOCATION
CNTY.                  ATASCOSA : COUNTY
STAT.                     TEXAS : STATE
CTRY.  UNITED STATES OF AMERICA : COUNTRY
SRVC.                   Unknown : SERVICE COMPANY
DATE.               22-Oct-1992 : LOGDATE
API .            42013339790000 : API NUMBER
UWI .            42013339790000 : UNIQUE WELL ID
SLAT.WGS84        28.8263667008 : SURFACE LATITUDE
SLON.WGS84       -98.1422347983 : SURFACE LONGITUDE
~Curve Information -----------------------------------------
DEPT    .FT    : DEPTH FEET
CALSED  .IN    : CALIPER FROM SONIC LOG
CALWS   .IN    : CALIPER [DCALRED+BITED]
CONDWS  .MMHO  : CONDUCTIVITY [1000/DRESWS]
DCALRED .IN    : DIFFERENTIAL CALIPER FROM RESISTIVITY LOG
DCORED  .G/C3  : DENSITY CORRECTION FROM DENSITY LOG
DCORWS  .G/C3  : DENSITY CORRECTION [DCORED]
DENWS   .G/C3  : BULK DENSITY [CALCULATED FROM DPOWS]
DPHISSED.V/V   : DENSITY POROSITY [M=2.65 F=1.0] FROM DENSITY LOG
DPHILSED.V/V   : DENSITY POROSITY [M=2.71 F=1.0] FROM DENSITY LOG
DPOWS   .V/V   : DENSITY POROSITY [SPL DPHISSED <9789F> DPHILSED]
DRESWS  .OHMM  : DEEP RESISTIVITY [ILDED]
DTED    .US/F  : DELTA TIME FROM SONIC LOG
DTWS    .US/F  : DELTA TIME [DTED]
GRED    .GAPI  : GAMMA RAY FROM CBL LOG [ADJ TO GRRED]
GRRED   .GAPI  : GAMMA RAY FROM RESISTIVITY LOG
GRSED   .GAPI  : GAMMA RAY FROM SONIC LOG
GRWS    .GAPI  : GAMMA RAY [SPL GRED <2002F> GRRED, CSG ABOVE 2012F & BULK SHIFTED +20GAPI]
ILDED   .OHMM  : INDUCTION LOG DEEP RESISTIVITY
ILMED   .OHMM  : INDUCTION LOG MEDIUM RESISTIVITY
MRESWS  .OHMM  : MEDIUM RESISTIVITY [ILMED]
NPHISSED.V/V   : NEUTRON POROSITY SANDSTONE FROM DENSITY LOG
NPHILSED.V/V   : NEUTRON POROSITY LIMESTONE FROM DENSITY LOG
NPOWS   .V/V   : NEUTRON POROSITY [SPL NPHISSED <9789F> NPHILSED]
PEED    .B/E   : PHOTOELECTRIC FACTOR FROM DENSITY LOG
PEFWS   .B/E   : PHOTOELECTRIC FACTOR [PEED]
RHOBED  .G/C3  : BULK DENSITY FROM DENSITY LOG
SGUARDED.OHMM  : SHORT GUARD RESISTIVITY
SPRED   .MV    : SPONTANEOUS POTENTIAL FROM RESISTIVITY LOG
SPWS    .MV    : SPONTANEOUS POTENTIAL [BASELINE 0 MV] [SPRED]
SRESWS  .OHMM  : SHALLOW RESISTIVITY [SGUARDED]
TENRED  .LBF   : TENSION FROM RESISTIVITY LOG
TENSED  .LBF   : TENSION FROM SONIC LOG
~Params ----------------------------------------------------
PD  .                     GL : PERMANENT DATUM
EPD .F                   486 : ELEVATION PERMANENT DATUM
LMF .                    TKB : LOG MEASURED FROM
DAPD.F                    22 : FEET ABOVE PERMANENT DATUM
DMF .                    TKB : DRILLING MEASURED FROM
EKB .F                   508 : KELLING BUSHING
EDF .F                   507 : DRILLING FLOOR
EGL .F                   486 : GROUND LEVEL
DATE.               10/22/92 : RUN DATE
RUN .                      1 : RUN NUMBER
DD  .F                 11042 : DEPTH DRILLER
DL  .F                 11046 : DEPTH LOGGER
BLI .F                 11044 : BOTTOM LOG INTERVAL
TLI .F                  2012 : TOP LOG INTERVAL
CS  .IN                9.625 : CASING SIZE
CBD .F                  2013 : CASING BOTTOM DRILLER
CBL .F                  2012 : CASING BOTTOM LOGGER
BS  .IN                  8.5 : BIT SIZE
BSD .F                 11042 : BIT SIZE AT DEPTH
DFT .             WATER BASE : DRILLING FLUID TYPE
DFD .                   10.4 : DRILLING FLUID DENSITY
DFV .                     37 : DRILLING FLUID VISCOSITY
DFPH.                   11.5 : DRILLING FLUID PH
DFL .                      7 : DRILLING FLUID LOSS
MSS .             CIRCULATED : MUD SAMPLE SOURCE
RMS .OHMM               1.01 : RESISTIVITY MUD SAMPLE
MST .F                    75 : MUD SAMPLE TEMPERATURE
RMF .OHMM               0.81 : RESISTIVITY MUD FILTRATE SAMPLE
MFST.F                    75 : MUD FILTRATE SAMPLE TEMPERATURE
RMC .OHMM                1.3 : RESISTIVITY MUD CAKE
MCST.F                    75 : MUD CAKE SAMPLE TEMPERATURE
MFSS.                   MEAS : MUD FILTRATE SAMPLE SOURCE
MCSS.                   MEAS : MUD CAKE SAMPLE SOURCE
RMB .OHMM               0.33 : RESISTIVITY MUD AT BHT
TCS .HRS                   8 : TIME CURCULATED STOPPED
TLAB.HRS                1100 : TIME LOGGER AT BOTTOM
LUN .                  51561 : LOGGING UNIT NUMBER
LUL .                  ALICE : LOGGING UNIT LOCATION
ENGI.                MERRELL : RECORDING ENGINEER
CLNT.                A2DTECH : CLIENT CODE
ORIG.            1" 5" PRINT : ORIGIN OF DATA
UWI .         42013339790000 : UNIQUE WELL ID
DICO. A2D Technologies, Inc. : DIGITIZING COMPANY
~Other -----------------------------------------------------
~ASCII -----------------------------------------------------
# ...
 9300.00000    -999.25   10.73590  455.89240    2.23590    -999.25    -999.25    -999.25    -999.25    -999.25    -999.25    2.19350    -999.25    -999.25   72.57580  124.48850    -999.25  124.48850    2.19350    2.16530    2.16530    -999.25    -999.25    -999.25    -999.25    -999.25    -999.25    2.33310  -43.05860   -2.00780    2.33310 3733.51340    -999.25
 9350.00000    -999.25   12.04440  479.70830    3.54440    -999.25    -999.25    -999.25    -999.25    -999.25    -999.25    2.08460    -999.25    -999.25   48.49190  101.92700    -999.25  101.92700    2.08460    2.05820    2.05820    -999.25    -999.25    -999.25    -999.25    -999.25    -999.25    2.26320  -42.79640   -2.24760    2.26320 3793.30270    -999.25
 9400.00000    -999.25   12.10210  492.53810    3.60210    -999.25    -999.25    -999.25    -999.25    -999.25    -999.25    2.03030    -999.25    -999.25   53.04530   90.02080    -999.25   90.02080    2.03030    2.00460    2.00460    -999.25    -999.25    -999.25    -999.25    -999.25    -999.25    2.25810  -42.82090   -2.87910    2.25810 3849.44920    -999.25
 9450.00000    -999.25   14.19080  500.40030    5.69080    -999.25    -999.25    -999.25    -999.25    -999.25    -999.25    1.99840    -999.25    -999.25   55.95520  100.96940    -999.25  100.96940    1.99840    1.94560    1.94560    -999.25    -999.25    -999.25    -999.25    -999.25    -999.25    2.21890  -43.02770   -3.69300    2.21890 3827.22120    -999.25
 9500.00000    -999.25   11.53620  464.38190    3.03620    -999.25    -999.25    -999.25    -999.25    -999.25    -999.25    2.15340    -999.25    -999.25   62.96750  137.10300    -999.25  137.10300    2.15340    2.12630    2.12630    -999.25    -999.25    -999.25    -999.25    -999.25    -999.25    2.43710  -40.11330   -1.38560    2.43710 3740.81690    -999.25
 9550.00000    -999.25   14.06830  508.28510    5.56830    -999.25    -999.25    -999.25    -999.25    -999.25    -999.25    1.96740    -999.25    -999.25   55.59920  109.60550    -999.25  109.60550    1.96740    1.94050    1.94050    -999.25    -999.25    -999.25    -999.25    -999.25    -999.25    2.18930  -39.14580   -1.02510    2.18930 3893.13380    -999.25
 9600.00000    -999.25   13.85690  494.51090    5.35690    -999.25    -999.25    -999.25    -999.25    -999.25    -999.25    2.02220    -999.25    -999.25   51.52220   93.25190    -999.25   93.25190    2.02220    1.99660    1.99660    -999.25    -999.25    -999.25    -999.25    -999.25    -999.25    2.23710  -39.28800   -1.77440    2.23710 3822.47390    -999.25
 9650.00000    -999.25   13.46500  513.21530    4.96500    -999.25    -999.25    -999.25    -999.25    -999.25    -999.25    1.94850    -999.25    -999.25   52.29160  100.65810    -999.25  100.65810    1.94850    1.88870    1.88870    -999.25    -999.25    -999.25    -999.25    -999.25    -999.25    2.23230  -38.86670   -1.96010    2.23230 3852.95610    -999.25
 9700.00000    -999.25   12.51660  402.20410    4.01660    -999.25    -999.25    -999.25    -999.25    -999.25    -999.25    2.48630    -999.25    -999.25   57.95560   92.59010    -999.25   92.59010    2.48630    2.45500    2.45500    -999.25    -999.25    -999.25    -999.25    -999.25    -999.25    2.83760  -38.98800   -2.68850    2.83760 3890.68530    -999.25
 9750.00000    -999.25   12.67920  408.71380    4.17920    -999.25    -999.25    -999.25    -999.25    -999.25    -999.25    2.44670    -999.25    -999.25   53.89060   86.64830    -999.25   86.64830    2.44670    2.41600    2.41600    -999.25    -999.25    -999.25    -999.25    -999.25    -999.25    2.74470  -37.27760   -1.58510    2.74470 3899.71970    -999.25
 9800.00000   12.78280   12.70640  414.30170    4.20640    0.07850    0.07850    2.56830    -999.25    0.08290    0.08290    2.41370   84.60510   84.60510   46.96170  103.76590  104.49610  103.76590    2.41370    2.38320    2.38320    -999.25    0.22120    0.22120    2.63670    2.63670    2.56690    2.77030  -38.73630   -3.41550    2.77030 3836.51320 3373.51950
 9850.00000   12.70220   12.66060  460.08740    4.16060    0.15870    0.15870    2.49340    -999.25    0.12670    0.12670    2.17350   93.92980   93.92980   63.90010  119.95430  120.66310  119.95430    2.17350    2.15410    2.15410    -999.25    0.28860    0.28860    2.77080    2.77080    2.49720    2.19850  -38.96070   -3.90590    2.19850 3856.66090 3377.05740
 9900.00000   12.96870   12.94490  410.29010    4.44490    0.09530    0.09530    2.55690    -999.25    0.08960    0.08960    2.43730   86.51490   86.51490   51.03740   98.03400   98.40690   98.03400    2.43730    2.40650    2.40650    -999.25    0.22590    0.22590    2.80470    2.80470    2.55730    2.80890  -36.81470   -2.02600    2.80890 4345.69040 3394.82150
 9950.00000   13.72850   13.67770  439.92790    5.17770    0.14080    0.14080    2.56790    -999.25    0.08310    0.08310    2.27310   84.70420   84.70420   55.37210  107.89630  108.36790  107.89630    2.27310    2.24460    2.24460    -999.25    0.24730    0.24730    2.80360    2.80360    2.56890    2.43740  -35.67200   -1.14930    2.43740 3933.06180 3426.03520
 10000.00000   12.31970   12.29760  299.53570    3.79760    0.05200    0.05200    2.51810    -999.25    0.11220    0.11220    3.33850   98.63300   98.63300   51.51480   95.85310   96.65750   95.85310    3.33850    3.12000    3.12000    -999.25    0.18810    0.18810    2.66340    2.66340    2.51970    3.66600  -38.62020   -4.36350    3.66600 3843.07180 3423.85400
 10050.00000   11.00070   10.99500  157.56720    2.49500   -0.00050   -0.00050    2.62480    -999.25    0.04980    0.04980    6.34650   73.42940   73.42940   31.92230   59.50260   59.67530   59.50260    6.34650    5.94140    5.94140    -999.25    0.14480    0.14480    4.01940    4.01940    2.62340    6.71250  -38.96110   -4.97040    6.71250 3915.66410 3433.30320
 10100.00000   11.47950   11.47540  211.12640    2.97540    0.02670    0.02670    2.61270    -999.25    0.05690    0.05690    4.73650   75.95330   75.95330   42.47920   91.07190   90.60760   91.07190    4.73650    4.67510    4.67510    -999.25    0.16340    0.16340    3.74210    3.74210    2.61010    4.66680  -34.83980   -1.07320    4.66680 4960.16160 4351.79250
 10150.00000   11.18210   11.14880  173.56890    2.64880   -0.00640   -0.00640    2.58100    -999.25    0.07550    0.07550    5.76140   75.21390   75.21390   38.87760   60.24940   59.17760   60.24940    5.76140    5.60710    5.60710    -999.25    0.13330    0.13330    3.86340    3.86340    2.58030    6.48730  -37.19680   -3.47580    6.48730 3993.85110 3440.90580
 10200.00000   10.87500   10.85330  124.84080    2.35330   -0.00610   -0.00610    2.59050    -999.25    0.06990    0.06990    8.01020   76.33350   76.33350   30.19800   45.49370   44.97990   45.49370    8.01020    7.32580    7.32580    -999.25    0.09260    0.09260    3.98540    3.98540    2.59600   10.10020  -36.35720   -2.68170   10.10020 4090.53370 3497.61470
 10250.00000   10.36670   10.34960  166.44750    1.84960   -0.01140   -0.01140    2.35460    -999.25    0.20780    0.20780    6.00790   84.47910   84.47910   46.14010   65.79820   66.60660   65.79820    6.00790    4.19750    4.19750    -999.25    0.19580    0.19580    4.18820    4.18820    2.34990    6.83390  -40.31500   -6.68500    6.83390 4046.04660 3497.96480
 10300.00000   10.91390   10.94820   61.14080    2.44820   -0.00680   -0.00680    2.61680    -999.25    0.05450    0.05450   16.35570   73.92050   73.92050   28.06880   46.65430   46.49130   46.65430   16.35570   13.61980   13.61980    -999.25    0.16640    0.16640    4.22870    4.22870    2.61390   19.76340  -40.57670   -6.99220   19.76340 4018.57760 3476.45510
 10350.00000   11.66430   11.64730   91.84420    3.14730    0.00680    0.00680    2.50490    -999.25    0.11990    0.11990   10.88800   82.09060   82.09060   36.81230   58.75720   57.63490   58.75720   10.88800    9.26040    9.26040    -999.25    0.27040    0.27040    3.78750    3.78750    2.50300   14.81830  -39.02670   -5.48780   14.81830 3953.79540 3430.65010
