~Version ---------------------------------------------------
VERS. 2.0 : CWLS log ASCII Standard -VERSION 2.0
WRAP. YES : Multiple lines per depth step
~Well ------------------------------------------------------
STRT.FT                   4050.0 : START DEPTH
STOP.FT                   9250.0 : STOP DEPTH
STEP.FT                 50.00000 : STEP LENGTH
NULL.                    -999.25 : NULL VALUE
COMP. CHAMPLIN PETROLEUM COMPANY : COMPANY
WELL.         JOE F. CHARANZA #1 : WELL
FLD .                      BIG A : FIELD
LOC .                            : LOCATION
CNTY.                   BURLESON : COUNTY
STAT.                      TEXAS : STATE
CTRY.   UNITED STATES OF AMERICA : COUNTRY
SRVC.               Schlumberger : SERVICE COMPANY
DATE.                26-Nov-1980 : LOGDATE
API .             42051310600000 : API NUMBER
UWI .             42051310600000 : UNIQUE WELL ID
SLAT.WGS84         30.3900288698 : SURFACE LATITUDE
SLON.WGS84        -96.6349604611 : SURFACE LONGITUDE
~Curve Information -----------------------------------------
DEPT    .FT    : 
CALWS   .IN    : CALIPER [DCALED+8.5]
CONDWS  .MMHO  : CONDUCTIVITY [1000/DRESWS]
DCALED  .IN    : DIFFERENTIAL CALIPER FROM DIL-SFL-CNFD LOG
DCORWS  .G/C3  : DENSITY CORRECTION [DRHOED]
DENWS   .G/C3  : FORMATION BULK DENSITY [CALCULATED FROM DPOWS, M=2.71, F=1.0]
DPHILSED.V/V   : DENSITY POROSITY LIMESTONE [M=2.71, F=1.0] FROM DIL-SFL-CNFD LOG [ADJ. TO GRRED]
DPHISSED.V/V   : DENSITY POROSITY SANDSTONE [M=2.65, F=1.0] FROM DIL-SFL-CNFD LOG [ADJ. TO GRRED]
DPOWS   .V/V   : DENSITY POROSITY LIMESTONE [DPHISSED CONVERTED TO LIMESTONE MATRIX(M=2.71, F=1.0) & SPL. TO DPHILSED @7500']
DRESWS  .OHMM  : DEEP RESISTIVITY [ILDED]
DRHOED  .G/C3  : BULK DENSITY CORRECTION FROM DIL-SFL-CNFD LOG [ADJ. TO GRRED]
GRRED   .GAPI  : GAMMA RAY FROM DIL-SFL-CNFD LOG
GRWS    .GAPI  : GAMMA RAY [GRRED] CSG < 4028'
ILDED   .OHMM  : INDUCTION DEEP RESISTIVITY FROM DIL-SFL-CNFD LOG
ILMED   .OHMM  : INDUCTION MEDIUM RESISTIVITY FROM DIL-SFL-CNFD LOG
MRESWS  .OHMM  : MEDIUM RESISTIVITY [ILMED]
NPHILSED.V/V   : NEUTRON POROSITY LIMESTONE FROM DIL-SFL-CNFD LOG [ADJ. TO GRRED]
NPHISSED.V/V   : NEUTRON POROSITY SANDSTONE FROM DIL-SFL-CNFD LOG [ADJ. TO GRRED]
NPOWS   .V/V   : NEUTRON POROSITY LIMESTONE [NPHISSED MATRIX CONVERSION FOR LIMESTONE & SPL. TO NPHILSED @7500'] CSG < 4028'
SFLUED  .OHMM  : SHALLOW FOCUSED RESISTIVITY (UNAVERAGED) FROM DIL-SFL-CNFD LOG
SPRED   .MV    : SPONTANEOUS POTENTIAL FROM DIL-SFL-CNFD LOG
SPWS    .MV    : SPONTANEOUS POTENTIAL [BASELINE 0 MV, SPRED]
SRESWS  .OHMM  : SHALLOW RESISTIVITY [SFLUED]
~Params ----------------------------------------------------
PD  .                     GL : PERMANENT DATUM
EPD .FT                  323 : ELEVATION PERMANENT DATUM
LMF .                     KB : LOG MEASURED FROM
DAPD.FT                   13 : FEET ABOVE PERMANENT DATUM
DMF .                     KB : DRILLING MEASURED FROM
EKB .FT                  336 : KELLY BUSHING
EDF .FT                  335 : DRILLING FLOOR
EGL .FT                  323 : GROUND LEVEL
DATE.               11/26/80 : RUN DATE
RUN .                      1 : RUN NUMBER
DD  .FT                 9321 : DEPTH DRILLER
DL  .FT                 9294 : DEPTH LOGGER
BLI .FT                 9288 : BOTTOM LOG INTERVAL
TLI .FT                 4028 : TOP LOG INTERVAL
CS  .IN                9.625 : CASING SIZE
CBD .FT                 4035 : CASING BOTTOM DRILLER
CBL .FT                 4028 : CASING BOTTOM LOGGER
BS  .IN                 8.75 : BIT SIZE
BSD .FT                 9321 : BIT SIZE AT DEPTH
DFT .                 BEN EX : DRILLING FLUID TYPE
DFD .                    9.4 : DRILLING FLUID DENSITY
DFV .                     43 : DRILLING FLUID VISCOSITY
DFPH.                      9 : DRILLING FLUID PH
DFL .                    7.2 : DRILLING FLUID LOSS
MSS .                   TANK : MUD SAMPLE SOURCE
RMS .OHMM               2.79 : RESISTIVITY MUD SAMPLE
MST .DEGF                 75 : MUD SAMPLE TEMPERATURE
RMF .OHMM               2.08 : RESISTIVITY MUD FILTRATE SAMPLE
MFST.DEGF                 75 : MUD FILTRATE SAMPLE TEMPERATURE
RMC .OHMM               4.18 : RESISTIVITY MUD CAKE
MCST.DEGF                 75 : MUD CAKE SAMPLE TEMPERATURE
MFSS.                      M : MUD FILTRATE SAMPLE SOURCE
MCSS.                      C : MUD CAKE SAMPLE SOURCE
RMB .OHMM               1.07 : RESISTIVITY MUD AT BHT
TCS .HRS                 600 : TIME CIRCULATED STOPPED
TLAB.HRS                1400 : TIME LOGGER AT BOTTOM
LUN .                   8096 : LOGGING UNIT NUMBER
LUL .                BRENHAM : LOGGING UNIT LOCATION
ENGI.              ZIMMERMAN : RECORDING ENGINEER
WITN.                  DRAKE : WITNESSED BY
CLNT.                A2DTECH : CLIENT CODE
ORIG.          1" 2.5" PRINT : ORIGIN OF DATA
UWI .         42051310600000 : UNIQUE WELL ID
DICO. A2D Technologies, Inc. : DIGITIZING COMPANY
~Other -----------------------------------------------------
~ASCII -----------------------------------------------------
 4050.00000    9.37090   66.92410    0.62090    0.00410    2.31650    -999.25    0.20210    0.23010   14.94230    0.00410   96.90870   96.90870   14.94230   11.95820   11.95820    -999.25    0.35160    0.30800   11.88790    -999.25    -999.25   11.88790
 4100.00000   13.72070  214.51860    4.97070   -0.02980    1.86200    -999.25    0.47760    0.49590    4.66160   -0.02980   69.97820   69.97820    4.66160    4.01380    4.01380    -999.25    0.30520    0.26120    3.91470  -20.91820  -13.43190    3.91470
 4150.00000    9.13780   49.60810    0.38780    0.00220    2.14810    -999.25    0.30420    0.32860   20.15800    0.00220   61.96400   61.96400   20.15800   15.59030   15.59030    -999.25    0.33410    0.29030   13.68130  -16.31540   -9.17300   13.68130
 4200.00000    9.53680   56.61490    0.78680   -0.00090    2.11700    -999.25    0.32300    0.34680   17.66320   -0.00090   47.81870   47.81870   17.66320   12.72400   12.72400    -999.25    0.30880    0.26490   11.90460  -15.46500   -8.66650   11.90460
 4250.00000    9.46070  124.58420    0.71070   -0.00470    2.43850    -999.25    0.12820    0.15880    8.02670   -0.00470   92.21980   92.21980    8.02670    8.58130    8.58130    -999.25    0.27610    0.23210    9.01650  -18.25640  -11.80180    9.01650
 4300.00000   10.00900   48.84000    1.25900   -0.03140    1.69430    -999.25    0.57920    0.59400   20.47500   -0.03140   45.92740   45.92740   20.47500   19.96850   19.96850    -999.25    0.60240    0.56070   78.17610  -11.46310   -5.35230   78.17610
 4350.00000    9.20560  261.41060    0.45560    0.05670    2.41900    -999.25    0.14000    0.17020    3.82540    0.05670  126.34950  126.34950    3.82540    3.89800    3.89800    -999.25    0.37660    0.33330    4.23510   -9.51070   -3.74380    4.23510
 4400.00000    8.71980  205.64710   -0.03020    0.00440    2.25470    -999.25    0.23960    0.26630    4.86270    0.00440   56.84190   56.84190    4.86270    5.71360    5.71360    -999.25    0.30070    0.25670    8.08050  -34.00750  -28.58450    8.08050
 4450.00000    8.79570  206.89800    0.04570    0.02660    2.33020    -999.25    0.19380    0.22210    4.83330    0.02660   95.50310   95.50310    4.83330    5.70990    5.70990    -999.25    0.29820    0.25420    8.51410  -31.58200  -26.50290    8.51410
 4500.00000    9.03870  248.31150    0.28870    0.01010    2.20760    -999.25    0.26810    0.29380    4.02720    0.01010   72.08860   72.08860    4.02720    5.26360    5.26360    -999.25    0.30560    0.26160    8.71910  -46.99310  -42.25790    8.71910
 4550.00000    9.13550  212.48570    0.38550   -0.00220    2.28220    -999.25    0.22290    0.25020    4.70620   -0.00220   86.64810   86.64810    4.70620    5.45480    5.45480    -999.25    0.26840    0.22440    8.63200  -28.09070  -23.69930    8.63200
 4600.00000    9.71580  415.16170    0.96580    0.02960    1.85500    -999.25    0.48180    0.50000    2.40870    0.02960   63.08150   63.08150    2.40870    3.13930    3.13930    -999.25    0.43330    0.39120    6.79950  -50.89530  -46.84780    6.79950
 4650.00000    9.20630  297.43320    0.45630    0.01640    2.40580    -999.25    0.14800    0.17790    3.36210    0.01640   95.42360   95.42360    3.36210    3.95220    3.95220    -999.25    0.29130    0.24730    5.22110  -35.47120  -31.76760    5.22110
 4700.00000    9.61330  267.46550    0.86330    0.01350    2.40580    -999.25    0.14800    0.17790    3.73880    0.01350  105.58930  105.58930    3.73880    3.78920    3.78920    -999.25    0.29820    0.25420    5.15820  -15.04940  -11.68970    5.15820
 4750.00000    9.68770  457.64500    0.93770    0.01010    2.18390    -999.25    0.28250    0.30770    2.18510    0.01010   52.28880   52.28880    2.18510    3.31040    3.31040    -999.25    0.28560    0.24160    7.59130  -64.14280  -61.12700    7.59130
 4800.00000    9.24830  325.93460    0.49830   -0.00210    2.03750    -999.25    0.37120    0.39330    3.06810   -0.00210   95.48650   95.48650    3.06810    3.55600    3.55600    -999.25    0.46680    0.42510    5.36740  -18.86730  -14.90780    5.36740
 4850.00000    9.41770  388.16860    0.66770    0.00090    2.39490    -999.25    0.15460    0.18430    2.57620    0.00090   99.05300   99.05300    2.57620    3.12680    3.12680    -999.25    0.29420    0.25020    5.90910  -31.47660  -23.09210    5.90910
 4900.00000    9.04480  516.68910    0.29480   -0.00080    2.24770    -999.25    0.24380    0.27030    1.93540   -0.00080   67.76210   67.76210    1.93540    2.95140    2.95140    -999.25    0.31300    0.26910    7.63550  -62.38900  -49.57950    7.63550
 4950.00000    9.20520  509.68400    0.45520    0.00660    2.23720    -999.25    0.25020    0.27650    1.96200    0.00660   70.87980   70.87980    1.96200    2.90170    2.90170    -999.25    0.28440    0.24040    6.99990  -61.83660  -52.19920    6.99990
 5000.00000    9.34850  377.17350    0.59850    0.05000    2.36120    -999.25    0.17500    0.20390    2.65130    0.05000   70.33510   70.33510    2.65130    3.50480    3.50480    -999.25    0.30120    0.25720    7.21000  -41.38570  -38.66240    7.21000
 5050.00000    8.55990  560.06720   -0.19010    0.00030    2.31850    -999.25    0.20090    0.22890    1.78550    0.00030   80.83200   80.83200    1.78550    2.28180    2.28180    -999.25    0.32980    0.28600    5.04200  -56.99400  -57.20570    5.04200
 5100.00000    8.59250  427.27740   -0.15750    0.03940    2.30990    -999.25    0.20610    0.23400    2.34040    0.03940   79.46490   79.46490    2.34040    2.87920    2.87920    -999.25    0.29570    0.25170    6.53930  -38.58470  -38.96620    6.53930
 5150.00000    9.59900  400.81770    0.84900    0.02340    2.42000    -999.25    0.13940    0.16960    2.49490    0.02340  111.34190  111.34190    2.49490    2.53130    2.53130    -999.25    0.32270    0.27880    2.87060   -3.57190   -4.12330    2.87060
 5200.00000    9.26910  399.04230    0.51910   -0.00430    2.38070    -999.25    0.16320    0.19260    2.50600   -0.00430   92.95400   92.95400    2.50600    2.53890    2.53890    -999.25    0.27550    0.23150    3.80010  -18.66310  -19.38430    3.80010
 5250.00000    9.40870  385.16350    0.65870    0.03580    2.42360    -999.25    0.13720    0.16750    2.59630    0.03580  109.93150  109.93150    2.59630    2.63050    2.63050    -999.25    0.28700    0.24300    2.90110   -7.38120   -8.27230    2.90110
 5300.00000    9.34750  408.96450    0.59750    0.00960    2.40580    -999.25    0.14800    0.17790    2.44520    0.00960  108.14120  108.14120    2.44520    2.47740    2.47740    -999.25    0.30440    0.26040    2.42000   -7.94210   -9.00300    2.42000
 5350.00000    9.08670  400.24010    0.33670    0.05660    2.46090    -999.25    0.11460    0.14570    2.49850    0.05660  116.41210  116.41210    2.49850    2.53140    2.53140    -999.25    0.30250    0.25850    2.81870   -5.17640   -6.40710    2.81870
 5400.00000    9.38490  391.35880    0.63490    0.05530    2.37490    -999.25    0.16670    0.19590    2.55520    0.05530  101.89750  101.89750    2.55520    2.58880    2.58880    -999.25    0.30670    0.26270    2.85490   -5.68090   -7.08150    2.85490
 5450.00000    9.16750  408.99800    0.41750    0.05160    2.46870    -999.25    0.10990    0.14110    2.44500    0.05160  112.42320  112.42320    2.44500    2.48160    2.48160    -999.25    0.30490    0.26090    2.30870   -0.23280   -1.80320    2.30870
 5500.00000    9.24910  402.88470    0.49910    0.05450    2.47230    -999.25    0.10770    0.13900    2.48210    0.05450  108.66780  108.66780    2.48210    2.51520    2.51520    -999.25    0.30020    0.25620    2.65170   -2.85170   -4.59200    2.65170
 5550.00000   10.18220  486.87860    1.43220    0.10000    2.46070    -999.25    0.11470    0.14580    2.05390    0.10000  112.51560  112.51560    2.05390    2.08090    2.08090    -999.25    0.30930    0.26540    2.23180   -0.29820   -2.20830    2.23180
 5600.00000   10.48850  534.35930    1.73850    0.05130    2.43860    -999.25    0.12810    0.15870    1.87140    0.05130  105.07040  105.07040    1.87140    1.89620    1.89620    -999.25    0.33930    0.29560    2.09990    0.05510   -1.96810    2.09990
