~Version ---------------------------------------------------
VERS.      2.0 : CWLS log ASCII Standard -VERSION 2.0
WRAP.      YES : Multiple lines per depth step
CREA. 10/06/20 : LAS Creation Date
~Well ------------------------------------------------------
STRT.FT                 3150.0 : START DEPTH
STOP.FT                18400.0 : STOP DEPTH
STEP.FT               50.00000 : STEP LENGTH
NULL.                  -999.25 : NULL VALUE
COMP. AMOCO PRODUCTION COMPANY : COMPANY
WELL.       MARTIN GAS UNIT #1 : WELL
FLD .                  WILDCAT : FIELD
LOC .                          : LOCATION
CNTY.                     LEON : COUNTY
STAT.                    TEXAS : STATE
CTRY. UNITED STATES OF AMERICA : COUNTRY
SRVC.             Schlumberger : SERVICE COMPANY
DATE.              06-Oct-1998 : LOGDATE
API .           42289312900000 : API NUMBER
UWI .           42289312900000 : UNIQUE WELL ID
SLAT.WGS84       31.2448401024 : SURFACE LATITUDE
SLON.WGS84      -96.2384028977 : SURFACE LONGITUDE
~Curve Information -----------------------------------------
DEPT    .FT    : DEPTH FEET
AT20ED  .OHMM  : 20 INCH ARRAY RESISTIVITY TWO FOOT RESOLUTION FROM AIT LOG
AT30ED  .OHMM  : 30 INCH ARRAY RESISTIVITY TWO FOOT RESOLUTION FROM AIT LOG
AT60ED  .OHMM  : 60 INCH ARRAY RESISTIVITY TWO FOOT RESOLUTION FROM AIT LOG
AT90ED  .OHMM  : 90 INCH ARRAY RESISTIVITY TWO FOOT RESOLUTION FROM AIT LOG
BITSED  .IN    : BIT SIZE FROM RUN HEADERS
CALDED  .IN    : CALIPER FROM DENSITY LOG [DSH. TO GRRED]
CALWS   .IN    : CALIPER [TOP CALDED 14108' (DCALDED+BITSED) TD]
CONDWS  .MMHO  : DEEP CONDUCTIVITY [1000/DRESWS]
DCALDED .IN    : DIFFERENTIAL CALIPER FROM DENSITY LOG [DSH. TO GRRED]
DCORWS  .G/C3  : DENSITY CORRECTION [TOP DRHOED 16650' DRHED TD]
DENWS   .G/C3  : BULK DENSITY [CALC. FROM DPOLSWS]
DPHILSED.V/V   : DENSITY POROSITY (LS) [M=2.71 F=1.00] [DSH. TO GRRED]
DPOLSED .V/V   : DENSITY POROSITY (LS) [M=2.71 F=1.00] [DSH. TO GRRED]
DPOLSWS .V/V   : DENSITY POROSITY (LS) [M=2.71 F=1.00] [TOP DPHILSED 16650' DPOLSED TD]
DRESWS  .OHMM  : DEEP RESISTIVITY [TOP AT90ED 14100' ILDED 16650' IDPHED TD]
DRHED   .G/C3  : DENSITY CORRECTION FROM DENSITY LOG [DSH. TO GRRED]
DRHOED  .G/C3  : DENSITY CORRECTION FROM DENSITY LOG [DSH. TO GRRED]
DTCOED  .US/F  : DELTA TIME COMPRESSIONAL FROM SONIC LOG
DTLFED  .US/F  : DELTA TIME LONG SPACING FAR DETECTOR FROM SONIC LOG
DTLNED  .US/F  : DELTA TIME LONG SPACING NEAR DETECTOR FROM SONIC LOG
DTSMED  .US/F  : DELTA TIME SHEAR WAVE FROM SONIC LOG
DTSWS   .US/F  : DELTA TIME SHEAR [DTSMED]
DTWS    .US/F  : DELTA TIME COMPRESSIONAL [TOP DTCOED 16650' DTLNED TD]
GRDED   .GAPI  : GAMMA RAY FROM DENSITY LOG [DSH. TO GRRED]
GRRED   .GAPI  : GAMMA RAY FROM RESISTIVITY LOG
GRWS    .GAPI  : GAMMA RAY [GRRED][RESCALED GRWS IN CSG )14030-14106' & 16606-16645') FROM 0/90-0/150]
IDPHED  .OHMM  : DEEP INDUCTION PHASE RESISTIVITY
ILDED   .OHMM  : DEEP INDUCTION RESISTIVITY
ILMED   .OHMM  : MEDIUM INDUCTION RESISTIVITY
IMPHED  .OHMM  : MEDIUM INDUCTION PHASE RESISTIVITY
MRESWS  .OHMM  : MEDIUM RESISTIVITY [TOP AT30ED 14100' ILMED 16650' IMPHED TD]
NPHILSED.V/V   : NEUTRON POROSITY (LS) [DSH. TO GRRED]
NPOLSWS .V/V   : NEUTRON POROSITY (LS) [NPHILSED]
PEFED   .B/E   : PHOTOELECTRIC FACTOR FROM DENSITY LOG [DSH. TO GRRED]
PEFWS   .B/E   : PHOTOELECTRIC FACTOR [PEFED]
SFLUED  .OHMM  : SPHERICALLY FOCUSED UNAVERAGED RESISTIVITY
SPWS    .MV    : SPONTANEOUS POTENTIAL [BASELINE 0 MV] [SPRED]
SPRED   .MV    : SPONTANEOUS POTENTIAL FROM RESISTIVITY LOG
SRESWS  .OHMM  : SHALLOW RESISTIVITY [TOP AT20ED 14100' SFLUED TD]
TENDED  .LBF   : TENSION FROM DENSITY LOG [DSH. TO GRRED]
TENRED  .LBF   : TENSION FROM RESISTIVITY LOG
~Params ----------------------------------------------------
PD  .                     GL : PERMANENT DATUM
EPD .FT                389.3 : ELEVATION PERMANENT DATUM
LMF .                     KB : LOG MEASURED FROM
DAPD.FT                 33.7 : MEASUREMENT ABOVE PERMANENT DATUM
DMF .                     KB : DRILLING MEASURED FROM
EKB .FT                  423 : KELLY BUSHING
EDF .FT                  422 : DRILLING FLOOR
EGL .FT                389.3 : GROUND LEVEL
DATE.               10/06/98 : RUN DATE
RUN .                      3 : RUN NUMBER
DD  .FT                18400 : DEPTH DRILLER
DL  .FT                18391 : DEPTH LOGGER
BLI .FT                18381 : BOTTOM LOG INTERVAL
TLI .FT                16646 : TOP LOG INTERVAL
CS  .IN                7.625 : CASING SIZE
CBD .FT                16650 : CASING BOTTOM DRILLER
CBL .FT                16646 : CASING BOTTOM LOGGER
BS  .IN                 6.25 : BIT SIZE
BSD .FT                18400 : BIT SIZE AT DEPTH
DFT .             VERSADRILL : DRILLING FLUID TYPE
DFD .                   17.9 : DRILLING FLUID DENSITY
DFV .                     45 : DRILLING FLUID VISCOSITY
MSS .                MUD PIT : MUD SAMPLE SOURCE
MFSS.                   CALC : MUD FILTRATE SAMPLE SOURCE
MCSS.                   CALC : MUD CAKE SAMPLE SOURCE
TCS .HRS                 830 : TIME CIRCULATED STOPPED
TLAB.HRS                2357 : TIME LOGGER AT BOTTOM
LUN .                   2142 : LOGGING UNIT NUMBER
LUL .                  TYLER : LOGGING UNIT LOCATION
ENGI.                SKRBICH : RECORDING ENGINEER
WITN.       WALKER WYSZYNSKI : WITNESSED BY
CLNT.                A2DTECH : CLIENT CODE
ORIG.         1" 2" 5" PRINT : ORIGIN OF DATA
UWI .         42289312900000 : UNIQUE WELL ID
DICO. A2D Technologies, Inc. : DIGITIZING COMPANY
~Other -----------------------------------------------------
1) RESISTIVITY INVALID 14360-14404', 15400-15475 NULLED (REPEAT LOG N/A). PATCHED FROM REPEAT LOG 15950-15980' & 16590-16645'.
2) GRRED PATCHED FROM REPEAT LOG 15400-15500 & 16550-16606'.
3) SONIC NOT LOGGED 14100-16650' AND ERRATIC ON SOME AREAS ABOVE 6300' WITH SOME GAPS AND SPIKES HENCE PATCHED SOME SMALL AREAS.
4) LDL/CNL STICKING TOOL ENTIRE RUN2 - NULLED PEF INVALID @ 15410-15625' & 15730-15410', PATCHED DENSITY@16025-16040', PATCHED NEUTRON@14295-14320' & PATCHED GRDED@VARIOUS DEPTHS BASED ON GRRED. ANY DOUBTS, PLEASE REFER TO ORIGINAL CURVES IN STANDARD LAS. STICKING TOOL MAY SLIGHTLY AFFECT LOG QUALITY ON OTHER AREAS, PLEASE USE WITH CAUTIONS.
~ASCII -----------------------------------------------------
# ...
 11250.00000   19.54020   24.18620   35.94190   34.09520   10.62500   10.58400   10.58400   29.32960    -999.25    0.00410    2.59770    0.06570    -999.25    0.06570   34.09520    -999.25    0.00410   58.23610    -999.25    -999.25   94.34440   94.34440   58.23610   25.40930   24.32620   24.32620    -999.25    -999.25    -999.25    -999.25   24.18620    0.00310    0.00310    2.55260    2.55260    -999.25  -52.58620  -49.33830   19.54020 4394.31400 4788.58010
 11300.00000   29.73840   31.55720   49.38240   40.35120   10.62500   10.63260   10.63260   24.78240    -999.25   -0.00060    2.56580    0.08430    -999.25    0.08430   40.35120    -999.25   -0.00060   58.98110    -999.25    -999.25   96.73010   96.73010   58.98110   23.30480   24.00130   24.00130    -999.25    -999.25    -999.25    -999.25   31.55720   -0.00300   -0.00300    2.44890    2.44890    -999.25  -46.38300  -42.85320   29.73840 4431.02100 4815.82370
 11350.00000   53.16510   41.94490   36.11190   32.73740   10.62500   10.85180   10.85180   30.54610    -999.25    0.00180    2.62360    0.05050    -999.25    0.05050   32.73740    -999.25    0.00180   56.59300    -999.25    -999.25   88.42520   88.42520   56.59300   30.39040   30.71100   30.71100    -999.25    -999.25    -999.25    -999.25   41.94490    0.00280    0.00280    2.95870    2.95870    -999.25  -35.64190  -31.83030   53.16510 4428.50440 4833.33500
 11400.00000   22.56150   23.28220   34.09140   25.89100   10.62500   10.69620   10.69620   38.62350    -999.25   -0.00160    2.46990    0.14040    -999.25    0.14040   25.89100    -999.25   -0.00160   66.37020    -999.25    -999.25  100.08910  100.08910   66.37020   34.51940   32.18560   32.18560    -999.25    -999.25    -999.25    -999.25   23.28220    0.02920    0.02920    2.63790    2.63790    -999.25  -35.99850  -31.90500   22.56150 4417.63280 4840.21290
 11450.00000   60.25180   61.98130   88.15450   73.35080   10.62500   10.66060   10.66060   13.63310    -999.25    0.00700    2.61490    0.05560    -999.25    0.05560   73.35080    -999.25    0.00700   58.42840    -999.25    -999.25  102.44110  102.44110   58.42840   26.94900   28.17700   28.17700    -999.25    -999.25    -999.25    -999.25   61.98130    0.00490    0.00490    2.39180    2.39180    -999.25  -41.08710  -36.71170   60.25180 4431.27930 4821.21480
 11500.00000   52.06670   62.49220   91.16640   75.81300   10.62500   10.75690   10.75690   13.19030    -999.25    0.00390    2.61370    0.05630    -999.25    0.05630   75.81300    -999.25    0.00390   57.39170    -999.25    -999.25   90.42340   90.42340   57.39170   31.76690   26.86700   26.86700    -999.25    -999.25    -999.25    -999.25   62.49220    0.00070    0.00070    2.43560    2.43560    -999.25  -32.41940  -27.76220   52.06670 4468.21090 4891.15480
 11550.00000   53.87100   61.23940  103.86060   94.45410   10.62500   11.03890   11.03890   10.58720    -999.25   -0.00280    2.56210    0.08650    -999.25    0.08650   94.45410    -999.25   -0.00280   58.72960    -999.25    -999.25   94.19370   94.19370   58.72960   16.74100   14.25360   14.25360    -999.25    -999.25    -999.25    -999.25   61.23940   -0.00150   -0.00150    3.07210    3.07210    -999.25  -43.68100  -38.74190   53.87100 4496.36620 4885.57230
 11600.00000   55.75460   73.05550  187.46310  151.63750   10.62500   11.11440   11.11440    6.59470    -999.25   -0.00110    2.59800    0.06550    -999.25    0.06550  151.63750    -999.25   -0.00110   56.92650    -999.25    -999.25   96.16180   96.16180   56.92650   22.15000   24.10120   24.10120    -999.25    -999.25    -999.25    -999.25   73.05550    0.00010    0.00010    2.60310    2.60310    -999.25  -47.49000  -42.26900   55.75460 4475.19730 4922.90230
 11650.00000   32.44270   39.69390   70.62900   60.75300   10.62500   10.74810   10.74810   16.46010    -999.25    0.14890    2.68670    0.01360    -999.25    0.01360   60.75300    -999.25    0.14890   58.58790    -999.25    -999.25  102.28050  102.28050   58.58790   49.67220   42.78280   42.78280    -999.25    -999.25    -999.25    -999.25   39.69390    0.02000    0.02000    3.73360    3.73360    -999.25  -29.00220  -23.49940   32.44270 4513.56690 4845.91110
 11700.00000   29.65500   35.44830   51.86240   51.05920   10.62500   10.61900   10.61900   19.58510    -999.25    0.01190    2.63800    0.04210    -999.25    0.04210   51.05920    -999.25    0.01190   56.60780    -999.25    -999.25   99.20340   99.20340   56.60780   47.36750   47.34570   47.34570    -999.25    -999.25    -999.25    -999.25   35.44830    0.00900    0.00900    3.02250    3.02250    -999.25  -26.81210  -21.02740   29.65500 4466.41360 4951.61820
 11750.00000   23.41780   25.41120   36.62820   28.16040   10.62500   10.70610   10.70610   35.51090    -999.25    0.00030    2.61830    0.05360    -999.25    0.05360   28.16040    -999.25    0.00030   56.94180    -999.25    -999.25   88.68800   88.68800   56.94180   27.71770   27.86310   27.86310    -999.25    -999.25    -999.25    -999.25   25.41120    0.00720    0.00720    2.77070    2.77070    -999.25  -24.82270  -18.47340   23.41780 4461.28760 4919.88180
 11800.00000   31.83370   46.40030  110.13070   71.11650   10.62500   10.55740   10.55740   14.06140    -999.25   -0.00700    2.61370    0.05630    -999.25    0.05630   71.11650    -999.25   -0.00700   56.59100    -999.25    -999.25   88.33170   88.33170   56.59100   38.28490   32.82190   32.82190    -999.25    -999.25    -999.25    -999.25   46.40030    0.00620    0.00620    2.87200    2.87200    -999.25  -26.93130  -16.26200   31.83370 4495.18460 4878.40280
 11850.00000   21.86910   24.10410   28.91080   28.29050   10.62500   10.62130   10.62130   35.34760    -999.25   -0.00910    2.68020    0.01740    -999.25    0.01740   28.29050    -999.25   -0.00910   57.12060    -999.25    -999.25   92.54510   92.54510   57.12060   68.88420   71.36260   71.36260    -999.25    -999.25    -999.25    -999.25   24.10410    0.04800    0.04800    3.60680    3.60680    -999.25   -6.51390    8.26310   21.86910 4611.30660 4907.11910
 11900.00000   13.32670   14.81080   14.93680   14.09870   10.62500   11.18810   11.18810   70.92850    -999.25    0.03060    2.54600    0.09590    -999.25    0.09590   14.09870    -999.25    0.03060   66.19270    -999.25    -999.25  109.69250  109.69250   66.19270   77.51380   78.04060   78.04060    -999.25    -999.25    -999.25    -999.25   14.81080    0.08330    0.08330    3.57970    3.57970    -999.25   -5.27830   10.38530   13.32670 4592.54930 4974.74460
 11950.00000   19.93030   21.30740   22.51410   21.28950   10.62500   10.54540   10.54540   46.97150    -999.25    0.00980    2.66620    0.02560    -999.25    0.02560   21.28950    -999.25    0.00980   58.93560    -999.25    -999.25  100.46130  100.46130   58.93560   79.14830   75.62850   75.62850    -999.25    -999.25    -999.25    -999.25   21.30740    0.04380    0.04380    3.37260    3.37260    -999.25  -13.97970    3.21320   19.93030 4593.00000 4997.60990
 12000.00000   30.36800   40.08080   79.09820   68.38150   10.62500   10.65500   10.65500   14.62380    -999.25    0.01610    2.61950    0.05290    -999.25    0.05290   68.38150    -999.25    0.01610   60.21010    -999.25    -999.25   97.30250   97.30250   60.21010   33.39490   31.86310   31.86310    -999.25    -999.25    -999.25    -999.25   40.08080    0.00260    0.00260    3.04860    3.04860    -999.25  -25.01760   -6.29540   30.36800 4571.77590 4972.55810
 12050.00000    5.35450    6.44180   10.34560    9.44410   10.62500   12.64930   12.64930  105.88620    -999.25    0.01230    2.14180    0.33230    -999.25    0.33230    9.44410    -999.25    0.01230   62.68660    -999.25    -999.25   91.08950   91.08950   62.68660   76.37910   75.63750   75.63750    -999.25    -999.25    -999.25    -999.25    6.44180    0.24140    0.24140    6.35870    6.35870    -999.25  -11.26720    8.02050    5.35450 4639.41550 5004.60250
 12100.00000   33.99650   38.64510   51.57020   42.58970   10.62500   10.96410   10.96410   23.47990    -999.25    0.00430    2.69430    0.00920    -999.25    0.00920   42.58970    -999.25    0.00430   56.13010    -999.25    -999.25   87.09740   87.09740   56.13010   54.90200   49.51360   49.51360    -999.25    -999.25    -999.25    -999.25   38.64510    0.02100    0.02100    3.25740    3.25740    -999.25  -13.72710    5.99470   33.99650 4614.12260 5008.67820
