~Version ---------------------------------------------------
VERS.      2.0 : CWLS log ASCII Standard -VERSION 2.0
WRAP.      YES : Multiple lines per depth step
CREA. 07/19/18 : LAS Creation Date
~Well ------------------------------------------------------
STRT.FT                           4000.0 : START DEPTH
STOP.FT                          13600.0 : STOP DEPTH
STEP.FT                         50.00000 : STEP LENGTH
NULL.                            -999.25 : NULL VALUE
COMP. TEXSTAR NORTH AMERICA INCORPORATED : COMPANY
WELL.                         HOMEYER #2 : WELL
FLD .                     CENTRAL KENEDY : FIELD
LOC .                                    : LOCATION
CNTY.                             KARNES : COUNTY
STAT.                              TEXAS : STATE
CTRY.           UNITED STATES OF AMERICA : COUNTRY
SRVC.                       Schlumberger : SERVICE COMPANY
DATE.                        30-Mar-1990 : LOGDATE
API .                     42255312470000 : API NUMBER
UWI .                     42255312470000 : UNIQUE WELL ID
SLAT.WGS84                 28.7726896993 : SURFACE LATITUDE
SLON.WGS84                -97.8709093626 : SURFACE LONGITUDE
~Curve Information -----------------------------------------
DEPT    .FT    : DEPTH FEET
CALWS   .IN    : CALIPER [DCALDED+BIT]
CONDWS  .MMHO  : DEEP CONDUCTIVITY [1000/DRESWS]
DCALDED .IN    : DIFFERENTIAL CALIPER FROM DENSITY LOG
DCORWS  .G/C3  : DENSITY CORRECTION [DRHOED]
DENWS   .G/C3  : BULK DENSITY [TOP CALC. DPHISSED M=2.68 F=1.0, 12400' DPHISSED M=2.71 F=1.0]]
DPHILSED.V/V   : DENSITY POROSITY (LS) [M=2.71 F=1.0] FROM DENSITY LOG
DPHISSED.V/V   : DENSITY POROSITY (SS) [M=2.68 F=1.0] FROM DENSITY LOG
DPOLSWS .V/V   : DENSITY POROSITY LIMESTONE [M=2.71 F=1.0] [CALC. FROM DENWS]
DRESWS  .OHMM  : DEEP RESISTIVITY [ILDED]
DRHOED  .G/C3  : DENSITY CORRECTION FROM DENSITY LOG
DTED    .US/F  : DELTA TIME FROM DIL/SONIC LOG
DTLED   .US/F  : DELTA TIME LONG SPACING FROM DIL/SONIC LOG
DTWS    .US/F  : DELTA TIME COMPRESSIONAL [DTED]
GRDED   .GAPI  : GAMMA RAY FROM DENSITY LOG
GRRED   .GAPI  : GAMMA RAY FROM RESISTIVITY LOG
GRWS    .GAPI  : GAMMA RAY [TOP GRDED 6100' GRRED 13560' GRDED]
ILDED   .OHMM  : INDUCTION LOG DEEP RESISTIVITY
ILMED   .OHMM  : INDUCTION LOG MEDIUM RESISTIVITY
MRESWS  .OHMM  : MEDIUM RESISTIVITY [ILMED]
NPHILSED.V/V   : NEUTRON POROSITY LIMESTONE FROM DENSITY LOG
NPHISSED.V/V   : NEUTRON POROSITY SANDSTONE FROM DENSITY LOG
NPOLSWS .V/V   : NEUTRON POROSITY LIMESTONE [TOP CONVERSED NPHISSED TO LIME FROM POWER LOG; 12400' NPHILSED]
PEFED   .B/E   : PHOTOELECTRIC FACTOR FROM DENSITY LOG
PEFWS   .B/E   : PHOTOELECTRIC FACTOR [PEFED]
SFLUED  .OHMM  : SPHERICALLY FOCUSED LOG RESISTIVITY
SPHILSED.V/V   : SONIC POROSITY (LS) [DTM=49 DTF=189] FROM DIL/SONIC LOG
SPHISSED.V/V   : SONIC POROSITY (SS) [DTM=55.6 DTF=189] FROM DIL/SONIC LOG
SPOLSWS .V/V   : SONIC POROSITY (LS) [DTM=49 DTF=189] [CALC. FROM DTWS]
SPRED   .MV    : SPONTANEOUS POTENTIAL FROM RESISTIVITY LOG
SPWS    .MV    : SPONTANEOUS POTENTIAL [BASELINE 0 MV] [SPRED]
SRESWS  .OHMM  : SHALLOW RESISTIVITY [SFLUED]
TENDED  .LBF   : TENSION FROM DENSITY LOG
TENRED  .LBF   : TENSION FROM RESISTIVITY LOG
~Params ----------------------------------------------------
PD  .                     GL : PERMANENT DATUM
EPD .FT                  455 : ELEVATION PERMANENT DATUM
LMF .                     KB : LOG MEASURED FROM
DAPD.FT                   23 : MEASUREMENT ABOVE PERMANENT DATUM
DMF .                     KB : DRILLING MEASURED FROM
EKB .FT                  478 : KELLY BUSHING
EDF .FT                  477 : DRILLING FLOOR
EGL .FT                  455 : GROUND LEVEL
DATE.               03/30/90 : RUN DATE
RUN .                      1 : RUN NUMBER
DD  .FT                13600 : DEPTH DRILLER
DL  .FT                13608 : DEPTH LOGGER
BLI .FT                13602 : BOTTOM LOG INTERVAL
TLI .FT                 3954 : TOP LOG INTERVAL
CS  .IN                9.625 : CASING SIZE
CBD .FT                 3950 : CASING BOTTOM DRILLER
CBL .FT                 3954 : CASING BOTTOM LOGGER
BS  .IN                  8.5 : BIT SIZE
BSD .FT                13600 : BIT SIZE AT DEPTH
DFT .               KCL KLIG : DRILLING FLUID TYPE
DFD .                   10.7 : DRILLING FLUID DENSITY
DFV .                     41 : DRILLING FLUID VISCOSITY
DFPH.                   11.5 : DRILLING FLUID PH
DFL .                    9.4 : DRILLING FLUID LOSS
MSS .               CIRC PIT : MUD SAMPLE SOURCE
RMS .OHMM               0.63 : RESISTIVITY MUD SAMPLE
MST .DEGF                 75 : MUD SAMPLE TEMPERATURE
RMF .OHMM               0.55 : RESISTIVITY MUD FILTRATE SAMPLE
MFST.DEGF                 75 : MUD FILTRATE SAMPLE TEMPERATURE
RMC .OHMM               0.95 : RESISTIVITY MUD CAKE
MCST.DEGF                 75 : MUD CAKE SAMPLE TEMPERATURE
MFSS.                   MEAS : MUD FILTRATE SAMPLE SOURCE
MCSS.                   CALC : MUD CAKE SAMPLE SOURCE
RMB .OHMM              0.167 : RESISTIVITY MUD AT BHT
TCS .HRS                1530 : TIME CIRCULATED STOPPED
TLAB.HRS                  50 : TIME LOGGER AT BOTTOM
LUN .                   8268 : LOGGING UNIT NUMBER
LUL .             PLEASANTON : LOGGING UNIT LOCATION
ENGI.                 WILKIE : RECORDING ENGINEER
WITN.         REQUARTH GIBBS : WITNESSED BY
CLNT.                A2DTECH : CLIENT CODE
ORIG.            1" 5" PRINT : ORIGIN OF DATA
UWI .         42255312470000 : UNIQUE WELL ID
DICO. A2D Technologies, Inc. : DIGITIZING COMPANY
~Other -----------------------------------------------------
GRR SATURATED AT 5988'.
~ASCII -----------------------------------------------------
# ...
 8400.00000   10.07290  464.79200    1.57290   -0.01230    2.54510    -999.25    0.08030    0.09640    2.15150   -0.01230   88.48860   89.37680   88.48860  106.85140  100.32670  100.32670    2.15150    2.23170    2.23170    -999.25    0.29440    0.24290    -999.25    -999.25    2.48740    -999.25    0.22940    0.28210  -13.08060   -6.47000    2.48740 3962.37790 3038.38430
 8450.00000    9.79500  609.01340    1.29500   -0.00160    2.53940    -999.25    0.08370    0.09980    1.64200   -0.00160   92.47710   91.91830   92.47710  105.02650   98.02320   98.02320    1.64200    1.66880    1.66880    -999.25    0.33390    0.28410    -999.25    -999.25    1.95840    -999.25    0.25020    0.31060  -14.17160   -7.84880    1.95840 3933.47580 3054.22900
 8500.00000    9.71350  730.24680    1.21350   -0.00570    2.40570    -999.25    0.16330    0.17800    1.36940   -0.00570   94.61580   94.84660   94.61580   99.37170   99.09060   99.09060    1.36940    1.38990    1.38990    -999.25    0.36170    0.31360    -999.25    -999.25    1.72340    -999.25    0.25750    0.32580   -9.50510   -3.47000    1.72340 4125.35210 3039.62720
 8550.00000    9.96220  813.00810    1.46220    0.12150    2.54530    -999.25    0.08010    0.09630    1.23000    0.12150   96.18820   95.96220   96.18820  109.43700  104.61570  104.61570    1.23000    1.23080    1.23080    -999.25    0.34390    0.29470    -999.25    -999.25    1.60280    -999.25    0.26470    0.33710  -10.47860   -4.73130    1.60280 3899.73060 3061.98070
 8600.00000   13.59120  988.43530    5.09120    0.10600    2.13010    -999.25    0.32730    0.33910    1.01170    0.10600  106.42070  107.13620  106.42070   86.56520   88.56160   88.56160    1.01170    0.97650    0.97650    -999.25    0.44060    0.39960    -999.25    -999.25    1.06600    -999.25    0.29970    0.41010   -6.73460   -1.27510    1.06600 4031.40700 3068.82960
 8650.00000   10.27780  380.12700    1.77780    0.01940    2.47200    -999.25    0.12380    0.13920    2.63070    0.01940   79.39830   78.38170   79.39830   70.79430   72.54790   72.54790    2.63070    2.98070    2.98070    -999.25    0.20870    0.15740    -999.25    -999.25    3.69150    -999.25    0.18400    0.21710  -12.73050   -7.55880    3.69150 4728.12300 3088.76070
 8700.00000   14.38230 1058.87340    5.88230    0.09250    2.03350    -999.25    0.38480    0.39560    0.94440    0.09250  100.98750  103.41170  100.98750   82.33790   75.97520   75.97520    0.94440    0.90910    0.90910    -999.25    0.43320    0.39140    -999.25    -999.25    1.02160    -999.25    0.28140    0.37130   -5.61350   -0.72950    1.02160 4080.66950 3106.48340
 8750.00000   13.94530 1042.42680    5.44530    0.11950    2.16840    -999.25    0.30450    0.31670    0.95930    0.11950  106.21680  105.70730  106.21680   78.15880   75.09270   75.09270    0.95930    0.91890    0.91890    -999.25    0.47110    0.43370    -999.25    -999.25    1.04200    -999.25    0.30070    0.40870   -5.59430   -0.99810    1.04200 4016.73140 3130.01950
 8800.00000   12.03550  625.86060    3.53550    0.05130    1.95160    -999.25    0.43360    0.44350    1.59780    0.05130   91.61310   94.07040   91.61310   79.01340   75.62930   75.62930    1.59780    1.61720    1.61720    -999.25    0.28910    0.23740    -999.25    -999.25    2.25050    -999.25    0.24450    0.30440   -9.76730   -5.45890    2.25050 4095.27000 3054.49660
 8850.00000   15.50500 1032.41790    7.00500    0.10440    2.17210    -999.25    0.30230    0.31450    0.96860    0.10440  101.41340  102.12030  101.41340   80.79010   79.86770   79.86770    0.96860    0.89150    0.89150    -999.25    0.44060    0.39960    -999.25    -999.25    1.10880    -999.25    0.28230    0.37440   -6.43040   -2.40980    1.10880 4089.70900 3089.18920
 8900.00000   13.77700  917.76800    5.27700    0.10750    2.18260    -999.25    0.29610    0.30840    1.08960    0.10750   98.94610   97.91470   98.94610   77.44440   80.47790   80.47790    1.08960    1.06210    1.06210    -999.25    0.36640    0.31870    -999.25    -999.25    1.31160    -999.25    0.27380    0.35680   -5.76260   -1.96710    1.31160 4097.00930 3107.14790
 8950.00000   10.23910  212.25110    1.73910    0.06280    2.37690    -999.25    0.18040    0.19480    4.71140    0.06280   75.07130   74.67280   75.07130   51.51690   45.92310   45.92310    4.71140    4.92990    4.92990    -999.25    0.18800    0.13810    -999.25    -999.25    6.13070    -999.25    0.16100    0.18620  -35.45180  -31.55220    6.13070 4112.31980 3146.73970
 9000.00000   10.84610  432.88170    2.34610    0.02060    2.61360    -999.25    0.03950    0.05640    2.31010    0.02060   80.34880   81.21620   80.34880   87.28200   85.11350   85.11350    2.31010    2.20520    2.20520    -999.25    0.27010    0.21760    -999.25    -999.25    3.03030    -999.25    0.19470    0.22390  -11.77260   -7.76900    3.03030 4092.02910 3127.03590
 9050.00000   14.12340  954.28950    5.62340    0.03200    2.01560    -999.25    0.39550    0.40610    1.04790    0.03200  104.09170  103.37840  104.09170   82.20970   78.88040   78.88040    1.04790    1.00940    1.00940    -999.25    0.41700    0.37360    -999.25    -999.25    1.15430    -999.25    0.29320    0.39350   -6.82910   -2.72150    1.15430 4102.13380 3132.74780
 9100.00000   12.93760  888.25720    4.43760    0.14410    2.26370    -999.25    0.24780    0.26100    1.12580    0.14410   95.20750   96.92650   95.20750   85.09980   87.99930   87.99930    1.12580    1.14130    1.14130    -999.25    0.43680    0.39540    -999.25    -999.25    1.21300    -999.25    0.26130    0.33010   -7.61440   -3.40270    1.21300 4243.93360 3167.32100
 9150.00000   10.67220  890.86860    2.17220    0.09050    1.90330    -999.25    0.46230    0.47170    1.12250    0.09050   95.90750   96.79000   95.90750    -999.25   83.37150   83.37150    1.12250    1.08440    1.08440    -999.25    0.35290    0.30420    -999.25    -999.25    1.51120    -999.25    0.26270    0.33510   -8.39390   -4.07820    1.51120 4197.11910 3196.74830
 9200.00000    -999.25  918.44230    -999.25    -999.25    -999.25    -999.25    -999.25    -999.25    1.08880    -999.25   98.78100   99.43920   98.78100    -999.25  106.24410  106.24410    1.08880    1.15070    1.15070    -999.25    -999.25    -999.25    -999.25    -999.25    1.44920    -999.25    0.27380    0.35560  -12.97520   -8.55550    1.44920    -999.25 3221.72710
 9250.00000    -999.25  626.13490    -999.25    -999.25    -999.25    -999.25    -999.25    -999.25    1.59710    -999.25   89.24800   90.77720   89.24800    -999.25   96.43430   96.43430    1.59710    1.52710    1.52710    -999.25    -999.25    -999.25    -999.25    -999.25    1.74270    -999.25    0.23510    0.28750  -12.18340   -7.65970    1.74270    -999.25 3250.62110
 9300.00000    -999.25  660.02240    -999.25    -999.25    -999.25    -999.25    -999.25    -999.25    1.51510    -999.25   90.24070   91.12370   90.24070    -999.25  111.52450  111.52450    1.51510    1.57850    1.57850    -999.25    -999.25    -999.25    -999.25    -999.25    1.89160    -999.25    0.23910    0.29460  -13.08810   -8.46030    1.89160    -999.25 3261.19460
 9350.00000    -999.25  891.90150    -999.25    -999.25    -999.25    -999.25    -999.25    -999.25    1.12120    -999.25   95.91060   95.45900   95.91060    -999.25  102.38310  102.38310    1.12120    1.16240    1.16240    -999.25    -999.25    -999.25    -999.25    -999.25    1.35830    -999.25    0.26120    0.33510  -12.88590   -8.15410    1.35830    -999.25 3277.51610
 9400.00000    -999.25  629.40580    -999.25    -999.25    -999.25    -999.25    -999.25    -999.25    1.58880    -999.25   89.93800   90.59200   89.93800    -999.25  109.74020  109.74020    1.58880    1.66250    1.66250    -999.25    -999.25    -999.25    -999.25    -999.25    2.12970    -999.25    0.23750    0.29240  -12.95470   -8.11890    2.12970    -999.25 3262.58250
 9450.00000    -999.25  586.37270    -999.25    -999.25    -999.25    -999.25    -999.25    -999.25    1.70540    -999.25   91.03950   91.48670   91.03950    -999.25  111.96630  111.96630    1.70540    1.75880    1.75880    -999.25    -999.25    -999.25    -999.25    -999.25    1.97440    -999.25    0.24410    0.30030  -12.44820   -7.50830    1.97440    -999.25 3281.69680
