~Version ---------------------------------------------------
VERS. 2.0 : CWLS log ASCII Standard -VERSION 2.0
WRAP.  NO : One line per depth step
~Well ------------------------------------------------------
STRT.FT                  300.0 : START DEPTH
STOP.FT                 4800.0 : STOP DEPTH
STEP.FT               50.00000 : STEP LENGTH
NULL.                  -999.25 : NULL VALUE
COMP.    TESORO PETROLEUM CORP : COMPANY
WELL. CLARE JANE HENDERSHOT #1 : WELL
FLD .                       WC : FIELD
LOC .                          : LOCATION
CNTY.                 GONZALES : COUNTY
STAT.                    TEXAS : STATE
CTRY. UNITED STATES OF AMERICA : COUNTRY
SRVC.             Schlumberger : SERVICE COMPANY
DATE.              17-Dec-1976 : LOGDATE
API .           42177302180000 : API NUMBER
UWI .           42177302180000 : UNIQUE WELL ID
SLAT.WGS84       29.5620734756 : SURFACE LATITUDE
SLON.WGS84      -97.5832237409 : SURFACE LONGITUDE
~Curve Information -----------------------------------------
DEPT  .FT    : DEPTH FEET
CAL1  .IN    : CALIPER FRACTURE IDENTIFICATION LOG
CAL2  .IN    : CALIPER FRACTURE IDENTIFICATION LOG
CORR  .G/C3  : DENSITY CORRECTION FROM DENSITY LOG
DPHILS.V/V   : DENSITY POROSITY LIMESTONE FROM DENSITY LOG
DPHISS.V/V   : DENSITY POROSITY SANDSTONE FROM DENSITY LOG
GRD   .GAPI  : GAMMA RAY FROM DENSITY LOG
ILD   .OHMM  : INDUCTION LOG DEEP RESISTIVITY
ILM   .OHMM  : INDUCTION LOG MEDIUM RESISTIVITY
LL8   .OHMM  : 8 INCH LATEROLOG RESISTIVITY
NPHILS.V/V   : NEUTRON POROSITY LIMESTONE FROM DENSITY LOG
NPHISS.V/V   : NEUTRON POROSITY SANDSTONE FROM DENSITY LOG
RHOB  .G/C3  : BULK DENSITY FROM DENSITY LOG
SPR   .MV    : SPONTANEOUS POTENTIAL FROM RESISTIVITY LOG
~Params ----------------------------------------------------
~Other -----------------------------------------------------
~ASCII -----------------------------------------------------
# ...
 2900.00000    -999.25    -999.25    -999.25    -999.25    -999.25    -999.25    1.00930    1.06820    1.41420    -999.25    -999.25    -999.25  -32.86950
 2950.00000    -999.25    -999.25    -999.25    -999.25    -999.25    -999.25    1.18100    1.22430    1.57030    -999.25    -999.25    -999.25  -32.37150
 3000.00000    -999.25    -999.25    0.10290    -999.25    0.31160   78.70030    0.82420    0.86840    1.23870    -999.25    0.49340    2.16400  -31.19330
 3050.00000    -999.25    -999.25    0.08880    -999.25    0.21460   85.51700    1.87990    1.95060    2.44360    -999.25    0.39150    2.34400  -32.95780
 3100.00000    -999.25    -999.25    0.05850    -999.25    0.15870   80.77970    2.34440    2.47530    3.05810    -999.25    0.33530    2.38710  -34.18270
 3150.00000    -999.25    -999.25    0.07360    -999.25    0.17290   80.39500    2.15050    2.28920    2.77760    -999.25    0.36390    2.39370  -33.29190
 3200.00000    -999.25    -999.25    0.02030    -999.25    0.23870   58.49130    1.74440    2.04280    2.60450    -999.25    0.38440    2.31710  -38.56110
 3250.00000    -999.25    -999.25    0.10720    -999.25    0.16180   77.18380    1.58170    1.67360    2.13980    -999.25    0.43610    2.38670  -33.16130
 3300.00000    -999.25    -999.25    0.16050    -999.25    0.24050   74.49500    1.72140    1.96120    3.30680    -999.25    0.34720    2.31070  -40.21930
 3350.00000    -999.25    -999.25    0.05060    -999.25    0.22820   87.82320    1.22150    1.25950    1.71230    -999.25    0.46180    2.30150  -29.69110
 3400.00000    -999.25    -999.25    0.10650    -999.25    0.35100    -999.25    1.11740    1.16460    1.63060    -999.25    -999.25    2.06900  -28.87060
 3450.00000    -999.25    -999.25    -999.25    -999.25    -999.25    -999.25    1.42930    1.48570    1.90600    -999.25    -999.25    -999.25  -33.49340
 3500.00000    -999.25    -999.25    -999.25    -999.25    -999.25    -999.25    1.55320    1.61940    2.22630    -999.25    -999.25    -999.25  -34.81730
 3550.00000    -999.25    -999.25    -999.25    -999.25    -999.25    -999.25    1.54990    1.60680    1.97800    -999.25    -999.25    -999.25  -34.10770
 3600.00000    -999.25    -999.25    -999.25    -999.25    -999.25    -999.25    1.36800    1.45620    1.86560    -999.25    -999.25    -999.25  -34.19040
 3650.00000    -999.25    -999.25    -999.25    -999.25    -999.25    -999.25    1.24960    1.30880    1.82120    -999.25    -999.25    -999.25  -32.26760
 3700.00000    -999.25    -999.25    -999.25    -999.25    -999.25    -999.25    2.20630    2.33020    3.03090    -999.25    -999.25    -999.25  -24.84740
 3750.00000    -999.25    -999.25    -999.25    -999.25    -999.25    -999.25    1.84670    2.02060    2.56330    -999.25    -999.25    -999.25  -24.86100
 3800.00000    -999.25    -999.25    -999.25    -999.25    -999.25    -999.25    1.13540    1.18370    1.55720    -999.25    -999.25    -999.25  -23.79620
 3850.00000    -999.25    -999.25    -999.25    -999.25    -999.25    -999.25    0.92880    0.99640    1.31400    -999.25    -999.25    -999.25  -22.31470
 3900.00000    -999.25    -999.25    -999.25    -999.25    -999.25    -999.25    0.99030    1.02970    1.36750    -999.25    -999.25    -999.25  -21.52430
 3950.00000    -999.25    -999.25    -999.25    -999.25    -999.25    -999.25    1.14490    1.19770    1.62740    -999.25    -999.25    -999.25  -24.53240
 4000.00000    -999.25    -999.25    -999.25    -999.25    -999.25    -999.25    1.07010    1.12300    1.51030    -999.25    -999.25    -999.25  -22.77480
 4050.00000    -999.25    -999.25    -999.25    -999.25    -999.25    -999.25    1.15760    1.23230    1.55360    -999.25    -999.25    -999.25  -22.65580
 4100.00000    -999.25    -999.25    -999.25    -999.25    -999.25    -999.25    1.09750    1.19890    1.59200    -999.25    -999.25    -999.25  -20.57500
 4150.00000    -999.25    -999.25    -999.25    -999.25    -999.25    -999.25    1.16660    1.22470    1.63830    -999.25    -999.25    -999.25  -24.67290
 4200.00000    8.89440    7.78890    0.00320    -999.25    -999.25    -999.25    1.37020    1.59140    2.03140    -999.25    -999.25    2.39360  -21.06800
 4250.00000    8.96470    7.83880    0.07980    0.18510    -999.25   83.89000    1.45770    1.62650    2.15860    0.32650    -999.25    2.43000  -19.71220
 4300.00000   10.05970    8.02710    0.10040    0.16630    -999.25   91.71960    1.18800    1.26700    1.74380    0.34250    -999.25    2.34920  -19.21840
 4350.00000   10.00420    8.05720    0.05730    0.17880    -999.25   92.87050    1.17150    1.22750    1.68480    0.34460    -999.25    2.38680  -21.43120
 4400.00000    8.51660    7.74870    0.12180    0.14950    -999.25   77.69130    1.17470    1.27710    2.26740    0.28950    -999.25    2.48870  -31.58640
 4450.00000    7.66980    7.48790    0.00850    0.14330    -999.25   70.47440    1.59340    1.67120    2.19090    0.24790    -999.25    2.47260  -40.44610
 4500.00000    7.77710    7.61870    0.01050    0.09670    -999.25   31.54880    3.54520    3.82920    4.74540    0.11820    -999.25    2.55650  -41.52080
 4550.00000    7.57650    7.39100   -0.00340    0.07600    -999.25   33.97010    4.46810    5.08820    5.70340    0.11350    -999.25    2.58410  -35.35480
 4600.00000    7.51220    7.38180    0.03000    0.10010    -999.25   57.24550    3.74570    4.71400    5.83200    0.13950    -999.25    2.49600  -46.63050
 4650.00000    7.57670    7.45050   -0.01670    0.10760    -999.25   40.17830    4.18500    4.48690    4.52940    0.12120    -999.25    2.58550  -37.44620
 4700.00000    7.52120    7.27060   -0.01500    0.08060    -999.25   31.07070    4.20890    4.87200    6.51240    0.09570    -999.25    2.56410  -48.68940
 4750.00000    7.45710    7.31310    0.00090    0.16670    -999.25   87.99360    3.00700    3.32620    4.48120    0.26010    -999.25    2.40560  -33.34470
 4800.00000    7.50310    7.26120    0.01960    0.03690    -999.25   36.01070    8.33370   10.11560   10.73120    0.08340    -999.25    2.64900  -51.44510
