~Version ---------------------------------------------------
VERS. 2.0 : CWLS log ASCII Standard -VERSION 2.0
WRAP.  NO : ONE LINE PER DEPTH STEP
~Well ------------------------------------------------------
STRT.F                  2600.0 : START DEPTH
STOP.F                 11800.0 : STOP DEPTH
STEP.F                50.00000 : STEP LENGTH
NULL.                  -999.25 : NULL VALUE
COMP.    THE MORAN CORPORATION : COMPANY
WELL.         W. R. SURFACE #1 : WELL
FLD .                  WILDCAT : FIELD
LOC .                          : LOCATION
CNTY.                   GRIMES : COUNTY
STAT.                    TEXAS : STATE
CTRY. UNITED STATES OF AMERICA : COUNTRY
SRVC.             Schlumberger : SERVICE COMPANY
DATE.              09-Oct-1978 : LOGDATE
API .           42185302150000 : API NUMBER
UWI .           42185302150000 : UNIQUE WELL ID
SLAT.WGS84       30.7773829853 : SURFACE LATITUDE
SLON.WGS84      -96.0018015931 : SURFACE LONGITUDE
~Curve Information -----------------------------------------
DEPT   .F                 : 
CALD   .IN   45 280 60 00 : CALIPER FROM DENSITY LOG
CORR   .G/C3 45 356 01 00 : DENSITY CORRECTION
DPHI_LS.DEC  45 890 10 00 : DENSITY POROSITY LIMESTONE
NPHI_LS.DEC  42 890 01 00 : NEUTRON POROSITY LIMESTONE
GRD    .GAPI 45 310 01 00 : GAMMA RAY FROM DENSITY LOG
RHOB   .G/C3 45 350 01 00 : BULK DENSITY
DPHI_SS.DEC  45 890 12 00 : DENSITY POROSITY SANDSTONE
NPHI_SS.DEC  42 890 03 00 : NEUTRON POROSITY SANDSTONE
ASFL   .OHMM 06 221 01 00 : AMPLIFIED SPHERICALLY FOCUSED LOG RES.
RILD   .OHMM 06 120 46 00 : INDUCTION LOG DEEP RESISTIVITY
CILD   .MMHO 06 110 46 00 : CONDUCTIVITY INDUCTION LOG DEEP
SPR    .MV   06 010 01 00 : SPONTANEOUS POTENTIAL FROM RES.
NEUT   .NAPI 35 330 01 00 : NEUTRON
GRN    .GAPI 35 310 01 00 : GAMMA RAY
~Params ----------------------------------------------------
PD  .                     GL : PERMANENT DATUM
EPD .FT                  317 : ELEVATION PERMANENT DATUM
LMF .                     KB : LOG MEASURED FROM
DAPD.FT                   16 : FEET ABOVE PERMANENT DATUM
DMF .                     KB : DRILLING MEASURED FROM
EKB .FT                  333 : KELLY BUSHING
EDF .FT                  332 : DRILLING FLOOR
EGL .FT                  317 : GROUND LEVEL
DATE.               10/09/78 : RUN DATE
RUN .                      1 : RUN NUMBER
DD  .FT                11810 : DEPTH DRILLER
DL  .FT                11804 : DEPTH LOGGER
BLI .FT                11798 : BOTTOM LOG INTERVAL
TLI .FT                 2585 : TOP LOG INTERVAL
CS  .IN                9.625 : CASING SIZE
CBD .FT                 2582 : CASING BOTTOM DRILLER
CBL .FT                 2585 : CASING BOTTOM LOGGER
BS  .IN                  8.5 : BIT SIZE
BSD .FT                11810 : BIT SIZE AT DEPTH
DFT .              TANNATHIN : DRILLING FLUID TYPE
DFD .                    9.8 : DRILLING FLUID DENSITY
DFV .                     65 : DRILLING FLUID VISCOSITY
DFPH.                    9.5 : DRILLING FLUID PH
DFL .                    6.9 : DRILLING FLUID LOSS
MSS .                    PIT : MUD SAMPLE SOURCE
RMS .OHMM               1.76 : RESISTIVITY MUD SAMPLE
MST .DEGF                 75 : MUD SAMPLE TEMPERATURE
RMF .OHMM               1.62 : RESISTIVITY MUD FILTRATE SAMPLE
MFST.DEGF                 75 : MUD FILTRATE SAMPLE TEMPERATURE
RMC .OHMM                1.4 : RESISTIVITY MUD CAKE
MCST.DEGF                 75 : MUD CAKE SAMPLE TEMPERATURE
MFSS.                      M : MUD FILTRATE SAMPLE SOURCE
MCSS.                      C : MUD CAKE SAMPLE SOURCE
RMB .OHMM              0.524 : RESISTIVITY MUD AT BHT
MRT .DEGF                248 : MAXIMUM RECORDED TEMPERATURE
LUN .                   7776 : LOGGING UNIT NUMBER
LUL .                BRANHAM : LOGGING UNIT LOCATION
ENGI.                PERKINS : RECORDING ENGINEER
WITN.                 HOOKER : WITNESSED BY
CLNT.                A2DTECH : CLIENT CODE
ORIG.               5" PRINT : ORIGIN OF DATA
UWI .         42185302150000 : UNIQUE WELL ID
DICO. A2D Technologies, Inc. : DIGITIZING COMPANY
~Other -----------------------------------------------------
~ASCII -----------------------------------------------------
# ...
 9950.00000   10.28150    0.17290    -999.25    -999.25  104.95490    2.47630    -999.25    -999.25    5.32840    4.07120  244.04760  -35.47790 2069.35080  116.72740
 10000.00000    9.86230    0.08840    -999.25    -999.25  106.07960    2.56850    0.08360    -999.25    3.97010    3.12040  324.40480  -35.28090 2151.67650  126.11150
 10050.00000   11.58210    0.10590    -999.25    -999.25   97.82410    2.38570    0.23830    0.42810    3.46010    3.44730  288.69050  -34.61030 1703.84300  110.73530
 10100.00000   11.35830    0.11720    -999.25    -999.25  110.58610    2.42350    0.12480    0.37370    7.52590    5.82480  174.11020  -34.05670 1844.58680  119.15630
 10150.00000   10.39920    0.12950    -999.25    -999.25  103.30670    -999.25    0.11710    0.39140    9.47750    6.66170  193.45240  -34.63240 1769.19310  119.41110
 10200.00000    9.95160    0.09860    -999.25    -999.25   78.82980    2.09570    -999.25    -999.25    7.15310    4.53190  229.16670  -35.80200 1653.97380  110.29410
 10250.00000    9.92540    0.02330    -999.25    -999.25  109.68470    2.10930    -999.25    -999.25    9.09340    5.86920  164.37010  -36.02680 1783.06180  130.58820
 10300.00000    8.59370    0.09040    -999.25    -999.25   23.37900    2.35340    0.24640    -999.25    3.89630    3.64030  239.73780  -57.63810 2419.61550   85.87540
 10350.00000    8.84860    0.04820    0.01280    0.02870   22.97300    2.73170    -999.25    -999.25   64.45420   48.55570   32.84180  -50.29370 5431.80710   24.64600
 10400.00000    8.59700    0.00750    -999.25    -999.25   16.66890    2.67140    -999.25    -999.25   41.16320   50.00040   23.79990  -42.35290 5467.89790   23.37980
 10450.00000    8.70150    0.09790    -999.25    0.02920   26.80270    2.66920    -999.25    -999.25   61.48510   60.92120   23.39750  -60.61430 5950.42920   16.76470
 10500.00000    8.55250    0.09560    0.00420    0.02780   17.56980    2.67970    -999.25    -999.25   62.22580   69.09960   21.60860  -55.49790 6167.38770   16.54410
 10550.00000    8.88060    0.06630   -0.02660    0.01020   14.18920    2.74230    -999.25    -999.25   97.03410   80.38650   20.86120  -60.78300 6442.79390   16.36380
 10600.00000    8.70140    0.01960   -0.01350    0.02060   29.05390    2.73170    -999.25    -999.25   36.74070   28.90040   40.17980  -44.90220 5681.96240   24.92650
 10650.00000    8.74630    0.04370   -0.02520    0.00880   19.37010    2.71660    -999.25    -999.25   88.89380   55.20100   26.04170  -48.54540 5991.08450   25.80880
 10700.00000    8.83580    0.12650    -999.25    -999.25   90.46800    2.56370    -999.25    -999.25   15.18540    8.84130  136.90470  -29.35310 4763.78320   79.54270
 10750.00000    8.74620    0.01200    0.00460    0.00570   27.02800    2.72040    -999.25    -999.25  171.85190   69.98510   22.32140  -77.22870 6882.61520   39.48620
 10800.00000    8.64170    0.04820   -0.02100    0.01380   35.25360    2.77470    -999.25    -999.25   60.74070   45.09670   28.03720  -49.33120 6138.21190   43.57940
 10850.00000    8.52570    0.08550    0.02090    0.01760   38.51430    2.68580    -999.25    -999.25  173.33330  109.88110   11.90230 -131.25580 5971.28560   30.44100
 10900.00000    8.61190    0.02940    0.01500    0.02150   43.68970    2.65410    -999.25    -999.25   61.48950   49.25740   29.76190 -108.86990 5668.17720   63.75220
 10950.00000    8.65460    0.10020    0.03940    0.18210   72.75210    -999.25    -999.25    -999.25    4.74070    2.97160  319.71350  -87.43080 2662.72390   96.02940
 11000.00000    8.61190    0.00980    0.00630    0.08660   50.78840    2.72340    -999.25    -999.25   21.69760   13.44710   86.82780  -89.93030 4719.15870   56.47060
 11050.00000    8.84500    0.00600    0.07920    0.22780   86.06980    -999.25    -999.25    -999.25    9.42090    4.75480  201.75730  -88.97300 3471.02540   95.57980
 11100.00000    8.59310    0.02710    0.00920    0.07670   61.26130    2.69030    -999.25    -999.25   12.44500    9.73250  113.08920  -87.71340 3888.00610   59.33820
 11150.00000    8.55240    0.01360    0.02320    0.02780   41.66940    2.71440    -999.25    -999.25   31.05180   21.54480   53.56660  -87.86070 5285.52340   45.43900
 11200.00000    8.63530    -999.25   -0.00940    0.07530   35.50950    -999.25    -999.25    -999.25   20.18220   11.66420   90.93700  -85.00670 4962.37400   46.98530
 11250.00000    8.62690    0.07740    0.03270    0.13370   59.01050    -999.25    -999.25    -999.25    9.57540    4.82950  202.36780  -84.09030 3576.05540   80.28170
 11300.00000    8.67880    0.19950    -999.25    0.18800   63.16210    2.51650    -999.25    -999.25    6.16990    3.04680  316.14140  -85.50590 3590.18430   78.62930
 11350.00000    8.60300    0.06100   -0.02700    -999.25   43.09870    2.66620    -999.25    -999.25   13.73940    7.50370  144.19340  -81.33700 4750.54250   46.54620
 11400.00000    8.55230    0.03540   -0.00580    0.04730   38.46220    2.74080    -999.25    -999.25   33.28450   16.86500   63.63890  -87.25960 5277.84180   38.60290
 11450.00000    8.62680    0.03010    0.00690    -999.25   48.73340    2.73320    -999.25    -999.25    4.59010    3.34310  339.68910  -92.34890 3637.48340   59.81120
 11500.00000    8.61190    0.01430    -999.25    -999.25   29.95500    2.73550    -999.25    -999.25    -999.25   35.51300   31.25000  -90.46070 6205.05220   30.60520
 11550.00000    8.53730    0.02710    0.00190    0.00930   32.95540    2.71290    -999.25    -999.25   50.37310   25.11140   47.06000  -88.13160 5315.48680   37.13240
 11600.00000    8.64180   -0.00680    0.01730    0.07400   32.88110    2.69560    -999.25    -999.25   12.79670    9.36110  120.53570  -83.17980 4939.11040   59.33820
 11650.00000    8.55720    0.02860    0.01230    0.07710   36.58400    2.71360    -999.25    -999.25   18.28660   11.44140   91.60020  -82.90990 4837.43160   46.14080
 11700.00000    8.50760    0.02560   -0.00350    0.02740   44.59280    2.72570    -999.25    -999.25   50.00000   28.70270   47.86900  -81.90060 5432.39260   54.26470
 11750.00000    8.61200    0.01660    0.00800    0.06540   61.71390    2.70610    -999.25    -999.25   10.26510    6.68650  142.36280  -81.04400 3761.44950  113.38240
 11800.00000    7.19400    0.22590    0.36050   -0.00110    0.22610    2.03990    -999.25    -999.25    -999.25    -999.25    -999.25    -999.25    -999.25    -999.25
