~Version ---------------------------------------------------
VERS. 2.0 : CWLS log ASCII Standard -VERSION 2.0
WRAP. YES : MULTIPLE LINES PER DEPTH STEP
~Well ------------------------------------------------------
STRT.FT                  300.0 : START DEPTH
STOP.FT                14000.0 : STOP DEPTH
STEP.FT               50.00000 : STEP LENGTH
NULL.                  -999.25 : NULL VALUE
COMP.      MGF OIL CORPORATION : COMPANY
WELL.                 BOONE #1 : WELL
FLD .                  WILDCAT : FIELD
LOC .                          : LOCATION
CNTY.                      BEE : COUNTY
STAT.                    TEXAS : STATE
CTRY. UNITED STATES OF AMERICA : COUNTRY
SRVC.             Schlumberger : SERVICE COMPANY
DATE.              11-Feb-1976 : LOGDATE
API .           42025304380000 : API NUMBER
UWI .           42025304380000 : UNIQUE WELL ID
SLAT.WGS84       28.6868031711 : SURFACE LATITUDE
SLON.WGS84       -97.929230078 : SURFACE LONGITUDE
~Curve Information -----------------------------------------
DEPT    .FT    : DEPTH FEET
ALL8ED  .OHMM  : AMP. LATEROLOG 8
CALDED  .IN    : CALIPER FROM DENSITY LOG
CALSED  .IN    : CALIPER FROM SONIC LOG
CALWS   .IN    : CALIPER [CALDED]
CILDED  .MMHO  : CONDUCTIVITY FROM RESISTIVITY LOG
CONDWS  .MMHO  : CONDUCTIVITY [1000/DRESWS]
CORRED  .G/C3  : DENSITY CORRECTION FROM DENSITY LOG
DCORWS  .G/C3  : DENSITY CORRECTION [CORRED]
DENWS   .G/C3  : BULK DENSITY [M=2.65/2.71 FROM 13350-TD F=1.0] [RHOBED]
DPHILSED.V/V   : DENSITY POROSITY LIMESTONE FROM DENSITY LOG
DPHISSED.V/V   : DENSITY POROSITY SANDSTONE FROM DENSITY LOG
DPOWS   .V/V   : DENSITY POROSITY [M=2.65/2.71 FROM 13350-TD F=1.0] [CALCULATED FROM DENWS]
DRESWS  .OHMM  : DEEP RESISTIVITY [ILDED] FROM 3588 IF ILDED<1;1000/CILDED;ELSE ILDED
DTED    .US/F  : DELTA TIME FROM SONIC LOG [DEPTH ADJ TO ALL8]
DTWS    .US/F  : DELTA TIME [DTED]
GRDED   .GAPI  : GAMMA RAY FROM DENSITY LOG [DEPTH ADJ TO SPR]
GRSED   .GAPI  : GAMMA RAY FROM SONIC LOG
GRWS    .GAPI  : GAMMA RAY [GRDED]
ILDED   .OHMM  : INDUCTION LOG DEEP RESISTIVITY
NPHILSED.V/V   : NEUTRON POROSITY LIMESTONE FROM DENSITY LOG
NPHISSED.V/V   : NEUTRON POROSITY SANDSTONE FROM DENSITY LOG
NPOWS   .V/V   : NEUTRON POROSITY [MERGED NPHISSED/NPHILSED FROM 13350-TD]
RHOBED  .G/C3  : BULK DENSITY FROM DENSITY LOG
SPRED   .MV    : SPONTANEOUS POTENTIAL FROM RESISTIVITY LOG SHIFTED
SPWS    .MV    : SPONTANEOUS POTENTIAL [SHIFTED/BASELINE 0 MV] [SPRED]
SRESWS  .OHMM  : SHALLOW RESISTIVITY [ALL8ED]
~Params ----------------------------------------------------
PD  .                     GL : PERMANENT DATUM
EPD .FT                  503 : ELEVATION PERMANENT DATUM
LMF .                     KB : LOG MEASURED FROM
DAPD.FT                   21 : FEET ABOVE PERMANENT DATUM
DMF .                     KB : DRILLING MEASURED FROM
EKB .FT                  524 : KELLY BUSHING
EDF .FT                  523 : DRILLING FLOOR
EGL .FT                  503 : GROUND LEVEL
DATE.               02/11/76 : RUN DATE
RUN .                      2 : RUN NUMBER
DD  .FT                14000 : DEPTH DRILLER
DL  .FT                14017 : DEPTH LOGGER
BLI .FT                14014 : BOTTOM LOG INTERVAL
TLI .FT                 3588 : TOP LOG INTERVAL
CS  .IN                10.75 : CASING SIZE
CBD .FT                 3536 : CASING BOTTOM DRILLER
CBL .FT                 3588 : CASING BOTTOM LOGGER
BS  .IN                 8.75 : BIT SIZE
BSD .FT                14000 : BIT SIZE AT DEPTH
DFT .             RD 111 OIL : DRILLING FLUID TYPE
DFD .                   11.1 : DRILLING FLUID DENSITY
DFV .                     59 : DRILLING FLUID VISCOSITY
DFPH.                    9.5 : DRILLING FLUID PH
DFL .                    3.7 : DRILLING FLUID LOSS
MSS .             RETURN PIT : MUD SAMPLE SOURCE
RMS .OHMM               0.59 : RESISTIVITY MUD SAMPLE
MST .DEGF                101 : MUD SAMPLE TEMPERATURE
RMF .OHMM               0.62 : RESISTIVITY MUD FILTRATE SAMPLE
MFST.DEGF                 76 : MUD FILTRATE SAMPLE TEMPERATURE
RMC .OHMM               0.75 : RESISTIVITY MUD CAKE
MCST.DEGF                101 : MUD CAKE SAMPLE TEMPERATURE
MFSS.                   MEAS : MUD FILTRATE SAMPLE SOURCE
MCSS.                  CHART : MUD CAKE SAMPLE SOURCE
RMB .OHMM               0.19 : RESISTIVITY MUD AT BHT
TCS .HRS                  24 : TIME CIRCULATED STOPPED
LUN .                   7676 : LOGGING UNIT NUMBER
LUL .                  PLEAS : LOGGING UNIT LOCATION
ENGI.                 POWELL : RECORDING ENGINEER
WITN.                  ADAMS : WITNESSED BY
CLNT.                A2DTECH : CLIENT CODE
ORIG.               1" PRINT : ORIGIN OF DATA
UWI .         42025304380000 : UNIQUE WELL ID
DICO. A2D Technologies, Inc. : DIGITIZING COMPANY
~Other -----------------------------------------------------
~ASCII -----------------------------------------------------
# ...
 4350.00000    1.50950    -999.25   10.07460   10.07460  731.53960  731.53960    -999.25    -999.25    -999.25    -999.25    -999.25    -999.25    1.36700  109.21350  109.21350    -999.25   61.49320   61.49320    1.34730    -999.25    -999.25    -999.25    -999.25  -10.57850   -6.28840    1.50950
 4400.00000    1.24920    -999.25    9.74630    9.74630  922.15570  922.15570    -999.25    -999.25    -999.25    -999.25    -999.25    -999.25    1.08440  110.71160  110.71160    -999.25   67.83580   67.83580    1.01800    -999.25    -999.25    -999.25    -999.25   -6.98130   -2.80150    1.24920
 4450.00000    1.09410    -999.25    9.29850    9.29850 1117.26560 1117.26560    -999.25    -999.25    -999.25    -999.25    -999.25    -999.25    0.89500  125.39340  125.39340    -999.25   64.32950   64.32950    0.92810    -999.25    -999.25    -999.25    -999.25   -7.83420   -3.76470    1.09410
 4500.00000    1.29930    -999.25    9.70150    9.70150  862.27550  862.27560    -999.25    -999.25    -999.25    -999.25    -999.25    -999.25    1.15970  101.19850  101.19850    -999.25   67.47200   67.47200    1.11780    -999.25    -999.25    -999.25    -999.25   -7.18560   -3.22640    1.29930
 4550.00000    1.14820    -999.25    9.70090    9.70090 1063.87160 1063.87160    -999.25    -999.25    -999.25    -999.25    -999.25    -999.25    0.94000  117.08260  117.08260    -999.25   64.39030   64.39030    0.98800    -999.25    -999.25    -999.25    -999.25   -7.63470   -3.78580    1.14820
 4600.00000    1.00300    -999.25    9.50690    9.50690 1324.52810 1324.52810    -999.25    -999.25    -999.25    -999.25    -999.25    -999.25    0.75500  134.75860  134.75860    -999.25   83.72220   83.72220    0.79510    -999.25    -999.25    -999.25    -999.25   -5.08980   -1.35120    1.00300
 4650.00000    1.07610    -999.25    9.78290    9.78290 1306.40200 1306.40200    -999.25    -999.25    -999.25    -999.25    -999.25    -999.25    0.76550  124.18010  124.18010    -999.25   65.14040   65.14040    1.04790    -999.25    -999.25    -999.25    -999.25   -7.03590   -3.40760    1.07610
 4700.00000    1.62760    -999.25   10.53660   10.53660  786.42970  786.42970    -999.25    -999.25    -999.25    -999.25    -999.25    -999.25    1.27160  110.93900  110.93900    -999.25   53.93750   53.93750    1.43710    -999.25    -999.25    -999.25    -999.25   -8.98200   -5.46400    1.62760
 4750.00000    1.65870    -999.25   11.04360   11.04360  706.58690  706.58690    -999.25    -999.25    -999.25    -999.25    -999.25    -999.25    1.41530  109.58400  109.58400    -999.25   56.62050   56.62050    1.58690    -999.25    -999.25    -999.25    -999.25   -7.93410   -4.57800    1.65870
 4800.00000    1.46200    -999.25   10.47650   10.47650  867.06620  867.06620    -999.25    -999.25    -999.25    -999.25    -999.25    -999.25    1.15330  117.68070  117.68070    -999.25   61.54590   61.54590    1.55690    -999.25    -999.25    -999.25    -999.25   -8.68060   -5.51550    1.46200
 4850.00000    1.42840    -999.25    9.55080    9.55080  839.82030  839.82030    -999.25    -999.25    -999.25    -999.25    -999.25    -999.25    1.19070  125.32380  125.32380    -999.25   59.67330   59.67330    1.54190    -999.25    -999.25    -999.25    -999.25   -7.93410   -4.95990    1.42840
 4900.00000    1.09910    -999.25    9.79020    9.79020 1332.33530 1332.33530    -999.25    -999.25    -999.25    -999.25    -999.25    -999.25    0.75060  133.03370  133.03370    -999.25   63.11950   63.11950    1.14770    -999.25    -999.25    -999.25    -999.25   -5.38920   -2.60600    1.09910
 4950.00000    1.69670    -999.25   11.29050   11.29050  693.08690  693.08690    -999.25    -999.25    -999.25    -999.25    -999.25    -999.25    1.44280  110.34350  110.34350    -999.25   69.85070   69.85070    1.66170    -999.25    -999.25    -999.25    -999.25   -7.63470   -5.04240    1.69670
 5000.00000    1.43610    -999.25   11.35730   11.35730  796.40720  796.40720    -999.25    -999.25    -999.25    -999.25    -999.25    -999.25    1.25560  115.43210  115.43210    -999.25   61.55760   61.55760    1.48770    -999.25    -999.25    -999.25    -999.25   -3.89440   -1.49300    1.43610
 5050.00000    1.87480    -999.25   11.05890   11.05890  618.25890  618.25890    -999.25    -999.25    -999.25    -999.25    -999.25    -999.25    1.61740   96.18270   96.18270    -999.25   66.48850   66.48850    1.77650    -999.25    -999.25    -999.25    -999.25   -8.83230   -6.62190    1.87480
 5100.00000    1.66970    -999.25   11.44750   11.44750  712.57670  712.57670    -999.25    -999.25    -999.25    -999.25    -999.25    -999.25    1.40340  113.48460  113.48460    -999.25   59.04640   59.04640    1.71650    -999.25    -999.25    -999.25    -999.25   -4.49100   -2.47150    1.66970
 5150.00000    1.32930    -999.25   11.52910   11.52910  947.60720  947.60720    -999.25    -999.25    -999.25    -999.25    -999.25    -999.25    1.05530  109.36810  109.36810    -999.25   67.82770   67.82770    1.16760    -999.25    -999.25    -999.25    -999.25   -7.33490   -5.50640    1.32930
 5200.00000    2.00640    -999.25   11.20830   11.20830  655.50490  655.50490    -999.25    -999.25    -999.25    -999.25    -999.25    -999.25    1.52550   99.47720   99.47720    -999.25   62.44650   62.44650    1.62700    -999.25    -999.25    -999.25    -999.25   -9.17130   -7.53370    2.00640
 5250.00000    1.73380    -999.25   11.29820   11.29820  723.55300  723.55300    -999.25    -999.25    -999.25    -999.25    -999.25    -999.25    1.38210  104.19920  104.19920    -999.25   64.02130   64.02130    1.64670    -999.25    -999.25    -999.25    -999.25   -4.69050   -3.24380    1.73380
 5300.00000    1.28930    -999.25   11.10390   11.10390 1070.85230 1070.85230    -999.25    -999.25    -999.25    -999.25    -999.25    -999.25    0.93380  112.21420  112.21420    -999.25   66.92750   66.92750    1.23750    -999.25    -999.25    -999.25    -999.25   -2.49500   -1.23930    1.28930
 5350.00000    1.41740    -999.25   11.41710   11.41710  785.92030  785.92030    -999.25    -999.25    -999.25    -999.25    -999.25    -999.25    1.27240  108.39090  108.39090    -999.25   65.80770   65.80770    1.53690    -999.25    -999.25    -999.25    -999.25   -3.89220   -2.82740    1.41740
 5400.00000    1.86560    -999.25   11.53730   11.53730  635.56960  635.56960    -999.25    -999.25    -999.25    -999.25    -999.25    -999.25    1.57340  102.77300  102.77300    -999.25   63.35420   63.35420    1.73700    -999.25    -999.25    -999.25    -999.25   -6.28740   -5.41360    1.86560
 5450.00000    1.10510    -999.25   10.09660   10.09660 1122.75550 1122.75550    -999.25    -999.25    -999.25    -999.25    -999.25    -999.25    0.89070  110.39280  110.39280    -999.25   68.71810   68.71810    0.92810    -999.25    -999.25    -999.25    -999.25   -2.69460   -2.01170    1.10510
 5500.00000    1.68570    -999.25   10.77200   10.77200  710.58470  710.58470    -999.25    -999.25    -999.25    -999.25    -999.25    -999.25    1.40730   91.16240   91.16240    -999.25   50.58380   50.58380    1.41710    -999.25    -999.25    -999.25    -999.25   -6.28740   -5.79550    1.68570
 5550.00000    1.23720    -999.25   10.16390   10.16390  955.08980  955.08980    -999.25    -999.25    -999.25    -999.25    -999.25    -999.25    1.04700  116.20200  116.20200    -999.25   62.90240   62.90240    1.07780    -999.25    -999.25    -999.25    -999.25   -4.49040   -4.18940    1.23720
 5600.00000    1.04820    -999.25   10.23850   10.23850 1193.38040 1193.38040    -999.25    -999.25    -999.25    -999.25    -999.25    -999.25    0.83800  124.79540  124.79540    -999.25   67.60280   67.60280    0.91630    -999.25    -999.25    -999.25    -999.25   -2.69460   -2.58450    1.04820
 5650.00000    1.20900    -999.25    9.92540    9.92540  970.06370  970.06380    -999.25    -999.25    -999.25    -999.25    -999.25    -999.25    1.03090  110.78940  110.78940    -999.25   72.53290   72.53290    1.04790    -999.25    -999.25    -999.25    -999.25   -3.29280   -3.37370    1.20900
