~Version ---------------------------------------------------
VERS.      2.0 : CWLS log ASCII Standard -VERSION 2.0
WRAP.      YES : Multiple lines per depth step
CREA. 09/28/17 : LAS Creation Date
~Well ------------------------------------------------------
STRT.FT                  2150.0 : START DEPTH
STOP.FT                 11650.0 : STOP DEPTH
STEP.FT                50.00000 : STEP LENGTH
NULL.                   -999.25 : NULL VALUE
COMP. BURK ROYALTY COMPANY, LTD : COMPANY
WELL.               STERLING #1 : WELL
FLD .                           : FIELD
LOC .                           : LOCATION
CNTY.                   MADISON : COUNTY
STAT.                     TEXAS : STATE
CTRY.  UNITED STATES OF AMERICA : COUNTRY
SRVC.               HALLIBURTON : SERVICE COMPANY
DATE.               31-May-2014 : LOGDATE
API .            42313311010000 : API NUMBER
UWI .            42313311010000 : UNIQUE WELL ID
SLAT.WGS84     30.9882730389083 : SURFACE LATITUDE
SLON.WGS84    -95.6985448660659 : SURFACE LONGITUDE
~Curve Information -----------------------------------------
DEPT    .FT    : DEPTH FEET
CALRED  .IN    : CALIPER FROM RESISTIVITY LOG
CALWS   .IN    : CALIPER [CALRED]
CONDWS  .MMHO  : DEEP CONDUCTIVITY [1000/DRESWS]
DCALRED .IN    : DIFFERENTIAL CALIPER FROM RESISTIVITY LOG
DCORWS  .G/C3  : DENSITY CORRECTION [DRHOED]
DENWS   .G/C3  : BULK DENSITY [RHOBED]
DPHILSED.V/V   : DENSITY POROSITY (LS) [M=2.71 F=1.00]
DPOLSWS .V/V   : DENSITY POROSITY (LS) [M=2.71 F=1.00] [DPHILSED]
DRESWS  .OHMM  : DEEP RESISTIVITY [RT90ED]
DRHOED  .G/C3  : DENSITY CORRECTION FROM DENSITY LOG
GRRED   .GAPI  : GAMMA RAY FROM RESISTIVITY LOG
GRWS    .GAPI  : GAMMA RAY [GRRED]
MINVED  .OHMM  : MICROINVERSE RESISTIVITY
MNORED  .OHMM  : MICRONORMAL RESISTIVITY
MRESWS  .OHMM  : MEDIUM RESISTIVITY [RT30ED]
NPHILSED.V/V   : NEUTRON POROSITY LIMESTONE
NPOLSWS .V/V   : NEUTRON POROSITY LIMESTONE [NPHILSED]
PEED    .B/E   : PHOTOELECTRIC FACTOR FROM DENSITY LOG
PEFWS   .B/E   : PHOTOELECTRIC FACTOR [PEED]
RHOBED  .G/C3  : BULK DENSITY FROM DENSITY LOG
RT10ED  .OHMM  : 10 INCH RESISTIVITY TWO FOOT RESOLUTION
RT20ED  .OHMM  : 20 INCH RESISTIVITY TWO FOOT RESOLUTION
RT30ED  .OHMM  : 30 INCH RESISTIVITY TWO FOOT RESOLUTION
RT60ED  .OHMM  : 60 INCH RESISTIVITY TWO FOOT RESOLUTION
RT90ED  .OHMM  : 90 INCH RESISTIVITY TWO FOOT RESOLUTION
SPRED   .MV    : SPONTANEOUS POTENTIAL FROM RESISTIVITY LOG
SPWS    .MV    : SPONTANEOUS POTENTIAL [BASELINE 0 MV] [SPRED]
SRESWS  .OHMM  : SHALLOW RESISTIVITY [RT10ED]
TENRED  .LBF   : TENSION FROM RESISTIVITY LOG
~Params ----------------------------------------------------
PD  .                     GL : PERMANENT DATUM
EPD .FT                  159 : ELEVATION PERMANENT DATUM
LMF .                     KB : LOG MEASURED FROM
DAPD.FT                   30 : FEET ABOVE PERMANENT DATUM
DMF .                     KB : DRILLING MEASURED FROM
EKB .FT                  189 : KELLY BUSHING
EDF .FT                  188 : DRILLING FLOOR
EGL .FT                  159 : GROUND LEVEL
DATE.              5/31/2014 : RUN DATE
RUN .                      1 : RUN NUMBER
DD  .FT                11688 : DEPTH DRILLER
DL  .FT                11682 : DEPTH LOGGER
BLI .FT                11679 : BOTTOM LOG INTERVAL
TLI .FT                 2195 : TOP LOG INTERVAL
CS  .IN                9.625 : CASING SIZE
CBD .FT                 2195 : CASING BOTTOM DRILLER
CBL .FT                 2195 : CASING BOTTOM LOGGER
BS  .IN                 8.75 : BIT SIZE
BSD .FT                11688 : BIT SIZE AT DEPTH
DFT .        WATER BASED MUD : DRILLING FLUID TYPE
DFD .                    9.8 : DRILLING FLUID DENSITY
DFV .                     65 : DRILLING FLUID VISCOSITY
DFPH.                    9.4 : DRILLING FLUID PH
DFL .                    4.4 : DRILLING FLUID LOSS
MSS .               MUD TANK : MUD SAMPLE SOURCE
RMS .OHMM               1.31 : RESISTIVITY MUD SAMPLE
MST .DEGF                 71 : MUD SAMPLE TEMPERATURE
RMF .OHMM               1.12 : RESISTIVITY MUD FILTRATE SAMPLE
MFST.DEGF                 72 : MUD FILTRATE SAMPLE TEMPERATURE
RMC .OHMM               1.83 : RESISTIVITY MUD CAKE
MCST.DEGF                 72 : MUD CAKE SAMPLE TEMPERATURE
MFSS.                   MEAS : MUD FILTRATE SAMPLE SOURCE
MCSS.                   MEAS : MUD CAKE SAMPLE SOURCE
RMB .OHMM               0.73 : RESISTIVITY MUD AT BHT
TCS .HRS                 700 : TIME CIRCULATED STOPPED
TLAB.HRS                 630 : TIME LOGGER AT BOTTOM
LUN .               10549594 : LOGGING UNIT NUMBER
LUL .                KILGORE : LOGGING UNIT LOCATION
ENGI.                 ALLALI : RECORDING ENGINEER
WITN.                KIMBELL : WITNESSED BY
CLNT.                A2DTECH : CLIENT CODE
ORIG.       1", 2", 5" PRINT : ORIGIN OF DATA
UWI .         42313311010000 : UNIQUE WELL ID
DICO. A2D Technologies, Inc. : DIGITIZING COMPANY
~Other -----------------------------------------------------
ALL LOGS RAN ON COMBO.
LOADED ALL CURVES FROM BOREHOLE DATA SET.
GAPS ON CURVES AROUND 11450'-11510' DUE TO TOOL PULLED.
~ASCII -----------------------------------------------------
# ...
 8400.00000    8.86830    8.86830  455.85080    0.11830    0.02060    2.63040    0.04650    0.04650    2.19370    0.02060   87.38010   87.38010    3.60250    1.62710    2.26260    0.22720    0.22720    3.78580    3.78580    2.63040    2.43150    2.36400    2.26260    2.22310    2.19370  -10.49360   -7.11650    2.43150 4670.44430
 8450.00000    8.84100    8.84100  491.54540    0.09100    0.04950    2.61490    0.05560    0.05560    2.03440    0.04950   80.93080   80.93080    3.28290    1.35210    2.09740    0.23910    0.23910    3.88430    3.88430    2.61490    2.19780    2.17950    2.09740    2.06130    2.03440   -7.94330   -4.56620    2.19780 4645.34960
 8500.00000    8.94980    8.94980  207.60670    0.19980    0.01140    2.63600    0.04320    0.04320    4.81680    0.01140   54.84900   54.84900    6.87720    3.06950    5.04610    0.11870    0.11870    4.15320    4.15320    2.63600    5.65350    5.31530    5.04610    4.93170    4.81680   -5.37410   -1.99700    5.65350 4729.44240
 8550.00000    8.82090    8.82090  136.71850    0.07090    0.05930    2.60570    0.06100    0.06100    7.31430    0.05930   67.21180   67.21180    5.84130    2.82970    7.05440    0.14820    0.14820    4.12210    4.12210    2.60570    6.45720    6.68740    7.05440    7.19690    7.31430  -10.31880   -6.87190    6.45720 4738.66360
 8600.00000    8.75380    8.75380   86.86360    0.00380    0.01080    2.65020    0.03500    0.03500   11.51230    0.01080   45.57190   45.57190   15.57430    6.59130   11.73510    0.06240    0.06240    4.37170    4.37170    2.65020   13.15140   12.28280   11.73510   11.60270   11.51230  -18.20050  -14.61400   13.15140 4738.42820
 8650.00000    8.70960    8.70960   79.86710   -0.04040    0.01800    2.64090    0.04040    0.04040   12.52080    0.01800   36.75590   36.75590   23.38280   11.71670   12.97600    0.05480    0.05480    4.86190    4.86190    2.64090   13.99230   13.55830   12.97600   12.77340   12.52080  -33.04980  -29.32360   13.99230 4722.87350
 8700.00000    8.72260    8.72260   68.29990   -0.02740    0.01270    2.66090    0.02870    0.02870   14.64130    0.01270   36.72200   36.72200   25.39520    8.41560   14.61280    0.05250    0.05250    4.62110    4.62110    2.66090   16.01840   14.91880   14.61280   14.66180   14.64130  -24.33060  -20.46480   16.01840 4727.01270
 8750.00000    8.30960    8.30960 1716.73820   -0.44040    0.04970    2.39220    0.18580    0.18580    0.58250    0.04970   11.48790   11.48790    2.49210    2.49310    0.71230    0.10450    0.10450    2.56170    2.56170    2.39220    1.15970    0.86690    0.71230    0.64320    0.58250 -110.19200 -106.18660    1.15970 4756.06980
 8800.00000    9.71450    9.71450  399.74420    0.96450    0.22600    2.51410    0.11450    0.11450    2.50160    0.22600   93.70720   93.70720    1.01670    1.00490    2.51510    0.24010    0.24010    3.61020    3.61020    2.51410    2.50620    2.55020    2.51510    2.50870    2.50160   -9.15730   -5.01230    2.50620 4805.72710
 8850.00000    8.46350    8.46350  771.12890   -0.28650    0.04840    2.40250    0.17980    0.17980    1.29680    0.04840   20.81250   20.81250    3.91370    5.77290    1.56460    0.09570    0.09570    3.01000    3.01000    2.40250    2.82520    1.94590    1.56460    1.40650    1.29680  -87.15730  -82.85160    2.82520 4819.92530
 8900.00000    8.42530    8.42530  744.04760   -0.32470    0.04930    2.41380    0.17320    0.17320    1.34400    0.04930   10.47750   10.47750    1.99040    1.64210    1.77380    0.06030    0.06030    2.46990    2.46990    2.41380    3.54790    2.33320    1.77380    1.49550    1.34400 -105.27200 -100.59340    3.54790 4756.68260
 8950.00000    8.71930    8.71930  174.84050   -0.03070    0.03720    2.54250    0.09790    0.09790    5.71950    0.03720   21.09740   21.09740    4.13470    3.67350    6.20020    0.05730    0.05730    2.62410    2.62410    2.54250    7.27640    6.89160    6.20020    5.89200    5.71950  -51.52130  -46.46980    7.27640 4862.20210
 9000.00000    8.95480    8.95480  241.56340    0.20480    0.02940    2.57270    0.08030    0.08030    4.13970    0.02940   47.74880   47.74880    5.17540    2.13870    4.25620    0.09770    0.09770    2.10850    2.10850    2.57270    4.89100    4.43880    4.25620    4.20670    4.13970  -56.86400  -51.43960    4.89100 4937.87400
 9050.00000    8.41500    8.41500  186.98930   -0.33500    0.05200    2.50570    0.11950    0.11950    5.34790    0.05200   25.75630   25.75630    3.15680    3.48500    5.55190    0.08280    0.08280    2.23950    2.23950    2.50570    6.74160    6.08660    5.55190    5.38650    5.34790  -80.83160  -75.03430    6.74160 4950.37350
 9100.00000    8.70740    8.70740  369.05820   -0.04260    0.02190    2.47030    0.14020    0.14020    2.70960    0.02190   21.87040   21.87040    2.41900    2.55820    3.20760    0.09840    0.09840    2.11660    2.11660    2.47030    5.37730    3.91160    3.20760    2.92200    2.70960  -97.98830  -91.81810    5.37730 4908.85250
 9150.00000    8.58090    8.58090 1109.50850   -0.16910    0.06160    2.40350    0.17930    0.17930    0.90130    0.06160   10.02990   10.02990    2.54370    2.15030    1.27380    0.10980    0.10980    2.34220    2.34220    2.40350    2.77480    1.72440    1.27380    1.04930    0.90130 -113.85030 -107.30720    2.77480 4719.54790
 9200.00000   11.86240   11.86240  324.99190    3.11240    0.12920    2.30710    0.23560    0.23560    3.07700    0.12920   75.51920   75.51920    0.78770    0.83570    2.93600    0.35840    0.35840    4.94670    4.94670    2.30710    2.77960    2.81400    2.93600    3.05360    3.07700  -22.68850  -15.77250    2.77960 4817.59080
 9250.00000    9.57710    9.57710  205.63860    0.82710    0.20280    2.49430    0.12610    0.12610    4.86290    0.20280   92.75100   92.75100    1.24380    1.04110    5.18600    0.27410    0.27410    3.76080    3.76080    2.49430    5.00610    5.15320    5.18600    4.99260    4.86290  -27.90590  -21.72600    5.00610 4907.21340
 9300.00000   10.20120   10.20120  296.63910    1.45120    0.20790    2.53520    0.10220    0.10220    3.37110    0.20790   86.74940   86.74940    0.75500    0.90060    3.21350    0.32530    0.32530    3.28850    3.28850    2.53520    3.34710    3.10450    3.21350    3.33350    3.37110  -18.66550  -13.35880    3.34710 4909.19430
 9350.00000   16.70480   16.70480  273.84510    7.95480    0.24730    2.11180    0.34980    0.34980    3.65170    0.24730   64.28890   64.28890    0.58400    0.70950    3.10930    0.54460    0.54460    5.81560    5.81560    2.11180    3.09520    2.98240    3.10930    3.41570    3.65170  -21.54570  -17.11210    3.09520 4839.14700
 9400.00000   12.60450   12.60450  336.53040    3.85450    0.24510    2.22930    0.28110    0.28110    2.97150    0.24510   78.55050   78.55050    0.93570    0.78550    2.65010    0.40590    0.40590    5.72980    5.72980    2.22930    2.30140    2.39220    2.65010    2.83810    2.97150  -10.19830   -6.63790    2.30140 4798.40430
 9450.00000    8.59600    8.59600  228.08660   -0.15400    0.34330    2.46560    0.14290    0.14290    4.38430    0.34330   80.56460   80.56460    1.36910    0.82630    4.02110    0.25500    0.25500    5.06320    5.06320    2.46560    3.76500    3.79860    4.02110    4.22340    4.38430   -7.19900   -4.51170    3.76500 4850.33790
 9500.00000   10.02490   10.02490  198.40090    1.27490    0.29670    2.42480    0.16680    0.16680    5.04030    0.29670   81.48010   81.48010    0.96870    0.94230    4.28180    0.25650    0.25650    4.85920    4.85920    2.42480    3.42620    3.72330    4.28180    4.71380    5.04030  -15.34840  -13.53430    3.42620 4948.19240
 9550.00000   11.06260   11.06260  375.00940    2.31260    0.31370    2.37350    0.19680    0.19680    2.66660    0.31370   83.71800   83.71800    0.93110    0.81600    2.59290    0.35070    0.35070    5.11650    5.11650    2.37350    2.34820    2.51480    2.59290    2.62370    2.66660  -13.72100  -12.78000    2.34820 4958.67530
 9600.00000   12.43550   12.43550  331.22450    3.68550    0.30860    2.20730    0.29400    0.29400    3.01910    0.30860   70.51440   70.51440    0.52680    0.83330    2.92540    0.38030    0.38030    5.74890    5.74890    2.20730    2.56760    2.75110    2.92540    3.00550    3.01910  -15.83060  -15.76280    2.56760 5005.80960
