~Version ---------------------------------------------------
VERS. 2.0 : CWLS log ASCII Standard -VERSION 2.0
WRAP.  NO : ONE LINE PER DEPTH STEP
~Well ------------------------------------------------------
STRT.F                           850.0 : START DEPTH
STOP.F                          6850.0 : STOP DEPTH
STEP.F                        50.00000 : STEP LENGTH
NULL.                          -999.25 : NULL VALUE
COMP. TEXLARK EXPLORATION COMPANY INC. : COMPANY
WELL.                E. H. CHANDLER #1 : WELL
FLD .                  MARCELINA CREEK : FIELD
LOC .                                  : LOCATION
CNTY.                           WILSON : COUNTY
STAT.                            TEXAS : STATE
CTRY.         UNITED STATES OF AMERICA : COUNTRY
SRVC.                            Welex : SERVICE COMPANY
DATE.                      04-Feb-1985 : LOGDATE
API .                   42493316680000 : API NUMBER
UWI .                   42493316680000 : UNIQUE WELL ID
SLAT.WGS84               29.0559976135 : SURFACE LATITUDE
SLON.WGS84              -98.1532356703 : SURFACE LONGITUDE
~Curve Information -----------------------------------------
DEPT.F                 : 
GRR .GAPI 07 310 01 00 : GAMMA RAY FROM RESISTIVITY LOG
CALR.IN   07 280 01 00 : CALIPER FROM RESISTIVITY LOG
ILD .OHMM 07 120 46 00 : INDUCTION DEEP RESISTIVITY
ILM .OHMM 07 120 44 00 : INDUCTION MEDIUM RESISTIVITY
SGRD.OHMM 07 220 05 00 : SHORT GUARD RESISTIVITY
SPR .MV   07 010 01 00 : SPONTANEOUS POTENTIAL FROM RESISTIVITY LOG
~Params ----------------------------------------------------
PD  .                     GL : PERMANENT DATUM
EPD .FT                355.9 : ELEVATION PERMANENT DATUM
LMF .                    TKB : LOG MEASURED FROM
DAPD.FT                 12.8 : FEET ABOVE PERMANENT DATUM
DMF .                    TKB : DRILLING MEASURED FROM
EKB .FT                368.7 : KELLY BUSHING
EDF .FT                367.7 : DRILLING FLOOR
EGL .FT                355.9 : GROUND LEVEL
DATE.               02/04/85 : RUN DATE
RUN .                      1 : RUN NUMBER
DD  .FT                 6882 : DEPTH DRILLER
DL  .FT                 6883 : DEPTH LOGGER
BLI .FT                 6881 : BOTTOM LOG INTERVAL
TLI .FT                  815 : TOP LOG INTERVAL
CS  .IN                8.625 : CASING SIZE
CBD .FT                  821 : CASING BOTTOM DRILLER
CBL .FT                  820 : CASING BOTTOM LOGGER
BS  .IN                7.875 : BIT SIZE
BSD .FT                 6882 : BIT SIZE AT DEPTH
DFT .         LIGNOSULFONATE : DRILLING FLUID TYPE
DFD .                    9.1 : DRILLING FLUID DENSITY
DFV .                     48 : DRILLING FLUID VISCOSITY
DFPH.                     10 : DRILLING FLUID PH
DFL .                    6.2 : DRILLING FLUID LOSS
MSS .               MUD TANK : MUD SAMPLE SOURCE
RMS .OHMM               2.21 : RESISTIVITY MUD SAMPLE
MST .DEGF                 75 : MUD SAMPLE TEMPERATURE
RMF .OHMM               2.08 : RESISTIVITY MUD FILTRATE SAMPLE
MFST.DEGF                 75 : MUD FILTRATE SAMPLE TEMPERATURE
RMC .OHMM               1.96 : RESISTIVITY MUD CAKE
MCST.DEGF                 75 : MUD CAKE SAMPLE TEMPERATURE
MFSS.                   MEAS : MUD FILTRATE SAMPLE SOURCE
MCSS.                   MEAS : MUD CAKE SAMPLE SOURCE
RMB .OHMM               1.03 : RESISTIVITY MUD AT BHT
TCS .HRS                   4 : TIME CIRCULATED STOPPED
TLAB.HRS                 700 : TIME LOGGER AT BOTTOM
LUN .                   1904 : LOGGING UNIT NUMBER
LUL .                   VICT : LOGGING UNIT LOCATION
ENGI.                 SOLARI : RECORDING ENGINEER
WITN.               RICKAWAY : WITNESSED BY
CLNT.                A2DTECH : CLIENT CODE
ORIG.               5" PRINT : ORIGIN OF DATA
UWI .         42493316680000 : UNIQUE WELL ID
DICO. A2D Technologies, Inc. : DIGITIZING COMPANY
~Other -----------------------------------------------------
~ASCII -----------------------------------------------------
  850.00000   69.24820   14.47980    8.70020    9.34050    7.50210  -44.25600
  900.00000   63.27100   13.80750    9.90200   10.46940    8.27690  -44.56200
  950.00000   77.12640   16.27490   10.40990   11.78490    8.72610  -44.94950
 1000.00000   78.34550   15.74150    4.55190    4.61640    4.09360  -45.30650
 1050.00000   69.70100   15.71160    6.42650    7.30250    5.69280  -46.97940
 1100.00000   79.05790   13.72900    3.96080    4.16280    4.27000  -48.26970
 1150.00000   66.54280   12.02140    9.53290   11.58740    9.17540  -53.59070
 1200.00000   84.60400   12.10020    9.25790   11.35590    8.81060  -52.45050
 1250.00000   82.26280   11.73330    4.64630    5.00700    4.68660  -49.02670
 1300.00000   75.52820   15.08060    3.75510    4.05880    4.40920  -44.92710
 1350.00000   76.41130   13.82700    3.56010    3.96170    4.35010  -42.56590
 1400.00000   71.97570   13.47860    4.49670    5.28670    5.49470  -45.36180
 1450.00000   79.37170   12.75920    5.24650    5.25960    5.78290  -42.77310
 1500.00000   69.63240   12.68930   12.37720   11.37830   10.93610  -38.31890
 1550.00000   65.86570   13.19840   35.64040   30.07750   19.74080  -38.41310
 1600.00000   62.80330   14.94010   24.56920   20.96620   15.55380  -37.34000
 1650.00000   71.91900   12.00430   18.87630   17.54680   15.51510  -32.53180
 1700.00000  101.21730   11.09280   15.74290   13.58400   21.10310  -35.20670
 1750.00000   61.50540   11.83040   21.79760   27.51480   41.51190  -35.83560
 1800.00000   60.79440   12.92480   20.24830   23.55490   34.85370  -35.96380
 1850.00000   60.42470   16.61470   17.01750   18.02380   33.23930  -37.48970
 1900.00000   56.00820   12.55690   36.98300   26.79480   22.70200  -31.62930
 1950.00000   59.00030   16.63750   38.17960   24.30080   20.32230  -32.59700
 2000.00000   66.40980   16.29890   40.89460   25.87390   22.42800  -32.63260
 2050.00000   66.46660   10.45170   25.42800   24.40020   22.41940  -28.81020
 2100.00000   85.42050    8.02330   29.99450   27.90150   24.60820  -25.06620
 2150.00000   77.41790    9.10270   15.53870   18.09930   17.47680  -23.14840
 2200.00000   58.20120   10.10410   28.20480   26.69440   22.01260  -21.62060
 2250.00000   75.17560    8.89500   16.20110   17.97480   16.85380  -25.40720
 2300.00000   72.81890    9.13760    6.76330    6.99380    8.33780  -19.65880
 2350.00000   75.59840    8.94510   16.48590   17.60750   14.67050  -23.88290
 2400.00000   95.97820    9.65960    1.62840    1.79560    2.38480  -15.55100
 2450.00000   94.70250    7.74310    5.56600    6.54950    6.74000  -26.69580
 2500.00000   82.51510    8.21480    8.10600    9.11040    8.47480  -30.01670
 2550.00000   95.40520    7.49500    2.48880    2.79570    3.31380  -23.18430
 2600.00000   83.52380    9.84740    3.74800    4.30280    4.73210  -24.30390
 2650.00000   92.22470   11.93070    2.05670    2.13060    2.70400  -18.77130
 2700.00000   92.41950   10.16740    2.33450    2.65170    3.36970  -22.16840
 2750.00000   86.33050   10.06510    2.58720    3.11390    2.71370  -21.90170
 2800.00000   87.05790   11.63660    2.22990    2.37240    2.78860  -18.96010
 2850.00000   81.67950    8.72010    4.71320    5.59400    7.22890  -30.51340
 2900.00000   93.42090    8.74640    3.16660    3.67940    5.15210  -25.09320
 2950.00000   72.85530    7.36750    7.25680    8.74250   10.24980  -32.94050
 3000.00000   81.47710    8.81230    9.51740   11.25400   11.17200  -33.35700
 3050.00000   74.57480    8.31980    7.36330    8.44550   10.10530  -33.83800
 3100.00000   70.60990    8.71140   10.36620   13.42170   13.45510  -34.70580
 3150.00000   84.82420   10.43690    2.52480    3.09700    3.68090  -21.69030
 3200.00000   86.36020    8.32220    3.26530    3.49480    4.49690  -24.41730
 3250.00000   89.89780    9.01490    4.06490    4.51080    4.56000  -22.45750
 3300.00000   73.43140    9.34700    8.00890    9.59920   13.12520  -31.09850
 3350.00000   84.32270    9.60770    9.58280   11.47370   10.27320  -33.08070
 3400.00000   77.06240    8.98810   10.09380   13.17490   12.60560  -33.87820
 3450.00000   83.66240    9.61400    5.03040    7.54840    9.60370  -28.83080
 3500.00000   72.01450    7.96600    7.50810    8.92770    9.36830  -32.87100
 3550.00000   70.51150    8.58130    7.05720    7.99420    8.98610  -32.66230
 3600.00000   64.52660    8.84340    8.24310   10.09170   10.54680  -33.73080
 3650.00000   80.13050    8.76530    3.96360    4.24590    8.34220  -25.56150
 3700.00000   73.60240    7.95220    9.75340   12.63880   12.86400  -35.53930
 3750.00000   64.81600    8.02860    5.57410    5.84970   13.09240  -31.45920
 3800.00000   68.62760    7.42090    9.28420   11.82680   13.52050  -35.60890
 3850.00000   71.01820    7.88120    9.59950   12.53660   14.26390  -36.12410
 3900.00000   66.67990    7.76140    8.26770   10.50610   12.30770  -34.55000
 3950.00000   71.50690    7.74260    8.49140   10.29510   11.19030  -34.26030
 4000.00000   69.74730    7.69980    7.16180    7.59230   13.37310  -36.32400
 4050.00000   96.68110    7.43490    2.60380    2.75990    3.47450  -20.04660
 4100.00000   74.32700    8.19330    8.62340   11.04920   13.43300  -36.38260
 4150.00000   98.88950   12.23890    1.86210    2.03990    2.40550  -18.26240
 4200.00000   99.78000   11.08920    1.66850    1.77790    2.16960  -17.89750
 4250.00000  100.23980    8.25260    2.45970    2.84340    3.15370  -19.28820
 4300.00000  102.19180    8.49620    2.39520    2.66590    3.15570  -19.63270
 4350.00000   92.25970    9.75860    2.43620    2.69840    3.06110  -18.33370
 4400.00000   90.35500    9.58750    2.10780    2.23420    2.90310  -17.56400
 4450.00000   92.59820   10.13700    1.86140    1.98440    2.46160  -17.45320
 4500.00000   97.82110   10.11270    1.76160    1.90400    2.22600  -17.96850
 4550.00000   92.68540   10.76380    1.74080    1.85680    2.23200  -18.02700
 4600.00000   93.61640   11.58220    1.33190    1.42130    1.76790  -18.73160
 4650.00000  102.97290   12.70960    1.37360    1.43300    1.76320  -19.96910
 4700.00000   94.91020   13.14600    1.15590    1.21470    1.55780  -19.10100
 4750.00000   92.27540   12.64580    1.23520    1.28720    1.48690  -21.40720
 4800.00000   92.46290    9.35200    1.01590    1.06200    1.34080  -19.65270
 4850.00000   78.58700   15.29820    1.27150    1.36820    1.60210  -21.79840
 4900.00000   76.24030    9.26870    2.18040    2.29350    3.30810  -22.39690
 4950.00000   84.41520    7.81510    1.79410    1.97400    2.69610  -22.26820
 5000.00000   82.61380    8.77640    1.64510    1.67030    2.05740  -23.94750
 5050.00000   76.46660    8.10150    1.80290    1.97620    2.35670  -22.56140
 5100.00000   86.27760    9.33250    1.38350    1.50840    1.76180  -23.87360
 5150.00000   82.47930   10.52470    1.29770    1.41560    1.70640  -22.56970
 5200.00000   85.38660   13.81320    1.03060    1.10490    1.35250  -24.50130
 5250.00000   88.58420   15.18570    0.86740    0.94340    1.15920  -25.13590
 5300.00000   87.32780    9.75220    1.30410    1.35480    1.68160  -26.25800
 5350.00000   85.13860   10.82100    1.34150    1.45440    1.71630  -26.05500
 5400.00000   77.94800   12.95400    1.30910    1.46240    1.73700  -26.79540
 5450.00000   69.52430   10.67660    1.27880    1.38390    1.63150  -26.34760
 5500.00000   68.17410    8.96320    2.52740    2.78300    3.57890  -16.81840
 5550.00000   75.33430    9.84610    1.38280    1.54370    1.94880  -17.70430
 5600.00000   91.73120   11.90470    1.20290    1.31610    1.56830  -20.54530
 5650.00000   84.40840    9.82360    1.44660    1.60680    1.86500  -18.89180
 5700.00000   81.46050    9.42810    1.44150    1.59830    1.94270  -17.96050
 5750.00000   81.72670   13.35090    1.11640    1.24360    1.40180  -19.82660
 5800.00000   79.74400   13.63210    0.99400    1.10180    1.27190  -18.84480
 5850.00000   89.58260   11.62940    1.42740    1.58050    1.80790  -19.99150
 5900.00000   90.14660   13.02130    1.05960    1.17320    1.37310  -20.22960
 5950.00000   89.38170   14.22490    0.98800    1.09670    1.26830  -19.72590
