~Version ---------------------------------------------------
VERS. 2.0 : CWLS log ASCII Standard -VERSION 2.0
WRAP.  NO : ONE LINE PER DEPTH STEP
~Well ------------------------------------------------------
STRT.F                      550.0 : START DEPTH
STOP.F                     7800.0 : STOP DEPTH
STEP.F                   50.00000 : STEP LENGTH
NULL.                     -999.25 : NULL VALUE
COMP. BELCO PETROLEUM CORPORATION : COMPANY
WELL.            E. B. KINCAID #1 : WELL
FLD .                    UN-NAMED : FIELD
LOC .          S200 T2640N R1383E : LOCATION
CNTY.                    MAVERICK : COUNTY
STAT.                       TEXAS : STATE
CTRY.    UNITED STATES OF AMERICA : COUNTRY
SRVC.                             : SERVICE COMPANY
DATE.                             : LOGDATE
API .              42323300710000 : API NUMBER
UWI .              42323300710000 : UNIQUE WELL ID
SLAT.WGS84          28.7741926765 : SURFACE LATITUDE
SLON.WGS84        -100.4227523578 : SURFACE LONGITUDE
~Curve Information -----------------------------------------
DEPT.F                 : 
RHOB.G/C3 45 350 01 00 : BULK DENSITY
DRHO.G/C3 45 356 01 00 : DENSITY CORRECTION
SPR .MV   07 010 01 00 : SPONTANEOUS POTENTIAL FROM RES. LOG
ILD .OHMM 07 120 46 00 : INDUCTION LOG DEEP
ILM .OHMM 07 120 44 00 : INDUCTION LOG MEDIUM
LL8 .OHMM 07 220 08 00 : LATEROLOG-8 RES.
CALD.IN   42 280 60 00 : CALIPER FROM NEUTRON LOG.
NPHI.DEC  42 890 00 00 : 
GRD .GAPI 42 310 01 00 : GAMMA RAY FROM COMPENSATED NEUTRON LOG
~Params ----------------------------------------------------
EKB .F                 895.5 : Kelly bushing
EGL .F                 883.0 : Ground level
EDF .F                   0.0 : Drilling floor
EPD .F                 883.0 : Permanent datum
TD  .F                7839.0 : Total depth
DATE.            12-OCT-1971 : Date logged
CLNT.                A2DTECH : Client Code
SL  .  2640' FNL & 1383' FWL : Surface Location
PD  .                     GL : Permanent Datum
LMF .                     KB : Log Measured From
DMF .                     KB : Drilling Measured From
DAPD.F                  12.5 : Feet Above Permanent Datum
DD  .F                  7836 : Depth driller
DL  .F                  7839 : Depth logger
BLI .F                  7835 : Bottom log interval
TLI .F                  7744 : Top log interval
CS1 .IN                7.625 : Casing size
CBD1.         7.625" @ 7244' : Casing driller 1
CBL1.F                  7244 : Casing logger 1
BS1 .IN                 6.75 : Bit size
BSD1.F                  7836 : Depth drilled with bit1
DFT .             SPERESENEL : Type fluid in hole
DFD .                   19.0 : Density
DFV .                     53 : Viscosity
DFPH.                   10.0 : pH
DFL .                    1.6 : Fluid loss
MSS .               CIRC PIT : Source of sample
RMS .OHMM               0.54 : Rm
RMF .OHMM               0.76 : Rmf
RMC .OHMM                2.3 : Rmc
MFSS.                      M : Source Rmf.
MCSS.                      C : Source Rmc.
RMB .OHMM               0.23 : Rm. at BHT
BHT .F                   218 : BHT.
TCS .HRS                  18 : Time Circ. stopped
LUN .                   7504 : Logging unit number
LUL .                  PLEAS : Logging unit location
ENGI.                 MCNABB : Recorded By
WITN.                 WILCOX : Witnessed by
ORIG.               5" PRINT : Origin of data
UWI .         42323300710000 : Unique Well ID
DICO. A2D TECHNOLOGIES, INC. : Digitizing Company
~Other -----------------------------------------------------
~ASCII -----------------------------------------------------
# ...
 4200.00000    2.62400    0.01400  -33.08500   29.71800   34.10000   50.95000   10.95000    0.01600   21.75500
 4250.00000    2.54900    0.17700  -42.99500  102.34600   54.81000   71.65900   13.58900    0.01800   17.59300
 4300.00000    2.93500    0.01200  -33.82400  165.04500  111.54000  265.04900   11.19200   -0.05300   13.50500
 4350.00000    2.76400    0.00400  -23.86700   59.65400   47.27700  162.04600   10.61300    0.01000   61.71400
 4400.00000    2.66200    0.03800  -22.54500   22.34700   18.83700   24.51500   10.55000    0.03300   48.22300
 4450.00000    2.94500   -0.00300  -29.32900   77.11200  132.46900  280.89200   10.73000   -0.05100   13.37900
 4500.00000    2.81000    0.00500  -33.83500  151.97300  107.39400  256.99100   10.60700   -0.00900   33.75700
 4550.00000    2.66200    0.03600  -17.45500   79.63900  106.46300  176.62200   10.61000   -0.00500   32.82000
 4600.00000    2.50900    0.22300  -25.69100  174.37800   90.19200  178.51300   13.66800   -0.00400   44.94100
 4650.00000    2.70000    0.11300  -22.25900   87.42300   78.30700  155.07300   10.89200    0.00500   17.97600
 4700.00000    2.70500    0.01300  -37.64800  131.99900  151.44300  204.88900   10.42900   -0.01600   41.61500
 4750.00000    2.75800    0.01900  -22.91600   65.17400   54.94200  133.66700   10.41300   -0.00600   25.72300
 4800.00000    2.75600    0.03400  -23.37900   42.75000   45.94300   65.98300   10.42000    0.01000   45.58100
 4850.00000    2.64400    0.20700  -27.50100  512.35400  103.18100  158.86400   11.55700   -0.01400   28.54600
 4900.00000    2.69200    0.07900  -27.17200   57.12800   37.93400   64.41900   10.70300    0.00600   26.53600
 4950.00000    2.63900    0.05400  -23.75600   62.87500   40.96300  104.35600   13.29000    0.00100   25.01000
 5000.00000    2.68700   -0.02000  -28.98600   37.03300   27.58000   54.70100   10.45700    0.01100   26.66900
 5050.00000    -999.25    -999.25  -28.57400   33.01400   37.51300   74.33600   10.60400    0.01000   32.78300
 5100.00000    -999.25    -999.25  -24.42900  677.21700   40.70300   98.65100   11.65800   -0.00800   33.69900
 5150.00000    -999.25    -999.25  -17.10000  259.19000   43.70900   52.95100   10.75000    0.00600   30.85100
 5200.00000    -999.25    -999.25  -12.95200   37.67900   22.94300   55.43500   10.78500    0.03600   45.88500
 5250.00000    -999.25    -999.25   -9.90800   14.48600   15.07900   19.85300   10.58500    0.03700   39.61800
 5300.00000    -999.25    -999.25   -9.83700  115.43000   36.38000  123.08000   12.86200    0.00600   37.20600
 5350.00000    -999.25    -999.25  -10.74500   20.21100   21.88300   33.78900   10.37000    0.02200   37.87300
 5400.00000    -999.25    -999.25  -15.16300   32.56600   24.78400   90.94800   12.18600    0.00400   36.41900
 5450.00000    -999.25    -999.25  -17.37000   72.31900   51.04400  137.96700   10.75500   -0.00700   48.33300
 5500.00000    -999.25    -999.25  -22.99900   23.63100   26.97300   31.80100   10.82600    0.02500   34.49200
 5550.00000    -999.25    -999.25  -24.59000   23.25000   28.24100   60.75800   10.35600    0.02600   44.37600
 5600.00000    -999.25    -999.25  -30.37500   54.92900   42.31100   91.31400   10.70600   -0.00200   33.73500
 5650.00000    -999.25    -999.25  -20.04300   34.41100   28.06000   77.82300   10.61300    0.00400   35.64700
 5700.00000    -999.25    -999.25  -21.59600   24.23600   23.47800   47.70200   10.48200    0.02500   45.44400
 5750.00000    -999.25    -999.25  -30.96400   51.78600   46.66800  127.34300   12.22300   -0.00400   35.64100
 5800.00000    -999.25    -999.25  -17.09400   55.43500   58.89800  179.24100   12.40200    0.00300   35.80200
 5850.00000    -999.25    -999.25   -6.51200   26.28000   27.87100   52.74800   10.27200    0.02300   40.12600
 5900.00000    -999.25    -999.25  -23.09900   44.96800   49.16400  117.03700   13.47900    0.00100   25.09800
 5950.00000    -999.25    -999.25  -17.92400   23.82200   25.67300   36.03700   10.30900    0.02200   27.98000
 6000.00000    -999.25    -999.25   -8.73500   20.58200   17.62300   29.46900   10.22100    0.04400   47.92000
 6050.00000    -999.25    -999.25   -9.39100   44.61200   43.04400  104.35600   10.80100    0.00400   49.65700
 6100.00000    2.64300    0.19900   -7.73100   73.25900   56.52800  174.37800   13.07300    0.00000   36.49100
 6150.00000    2.68100    0.08000   -6.50200   42.88400   59.65400  113.33200   10.81000   -0.00400   25.47400
 6200.00000    2.66300    0.00600  -71.58600   13.36200   14.53700   33.63500   10.27600    0.02100   18.74700
 6250.00000    2.72200    0.02900  -49.14900   23.41600   26.13900   47.00200   10.40900   -0.00300   20.62600
 6300.00000    2.57900    0.17900  -19.27200   46.73300   40.54200   85.42400   12.20400   -0.00500   33.35400
 6350.00000    2.62900    0.09000  -25.71400   37.89200   35.05100  109.72400   11.40100   -0.00200   36.38400
 6400.00000    2.65300    0.05900  -18.04800   17.78500   30.82900   35.37400   11.27700    0.03000   43.47200
 6450.00000    2.70200    0.02300  -13.69600   14.21200   16.43400   24.70400   10.92100    0.06300   53.08600
 6500.00000    2.63400    0.00300  -41.24700   37.03300   39.46600  117.56600   10.71800   -0.00400   37.45600
 6550.00000    2.67600    0.09100  -20.18400   28.38700   35.70000   48.31200   13.65000   -0.00700   27.43700
 6600.00000    2.67000    0.00300   -6.30300   16.68000   18.46700   25.66400   10.56400    0.06200   51.80600
 6650.00000    2.72600    0.01900  -14.82100   27.87100   25.66400   45.13100   10.63100    0.03400   53.90600
 6700.00000    2.68600    0.07900  -26.12600   38.27100   36.58100   55.22800   11.36800    0.00500   23.09300
 6750.00000    2.44100    0.16500  -15.91400   71.76000   43.38700   86.87100   11.51700    0.01600   50.23400
 6800.00000    2.63800    0.02400  -18.27700   38.77000   44.51900   67.30600   11.53600   -0.01000   52.07300
 6850.00000    2.72300    0.01600    0.00000   45.26300   53.31900   80.97900   10.82800   -0.00300   44.40300
 6900.00000    2.63200    0.10300  -15.28900   72.94000   70.95600   95.65300   11.34600   -0.00600   51.04400
 6950.00000    2.67600    0.03500  -14.06700   73.29000   71.99800  115.43000   10.54600   -0.00700   36.12800
 7000.00000    2.69700    0.00800   -9.85000   69.16800   90.15300  125.35800   10.26300    0.00400   46.60400
 7050.00000    2.76500    0.14300  -16.92300   57.62800   77.11200  160.51400   10.25100   -0.00300   58.78700
 7100.00000    2.68800    0.01800   -6.47300   26.53000   28.12800   58.57000   10.08100    0.03900   71.87300
 7150.00000    2.65100   -0.00300  -15.99300    9.67200   10.74200   14.14200   10.07600    0.07800   76.85700
 7200.00000    2.78700    0.08000  -15.80300   19.70800   21.03100   50.57900   10.03500    0.04400   72.54000
 7250.00000    2.69200   -0.08300  -34.31500   23.13900   16.16200   17.30300    9.70900    0.13000   39.10200
 7300.00000    2.68000   -0.01300  -14.08800   36.83600   24.36400   50.11700    6.71700    0.08100   38.90900
 7350.00000    2.61000   -0.03100  -11.97900    8.28000    6.72000    9.89100    6.77200    0.13800   56.82700
 7400.00000    2.64100   -0.00900  -16.66900   30.64200   24.60900   51.65900    6.80000    0.06200   29.60000
 7450.00000    2.61100   -0.00500  -13.37200   27.20700   21.76000   37.37400    6.85600    0.11100   39.51500
 7500.00000    2.68500   -0.01800  -16.81800    7.76000    5.31400    7.24200    6.86500    0.15600   67.11300
 7550.00000    2.66800   -0.00700  -14.09500 1433.13900  241.95000 1250.49800    6.76600   -0.00500   13.60900
 7600.00000    2.65000   -0.00900   -9.92700    4.97300    4.29400    6.17100    7.23000    0.15500   56.28200
 7650.00000    2.60000   -0.02900  -10.53300    6.37000    5.15900   11.77300    7.06100    0.19400   80.33100
 7700.00000    2.67600   -0.00800  -20.10100    5.62900    4.70700    9.53500    6.71500    0.16300   83.39600
 7750.00000    2.74100   -0.03200  -17.10000 1588.81800  256.28400 1081.04600    6.90500    0.01000   17.24100
 7800.00000    2.72000   -0.02300  -12.30400   99.66200   82.87200  238.16000    6.60100    0.02000   34.15400
