~Version ---------------------------------------------------
VERS.      2.0 : CWLS log ASCII Standard -VERSION 2.0
WRAP.      YES : Multiple lines per depth step
CREA. 06/29/18 : LAS Creation Date
~Well ------------------------------------------------------
STRT.FT                  800.0 : START DEPTH
STOP.FT                11000.0 : STOP DEPTH
STEP.FT               50.00000 : STEP LENGTH
NULL.                  -999.25 : NULL VALUE
COMP.    CHEVRON U. S. A. INC. : COMPANY
WELL.     TARTT EMMA ET AL #10 : WELL
FLD .                  FASHING : FIELD
LOC .                          : LOCATION
CNTY.                 ATASCOSA : COUNTY
STAT.                    TEXAS : STATE
CTRY. UNITED STATES OF AMERICA : COUNTRY
SRVC.                  Unknown : SERVICE COMPANY
DATE.              06-Sep-1992 : LOGDATE
API .           42013339770000 : API NUMBER
UWI .           42013339770000 : UNIQUE WELL ID
SLAT.WGS84       28.7945179412 : SURFACE LATITUDE
SLON.WGS84      -98.1956258756 : SURFACE LONGITUDE
~Curve Information -----------------------------------------
DEPT    .FT    : DEPTH FEET
CALDED  .IN    : CALIPER FROM DENSITY LOG
CALWS   .IN    : CALIPER [DCALED+8.5]
CONDWS  .MMHO  : DEEP CONDUCTIVITY [1000/DRESWS]
DCALED  .IN    : DIFFERENTIAL CALIPER FROM DENSITY LOG
DCORED  .G/C3  : DENSITY CORRECTION FROM DENSITY LOG
DCORWS  .G/C3  : DENSITY CORRECTION [DCORED]
DENWS   .G/C3  : BULK DENSITY [CALC. FROM DPOLSWS M=2.71 F=1.0]
DFLED   .OHMM  : DIGITALLY FOCUSED LATEROLOG
DPOLSWS .V/V   : DENSITY POROSITY (LS) [M=2.71 F=1.00] [DPORLSED]
DPORLSED.V/V   : DENSITY POROSITY (LS) [M=2.71 F=1.00]
DRESED  .OHMM  : DEEP RESISTIVITY
DRESWS  .OHMM  : DEEP RESISTIVITY [DRESED]
DTED    .US/F  : DELTA TIME FROM SONIC LOG, DEPTH ADJUSTED WITH [GRRED]
DTWS    .US/F  : DELTA TIME COMPRESSIONAL [DTED]
GRDED   .GAPI  : GAMMA RAY FROM DENSITY LOG
GRED    .GAPI  : GAMMA RAY, DEPTH ADJUSTED WITH [GRRED]
GRRED   .GAPI  : GAMMA RAY FROM RESISTIVITY LOG
GRSED   .GAPI  : GAMMA RAY FROM SONIC LOG, DEPTH ADJUSTED WITH [GRRED]
GRWS    .GAPI  : GAMMA RAY [GRED] 1000 [GRRED]
MRESED  .OHMM  : MEDIUM RESISTIVITY
MRESWS  .OHMM  : MEDIUM RESISTIVITY [MRESED]
NPOLSWS .V/V   : NEUTRON POROSITY LIMESTONE [NPORLSED]
NPORLSED.V/V   : NEUTRON POROSITY LIMESTONE
PEED    .B/E   : PHOTOELECTRIC FACTOR FROM DENSITY LOG
PEFWS   .B/E   : PHOTOELECTRIC FACTOR [PEED]
RHOBED  .G/C3  : BULK DENSITY FROM DENSITY LOG
SPRED   .MV    : SPONTANEOUS POTENTIAL FROM RESISTIVITY LOG
SPWS    .MV    : SPONTANEOUS POTENTIAL [BASELINE 0 MV] [SPRED]
SRESWS  .OHMM  : SHALLOW RESISTIVITY [DFLED]
TENDED  .LBF   : TENSION FROM DENSITY LOG
TENRED  .LBF   : TENSION FROM RESISTIVITY LOG
TENSED  .LBF   : TENSION FROM SONIC LOG, DEPTH ADJUSTED WITH [GRRED]
~Params ----------------------------------------------------
PD  .                     GL : PERMANENT DATUM
EPD .F                   443 : ELEVATION PERMANENT DATUM
LMF .                    TKB : LOG MEASURED FROM
DAPD.F                    22 : FEET ABOVE PERMANENT DATUM
DMF .                    TKB : DRILLING MEASURED FROM
EKB .F                   465 : KELLING BUSHING
EDF .F                   464 : DRILLING FLOOR
EGL .F                   443 : GROUND LEVEL
DATE.               09/06/92 : RUN DATE
RUN .                      1 : RUN NUMBER
DD  .F                 11000 : DEPTH DRILLER
DL  .F                 11005 : DEPTH LOGGER
BLI .F                 11000 : BOTTOM LOG INTERVAL
TLI .F                  4800 : TOP LOG INTERVAL
CS  .IN                9.625 : CASING SIZE
CBD .F                  2000 : CASING BOTTOM DRILLER
CBL .F                  1997 : CASING BOTTOM LOGGER
BS  .IN                  8.5 : BIT SIZE
BSD .F                 11000 : BIT SIZE AT DEPTH
DFT .             WATER BASE : DRILLING FLUID TYPE
DFD .                   10.3 : DRILLING FLUID DENSITY
DFV .                     44 : DRILLING FLUID VISCOSITY
DFPH.                   11.8 : DRILLING FLUID PH
DFL .                      5 : DRILLING FLUID LOSS
MSS .               FLOWLINE : MUD SAMPLE SOURCE
RMS .OHMM               1.07 : RESISTIVITY MUD SAMPLE
MST .F                    75 : MUD SAMPLE TEMPERATURE
RMF .OHMM               0.85 : RESISTIVITY MUD FILTRATE SAMPLE
MFST.F                    75 : MUD FILTRATE SAMPLE TEMPERATURE
RMC .OHMM               1.28 : RESISTIVITY MUD CAKE
MCST.F                    75 : MUD CAKE SAMPLE TEMPERATURE
MFSS.                  MEAS. : MUD FILTRATE SAMPLE SOURCE
MCSS.                  MEAS. : MUD CAKE SAMPLE SOURCE
RMB .OHMM               0.36 : RESISTIVITY MUD AT BHT
TCS .HRS                  14 : TIME CURCULATED STOPPED
TLAB.HRS               12:00 : TIME LOGGER AT BOTTOM
LUN .                  51731 : LOGGING UNIT NUMBER
LUL .                  ALICE : LOGGING UNIT LOCATION
ENGI.                  MEYER : RECORDING ENGINEER
WITN.       HOIN/LONG/GUERIN : WITNESSED BY
CLNT.                A2DTECH : CLIENT CODE
ORIG.               5" PRINT : ORIGIN OF DATA
UWI .         42013339770000 : UNIQUE WELL ID
DICO. A2D Technologies, Inc. : DIGITIZING COMPANY
~Other -----------------------------------------------------
~ASCII -----------------------------------------------------
# ...
 3000.00000    -999.25    8.99740  658.15450    0.49740    -999.25    -999.25    -999.25    1.42690    -999.25    -999.25    1.51940    1.51940    -999.25    -999.25    -999.25    -999.25   92.57130    -999.25   92.57130    1.55140    1.55140    -999.25    -999.25    -999.25    -999.25    -999.25  -54.16090  -21.68700    1.42690    -999.25 1852.16160    -999.25
 3050.00000    -999.25    9.34070  785.23750    0.84070    -999.25    -999.25    -999.25    1.63900    -999.25    -999.25    1.27350    1.27350    -999.25    -999.25    -999.25    -999.25   89.86990    -999.25   89.86990    1.27690    1.27690    -999.25    -999.25    -999.25    -999.25    -999.25  -40.85130   -8.34760    1.63900    -999.25 1810.31490    -999.25
 3100.00000    -999.25    8.59840  470.14570    0.09840    -999.25    -999.25    -999.25    2.23160    -999.25    -999.25    2.12700    2.12700    -999.25    -999.25    -999.25    -999.25   73.40690    -999.25   73.40690    2.20970    2.20970    -999.25    -999.25    -999.25    -999.25    -999.25  -65.33520  -32.80180    2.23160    -999.25 1909.23910    -999.25
 3150.00000    -999.25    9.10840  597.15750    0.60840    -999.25    -999.25    -999.25    2.15010    -999.25    -999.25    1.67460    1.67460    -999.25    -999.25    -999.25    -999.25   95.37710    -999.25   95.37710    1.75390    1.75390    -999.25    -999.25    -999.25    -999.25    -999.25  -49.67680  -17.11360    2.15010    -999.25 1887.12850    -999.25
 3200.00000    -999.25    9.17520  364.02020    0.67520    -999.25    -999.25    -999.25    4.62970    -999.25    -999.25    2.74710    2.74710    -999.25    -999.25    -999.25    -999.25   64.23010    -999.25   64.23010    2.73590    2.73590    -999.25    -999.25    -999.25    -999.25    -999.25  -55.35630  -22.76340    4.62970    -999.25 1891.61910    -999.25
 3250.00000    -999.25   10.44770  495.19660    1.94770    -999.25    -999.25    -999.25    1.91120    -999.25    -999.25    2.01940    2.01940    -999.25    -999.25    -999.25    -999.25   91.29720    -999.25   91.29720    1.87180    1.87180    -999.25    -999.25    -999.25    -999.25    -999.25  -43.88320  -11.26050    1.91120    -999.25 1951.39430    -999.25
 3300.00000    -999.25    9.57840  397.94660    1.07840    -999.25    -999.25    -999.25    3.20690    -999.25    -999.25    2.51290    2.51290    -999.25    -999.25    -999.25    -999.25   88.50100    -999.25   88.50100    2.56620    2.56620    -999.25    -999.25    -999.25    -999.25    -999.25  -56.44340  -23.79090    3.20690    -999.25 1918.72080    -999.25
 3350.00000    -999.25   10.44050  583.36250    1.94050    -999.25    -999.25    -999.25    1.81050    -999.25    -999.25    1.71420    1.71420    -999.25    -999.25    -999.25    -999.25   89.21400    -999.25   89.21400    1.75360    1.75360    -999.25    -999.25    -999.25    -999.25    -999.25  -53.68000  -20.99780    1.81050    -999.25 1932.17980    -999.25
 3400.00000    -999.25   10.91230  565.61090    2.41230    -999.25    -999.25    -999.25    1.93130    -999.25    -999.25    1.76800    1.76800    -999.25    -999.25    -999.25    -999.25   83.58410    -999.25   83.58410    1.69260    1.69260    -999.25    -999.25    -999.25    -999.25    -999.25  -42.57480   -9.86280    1.93130    -999.25 1936.59720    -999.25
 3450.00000    -999.25   11.07330  319.39700    2.57330    -999.25    -999.25    -999.25    3.71630    -999.25    -999.25    3.13090    3.13090    -999.25    -999.25    -999.25    -999.25   78.39010    -999.25   78.39010    3.34700    3.34700    -999.25    -999.25    -999.25    -999.25    -999.25  -47.38810  -14.64640    3.71630    -999.25 2012.58830    -999.25
 3500.00000    -999.25   11.26030  557.10310    2.76030    -999.25    -999.25    -999.25    2.13670    -999.25    -999.25    1.79500    1.79500    -999.25    -999.25    -999.25    -999.25   82.66340    -999.25   82.66340    1.77120    1.77120    -999.25    -999.25    -999.25    -999.25    -999.25  -42.97530  -10.20380    2.13670    -999.25 2002.75050    -999.25
 3550.00000    -999.25   11.40540  706.46410    2.90540    -999.25    -999.25    -999.25    1.47360    -999.25    -999.25    1.41550    1.41550    -999.25    -999.25    -999.25    -999.25   83.67730    -999.25   83.67730    1.39800    1.39800    -999.25    -999.25    -999.25    -999.25    -999.25  -42.57370   -9.77250    1.47360    -999.25 1966.65520    -999.25
 3600.00000    -999.25   10.58670  487.40070    2.08670    -999.25    -999.25    -999.25    3.87140    -999.25    -999.25    2.05170    2.05170    -999.25    -999.25    -999.25    -999.25   93.94300    -999.25   93.94300    2.10230    2.10230    -999.25    -999.25    -999.25    -999.25    -999.25  -44.71300  -11.88200    3.87140    -999.25 1990.17600    -999.25
 3650.00000    -999.25    9.93690 1003.51230    1.43690    -999.25    -999.25    2.17560    1.07090    0.31250    0.31250    0.99650    0.99650    -999.25    -999.25    -999.25    -999.25   89.69900    -999.25   89.69900    0.99950    0.99950    0.51430    0.51430    -999.25    -999.25    -999.25  -42.87580  -10.01510    1.07090    -999.25 2034.58690    -999.25
 3700.00000    -999.25    9.46140  255.87880    0.96140    -999.25    -999.25    2.34000    4.31540    0.21640    0.21640    3.90810    3.90810    -999.25    -999.25    -999.25    -999.25   77.63990    -999.25   77.63990    4.01230    4.01230    0.38370    0.38370    -999.25    -999.25    -999.25  -54.34080  -21.45030    4.31540    -999.25 2125.94020    -999.25
 3750.00000    -999.25    8.48040  104.83500   -0.01960    -999.25    -999.25    2.12110    5.50940    0.34440    0.34440    9.53880    9.53880    -999.25    -999.25    -999.25    -999.25   57.76320    -999.25   57.76320    7.89740    7.89740    0.38760    0.38760    -999.25    -999.25    -999.25  -45.34810  -12.42790    5.50940    -999.25 1996.09080    -999.25
 3800.00000    -999.25    8.59800   59.23290    0.09800    -999.25    -999.25    2.12480   12.10470    0.34220    0.34220   16.88250   16.88250    -999.25    -999.25    -999.25    -999.25   54.63070    -999.25   54.63070   13.98030   13.98030    0.34460    0.34460    -999.25    -999.25    -999.25  -38.61280   -5.66280   12.10470    -999.25 1913.24320    -999.25
 3850.00000    -999.25    8.75490   43.85270    0.25490    -999.25    -999.25    2.11010   11.55730    0.35080    0.35080   22.80360   22.80360    -999.25    -999.25    -999.25    -999.25   49.06130    -999.25   49.06130   16.60820   16.60820    0.33200    0.33200    -999.25    -999.25    -999.25  -39.98700   -7.00720   11.55730    -999.25 2047.95570    -999.25
 3900.00000    -999.25    8.67640   49.70080    0.17640    -999.25    -999.25    2.16470   12.90540    0.31890    0.31890   20.12040   20.12040    -999.25    -999.25    -999.25    -999.25   55.70910    -999.25   55.70910   15.03310   15.03310    0.34180    0.34180    -999.25    -999.25    -999.25  -42.17790   -9.16840   12.90540    -999.25 2107.53390    -999.25
 3950.00000    -999.25    8.87260   33.39530    0.37260    -999.25    -999.25    2.21290   18.77140    0.29070    0.29070   29.94430   29.94430    -999.25    -999.25    -999.25    -999.25   48.88240    -999.25   48.88240   21.79870   21.79870    0.29310    0.29310    -999.25    -999.25    -999.25  -39.19340   -6.15410   18.77140    -999.25 2011.37440    -999.25
 4000.00000    -999.25    8.99030  167.40040    0.49030    -999.25    -999.25    2.38900    8.12960    0.18770    0.18770    5.97370    5.97370    -999.25    -999.25    -999.25    -999.25   82.65120    -999.25   82.65120    6.29150    6.29150    0.41470    0.41470    -999.25    -999.25    -999.25  -43.17330  -10.10430    8.12960    -999.25 2216.07980    -999.25
 4050.00000    -999.25    8.44120   41.29940   -0.05880    -999.25    -999.25    2.21360   17.10860    0.29030    0.29030   24.21340   24.21340    -999.25    -999.25    -999.25    -999.25   51.59140    -999.25   51.59140   18.34970   18.34970    0.35150    0.35150    -999.25    -999.25    -999.25  -38.13930   -5.04050   17.10860    -999.25 2143.08570    -999.25
