~Version ---------------------------------------------------
VERS. 2.0 : CWLS log ASCII Standard -VERSION 2.0
WRAP. YES : MULTIPLE LINES PER DEPTH STEP
~Well ------------------------------------------------------
STRT.FT                   3850.0 : START DEPTH
STOP.FT                   8300.0 : STOP DEPTH
STEP.FT                 50.00000 : STEP LENGTH
NULL.                    -999.25 : NULL VALUE
COMP. CHAMPLIN PETROLEUM COMPANY : COMPANY
WELL.          J. F. GOODSON  #2 : WELL
FLD .                   GIDDINGS : FIELD
LOC .                            : LOCATION
CNTY.                   BURLESON : COUNTY
STAT.                      TEXAS : STATE
CTRY.   UNITED STATES OF AMERICA : COUNTRY
SRVC.               Schlumberger : SERVICE COMPANY
DATE.                15-May-1980 : LOGDATE
API .             42051306970000 : API NUMBER
UWI .             42051306970000 : UNIQUE WELL ID
SLAT.WGS84         30.4460373097 : SURFACE LATITUDE
SLON.WGS84        -96.6864923933 : SURFACE LONGITUDE
~Curve Information -----------------------------------------
DEPT    .FT    : DEPTH FEET
CALDED  .IN    : CALIPER FROM COMPENSATED NEUTRON FORMATION DENSITY
CALWS   .IN    : CALIPER [CALDED]
CONDWS  .MMHO  : CONDUCTIVITY [1000/DRESWS]
DCORWS  .G/C3  : DENSITY CORRECTION [DRHOED]
DENWS   .G/C3  : BULK DENSITY [M=2.71 F=1.0] [RHOBED]
DPHILSED.V/V   : DENSITY POROSITY [M=2.71 F=1.0] FROM CNFD LOG
DPHISSED.V/V   : DENSITY POROSITY [M=2.65 F=1.0] FROM CNFD LOG
DPOWS   .V/V   : DENSITY POROSITY [M=2.71 F=1.0] [CALCULATED FROM DENWS]
DRESWS  .OHMM  : DEEP RESISTIVITY [ILDED]
DRHOED  .G/C3  : DENSITY CORRECTION FROM COMPENSATED NEUTRON FORMATION DENSITY
DTED    .US/F  : DELTA TIME FROM DUAL INDUCTION-SFL-SONIC LOG
DTWS    .US/F  : DELTA TIME [DTED]
GRDED   .GAPI  : GAMMA RAY FROM COMPENSATED NEUTRON FORMATION DENSITY
GRRED   .GAPI  : GAMMA RAY FROM DUAL INDUCTION-SFL-SONIC LOG
GRWS    .GAPI  : GAMMA RAY [GRDED]
ILDED   .OHMM  : INDUCTION LOG DEEP RESISTIVITY FROM DUAL INDUCTION-SFL-SONIC LOG
ILMED   .OHMM  : INDUCTION LOG MEDIUM RESISTIVITY FROM DUAL INDUCTION-SFL-SONIC LOG
MRESWS  .OHMM  : MEDIUM RESISTIVITY [ILMED]
NPHILSED.V/V   : NEUTRON POROSITY LIMESTONE FROM COMPENSATED NEUTRON FORMATION DENSITY
NPHISSED.V/V   : NEUTRON POROSITY SANDSTONE FROM COMPENSATED NEUTRON FORMATION DENSITY
NPOWS   .V/V   : NEUTRON POROSITY [SPLICED NPHISSED CONVERTED TO LS/NPHILSED AT 6500']
RHOBED  .G/C3  : BULK DENSITY FROM DENSITY LOG
SFLUED  .OHMM  : SPHERICALLY FOCUSED LOG RESISTIVITY FROM DUAL INDUCTION-SFL-SONIC LOG
SPHIED  .V/V   : SONIC POROSITY FROM DENSITY SONIC LOG
SPOWS   .V/V   : SONIC POROSITY [SPHIED]
SPRED   .MV    : SPONTANEOUS POTENTIAL FROM DUAL INDUCTION-SFL-SONIC LOG
SPWS    .MV    : SPONTANEOUS POTENTIAL [BASELINE 0 MV] [SPRED]
SRESWS  .OHMM  : SHALLOW RESISTIVITY [SFLUED]
~Params ----------------------------------------------------
PD  .                     GL : PERMANENT DATUM
EPD .FT                  316 : ELEVATION PERMANENT DATUM
LMF .                     KB : LOG MEASURED FROM
DAPD.FT                   16 : FEET ABOVE PERMANENT DATUM
DMF .                     KB : DRILLING MEASURED FROM
EKB .FT                  232 : KELLY BUSHING
EDF .FT                  327 : DRILLING FLOOR
EGL .FT                  316 : GROUND LEVEL
DATE.               05/15/80 : RUN DATE
RUN .                      1 : RUN NUMBER
DD  .FT                 8301 : DEPTH DRILLER
DL  .FT                 8302 : DEPTH LOGGER
BLI .FT                 8296 : BOTTOM LOG INTERVAL
TLI .FT                 3870 : TOP LOG INTERVAL
CS  .IN                9.625 : CASING SIZE
CBD .FT                 3881 : CASING BOTTOM DRILLER
CBL .FT                 3870 : CASING BOTTOM LOGGER
BS  .IN                 8.75 : BIT SIZE
BSD .FT                 8301 : BIT SIZE AT DEPTH
DFT .                 BEN EX : DRILLING FLUID TYPE
DFD .                    9.7 : DRILLING FLUID DENSITY
DFV .                     49 : DRILLING FLUID VISCOSITY
DFPH.                    8.5 : DRILLING FLUID PH
DFL .                    6.4 : DRILLING FLUID LOSS
MSS .                   TANK : MUD SAMPLE SOURCE
RMS .OHMM               2.38 : RESISTIVITY MUD SAMPLE
MST .DEGF                102 : MUD SAMPLE TEMPERATURE
RMF .OHMM               1.79 : RESISTIVITY MUD FILTRATE SAMPLE
MFST.DEGF                102 : MUD FILTRATE SAMPLE TEMPERATURE
RMC .OHMM               3.58 : RESISTIVITY MUD CAKE
MCST.DEGF                102 : MUD CAKE SAMPLE TEMPERATURE
MFSS.                      M : MUD FILTRATE SAMPLE SOURCE
MCSS.                      C : MUD CAKE SAMPLE SOURCE
RMB .OHMM               1.28 : RESISTIVITY MUD AT BHT
TCS .HRS                 900 : TIME CIRCULATED STOPPED
TLAB.HRS                1530 : TIME LOGGER AT BOTTOM
LUN .                   8101 : LOGGING UNIT NUMBER
LUL .                   BREN : LOGGING UNIT LOCATION
ENGI.              GILLILAND : RECORDING ENGINEER
WITN.                  DAVIS : WITNESSED BY
CLNT.                A2DTECH : CLIENT CODE
ORIG.          1" 2.5" PRINT : ORIGIN OF DATA
UWI .         42051306970000 : UNIQUE WELL ID
DICO. A2D Technologies, Inc. : DIGITIZING COMPANY
~Other -----------------------------------------------------
~ASCII -----------------------------------------------------
 3850.00000    -999.25    -999.25    -999.25    -999.25    -999.25    -999.25    -999.25    -999.25    -999.25    -999.25    -999.25    -999.25    -999.25   68.24770   68.24770    -999.25    -999.25    -999.25    -999.25    -999.25    -999.25    -999.25    -999.25    -999.25    -999.25    -999.25    -999.25    -999.25
 3900.00000   10.07970   10.07970   29.70310    0.06540    2.43460    -999.25    0.14150    0.16110   33.66650    0.06540   64.56250   64.56250   61.90050   78.45760   78.45760   33.66650   28.55740   28.55740    -999.25    0.28320    0.28320    2.43460   39.90420    -999.25    -999.25  -27.27890   -7.82190   39.90420
 3950.00000   10.02600   10.02600   89.24350    0.08960    2.24180    -999.25    0.24700    0.27380   11.20530    0.08960   95.74890   95.74890   58.59540   86.66120   86.66120   11.20530   10.36270   10.36270    -999.25    0.37900    0.37900    2.24180   12.75400    -999.25    -999.25  -42.47560  -26.00590   12.75400
 4000.00000   11.00460   11.00460  166.05500    0.16730    2.27390    -999.25    0.22500    0.25510    6.02210    0.16730  104.84990  104.84990  137.12850  140.97680  140.97680    6.02210    6.41770    6.41770    -999.25    0.39260    0.39260    2.27390    5.17200    -999.25    -999.25  -43.48670  -28.54800    5.17200
 4050.00000   10.22200   10.22200  138.07390    0.12260    2.33220    -999.25    0.18850    0.22090    7.24250    0.12260   94.22500   94.22500   78.27100   94.86790   94.86790    7.24250    7.62240    7.62240    -999.25    0.31240    0.31240    2.33220    9.18730    -999.25    -999.25  -41.73400  -28.32630    9.18730
 4100.00000   11.19070   11.19070  308.03350    0.06870    2.17620    -999.25    0.28810    0.31220    3.24640    0.06870  110.81710  110.81710   91.03020  105.63860  105.63860    3.24640    3.12100    3.12100    -999.25    0.46310    0.46310    2.17620    4.30570    -999.25    -999.25  -25.75400  -13.87720    4.30570
 4150.00000   10.03260   10.03260  181.70920    0.09990    2.31760    -999.25    0.19980    0.22950    5.50330    0.09990   99.00330   99.00330   91.22400  115.73300  115.73300    5.50330    5.67960    5.67960    -999.25    0.36090    0.36090    2.31760    7.79150    -999.25    -999.25  -34.89510  -23.37540    7.79150
 4200.00000   10.82000   10.82000  259.19490    0.06140    2.33660    -999.25    0.18420    0.21840    3.85810    0.06140   98.25170   98.25170   97.53040  120.42900  120.42900    3.85810    3.98940    3.98940    -999.25    0.35660    0.35660    2.33660    4.30180    -999.25    -999.25  -28.27940  -16.85910    4.30180
 4250.00000   11.24510   11.24510  266.77340    0.06840    2.37750    -999.25    0.16370    0.19440    3.74850    0.06840   97.48920   97.48920   94.86490  124.92550  124.92550    3.74850    3.95690    3.95690    -999.25    0.33510    0.33510    2.37750    5.56430    -999.25    -999.25  -29.14140  -17.82050    5.56430
 4300.00000   10.82230   10.82230  339.90480    0.06720    2.35140    -999.25    0.17920    0.20970    2.94200    0.06720  104.39970  104.39970   99.05560  128.97570  128.97570    2.94200    3.18040    3.18040    -999.25    0.35240    0.35240    2.35140    2.70060    -999.25    -999.25  -20.55580   -9.33440    2.70060
 4350.00000   12.05070   12.05070  374.65810    0.08790    2.43830    -999.25    0.12720    0.15890    2.66910    0.08790   98.87760   98.87760   93.04920  112.26970  112.26970    2.66910    2.57900    2.57900    -999.25    0.37350    0.37350    2.43830    3.09100    -999.25    -999.25  -13.13920   -2.01720    3.09100
 4400.00000   11.21060   11.21060  347.11370    0.03620    2.42930    -999.25    0.13370    0.16420    2.88090    0.03620   97.12000   97.12000   97.10700  119.39780  119.39780    2.88090    2.99670    2.99670    -999.25    0.33070    0.33070    2.42930    2.90020    -999.25    -999.25  -15.87770   -4.85510    2.90020
 4450.00000   10.21940   10.21940  379.59310    0.07250    2.43850    -999.25    0.12440    0.15880    2.63440    0.07250   98.35040   98.35040  103.87310  128.74110  128.74110    2.63440    2.54320    2.54320    -999.25    0.31850    0.31850    2.43850    2.71730    -999.25    -999.25  -13.11170   -2.18850    2.71730
 4500.00000   10.50180   10.50180  393.03540    0.08450    2.41710    -999.25    0.13820    0.17130    2.54430    0.08450   98.58360   98.58360  107.32680  131.39050  131.39050    2.54430    2.42290    2.42290    -999.25    0.38680    0.38680    2.41710    2.19450    -999.25    -999.25  -15.96290   -5.13910    2.19450
 4550.00000   10.67190   10.67190  461.36100    0.10700    2.35160    -999.25    0.17820    0.20960    2.16750    0.10700   99.85940   99.85940  101.13580  130.27850  130.27850    2.16750    2.09060    2.09060    -999.25    0.36300    0.36300    2.35160    2.25910    -999.25    -999.25  -10.81310   -0.56860    2.25910
 4600.00000   10.37370   10.37370  413.46230    0.12160    2.51110    -999.25    0.08100    0.11630    2.41860    0.12160   98.31410   98.31410  101.79920  126.57580  126.57580    2.41860    2.33660    2.33660    -999.25    0.32230    0.32230    2.51110    2.55780    -999.25    -999.25  -10.02440   -0.87910    2.55780
 4650.00000   12.10030   12.10030  592.80340    0.10580    2.46740    -999.25    0.10790    0.14190    1.68690    0.10580  102.24510  102.24510  111.15360  147.94940  147.94940    1.68690    1.62990    1.62990    -999.25    0.35860    0.35860    2.46740    1.88810    -999.25    -999.25   -9.71170   -1.66550    1.88810
 4700.00000   13.32220   13.32220  542.91760    0.09520    2.48450    -999.25    0.09640    0.13190    1.84190    0.09520   98.96750   98.96750  106.75290  129.02930  129.02930    1.84190    1.77930    1.77930    -999.25    0.35840    0.35840    2.48450    1.98460    -999.25    -999.25   -9.60770   -1.95100    1.98460
 4750.00000   14.27300   14.27300  511.77070    0.11750    2.51320    -999.25    0.08250    0.11510    1.95400    0.11750   98.35020   98.35020  100.14730  130.69680  130.69680    1.95400    1.88760    1.88760    -999.25    0.32590    0.32590    2.51320    2.02700    -999.25    -999.25   -9.84440   -2.44200    2.02700
 4800.00000   13.50370   13.50370  612.89530    0.14260    2.49330    -999.25    0.09180    0.12670    1.63160    0.14260  102.35610  102.35610  113.72590  133.24740  133.24740    1.63160    1.57660    1.57660    -999.25    0.36710    0.36710    2.49330    1.77870    -999.25    -999.25  -10.51080   -3.36280    1.77870
 4850.00000   12.97910   12.97910  622.47120    0.07800    2.50520    -999.25    0.08680    0.11980    1.60650    0.07800  101.57430  101.57430  110.82570  132.73430  132.73430    1.60650    1.55220    1.55220    -999.25    0.35270    0.35270    2.50520    1.80050    -999.25    -999.25  -11.02720   -4.13350    1.80050
 4900.00000   12.28890   12.28890  714.69410    0.07660    2.48340    -999.25    0.09740    0.13250    1.39920    0.07660  105.48250  105.48250  112.52970  139.63660  139.63660    1.39920    1.35090    1.35090    -999.25    0.34630    0.34630    2.48340    1.56200    -999.25    -999.25  -10.41100   -3.77160    1.56200
 4950.00000   11.01230   11.01230  519.02220    0.03630    2.50050    -999.25    0.08990    0.12250    1.92670    0.03630   98.69970   98.69970  124.11720  151.19130  151.19130    1.92670    1.86160    1.86160    -999.25    0.32620    0.32620    2.50050    2.08180    -999.25    -999.25  -11.31330   -4.92820    2.08180
 5000.00000   11.03390   11.03390  686.29470    0.08960    2.47980    -999.25    0.10020    0.13460    1.45710    0.08960  102.02130  102.02130  108.35440  123.58150  123.58150    1.45710    1.40790    1.40790    -999.25    0.37640    0.37640    2.47980    1.64730    -999.25    -999.25  -11.91700   -5.78620    1.64730
 5050.00000   11.59220   11.59220  794.59670    0.10390    2.47430    -999.25    0.10300    0.13780    1.25850    0.10390  103.85560  103.85560   98.71100  129.34840  129.34840    1.25850    1.21600    1.21600    -999.25    0.39140    0.39140    2.47430    1.33010    -999.25    -999.25   -7.94980   -2.07340    1.33010
