~Version ---------------------------------------------------
VERS. 2.0 : CWLS log ASCII Standard -VERSION 2.0
WRAP. YES : MULTIPLE LINES PER DEPTH STEP
~Well ------------------------------------------------------
STRT.FT                      2550.0 : START DEPTH
STOP.FT                      7550.0 : STOP DEPTH
STEP.FT                    50.00000 : STEP LENGTH
NULL.                       -999.25 : NULL VALUE
COMP. ROBINSON BROTHERS DRILLING CO : COMPANY
WELL.                 LESTER J B #1 : WELL
FLD .                          COST : FIELD
LOC .                               : LOCATION
CNTY.                      GONZALES : COUNTY
STAT.                         TEXAS : STATE
CTRY.      UNITED STATES OF AMERICA : COUNTRY
SRVC.                      Gearhart : SERVICE COMPANY
DATE.                   06-Dec-1980 : LOGDATE
API .                42177306900000 : API NUMBER
UWI .                42177306900000 : UNIQUE WELL ID
SLAT.WGS84            29.4106594536 : SURFACE LATITUDE
SLON.WGS84           -97.5279511295 : SURFACE LONGITUDE
~Curve Information -----------------------------------------
DEPT   .FT    : DEPTH FEET
CALWS  .IN    : CALIPER [CALXRED]
CALXED .IN    : CALIPER X FROM DENSITY LOG
CALXRED.IN    : CALIPER X FROM RESISTIVITY LOG
CALYED .IN    : CALIPER Y FROM DENSITY LOG
CDLLSED.V/V   : DENSITY POROSITY LIMESTONE FROM DENSITY LOG
CNCLSED.V/V   : NEUTRON POROSITY LIMESTONE FROM DENSITY LOG
CONDWS .MMHO  : CONDUCTIVITY [1000/DRESWS]
DCORWS .G/C3  : DENSITY CORRECTION [DRHOED]
DENWS  .G/C3  : BULK DENSITY [M=2.71 F=1.0] [CALCULATED FROM DPOWS]
DPOWS  .V/V   : DENSITY POROSITY [M=2.71 F=1.0] [CDLLSED]
DRESWS .OHMM  : DEEP RESISTIVITY [RILDED]
DRHOED .G/C3  : DENSITY CORRECTION FROM DENSITY LOG
DTED   .US/F  : DELTA TIME FROM DIL/BHC LOG
DTWS   .US/F  : DELTA TIME [DTED]
GRDED  .GAPI  : GAMMA RAY FROM DENSITY LOG [DEPTH ADJ TO GRR]
GRED   .GAPI  : GAMMA RAY FROM GR LOG [DEPTH ADJ TO GRR]
GRRED  .GAPI  : GAMMA RAY FROM RESISTIVITY LOG
GRWS   .GAPI  : GAMMA RAY [MERGED GRED/GRRED AT 6014]
MRESWS .OHMM  : MEDIUM RESISTIVITY [RILMED]
NPOWS  .V/V   : NEUTRON POROSITY SANDSTONE [CNCLSED]
RILDED .OHMM  : INDUCTION LOG DEEP RESISTIVITY
RILMED .OHMM  : INDUCTION LOG MEDIUM RESISTIVITY
RLLED  .OHMM  : LATEROLOG RESISTIVITY
SPRED  .MV    : SPONTANEOUS POTENTIAL FROM RESISTIVITY LOG
SPWS   .MV    : SPONTANEOUS POTENTIAL [BASELINE 0 MV] [SPRED]
SRESWS .OHMM  : SHALLOW RESISTIVITY [RLLED]
~Params ----------------------------------------------------
EKB .F                 324.7 : Kelly bushing
EGL .F                 311.0 : Ground level
EDF .F                 323.7 : Drilling floor
EPD .F                 311.0 : Permanent datum
TD  .F                7584.0 : Total depth
CLNT.                A2DTECH : Client Code
PD  .                     GL : Permanent Datum
LMF .                     KB : Log Measured From
DMF .                     KB : Drilling Measured From
DAPD.F                  13.7 : Feet Above Permanent Datum
DATE.            06-DEC-1980 : Date Logged [DD-MMM-YYYY]
DD  .F                  7584 : Depth driller
DL  .F                  7553 : Depth logger
BLI .F                  7552 : Bottom log interval
TLI .F                  2525 : Top log interval
CS1 .IN                8.625 : Casing size
CBD1.         8.625" @ 2524' : Casing driller 1
CBL1.F                  2525 : Casing logger 1
BS1 .IN                7.875 : Bit size
BSD1.F                  7584 : Depth drilled with bit1
DFT .                   CHEM : Type fluid in hole
DFD .                    9.4 : Density
DFV .                     38 : Viscosity
DFPH.                    9.5 : pH
DFL .                    5.8 : Fluid loss
MSS .               FLOWLINE : Source of sample
RMS .OHMM                2.8 : Rm
RMF .OHMM                2.2 : Rmf
MFSS.                   CALC : Source Rmf.
RMC .OHMM                3.6 : Rmc
MCSS.                   CALC : Source Rmc.
RMB .OHMM                115 : Rm. at BHT
BHT .F                   182 : BHT.
TCS .HRS                 300 : Time Circ. stopped
TLAB.HRS                1015 : Time logger at bottom
LUN .                   7561 : Logging unit number
LUL .                   VICT : Logging unit location
ENGI.                 CURRIN : Recorded By
WITN.                   HOCH : Witnessed by
ORIG.          2.5" 5" PRINT : Origin of data
UWI .         42177306900000 : Unique Well ID
DICO. A2D TECHNOLOGIES, INC. : Digitizing Company
SL  .  499' FSEL & 490' FNWL : Surface Location
~Other -----------------------------------------------------
~ASCII -----------------------------------------------------
# ...
 5250.00000   12.14360    -999.25   12.14360    -999.25    -999.25    -999.25  823.72330    -999.25    -999.25    -999.25    1.21400    -999.25   98.29290   98.29290    -999.25    -999.25    -999.25    -999.25    1.30650    -999.25    1.21400    1.30650    1.37740   71.51420   -4.58000    1.37740
 5300.00000   11.12180    -999.25   11.12180    -999.25    -999.25    -999.25 1145.47530    -999.25    -999.25    -999.25    0.87300    -999.25  101.10700  101.10700    -999.25    -999.25    -999.25    -999.25    0.95510    -999.25    0.87300    0.95510    1.08010   72.69800   -3.59890    1.08010
 5350.00000    8.94290    -999.25    8.94290    -999.25    -999.25    -999.25  650.36420    -999.25    -999.25    -999.25    1.53760    -999.25   94.16280   94.16280    -999.25    -999.25    -999.25    -999.25    1.56460    -999.25    1.53760    1.56460    1.72130   72.54670   -3.95280    1.72130
 5400.00000    8.49720    -999.25    8.49720    -999.25    -999.25    -999.25  810.04450    -999.25    -999.25    -999.25    1.23450    -999.25   94.96560   94.96560    -999.25    -999.25    -999.25    -999.25    1.31200    -999.25    1.23450    1.31200    1.52640   74.06850   -2.60870    1.52640
 5450.00000    8.47180    -999.25    8.47180    -999.25    -999.25    -999.25  453.32970    -999.25    -999.25    -999.25    2.20590    -999.25   88.67710   88.67710    -999.25    -999.25    -999.25    -999.25    2.37210    -999.25    2.20590    2.37210    2.66480   73.14400   -3.45840    2.66480
 5500.00000    8.46770    -999.25    8.46770    -999.25    -999.25    -999.25  446.76760    -999.25    -999.25    -999.25    2.23830    -999.25   90.29840   90.29840    -999.25   57.06870    -999.25   57.06870    2.09770    -999.25    2.23830    2.09770    2.79370   74.29740   -2.23030    2.79370
 5550.00000    8.33370    -999.25    8.33370    -999.25    -999.25    -999.25  471.58690    -999.25    -999.25    -999.25    2.12050    -999.25   98.43740   98.43740    -999.25   60.57670    -999.25   60.57670    1.96800    -999.25    2.12050    1.96800    2.67180   73.52570   -2.92720    2.67180
 5600.00000    9.48290    -999.25    9.48290    -999.25    -999.25    -999.25  889.99650    -999.25    -999.25    -999.25    1.12360    -999.25   98.84450   98.84450    -999.25   60.62950    -999.25   60.62950    1.09890    -999.25    1.12360    1.09890    1.53860   68.84870   -7.52940    1.53860
 5650.00000    8.88040    -999.25    8.88040    -999.25    -999.25    -999.25  569.31400    -999.25    -999.25    -999.25    1.75650    -999.25   85.93930   85.93930    -999.25   49.57480    -999.25   49.57480    1.90160    -999.25    1.75650    1.90160    2.39020   70.21900   -6.08440    2.39020
 5700.00000    8.33150    -999.25    8.33150    -999.25    -999.25    -999.25  494.36430    -999.25    -999.25    -999.25    2.02280    -999.25  100.93460  100.93460    -999.25   42.60690    -999.25   42.60690    2.12080    -999.25    2.02280    2.12080    2.67120   73.35170   -2.87690    2.67120
 5750.00000   11.50160    -999.25   11.50160    -999.25    -999.25    -999.25  726.90260    -999.25    -999.25    -999.25    1.37570    -999.25   96.95470   96.95470    -999.25   52.71740    -999.25   52.71740    1.34140    -999.25    1.37570    1.34140    1.60880   67.77390   -8.37990    1.60880
 5800.00000   10.58460    -999.25   10.58460    -999.25    -999.25    -999.25  754.43230    -999.25    -999.25    -999.25    1.32550    -999.25  116.66140  116.66140    -999.25   58.62110    -999.25   58.62110    1.37220    -999.25    1.32550    1.37220    1.63440   67.34060   -8.73850    1.63440
 5850.00000   11.28430    -999.25   11.28430    -999.25    -999.25    -999.25  706.66390    -999.25    -999.25    -999.25    1.41510    -999.25   95.14560   95.14560    -999.25   53.30810    -999.25   53.30810    1.44040    -999.25    1.41510    1.44040    1.68030   67.31390   -8.69040    1.68030
 5900.00000   11.16140    -999.25   11.16140    -999.25    -999.25    -999.25  759.12850    -999.25    -999.25    -999.25    1.31730    -999.25   98.02750   98.02750    -999.25   50.88820    -999.25   50.88820    1.34040    -999.25    1.31730    1.34040    1.57830   69.48800   -6.44150    1.57830
 5950.00000   11.24020    -999.25   11.24020    -999.25    -999.25    -999.25  680.08700    -999.25    -999.25    -999.25    1.47040    -999.25   97.23700   97.23700    -999.25   44.15220    -999.25   44.15220    1.49770    -999.25    1.47040    1.49770    1.74400   67.47520   -8.37960    1.74400
 6000.00000   10.37270    -999.25   10.37270    -999.25    -999.25    -999.25  719.83870    -999.25    -999.25    -999.25    1.38920    -999.25  102.33090  102.33090    -999.25   47.89530    -999.25   47.89530    1.43170    -999.25    1.38920    1.43170    1.80070   66.81140   -8.96860    1.80070
 6050.00000   10.05410    -999.25   10.05410    -999.25    -999.25    -999.25  578.30210    -999.25    -999.25    -999.25    1.72920    -999.25   95.01060   95.01060    -999.25   54.83080   69.86600   69.86600    1.67820    -999.25    1.72920    1.67820    2.21600   68.23260   -7.47260    2.21600
 6100.00000    9.23220    -999.25    9.23220    -999.25    -999.25    -999.25  399.29720    -999.25    -999.25    -999.25    2.50440    -999.25   98.60430   98.60430    -999.25   48.53430   66.20260   66.20260    2.21890    -999.25    2.50440    2.21890    3.41940   73.83980   -1.82950    3.41940
 6150.00000   11.70800    -999.25   11.70800    -999.25    -999.25    -999.25  940.46830    -999.25    -999.25    -999.25    1.06330    -999.25  110.33020  110.33020    -999.25   60.77190   82.31270   82.31270    1.08220    -999.25    1.06330    1.08220    1.31360   68.93940   -6.82390    1.31360
 6200.00000   11.61750    -999.25   11.61750    -999.25    -999.25    -999.25  818.06290    -999.25    -999.25    -999.25    1.22240    -999.25   95.90060   95.90060    -999.25   74.16630   83.19870   83.19870    1.25610    -999.25    1.22240    1.25610    1.39280   71.09670   -4.76050    1.39280
 6250.00000   12.26000    -999.25   12.26000    -999.25    -999.25    -999.25  892.21980    -999.25    -999.25    -999.25    1.12080    -999.25  113.87360  113.87360    -999.25   68.66260   77.39940   77.39940    1.14230    -999.25    1.12080    1.14230    1.34380   71.69700   -4.25420    1.34380
 6300.00000   12.64360    -999.25   12.64360    -999.25    -999.25    -999.25  866.25090    -999.25    -999.25    -999.25    1.15440    -999.25   95.97050   95.97050    -999.25   78.93600   91.24340   91.24340    1.17510    -999.25    1.15440    1.17510    1.31390   70.42030   -5.62490    1.31390
 6350.00000   13.21590    -999.25   13.21590    -999.25    -999.25    -999.25 1067.00810    -999.25    -999.25    -999.25    0.93720    -999.25  137.76700  137.76700    -999.25   72.71370   93.46380   93.46380    1.01320    -999.25    0.93720    1.01320    1.16690   72.08190   -4.05730    1.16690
 6400.00000   12.27480    -999.25   12.27480    -999.25    -999.25    -999.25  919.37120    -999.25    -999.25    -999.25    1.08770    -999.25   98.46640   98.46640    -999.25   71.48440   86.48850   86.48850    1.14310    -999.25    1.08770    1.14310    1.23520   71.84280   -4.39030    1.23520
 6450.00000   11.37650    -999.25   11.37650    -999.25    -999.25    -999.25  712.80920    -999.25    -999.25    -999.25    1.40290    -999.25   92.39040   92.39040    -999.25   64.22120   77.72630   77.72630    1.43760    -999.25    1.40290    1.43760    1.70470   72.85220   -3.47490    1.70470
 6500.00000   12.63210    -999.25   12.63210    -999.25    -999.25    -999.25  763.82520    -999.25    -999.25    -999.25    1.30920    -999.25   93.83870   93.83870    -999.25   75.17060   83.45140   83.45140    1.33210    -999.25    1.30920    1.33210    1.62970   72.06080   -4.36030    1.62970
 6550.00000   11.88350    -999.25   11.88350    -999.25    -999.25    -999.25  696.76700    -999.25    -999.25    -999.25    1.43520    -999.25   93.10270   93.10270    -999.25   70.40590   76.87200   76.87200    1.46020    -999.25    1.43520    1.46020    1.75420   73.05440   -3.46070    1.75420
