~Version ---------------------------------------------------
VERS.      2.0 : CWLS log ASCII Standard -VERSION 2.0
WRAP.      YES : Multiple lines per depth step
CREA. 01/04/13 : LAS Creation Date
~Well ------------------------------------------------------
STRT.FT                 2000.0 : START DEPTH
STOP.FT                 9700.0 : STOP DEPTH
STEP.FT               50.00000 : STEP LENGTH
NULL.                  -999.25 : NULL VALUE
COMP.   TXO PRODUCTION COMPANY : COMPANY
WELL.              TXO HULL #1 : WELL
FLD .                  BRANTON : FIELD
LOC .                          : LOCATION
CNTY.                     LEON : COUNTY
STAT.                    TEXAS : STATE
CTRY. UNITED STATES OF AMERICA : COUNTRY
SRVC.             Schlumberger : SERVICE COMPANY
DATE.              17-Jul-1985 : LOGDATE
API .           42289306650000 : API NUMBER
UWI .           42289306650000 : UNIQUE WELL ID
SLAT.WGS84       31.3703569787 : SURFACE LATITUDE
SLON.WGS84      -96.2242249712 : SURFACE LONGITUDE
~Curve Information -----------------------------------------
DEPT    .FT    : DEPTH FEET
CALDED  .IN    : CALIPER FROM CNLD LOG [ADJ.TO GRRED]
CALRED  .IN    : CALIPER FROM DIL-SFL-SONIC LOG
CALWS   .IN    : CALIPER [CALRED SPL.TO CALDED @ 9704']
CONDWS  .MMHO  : CONDUCTIVITY [1000/DRESWS]
DCORWS  .G/C3  : DENSITY CORRECTION [DRHOED]
DENWS   .G/C3  : FORMATION BULK DENSITY [CALCULATED FROM DPOWS, M=2.71, F=1.0]
DPHILSED.V/V   : DENSITY POROSITY LIMESTONE [M=2.71, F=1.0] FROM CNLD LOG [ADJ.TO GRRED]
DPOWS   .V/V   : DENSITY POROSITY LIMESTONE [DPHILSED]
DRESWS  .OHMM  : DEEP RESISTIVITY [ILMED]
DRHOED  .G/C3  : DENSITY CORRECTION FROM CNLD LOG [ADJ.TO GRRED]
DTED    .US/F  : DELTA-T FROM DIL-SFL-SONIC LOG
DTWS    .US/F  : COMPRESSIONAL SONIC [DTED]
GRDED   .GAPI  : GAMMA RAY FROM CNLD LOG [ADJ.TO GRRED]
GRRED   .GAPI  : GAMMA RAY FROM DIL-SFL-SONIC LOG
GRWS    .GAPI  : GAMMA RAY [GRRED]
ILDED   .OHMM  : DEEP INDUCTION FROM DIL-SFL-SONIC LOG
ILMED   .OHMM  : MEDIUM INDUCTION FROM DIL-SFL-SONIC LOG
MRESWS  .OHMM  : MEDIUM RESISTIVITY [ILMED]
NPHILSED.V/V   : NEUTRON POROSITY LIMESTONE FROM CNLD LOG [ADJ.TO GRRED]
NPOWS   .V/V   : NEUTRON POROSITY LIMESTONE [NPHILSED]
SFLUED  .OHMM  : SHALLOW FOCUSED FROM DIL-SFL-SONIC LOG
SPRED   .MV    : SPONTANEOUS POTENTIAL FROM DIL-SFL-SONIC LOG
SPWS    .MV    : SPONTANEOUS POTENTIAL [BASELINE 0 MV, SPRED]
SRESWS  .OHMM  : SHALLOW RESISTIVITY [SFLUED]
TENDED  .LBF   : TENSION FROM CNLD LOG [ADJ.TO GRRED]
TENRED  .LBF   : TENSION FROM DIL-SFL-SONIC LOG
~Params ----------------------------------------------------
PD  .                     GL : PERMANENT DATUM
EPD .FT                  503 : ELEVATION PERMANENT DATUM
LMF .                    RKB : LOG MEASURED FROM
DAPD.FT                 13.5 : FEET ABOVE PERMANENT DATUM
DMF .                    RKB : DRILLING MEASURED FROM
EKB .FT                516.5 : KELLY BUSHING
EDF .FT                515.5 : DRILLING FLOOR
EGL .FT                  503 : GROUND LEVEL
DATE.               07/17/85 : RUN DATE
RUN .                      2 : RUN NUMBER
DD  .FT                 9750 : DEPTH DRILLER
DL  .FT                 9736 : DEPTH LOGGER
BLI .FT                 9730 : BOTTOM LOG INTERVAL
TLI .FT                 8100 : TOP LOG INTERVAL
CS  .IN                8.625 : CASING SIZE
CBD .FT                 2000 : CASING BOTTOM DRILLER
CBL .FT                 2000 : CASING BOTTOM LOGGER
BS  .IN                7.875 : BIT SIZE
BSD .FT                 9750 : BIT SIZE AT DEPTH
DFT .         LIGNOSULFONATE : DRILLING FLUID TYPE
DFD .                    9.9 : DRILLING FLUID DENSITY
DFV .                     45 : DRILLING FLUID VISCOSITY
DFPH.                    9.5 : DRILLING FLUID PH
DFL .                   11.4 : DRILLING FLUID LOSS
MSS .               CIR TANK : MUD SAMPLE SOURCE
RMS .OHMM               2.23 : RESISTIVITY MUD SAMPLE
MST .DEGF                 75 : MUD SAMPLE TEMPERATURE
RMF .OHMM               1.99 : RESISTIVITY MUD FILTRATE SAMPLE
MFST.DEGF                 75 : MUD FILTRATE SAMPLE TEMPERATURE
RMC .OHMM               3.34 : RESISTIVITY MUD CAKE
MCST.DEGF                 75 : MUD CAKE SAMPLE TEMPERATURE
MFSS.                   MEAS : MUD FILTRATE SAMPLE SOURCE
MCSS.                   CALC : MUD CAKE SAMPLE SOURCE
RMB .OHMM               1.11 : RESISTIVITY MUD AT BHT
TCS .HRS                 100 : TIME CIRCULATED STOPPED
TLAB.HRS                1000 : TIME LOGGER AT BOTTOM
LUN .                   8276 : LOGGING UNIT NUMBER
LUL .                   3808 : LOGGING UNIT LOCATION
ENGI.              LANGHAMER : RECORDING ENGINEER
WITN.              GILLESPIE : WITNESSED BY
CLNT.                A2DTECH : CLIENT CODE
ORIG.            2" 5" PRINT : ORIGIN OF DATA
UWI .         42289306650000 : UNIQUE WELL ID
DICO. A2D Technologies, Inc. : DIGITIZING COMPANY
~Other -----------------------------------------------------
~ASCII -----------------------------------------------------
# ...
 7400.00000    -999.25   12.07940   12.07940  113.26310    -999.25    -999.25    -999.25    -999.25    8.82900    -999.25   60.69940   60.69940    -999.25   23.68040   23.68040    8.82900   11.00120   11.00120    -999.25    -999.25   23.81950  -30.57480  -10.54090   23.81950    -999.25    -999.25
 7450.00000    -999.25   11.07280   11.07280   73.11170    -999.25    -999.25    -999.25    -999.25   13.67770    -999.25   58.11600   58.11600    -999.25   45.83120   45.83120   13.67770   17.54710   17.54710    -999.25    -999.25   28.79990  -27.69150   -6.95950   28.79990    -999.25    -999.25
 7500.00000    -999.25   11.39420   11.39420  153.32960    -999.25    -999.25    -999.25    -999.25    6.52190    -999.25   66.71140   66.71140    -999.25   50.88630   50.88630    6.52190    7.80510    7.80510    -999.25    -999.25   15.35710  -26.16440   -4.73420   15.35710    -999.25    -999.25
 7550.00000    -999.25   14.05720   14.05720  476.66710    -999.25    -999.25    -999.25    -999.25    2.09790    -999.25   86.38060   86.38060    -999.25   74.68900   74.68900    2.09790    2.26690    2.26690    -999.25    -999.25    2.37170  -28.51890   -6.30370    2.37170    -999.25    -999.25
 7600.00000    -999.25   11.15280   11.15280   95.90390    -999.25    -999.25    -999.25    -999.25   10.42710    -999.25   62.88640   62.88640    -999.25   54.56960   54.56960   10.42710   10.51890   10.51890    -999.25    -999.25   11.03360  -34.33290  -10.52520   11.03360    -999.25    -999.25
 7650.00000    -999.25   11.21580   11.21580   58.80310    -999.25    -999.25    -999.25    -999.25   17.00590    -999.25   56.20730   56.20730    -999.25   37.05060   37.05060   17.00590   26.81440   26.81440    -999.25    -999.25   52.89780  -32.68330   -6.12060   52.89780    -999.25    -999.25
 7700.00000   11.67450   10.75970   10.75970  240.35570    0.02210    2.56450    0.08510    0.08510    4.16050    0.02210   78.18660   78.18660   62.55020   64.40420   64.40420    4.16050    4.95380    4.95380    0.20070    0.20070    5.00310  -31.41440   -2.09660    5.00310 3365.22170    -999.25
 7750.00000   11.25710   10.58310   10.58310   52.47750    0.04140    2.67070    0.02300    0.02300   19.05580    0.04140   55.12460   55.12460   19.89900   18.43060   18.43060   19.05580   24.39620   24.39620    0.04530    0.04530   60.90940  -50.86580  -18.79300   60.90940 3398.03390    -999.25
 7800.00000   10.78260    9.94410    9.94410  110.07280    0.07000    2.69910    0.00640    0.00640    9.08490    0.07000   63.80550   63.80550   42.23720   49.51570   49.51570    9.08490    9.61230    9.61230    0.08800    0.08800    8.74970  -35.25020   -3.36510    8.74970 3411.25020    -999.25
 7850.00000   10.75310   10.55240   10.55240  136.98630   -0.00340    2.69120    0.01100    0.01100    7.30000   -0.00340   55.95670   55.95670   34.99470   39.60600   39.60600    7.30000   10.15030   10.15030    0.02040    0.02040   19.11330  -36.11620   -4.93810   19.11330 3417.25370    -999.25
 7900.00000   10.27440   10.26270   10.26270   66.86770    0.02960    2.68860    0.01250    0.01250   14.95490    0.02960   60.06710   60.06710   41.62990   40.09350   40.09350   14.95490   15.55640   15.55640    0.05190    0.05190   17.61630  -32.32470   -1.85370   17.61630 3438.01150    -999.25
 7950.00000   10.57730   10.41100   10.41100  115.19280    0.00770    2.53690    0.10120    0.10120    8.68110    0.00770   62.26230   62.26230   41.65000   48.61720   48.61720    8.68110   10.11270   10.11270    0.14190    0.14190    9.68800  -35.29160   -5.52760    9.68800 3435.69610    -999.25
 8000.00000   10.59220   10.17240   10.17240   70.72140    0.00840    2.69560    0.00840    0.00840   14.14000    0.00840   59.54030   59.54030   35.79920   36.19390   36.19390   14.14000   14.52240   14.52240    0.04480    0.04480   19.06850  -31.73370   -2.67680   19.06850 3425.88450    -999.25
 8050.00000   10.93140    9.87910    9.87910   60.89060    0.00230    2.68670    0.01360    0.01360   16.42290    0.00230   59.08270   59.08270   37.66220   47.21960   47.21960   16.42290   19.44560   19.44560    0.02550    0.02550   48.16570  -34.19780   -5.84790   48.16570 3423.29000    -999.25
 8100.00000   10.83070    9.71980    9.71980   51.27070    0.02680    2.67630    0.01970    0.01970   19.50430    0.02680   59.93870   59.93870   30.51130   37.73640   37.73640   19.50430   21.17750   21.17750    0.02610    0.02610   27.87890  -29.87480   -2.48150   27.87890 3476.04760 3601.82180
 8150.00000    9.98500    9.37340    9.37340   13.42870    0.03530    2.70570    0.00250    0.00250   74.46720    0.03530   50.66590   50.66590   30.21470   29.74270   29.74270   74.46720  107.73280  107.73280    0.00810    0.00810  246.04160  -47.89810  -24.77650  246.04160 3484.88260 3625.18040
 8200.00000   10.50530    9.43730    9.43730   15.68970    0.00510    2.70200    0.00470    0.00470   63.73610    0.00510   51.67760   51.67760   28.06880   29.94690   29.94690   63.73610   73.20280   73.20280    0.00540    0.00540  146.60170  -39.83000  -20.98000  146.60170 3508.33960 3615.98880
 8250.00000   11.24690    9.79630    9.79630   39.71000    0.00260    2.73100   -0.01230   -0.01230   25.18260    0.00260   59.75080   59.75080   31.55420   31.63260   31.63260   25.18260   19.24880   19.24880    0.04860    0.04860   40.31690  -25.00390  -10.42560   40.31690 3488.29510 3623.29660
 8300.00000    9.83280    8.98460    8.98460  120.64330    0.01230    2.66710    0.02510    0.02510    8.28890    0.01230   61.95760   61.95760   44.95900   48.32020   48.32020    8.28890    9.03410    9.03410    0.07840    0.07840   13.21360  -15.36920   -4.89550   13.21360 3582.37450 3650.76780
 8350.00000   11.01820    8.76780    8.76780   24.36220    0.00950    2.68160    0.01660    0.01660   41.04720    0.00950   52.28620   52.28620   45.69430   52.10590   52.10590   41.04720   53.57340   53.57340    0.00360    0.00360   84.39230  -47.51740  -36.72510   84.39230 3536.41170 3662.18530
 8400.00000   10.14500    8.24350    8.24350   50.55790    0.01000    2.69140    0.01090    0.01090   19.77930    0.01000   50.52010   50.52010   23.69720   27.82770   27.82770   19.77930   73.74100   73.74100    0.00390    0.00390   80.79510 -108.04640  -99.32700   80.79510 3536.65970 3648.50590
 8450.00000   10.82540    8.11590    8.11590   14.93690    0.02460    2.70820    0.00110    0.00110   66.94810    0.02460   52.42940   52.42940   30.70530   27.01350   27.01350   66.94810  225.42870  225.42870    0.00560    0.00560   76.12380  -67.90620  -61.25980   76.12380 3616.42160 3657.73320
 8500.00000   11.16570   10.44410   10.44410   50.76090    0.03370    2.74940   -0.02300   -0.02300   19.70020    0.03370   54.71970   54.71970   26.76230   30.82450   30.82450   19.70020   21.26730   21.26730    0.01540    0.01540   26.21120  -26.94460  -22.37120   26.21120 3577.42820 3703.65210
 8550.00000   11.49460    9.94630    9.94630   59.25680    0.05510    2.58590    0.07260    0.07260   16.87570    0.05510   58.06070   58.06070   19.35460   21.90980   21.90980   16.87570   23.09340   23.09340    0.04790    0.04790   68.44550  -98.16870  -94.44520   68.44550 3570.43760 3731.13650
 8600.00000    9.84180    9.83420    9.83420   37.15400    0.00980    2.71110   -0.00060   -0.00060   26.91500    0.00980   54.81330   54.81330   52.68240   48.58930   48.58930   26.91500   29.28880   29.28880    0.01590    0.01590   57.57080   -5.86610   -2.14260   57.57080 3627.81810 3746.55490
 8650.00000   15.42990   14.21650   14.21650  355.96060    0.10000    2.29120    0.24490    0.24490    2.80930    0.10000   81.55940   81.55940   82.55040   76.81690   76.81690    2.80930    2.91400    2.91400    0.35720    0.35720    3.17510  -17.16580  -13.52870    3.17510 3663.97360 3757.12500
 8700.00000   12.46490   12.49210   12.49210  397.03020    0.10000    2.15400    0.32520    0.32520    2.51870    0.10000   87.73640   87.73640   76.22940   78.79120   78.79120    2.51870    2.59290    2.59290    0.31550    0.31550    3.13060  -15.45710  -11.98010    3.13060 3722.08280 3777.42970
