~Version ---------------------------------------------------
VERS. 2.0 : CWLS log ASCII Standard -VERSION 2.0
WRAP.  NO : ONE LINE PER DEPTH STEP
~Well ------------------------------------------------------
STRT.F                     3550.0 : START DEPTH
STOP.F                     9800.0 : STOP DEPTH
STEP.F                   50.00000 : STEP LENGTH
NULL.                     -999.25 : NULL VALUE
COMP. MITCHELL ENERGY CORPORATION : COMPANY
WELL.              KROLL LLOYD #1 : WELL
FLD .             MADISONVILLE, W : FIELD
LOC .                             : LOCATION
CNTY.                     MADISON : COUNTY
STAT.                       TEXAS : STATE
CTRY.    UNITED STATES OF AMERICA : COUNTRY
SRVC.                             : SERVICE COMPANY
DATE.                             : LOGDATE
API .              42313305590000 : API NUMBER
UWI .              42313305590000 : UNIQUE WELL ID
SLAT.WGS84          30.8725507632 : SURFACE LATITUDE
SLON.WGS84         -96.0290528463 : SURFACE LONGITUDE
~Curve Information -----------------------------------------
DEPT.F                  : 
GRN .GAPI  35 310 01 00 : GAMMA RAY FROM GRN LOG
NEUT.NAPI  35 330 00 00 : NEUTRON
GRR .GAPI  07 310 01 00 : GAMMA RAY FROM RESISTIVITY LOG
RILD.OHMM  07 120 46 00 : RAW DEEP INDUCTION RESISTIVITY
RILM.OHMM  07 120 44 00 : RAW MEDIUM INDUCTION RESISTIVITY
RILS.OHMM  07 120 00 00 : RAW SHALLOW INDUCTION RESISTIVITY
SPR .MV    07 010 01 00 : SPONTANEOUS POTENTIAL FROM RESISTIVITY LOG
CALX.IN    07 280 13 00 : CALIPER FROM X AXIS OF X-Y CALIPER(S)
DT  .US/F  60 500 00 00 : DELTA-T (INTERVAL TRANSIT TIME)
ROP .FT/HR 91 810 00 00 : RATE OF PENETRATION
TGAS.UNITS 91 830 01 00 : TOTAL GAS FROM HOTWIRE
~Params ----------------------------------------------------
PD  .                     GL : PERMANENT DATUM
EPD .FT                  297 : ELEVATION PERMANENT DATUM
LMF .                     KB : LOG MEASURED FROM
DAPD.FT                13.54 : FEET ABOVE PERMANENT DATUM
DMF .                     KB : DRILLING MEASURED FROM
EKB .FT               310.54 : KELLY BUSHING
EDF .FT               309.54 : DRILLING FLOOR
EGL .FT                  297 : GROUND LEVEL
DATE.               03/11/85 : RUN DATE
RUN .                      1 : RUN NUMBER
DD  .FT                 9800 : DEPTH DRILLER
DL  .FT                 9217 : DEPTH LOGGER
BLI .FT                 9216 : BOTTOM LOG INTERVAL
TLI .FT                 3550 : TOP LOG INTERVAL
CS  .IN                8.625 : CASING SIZE
CBD .FT                 3550 : CASING BOTTOM DRILLER
CBL .FT                 3550 : CASING BOTTOM LOGGER
BS  .IN                7.875 : BIT SIZE
BSD .FT                 9800 : BIT SIZE AT DEPTH
DFT .         LIGNOSULFONATE : DRILLING FLUID TYPE
DFD .                    9.5 : DRILLING FLUID DENSITY
DFV .                     76 : DRILLING FLUID VISCOSITY
DFPH.                   10.3 : DRILLING FLUID PH
DFL .                    6.4 : DRILLING FLUID LOSS
MSS .                 MUDPIT : MUD SAMPLE SOURCE
RMS .OHMM                1.8 : RESISTIVITY MUD SAMPLE
MST .DEGF                 75 : MUD SAMPLE TEMPERATURE
RMF .OHMM                1.3 : RESISTIVITY MUD FILTRATE SAMPLE
MFST.DEGF                 75 : MUD FILTRATE SAMPLE TEMPERATURE
RMC .OHMM                2.2 : RESISTIVITY MUD CAKE
MCST.DEGF                 75 : MUD CAKE SAMPLE TEMPERATURE
MFSS.                      M : MUD FILTRATE SAMPLE SOURCE
MCSS.                      M : MUD CAKE SAMPLE SOURCE
RMB .OHMM                0.6 : RESISTIVITY MUD AT BHT
TCS .HRS                1830 : TIME CIRCULATED STOPPED
TLAB.HRS                 417 : TIME LOGGER AT BOTTOM
LUN .                   7577 : LOGGING UNIT NUMBER
LUL .                  BRYAN : LOGGING UNIT LOCATION
ENGI.               WELLMANN : RECORDING ENGINEER
WITN.                 KURTIN : WITNESSED BY
CLNT.                A2DTECH : CLIENT CODE
ORIG.            1" 5" PRINT : ORIGIN OF DATA
UWI .         42313305590000 : UNIQUE WELL ID
DICO. A2D Technologies, Inc. : DIGITIZING COMPANY
~Other -----------------------------------------------------
~ASCII -----------------------------------------------------
# ...
 6600.00000    -999.25    -999.25   85.69970    1.43750    1.49450    1.61250    0.00100   10.12740   94.65940    -999.25    -999.25
 6650.00000    -999.25    -999.25   84.24600    1.61760    1.68240    1.76060  -25.54830   11.30040   96.06440    -999.25    -999.25
 6700.00000    -999.25    -999.25   91.85310    1.53330    1.59610    1.65950  -26.04890   11.28530  113.01190    -999.25    -999.25
 6750.00000    -999.25    -999.25   80.15120    2.09090    2.28960    2.44310  -26.24080   10.38460   89.41750    -999.25    -999.25
 6800.00000    -999.25    -999.25   93.23260    1.18680    1.26400    1.31810  -24.92750   11.44580  124.35090    -999.25    -999.25
 6850.00000    -999.25    -999.25   88.51810    1.59180    1.65500    1.71660  -24.09860   12.30000   96.09600    -999.25    -999.25
 6900.00000    -999.25    -999.25   89.08610    1.77060    2.02080    2.13550  -26.00480   11.63940  122.28650    -999.25    -999.25
 6950.00000    -999.25    -999.25   91.14630    1.35330    1.40700    1.46130  -22.89100   12.20350  120.10800    -999.25    -999.25
 7000.00000    -999.25    -999.25   94.68560    1.35630    1.41090    1.46560  -23.15990   13.82740  110.78050    -999.25    -999.25
 7050.00000    -999.25    -999.25   84.68130    1.43470    1.49150    1.58330  -24.39460    -999.25    -999.25    -999.25    -999.25
 7100.00000    -999.25    -999.25   83.69110    1.30680    1.35860    1.42360  -21.08580    -999.25    -999.25    -999.25    -999.25
 7150.00000    -999.25    -999.25   83.36450    1.32260    1.37570    1.42930  -21.27950    -999.25    -999.25    -999.25    -999.25
 7200.00000    -999.25    -999.25   83.86310    1.35020    1.40390    1.45810  -18.83230    -999.25    -999.25    -999.25    -999.25
 7250.00000    -999.25    -999.25   85.17680    1.46460    1.52750    1.59120  -17.13570    -999.25    -999.25    -999.25    -999.25
 7300.00000    -999.25    -999.25   80.25390    1.39980    1.45530    1.51140  -17.35370    -999.25  139.87310    -999.25    -999.25
 7350.00000    -999.25    -999.25   80.31490    1.47260    1.53090    1.58990  -17.78880   13.89670  134.25980    -999.25    -999.25
 7400.00000    -999.25    -999.25   93.13360    1.99130    2.07030    2.15000  -17.68010   10.73890   90.84000    -999.25    -999.25
 7450.00000    -999.25    -999.25   82.38450    2.10270    2.19740    2.29350  -18.20700   10.38250  102.59140    -999.25    -999.25
 7500.00000    -999.25    -999.25   83.21210    1.82120    1.89370    2.03120  -17.66660   11.84760  113.24530   15.86970    -999.25
 7550.00000    -999.25    -999.25   76.50500    1.85550    1.93000    2.12330  -17.01450   11.68610  116.24700   17.90760   19.69520
 7600.00000    -999.25    -999.25   64.94840    4.73710    4.93310    5.20080  -17.20180    9.28760   75.36900   17.40600   27.70500
 7650.00000    -999.25    -999.25   87.54090    2.54880    2.64990    2.97930  -12.72970   10.21150   86.14160   18.41670   29.86320
 7700.00000    -999.25    -999.25   81.46870    3.28920    3.42530    3.66230  -17.10600   10.38880   81.74120   17.42330   20.42840
 7750.00000    -999.25    -999.25   66.02650    5.05460    5.58830    6.18420  -15.21000   10.16580   72.91360   18.53870   30.61560
 7800.00000    -999.25    -999.25   75.22130    2.07900    2.16140    2.39760  -16.45650   12.85640   94.08400   16.34180   20.39160
 7850.00000    -999.25    -999.25   79.00670    2.58030    2.69040    2.79940  -16.58550   12.03390   90.40790   17.03350   19.79640
 7900.00000    -999.25    -999.25   83.55490    1.94680    2.02400    2.15400  -16.41620   12.47570   92.27680   12.65580   20.26030
 7950.00000    -999.25    -999.25   64.24530    4.70160    5.13780    5.48690  -15.43760   10.23960   74.42580   22.05260   29.78220
 8000.00000    -999.25    -999.25   78.42410    3.10910    3.24100    3.84770  -13.36160   10.71120   80.94800   15.06430   20.78780
 8050.00000    -999.25    -999.25   77.61000    2.81830    3.07870    3.34520  -11.52780   12.94950   85.57690   17.57660   19.52070
 8100.00000    -999.25    -999.25   81.56750    2.57830    2.68240    2.90650  -10.70500   12.46490   87.46290   15.16890   10.09360
 8150.00000    -999.25    -999.25   83.60220    2.74000    2.84890    3.17940  -10.42020   11.21470   83.56570   19.95980   29.39970
 8200.00000  101.33920  130.96010   64.09970    4.01850    4.36100    4.84490  -10.92670   10.34940   76.22180   16.14280   26.20450
 8250.00000   97.67110  145.94490   39.63960    8.85430    9.84370   15.79520   -4.93530   11.01510   64.40780   14.90710   30.95890
 8300.00000   88.31380  144.02130   39.78240    8.73650    9.65690   11.30340  -12.36690   11.13090   63.33500   11.38410   49.52800
 8350.00000   95.25320  117.25550   53.82860    4.40930    4.58960    5.50880   -8.11520   11.82010   75.54010   13.51130   39.86900
 8400.00000  113.79980  131.74480   41.30380   11.21120   12.98330   12.54840  -10.86180   10.03750   64.75040   14.61040   39.84920
 8450.00000   90.47470  112.67430   36.90820   43.69100   39.87590   34.35300  -16.18430   12.84830   88.89850   14.11550   29.23180
 8500.00000   93.99030  149.18440   27.41390   57.58310   43.49740   36.62080  -19.08380   10.29980   57.95140   16.13100   80.46650
 8550.00000  103.64800  105.15150   85.64700    4.14130    3.32170    4.31180   -6.94210   10.99370   81.68890   15.66440   50.80870
 8600.00000   96.57840  113.99010   56.91390    4.81020    5.15100    5.89610   -5.71300   12.99400   81.65940   17.18020   69.80210
 8650.00000   99.38580   99.73790   71.44630    4.32130    4.58390    4.21940   -2.65680   13.72830   88.56230   19.26020   90.51040
 8700.00000  104.87340  140.30870   72.55110    6.54690    6.81100    7.07790   -2.01100   11.74620   72.13040   19.91210   80.65040
 8750.00000  111.24890  114.79190   85.71790    3.51410    3.65340    3.82800   -0.61820   13.36040   81.26900   12.30830   80.70860
 8800.00000  127.48990  138.34140   68.66720    4.82500    5.56550    6.65870   -1.12450   11.45010   72.08150   13.83350   69.32670
 8850.00000  145.34220  111.07920   69.48220    4.99110    5.41560    6.71660   -1.06740   11.48820   77.18420   14.61150   77.50790
 8900.00000  126.34330  123.69110   79.21960    4.65570    4.87810    6.10230   -1.43840   12.63330   79.03580   10.94450   83.12610
 8950.00000  145.58680  139.05330   68.56940    6.90000    7.17240   10.62710   -3.06390    9.32450   71.37760   13.52180   80.02250
 9000.00000  142.66230  106.40870   82.97310    3.19210    3.31900    3.81490   -5.37340   11.75350   82.80190   13.40280   97.82210
 9050.00000  133.19020  103.84360   85.49250    3.17880    3.56000    3.89530   -3.80090   10.90740   89.36100   12.87150  123.46940
 9100.00000  142.29010   99.03320   67.99470    2.84610    2.56740    2.97050   -1.80260   14.17820   85.01970   14.37450  123.24730
 9150.00000  119.59050   93.64590   55.16990    2.40510    2.16600    2.55130   -7.27560   16.07970  124.25020   15.57320  123.06540
 9200.00000  129.55850   95.57870   54.34940    2.54890    2.65060    3.03280    3.00140   14.28590    -999.25   16.95840  102.09510
 9250.00000  140.73010  104.46380    -999.25    -999.25    -999.25    -999.25    -999.25    -999.25    -999.25   16.68850 1507.24260
 9300.00000  128.98700  102.18970    -999.25    -999.25    -999.25    -999.25    -999.25    -999.25    -999.25   15.31340  175.72460
 9350.00000  154.26470  154.15950    -999.25    -999.25    -999.25    -999.25    -999.25    -999.25    -999.25    8.59310  136.29060
 9400.00000  207.18190  232.66720    -999.25    -999.25    -999.25    -999.25    -999.25    -999.25    -999.25   12.68600   46.68140
 9450.00000  218.55410  177.27090    -999.25    -999.25    -999.25    -999.25    -999.25    -999.25    -999.25   12.70600   70.65270
 9500.00000  185.65660  187.18340    -999.25    -999.25    -999.25    -999.25    -999.25    -999.25    -999.25   17.06280   90.56930
 9550.00000  181.76680  207.03960    -999.25    -999.25    -999.25    -999.25    -999.25    -999.25    -999.25   17.89850   99.74560
 9600.00000  188.33910  201.99150    -999.25    -999.25    -999.25    -999.25    -999.25    -999.25    -999.25   16.67610   87.34290
