~Version ---------------------------------------------------
VERS. 2.0 : CWLS log ASCII Standard -VERSION 2.0
WRAP.  NO : ONE LINE PER DEPTH STEP
~Well ------------------------------------------------------
STRT.F                   400.0 : START DEPTH
STOP.F                  7250.0 : STOP DEPTH
STEP.F                50.00000 : STEP LENGTH
NULL.                  -999.25 : NULL VALUE
COMP.  GRAHAM EXPLORATION LTD. : COMPANY
WELL.         NIXON DILLARD #1 : WELL
FLD .                CHARLOTTE : FIELD
LOC .                          : LOCATION
CNTY.                 ATASCOSA : COUNTY
STAT.                    TEXAS : STATE
CTRY. UNITED STATES OF AMERICA : COUNTRY
SRVC.             Schlumberger : SERVICE COMPANY
DATE.              04-Aug-1983 : LOGDATE
API .           42013313780000 : API NUMBER
UWI .           42013313780000 : UNIQUE WELL ID
SLAT.WGS84       28.8516334321 : SURFACE LATITUDE
SLON.WGS84      -98.7720129377 : SURFACE LONGITUDE
~Curve Information -----------------------------------------
DEPT.F                 : 
DPHI.DEC  45 890 12 00 : DENSITY POROSITY
CALD.IN   45 280 60 00 : CALIPER FROM DENSITY LOG
NPHI.DEC  42 890 03 00 : NEUTRON POROSITY
PEF .B/E  45 358 01 00 : PHOTO ELECTRIC FACTOR
RHOB.G/C3 45 350 01 00 : BULK DENSITY
DRHO.G/C3 45 356 01 00 : BULK DENSITY CORRECTION
GRR .GAPI 07 310 01 00 : GAMMA RAY FROM RESISTIVITY LOG
SPR .MV   07 010 01 00 : SPONTANEOUS POTENTIAL FROM RESISTIVITY
ILD .OHMM 07 120 46 00 : INDUCTION DEEP RESISTIVITY
ILM .OHMM 07 120 44 00 : INDUCTION MEDIUM RESISTIVITY
SFLU.OHMM 07 220 01 00 : SHALLOW FOCUSED RESISTIVITY (UNAVERAGED)
DT  .US/F 60 520 00 00 : DELTA-T (INTERVAL TRANSIT TIME)
~Params ----------------------------------------------------
PD  .                     GL : PERMANENT DATUM
EPD .FT               482.75 : ELEVATION PERMANENT DATUM
LMF .                     KB : LOG MEASURED FROM
DAPD.FT                   15 : FEET ABOVE PERMANENT DATUM
DMF .                     KB : DRILLING MEASURED FROM
EKB .FT               497.75 : KELLY BUSHING
EGL .FT               482.75 : GROUND LEVEL
DATE.               08/04/83 : RUN DATE
RUN .                      2 : RUN NUMBER
DL  .FT                 7280 : DEPTH LOGGER
BLI .FT                 7274 : BOTTOM LOG INTERVAL
TLI .FT                 6854 : TOP LOG INTERVAL
CS  .IN                    7 : CASING SIZE
CBD .FT                 6852 : CASING BOTTOM DRILLER
CBL .FT                 6854 : CASING BOTTOM LOGGER
BS  .IN                6.125 : BIT SIZE
DFT .        BRINE DISPERSED : DRILLING FLUID TYPE
DFD .                    9.5 : DRILLING FLUID DENSITY
DFV .                     42 : DRILLING FLUID VISCOSITY
MSS .                   TANK : MUD SAMPLE SOURCE
RMS .OHMM               0.04 : RESISTIVITY MUD SAMPLE
RMB .OHMM              0.025 : RESISTIVITY MUD AT BHT
TCS .HRS                1100 : TIME CIRCULATED STOPPED
TLAB.HRS                1500 : TIME LOGGER AT BOTTOM
LUN .                   8329 : LOGGING UNIT NUMBER
LUL .                  PLEAS : LOGGING UNIT LOCATION
CLNT.                A2DTECH : CLIENT CODE
ORIG.               1" PRINT : ORIGIN OF DATA
UWI .         42013313780000 : UNIQUE WELL ID
DICO. A2D Technologies, Inc. : DIGITIZING COMPANY
~Other -----------------------------------------------------
~ASCII -----------------------------------------------------
# ...
 3200.00000    -999.25    -999.25    -999.25    -999.25    -999.25    -999.25   91.65460  -16.32480    3.82390    3.34140    2.79740  113.32020
 3250.00000    -999.25    -999.25    -999.25    -999.25    -999.25    -999.25   84.66380  -17.74820    3.38340    3.13900    2.87670  112.94600
 3300.00000    -999.25    -999.25    -999.25    -999.25    -999.25    -999.25   60.30600  -31.59360   13.32200   12.46480   11.79190   94.82410
 3350.00000    -999.25    -999.25    -999.25    -999.25    -999.25    -999.25   75.91260  -23.09550    6.31010    5.33920    5.34980  107.83830
 3400.00000    -999.25    -999.25    -999.25    -999.25    -999.25    -999.25   66.52330  -23.37170    5.96860    6.72080   13.25730   98.16410
 3450.00000    -999.25    -999.25    -999.25    -999.25    -999.25    -999.25   43.81280  -40.19530   12.23500   12.40940   12.09080   99.80200
 3500.00000    -999.25    -999.25    -999.25    -999.25    -999.25    -999.25   43.77080  -37.38770   13.09670   13.36190   12.17760  100.37190
 3550.00000    -999.25    -999.25    -999.25    -999.25    -999.25    -999.25   39.52610  -35.39340    9.00310    8.67670    8.93390  103.58900
 3600.00000    -999.25    -999.25    -999.25    -999.25    -999.25    -999.25   33.79810  -38.22710   10.29410   10.67880   11.86660  100.82880
 3650.00000    0.32420    9.92830    0.35740    -999.25    -999.25    -999.25   43.40430  -39.96490    9.85310   10.04560   10.59680  100.76060
 3700.00000    0.13170   10.21470    0.28480    -999.25    -999.25    -999.25   51.40870  -35.26620   12.05640   12.93730   22.53500   82.99990
 3750.00000    0.22980   12.41880    0.46640    -999.25    -999.25    -999.25   97.77360  -12.61940    2.15800    2.21850    1.91590  124.84050
 3800.00000    0.25060   13.18130    0.39340    -999.25    -999.25    -999.25   80.00680  -16.07990    3.10410    3.17500    3.04110  101.64920
 3850.00000    0.25730   12.88770    0.43200    -999.25    -999.25    -999.25   80.08670  -16.98380    2.29280    2.33700    2.44090  109.33740
 3900.00000    0.29320   11.80430    0.40730    -999.25    -999.25    -999.25   77.54780  -19.20900    2.84450    2.91050    3.02700  106.71390
 3950.00000    0.18140   12.15040    0.42630    -999.25    -999.25    -999.25   73.51410  -13.54730    2.78140    2.72600    2.77440  102.58150
 4000.00000    0.25420   12.52600    0.46440    -999.25    -999.25    -999.25   86.74590  -12.35450    1.61900    1.58300    1.76180  112.59060
 4050.00000    0.27550   13.20190    0.46130    -999.25    -999.25    -999.25   84.81780  -12.07840    2.23840    2.19780    2.40590  142.75860
 4100.00000    0.24200   12.42610    0.44260    -999.25    -999.25    -999.25   87.82580   -9.40830    1.54980    1.58170    1.74260  110.53390
 4150.00000    0.18290   11.69130    0.37070    -999.25    -999.25    -999.25   66.80660  -12.50580    2.56980    2.51160    2.48310   96.66280
 4200.00000    0.19770   10.93500    0.33400    -999.25    -999.25    -999.25   70.60560  -12.31410    2.39440    2.35330    2.35990   97.32500
 4250.00000    0.13480   10.18990    0.31990    -999.25    -999.25    -999.25   61.44110  -11.13230    3.05720    3.23980    4.89020   80.25290
 4300.00000    0.16390   10.87310    0.32190    -999.25    -999.25    -999.25   66.16660  -11.11070    2.26160    2.30810    2.59340   94.56370
 4350.00000    0.44970   12.43490    0.39540    -999.25    -999.25    -999.25   65.44290  -11.23710    2.09500    2.13400    2.19160  106.68050
 4400.00000    0.23280   12.07630    0.43250    -999.25    -999.25    -999.25   85.79980   -8.41260    1.62360    1.54900    1.68770  104.27960
 4450.00000    0.22840   12.27500    0.36050    -999.25    -999.25    -999.25   84.04840   -8.16780    2.08110    2.12180    2.27680   99.59100
 4500.00000    0.09380   11.19310    0.31350    -999.25    -999.25    -999.25   65.55610   -8.40280    3.56310    3.66000    3.61110   89.11340
 4550.00000    0.24500   11.57700    0.43540    -999.25    -999.25    -999.25   82.82910  -12.12080    1.32080    1.37160    1.30740  116.74760
 4600.00000    0.21080   11.64540    0.41730    -999.25    -999.25    -999.25   65.39130  -14.82410    2.45460    2.51890    2.55310   97.05770
 4650.00000    0.20480   10.38770    0.37130    -999.25    -999.25    -999.25   74.68440  -13.42240    2.01570    2.07160    2.18050  100.44040
 4700.00000    0.13530   10.74190    0.28700    -999.25    -999.25    -999.25   51.57780  -15.60520    4.09580    4.14450    6.06060   80.39250
 4750.00000    0.18040   10.67220    0.37090    -999.25    -999.25    -999.25   73.57330  -10.90500    2.30850    2.28860    2.17780   97.28090
 4800.00000    0.18720   10.95140    0.37480    -999.25    -999.25    -999.25   62.66550   -9.20830    1.84870    1.87570    1.89690  102.75110
 4850.00000    0.20920   10.73580    0.40980    -999.25    -999.25    -999.25   72.03350   -8.41570    1.46560    1.48870    1.72680  105.47660
 4900.00000    0.14430   11.48410    0.34610    -999.25    -999.25    -999.25   68.28930  -13.80700    2.16530    2.20070    2.36640   97.62570
 4950.00000    0.18050   11.03300    0.41790    -999.25    -999.25    -999.25   80.34180   -8.41500    1.33210    1.36080    1.53890  110.92960
 5000.00000    0.09740   10.76090    0.25880    -999.25    -999.25    -999.25   48.93060   -8.51920    4.47110    4.78910    5.20390   80.20880
 5050.00000    0.17980   11.51880    0.34760    -999.25    -999.25    -999.25   68.83310   -7.37520    2.06810    2.12400    2.25000   99.56350
 5100.00000    0.13020   12.03360    0.29880    -999.25    -999.25    -999.25   64.55720   -8.66960    2.39430    2.45440    2.67230   92.96730
 5150.00000    0.15010   11.89660    0.34160    -999.25    -999.25    -999.25   77.23510   -7.30030    1.95970    2.00920    2.17390   98.79110
 5200.00000    0.11240   11.76200    0.37310    -999.25    -999.25    -999.25   75.72450   -9.14790    2.00470    2.05770    2.29660   99.01660
 5250.00000    0.18620   12.69360    0.39720    -999.25    -999.25    -999.25   72.60910   -8.01800    1.98770    2.04080    2.22430  101.67360
 5300.00000    0.15650   12.35030    0.35810    -999.25    -999.25    -999.25   57.82440   -4.30050    2.56760    2.64470    2.76870   93.43950
 5350.00000    0.17490   12.60320    0.37940    -999.25    -999.25    -999.25   75.51200   -5.76580    1.72330    1.76450    1.63110  104.96100
 5400.00000    0.16360    9.80940    0.25360    -999.25    -999.25    -999.25   54.88820  -70.96110    1.50660    1.93600    6.35890   82.26540
 5450.00000    0.06510   10.54640    0.20470    -999.25    -999.25    -999.25   54.92010  -36.21740    2.13830    2.73540    5.08540   74.44230
 5500.00000    0.21630   10.01330    0.39650    -999.25    -999.25    -999.25   66.21210  -25.58180    1.86910    1.92570    2.56120   96.62570
 5550.00000    0.13240   11.21600    0.31350    -999.25    -999.25    -999.25   76.29950   -8.60990    2.09600    2.16460    2.75020   87.52330
 5600.00000    0.10700   11.26310    0.28570    -999.25    -999.25    -999.25   79.81150   -4.55280    2.00750    2.15190    3.13310   88.12110
 5650.00000    0.10520   10.89840    0.25920    -999.25    -999.25    -999.25   67.65400   -4.72140    2.90280    2.99750    3.03020   83.75710
 5700.00000    0.12150   11.32220    0.31800    -999.25    -999.25    -999.25   81.73090   -4.06970    1.94050    1.97730    2.24590   90.31920
 5750.00000    0.13250   10.88060    0.26540    -999.25    -999.25    -999.25   66.57320   -5.52410    2.83190    2.85720    3.16790   85.35200
 5800.00000    0.10460   11.97040    0.29400    -999.25    -999.25    -999.25   71.34390   -4.30370    2.14630    2.19080    2.29270   89.71640
 5850.00000    0.16140   11.89040    0.31470    -999.25    -999.25    -999.25   87.17160   -5.01630    1.76570    1.86330    1.69440   93.44450
 5900.00000    0.17500   10.81150    0.38090    -999.25    -999.25    -999.25  110.93560   -5.95420    1.12550    1.14380    1.04800  106.69050
 5950.00000    0.10610   10.62560    0.28820    -999.25    -999.25    -999.25   82.17430   -5.23610    2.27430    2.37360    2.57950   88.17920
