~Version ---------------------------------------------------
VERS. 2.0 : CWLS log ASCII Standard -VERSION 2.0
WRAP. YES : MULTIPLE LINES PER DEPTH STEP
~Well ------------------------------------------------------
STRT.FT                    2550.0 : START DEPTH
STOP.FT                    7750.0 : STOP DEPTH
STEP.FT                  50.00000 : STEP LENGTH
NULL.                     -999.25 : NULL VALUE
COMP. ROYAL OIL & GAS CORPORATION : COMPANY
WELL.          DAVID N. BEHLEN #1 : WELL
FLD .                 PEACH CREEK : FIELD
LOC .                             : LOCATION
CNTY.                    GONZALES : COUNTY
STAT.                       TEXAS : STATE
CTRY.    UNITED STATES OF AMERICA : COUNTRY
SRVC.                Schlumberger : SERVICE COMPANY
DATE.                 02-Sep-1983 : LOGDATE
API .              42177314700000 : API NUMBER
UWI .              42177314700000 : UNIQUE WELL ID
SLAT.WGS84          29.5523655899 : SURFACE LATITUDE
SLON.WGS84         -97.3843892893 : SURFACE LONGITUDE
~Curve Information -----------------------------------------
DEPT    .FT    : DEPTH FEET
BITED   .IN    : BIT SIZE FROM LOG HEADER
CALWS   .IN    : CALIPER [DCALED+BITED]
CONDWS  .MMHO  : CONDUCTIVITY [1000/DRESWS]
DCALED  .IN    : DIFFERENTIAL CALIPER FROM DENSITY LOG
DCORWS  .G/C3  : DENSITY CORRECTION [DRHOED]
DENWS   .G/C3  : BULK DENSITY [M=2.65 F=1.0 CALCULATED FROM DPHISSED TO 7000 FEET, THEN CALCULATED FROM SPLICE OF DPHILSED WITH TEMP CURVE DPHI2 [M=2.71, F=1 TO TD1]
DPHILSED.V/V   : DENSITY POROSITY LIMESTONE FROM DENSITY LOG
DPHISSED.V/V   : DENSITY POROSITY SANDSTONE FROM DENSITY LOG
DPOWS   .V/V   : DENSITY POROSITY [M=2.71 F=1.0] [CALCULATED FROM TEMP CURVE RHOB2 TO 7000 FEET, THEN CALCULATED FROM SPLICE OF DPHILSED WITH TEMP CURVE DPHI2 TO TD]
DRESWS  .OHMM  : DEEP RESISTIVITY [ILDED]
DRHOED  .G/C3  : DENSITY CORRECTION FROM DENSITY LOG
GRRED   .GAPI  : GAMMA RAY FROM RESISTIVITY LOG
GRWS    .GAPI  : GAMMA RAY [GRRED]
ILDED   .OHMM  : INDUCTION LOG DEEP RESISTIVITY
ILMED   .OHMM  : INDUCTION LOG MEDIUM RESISTIVITY
MRESWS  .OHMM  : MEDIUM RESISTIVITY [ILMED]
NPHILSED.V/V   : NEUTRON POROSITY LIMESTONE FROM DENSITY LOG
NPHISSED.V/V   : NEUSTRON POROSITY SANDSTONE FROM DENSITY LOG
NPOWS   .V/V   : NEUTRON POROSITY LIMESTONE [CONVERTED FROM NPHISSED TO 7000 FEET, THEN EQUALS NPHILSED TO TD]
RHOBED  .G/C3  : BULK DENSITY FROM DENSITY LOG [DEPTH SHIFTED TO DPHILSED]
SFLUED  .OHMM  : SPHERICALLY FOCUSED LOG RESISTIVITY
SPRED   .MV    : SPONTANEOUS POTENTIAL FROM RESISTIVITY LOG
SPWS    .MV    : SPONTANEOUS POTENTIAL [BASELINE 0 MV] [SPRED]
SRESWS  .OHMM  : SHALLOW RESISTIVITY [SFLUED]
TENRED  .LBF   : TENSION FROM RESISTIVITY LOG
~Params ----------------------------------------------------
PD  .                     GL : PERMANENT DATUM
LMF .                    RKB : LOG MEASURED FROM
DAPD.F                  12.5 : FEET ABOVE PERMANENT DATUM
DMF .                    RKB : DRILLING MEASURED FROM
EKB .F                 316.6 : KELLING BUSHING
EDF .F                 315.6 : DRILLING FLOOR
EGL .F                 304.1 : GROUND LEVEL
DATE.               9/2/1983 : RUN DATE
RUN .                      1 : RUN NUMBER
DD  .F                  7760 : DEPTH DRILLER
DL  .F                  7745 : DEPTH LOGGER
BLI .F                  7742 : BOTTOM LOG INTERVAL
TLI .F                  2512 : TOP LOG INTERVAL
CS  .IN                8.625 : CASING SIZE
CBD .F                  2512 : CASING BOTTOM DRILLER
CBL .F                  2512 : CASING BOTTOM LOGGER
BS  .IN                7.875 : BIT SIZE
BSD .F                  7760 : BIT SIZE AT DEPTH
DFT .         LIGNOSULFONATE : DRILLING FLUID TYPE
DFD .                    9.2 : DRILLING FLUID DENSITY
DFV .                     42 : DRILLING FLUID VISCOSITY
DFPH.                   10.5 : DRILLING FLUID PH
DFL .                    6.4 : DRILLING FLUID LOSS
MSS .              CIRC TANK : MUD SAMPLE SOURCE
RMS .OHMM               3.89 : RESISTIVITY MUD SAMPLE
MST .F                    75 : MUD SAMPLE TEMPERATURE
RMF .OHMM               3.56 : RESISTIVITY MUD FILTRATE SAMPLE
MFST.F                    75 : MUD FILTRATE SAMPLE TEMPERATURE
RMC .OHMM               5.83 : RESISTIVITY MUD CAKE
MCST.F                    75 : MUD CAKE SAMPLE TEMPERATURE
MFSS.                   MEAS : MUD FILTRATE SAMPLE SOURCE
MCSS.                  CHART : MUD CAKE SAMPLE SOURCE
RMB .OHMM              1.743 : RESISTIVITY MUD AT BHT
TCS .HRS                 130 : TIME CURCULATED STOPPED
TLAB.HRS                 615 : TIME LOGGER AT BOTTOM
LUN .                   8299 : LOGGING UNIT NUMBER
LUL .               VICTORIA : LOGGING UNIT LOCATION
ENGI.             DALE LOGAN : RECORDING ENGINEER
WITN.          DAVID WEBSTER : WITNESSED BY
CLNT.                A2DTECH : CLIENT CODE
ORIG.               5" PRINT : ORIGIN OF DATA
UWI .         42177314700000 : UNIQUE WELL ID
DICO. A2D Technologies, Inc. : DIGITIZING COMPANY
~Other -----------------------------------------------------
1. TEMPORARY CURVE RHOB2 CALCULATED FROM DPHISSED [M=2.65, F=1] TO MAKE UPPER PART OF DENWS.
2. TEMPORARY CURVE DPHI2 CALCULATED FROM DEPTH SHIFTED RHOBED [M=2.71, F=1]. REASON: DPHILSED DID NOT WRAP, AND SOME OF ITS HIGH-END VALUES WERE TRUNCATED AT .45 V/V. DPHI2 WAS SPLICED IN TO INCLUDE PLACES WHERE POROSITY VALUES WERE GREATER THAN .45 V/V IN THE LIMESTONE PORTION OF THE WELL.
3. DPOWS WAS COMPUTED FROM DENWS (RHOB2) ABOVE 7000 FEET M=2.71, F=1. LIMESTONE SECTION FROM 7000 FEET DOWN WAS COMPUTED FROM DPHILSED/DPHI2 SPLICE. M=2.71, F=1.
4. NPOWS ABOVE 7000 FEET WAS CONVERTED TO LIMESTONE MATRIX AS FOLLOWS: INPUT = NPHISSED. OUTPUT = NPOWS. COMPANY = SWS. TOOL = CNL(NPHI). INPUT MATRIX: QTZ (4.6) OUTPUT MATRIX = LIME (7.1). BELOW 7000 FEET, NPOWS = NPHILSED.
~ASCII -----------------------------------------------------
# ...
 5350.00000    7.87500   10.02010  948.58650    2.14510    -999.25    -999.25    -999.25    -999.25    -999.25    1.05420    -999.25    -999.25    -999.25    1.05420    1.08070    1.08070    -999.25    -999.25    -999.25    -999.25    0.97550    0.17210  -12.78530    0.97550 2737.69680
 5400.00000    7.87500    9.48210  835.70120    1.60710    -999.25    -999.25    -999.25    -999.25    -999.25    1.19660    -999.25    -999.25    -999.25    1.19660    1.22780    1.22780    -999.25    -999.25    -999.25    -999.25    1.29500    2.00290  -11.13510    1.29500 2723.17650
 5450.00000    7.87500    9.47230  865.35140    1.59730    0.02970    2.40250    -999.25    0.15000    0.17980    1.15560    0.02970  117.62700  117.62700    1.15560    1.17690    1.17690    -999.25    0.32930    0.28550    -999.25    1.27110    3.89730   -9.42140    1.27110 2726.34250
 5500.00000    7.87500    9.42180  601.93820    1.54680    0.05850    2.46040    -999.25    0.11490    0.14600    1.66130    0.05850   93.93610   93.93610    1.66130    1.79880    1.79880    -999.25    0.24740    0.20350    -999.25    1.95480    0.77630  -12.72310    1.95480 2782.27420
 5550.00000    7.87500    8.79010  345.23230    0.91510    0.06580    2.52330    -999.25    0.07680    0.10920    2.89660    0.06580   94.10180   94.10180    2.89660    2.84420    2.84420    -999.25    0.19550    0.15210    -999.25    2.79170    1.02340  -12.65660    2.79170 2824.15870
 5600.00000    7.87500    9.73140  530.58840    1.85640    0.02010    2.44840    -999.25    0.12220    0.15300    1.88470    0.02010   82.05220   82.05220    1.88470    1.91940    1.91940    -999.25    0.26360    0.21960    -999.25    1.92250   -0.44670  -14.30740    1.92250 2870.58400
 5650.00000    7.87500    9.48310  595.41530    1.60810    0.06860    2.49230    -999.25    0.09560    0.12730    1.67950    0.06860   99.17310   99.17310    1.67950    1.71050    1.71050    -999.25    0.28150    0.23750    -999.25    1.68890    0.62940  -13.41190    1.68890 2841.01320
 5700.00000    7.87500    9.27820  493.19390    1.40320    0.10140    2.56650    -999.25    0.05060    0.08390    2.02760    0.10140   96.18440   96.18440    2.02760    2.10310    2.10310    -999.25    0.26880    0.22480    -999.25    2.33470   -3.40880  -17.63080    2.33470 2862.31010
 5750.00000    7.87500    9.87900  461.42490    2.00400    0.06740    2.40420    -999.25    0.14900    0.17890    2.16720    0.06740   95.45270   95.45270    2.16720    2.12700    2.12700    -999.25    0.26950    0.22550    -999.25    1.91940   -4.05940  -18.46200    1.91940 2862.19380
 5800.00000    7.87500   10.30880  652.14550    2.43380    0.09590    2.46930    -999.25    0.10950    0.14070    1.53340    0.09590   81.62970   81.62970    1.53340    1.55950    1.55950    -999.25    0.27010    0.22610    -999.25    1.81380   -1.53260  -16.11590    1.81380 2914.25460
 5850.00000    7.87500    9.81940  711.54120    1.94440    0.10000    2.45680    -999.25    0.11710    0.14810    1.40540    0.10000   85.56830   85.56830    1.40540    1.43140    1.43140    -999.25    0.29670    0.25270    -999.25    1.61010   -0.94480  -15.70880    1.61010 2881.20900
 5900.00000    7.87500    9.76620  811.09580    1.89120    0.10090    2.48240    -999.25    0.10160    0.13310    1.23290    0.10090   83.85390   83.85390    1.23290    1.25570    1.25570    -999.25    0.33880    0.29510    -999.25    1.38630   -0.74880  -15.69340    1.38630 2921.03710
 5950.00000    7.87500   10.18980  739.75440    2.31480    0.10000    2.46980    -999.25    0.10920    0.14050    1.35180    0.10000   89.53630   89.53630    1.35180    1.37670    1.37670    -999.25    0.30740    0.26340    -999.25    1.55280   -5.31860  -20.44390    1.55280 2929.86840
 6000.00000    7.87500   10.30800  641.47800    2.43300    0.10300    2.42210    -999.25    0.13810    0.16830    1.55890    0.10300  115.69660  115.69660    1.55890    1.58760    1.58760    -999.25    0.32910    0.28530    -999.25    1.61350   -2.69120  -17.99710    1.61350 2962.08740
 6050.00000    7.87500   10.51390  627.03790    2.63890    0.10000    2.42610    -999.25    0.13570    0.16600    1.59480    0.10000   95.10320   95.10320    1.59480    1.62430    1.62430    -999.25    0.30170    0.25770    -999.25    1.83160    1.06580  -14.42080    1.83160 2974.69290
 6100.00000    7.87500   10.61940  683.94780    2.74440    0.10000    2.45450    -999.25    0.11850    0.14940    1.46210    0.10000  102.57320  102.57320    1.46210    1.48910    1.48910    -999.25    0.27570    0.23170    -999.25    1.65040    0.43830  -15.22900    1.65040 2995.71360
 6150.00000    7.87500    8.93230  530.58840    1.05730    0.10160    2.52250    -999.25    0.07730    0.10970    1.88470    0.10160   80.56530   80.56530    1.88470    1.91940    1.91940    -999.25    0.24320    0.19930    -999.25    2.12240    6.39920   -9.44870    2.12240 3063.14790
 6200.00000    7.87500   10.49200 1172.33300    2.61700    0.10000    2.24280    -999.25    0.24680    0.27320    0.85300    0.10000  103.65600  103.65600    0.85300    0.85580    0.85580    -999.25    0.34750    0.30380    -999.25    0.91400    8.20780   -7.82080    0.91400 3081.00760
 6250.00000    7.87500   10.35040  995.71840    2.47540    0.10000    2.37870    -999.25    0.16440    0.19370    1.00430    0.10000  104.84350  104.84350    1.00430    1.03220    1.03220    -999.25    0.36170    0.31820    -999.25    1.11270   15.14850   -1.06070    1.11270 3088.23100
 6300.00000    7.87500    9.19510  516.47560    1.32010    0.10000    2.43700    -999.25    0.12910    0.15970    1.93620    0.10000   86.54120   86.54120    1.93620    1.90040    1.90040    -999.25    0.23940    0.19560    -999.25    1.92810   10.14950   -6.23990    1.92810 3111.35790
 6350.00000    7.87500   11.14510  648.34030    3.27010    0.10000    2.50610    -999.25    0.08720    0.11920    1.54240    0.10000  105.64070  105.64070    1.54240    1.58740    1.58740    -999.25    0.26340    0.21940    -999.25    1.65640    3.88200  -12.68650    1.65640 3118.55320
 6400.00000    7.87500   12.63100  843.73940    4.75600    0.10000    2.31770    -999.25    0.20140    0.22940    1.18520    0.10000   87.02020   87.02020    1.18520    1.21810    1.21810    -999.25    0.33110    0.28730    -999.25    1.30050    4.59260  -12.15500    1.30050 3106.35740
 6450.00000    7.87500   11.90280 1036.80660    4.02780    0.10000    2.25710    -999.25    0.23810    0.26480    0.96450    0.10000   96.82240   96.82240    0.96450    0.99130    0.99130    -999.25    0.39000    0.34690    -999.25    1.11960    5.87460  -11.05200    1.11960 3150.10500
 6500.00000    7.87500   11.86430  918.35800    3.98930    0.10220    2.17080    -999.25    0.29040    0.31530    1.08890    0.10220   95.94090   95.94090    1.08890    1.11910    1.11910    -999.25    0.38310    0.33990    -999.25    1.27020    7.12870   -9.97700    1.27020 3311.72190
 6550.00000    7.87500   12.15550  666.75560    4.28050    0.10000    1.91840    -999.25    0.44340    0.46290    1.49980    0.10000   80.63110   80.63110    1.49980    1.54150    1.54150    -999.25    0.49120    0.44950    -999.25    1.52430    7.52370   -9.76110    1.52430 3184.34180
 6600.00000    7.87500   11.22180  779.11960    3.34680    0.10000    2.45630    -999.25    0.11740    0.14840    1.28350    0.10000  104.60020  104.60020    1.28350    1.31910    1.31910    -999.25    0.31370    0.26980    -999.25    1.51360    6.70400  -10.75990    1.51360 3266.54320
 6650.00000    7.87500   13.15420  880.12680    5.27920    0.10000    2.49750    -999.25    0.09240    0.12420    1.13620    0.10000   93.58070   93.58070    1.13620    1.16770    1.16770    -999.25    0.37650    0.33320    -999.25    1.31150    5.44890  -12.19410    1.31150 3216.38160
 6700.00000    7.87500   14.14100  906.78270    6.26600    0.10000    2.40500    -999.25    0.14850    0.17840    1.10280    0.10000   89.75010   89.75010    1.10280    1.15440    1.15440    -999.25    0.29960    0.25560    -999.25    1.24930    6.22630  -11.59580    1.24930 3213.03590
