~Version ---------------------------------------------------
VERS. 2.0 : CWLS log ASCII Standard -VERSION 2.0
WRAP.  NO : ONE LINE PER DEPTH STEP
~Well ------------------------------------------------------
STRT.F                    3850.0 : START DEPTH
STOP.F                    9650.0 : STOP DEPTH
STEP.F                  50.00000 : STEP LENGTH
NULL.                    -999.25 : NULL VALUE
COMP. CHAMPLIN PETROLEUM COMPANY : COMPANY
WELL.           TIEMAN DIPPLE #1 : WELL
FLD .                   GIDDINGS : FIELD
LOC .                            : LOCATION
CNTY.                   BURLESON : COUNTY
STAT.                      TEXAS : STATE
CTRY.   UNITED STATES OF AMERICA : COUNTRY
SRVC.              Dresser Atlas : SERVICE COMPANY
DATE.                08-Dec-1980 : LOGDATE
API .             42051310330000 : API NUMBER
UWI .             42051310330000 : UNIQUE WELL ID
SLAT.WGS84         30.3800390856 : SURFACE LATITUDE
SLON.WGS84        -96.6080194648 : SURFACE LONGITUDE
~Curve Information -----------------------------------------
DEPT.F                 : 
CN  .DEC  42 890 03 00 : COMPENSATED NEUTRON POROSITY
PORD.DEC  45 890 12 00 : DENSITY POROSITY
GRD .GAPI 45 310 01 00 : GAMMA RAY FROM DENSITY LOG
CORR.G/C3 45 356 01 00 : CORRELATION LOG
DEN .G/C3 45 350 01 00 : COMPENSATED BULK DENSITY
CALD.IN   45 280 60 00 : CALIPER FROM DENSITY LOG
AC  .US/F 60 500 00 00 : ACOUSTIC
SPR .MV   07 010 01 00 : SPONTANEOUS POTENTIAL FROM RESISTIVITY
RFOC.OHMM 07 220 06 00 : CALIBRATED REAL FOCUS
RILD.OHMM 07 120 46 00 : RAW DEEP RESISTIVITY
RILM.OHMM 07 120 44 00 : RAW MEDIUM RESISTIVITY
~Params ----------------------------------------------------
PD  .                     GL : PERMANENT DATUM
EPD .FT                  306 : ELEVATION PERMANENT DATUM
LMF .                     KB : LOG MEASURED FROM
DAPD.FT                   18 : FEET ABOVE PERMANENT DATUM
DMF .                     KB : DRILLING MEASURED FROM
EKB .FT                  324 : KELLY BUSHING
EDF .FT                  323 : DRILLING FLOOR
EGL .FT                  306 : GROUND LEVEL
DATE.               12/08/80 : RUN DATE
RUN .                      1 : RUN NUMBER
DD  .FT                 9710 : DEPTH DRILLER
BLI .FT                 9660 : BOTTOM LOG INTERVAL
TLI .FT                 3840 : TOP LOG INTERVAL
CS  .IN                9.625 : CASING SIZE
CBD .FT                 3850 : CASING BOTTOM DRILLER
CBL .FT                 3840 : CASING BOTTOM LOGGER
BS  .IN                 8.75 : BIT SIZE
BSD .FT                 9710 : BIT SIZE AT DEPTH
DFT .          BEN EX WL 100 : DRILLING FLUID TYPE
DFD .                    9.5 : DRILLING FLUID DENSITY
DFV .                     40 : DRILLING FLUID VISCOSITY
DFPH.                      9 : DRILLING FLUID PH
DFL .                    8.8 : DRILLING FLUID LOSS
MSS .               CIRC PIT : MUD SAMPLE SOURCE
RMS .OHMM               2.21 : RESISTIVITY MUD SAMPLE
MST .DEGF                 64 : MUD SAMPLE TEMPERATURE
RMF .OHMM               1.72 : RESISTIVITY MUD FILTRATE SAMPLE
MFST.DEGF                 68 : MUD FILTRATE SAMPLE TEMPERATURE
RMC .OHMM               2.65 : RESISTIVITY MUD CAKE
MCST.DEGF                 64 : MUD CAKE SAMPLE TEMPERATURE
MFSS.                   MEAS : MUD FILTRATE SAMPLE SOURCE
MCSS.                   MEAS : MUD CAKE SAMPLE SOURCE
RMB .OHMM               0.66 : RESISTIVITY MUD AT BHT
TCS .HRS                   8 : TIME CIRCULATED STOPPED
LUN .                   6245 : LOGGING UNIT NUMBER
LUL .                 LAREDO : LOGGING UNIT LOCATION
ENGI.       ANDERWS FAULKNER : RECORDING ENGINEER
WITN.                 KRAUHS : WITNESSED BY
CLNT.                A2DTECH : CLIENT CODE
ORIG.          1" 2.5" PRINT : ORIGIN OF DATA
UWI .         42051310330000 : UNIQUE WELL ID
DICO. A2D Technologies, Inc. : DIGITIZING COMPANY
~Other -----------------------------------------------------
~ASCII -----------------------------------------------------
 3850.00000    0.35840    0.34510   53.18400    0.05140    2.05260   11.57760  101.44810 -109.57720    6.32360    6.95440    7.94890
 3900.00000    0.51340    0.63050   90.13110    0.00980    1.60960   13.99930  155.05730  -99.03560    5.87420    3.84770    3.66260
 3950.00000    0.29660    0.18800  102.55340    0.10320    2.33700   12.98020   97.09420 -113.12530    5.10070    5.27330    4.94420
 4000.00000    0.30690    0.36640   78.77060    0.02740    2.04810   10.89180  107.66920  -92.95600    7.15150   10.09830    8.77940
 4050.00000    0.32500    0.29370   82.01180    0.08370    2.16910    9.58170  106.89990 -100.45620    5.81980    9.22160    9.04410
 4100.00000    0.30500    0.32750   64.60970    0.07660    2.11230   10.47210  104.54320 -102.07120    7.48470    9.43880    9.14070
 4150.00000    0.27750    0.26100   64.97090    0.08880    2.22200    9.60780   98.71640 -100.03630    7.40610    9.18480    9.41380
 4200.00000    0.34460    0.42690   50.44150    0.15040    1.94790   10.73150  102.47250  -94.75340    6.51260    6.78610    7.21420
 4250.00000    0.27560    0.29580   58.76680    0.06020    2.15620    9.84060  104.37590  -89.40090    6.04310    6.26050    6.76360
 4300.00000    0.29390    0.27720   65.75390    0.02750    2.20430    9.16210   98.89960  -92.34990    6.86410    6.32590    7.66410
 4350.00000    0.30710    0.22930  109.04410    0.12870    2.27170    9.02560   98.40140  -87.08670    4.74430    3.90050    4.40230
 4400.00000    0.31310    0.33370   59.53520    0.06830    2.09980   10.31910  101.31630 -106.75870    5.48640    3.31180    4.50390
 4450.00000    0.29350    0.32640   51.06330    0.10550    2.11440    9.44870  105.86940 -117.97340    3.05470    2.18810    2.55490
 4500.00000    0.53620    0.70130   53.32170   -0.05080    1.49400   10.95800  135.54490  -71.62490   29.77750    7.68010    8.58850
 4550.00000    0.31570    0.32590   59.31220    0.01330    2.11070    8.82550  104.99520 -112.58400    3.89050    2.04370    2.43620
 4600.00000    0.29160    0.32780   66.27870    0.07370    2.11450    9.16810  101.00980 -118.13400    4.42930    1.94180    2.53900
 4650.00000    0.38690    0.48790   87.36120    0.01670    1.92860    9.82450  129.70930  -67.34790    3.49810    3.88880    3.11900
 4700.00000    0.29970    0.29340   67.99410    0.05480    2.16550    8.73440  100.51470 -127.84920    3.81280    1.31730    1.79710
 4750.00000    0.30400    0.19450   91.34390    0.06340    2.32750    9.22660   95.79210  -88.15250    3.37340    2.73430    2.86450
 4800.00000    0.26290    0.20790   90.21260    0.06780    2.31010    8.82450   91.08590 -106.46610    3.95870    2.02360    2.50630
 4850.00000    0.26260    0.33450   57.48140    0.00960    2.10170    8.72170  100.64640 -132.06380    3.79080    0.96710    1.35660
 4900.00000    0.27460    0.27900   60.27430    0.05660    2.18280    8.60300   96.39140 -135.46050    3.71730    0.99720    1.44200
 4950.00000    0.35810    0.25110  112.03150    0.09300    2.23160   10.71710  102.65410  -71.69880    2.61220    2.31560    2.38820
 5000.00000    0.30530    0.22360   76.47910    0.03020    2.27990    8.89540   92.90260 -117.56710    4.04840    1.18180    1.70420
 5050.00000    0.30180    0.18350  124.87270    0.08900    2.35010    9.33880   98.72740  -69.20650    2.35910    2.02260    2.08730
 5100.00000    0.26880    0.22220   74.47220    0.06510    2.28210    8.67330   90.26450 -117.18470    4.12660    1.16870    1.65220
 5150.00000    0.27180    0.24790   90.22630    0.03130    2.24960    8.66150   94.69440 -107.24130    3.54040    1.44050    1.89620
 5200.00000    0.23070    0.18740   62.57280    0.03170    2.33600    8.60320   73.18010 -125.27490    8.82850    1.40760    2.02150
 5250.00000    0.30600    0.17770   98.24800    0.02570    2.35560   10.06530   98.29560  -60.93840    2.36970    1.94770    1.91110
 5300.00000    0.23490    0.15320   85.05430    0.03820    2.39820    9.51610   89.25490  -74.24180    3.02710    1.92560    2.35790
 5350.00000    0.33450    0.15180  105.18430    0.07700    2.40060   10.21500   95.81610  -61.48220    2.34380    1.88610    1.94970
 5400.00000    0.27190    0.15430  101.12620    0.05220    2.39060   10.19700   95.57340  -63.51070    2.25700    1.84510    1.88780
 5450.00000    0.28770    0.12230  102.87920    0.09910    2.42400    9.88920   94.67260  -63.73910    2.17300    1.78300    1.84000
 5500.00000    0.26830    0.16410  104.18300    0.02730    2.38860   11.01200   96.46810  -60.71620    2.22210    1.81770    1.86960
 5550.00000    0.27890    0.15300  102.14090    0.06060    2.40520   10.89780   96.78510  -60.02890    2.13220    1.81060    1.89290
 5600.00000    0.27070    0.14430   90.27210   -0.00730    2.40430   10.56430   90.13410  -70.94020    2.34810    1.94520    2.00560
 5650.00000    0.25810    0.13710   93.87670    0.04060    2.41930   11.18200   91.30060  -65.21350    2.34270    2.11410    2.16450
 5700.00000    0.25640    0.12070   96.42490    0.00560    2.44690   11.07720   87.49250  -63.63000    2.51400    2.15540    2.23630
 5750.00000    0.24460    0.14480   95.79400    0.10200    2.41510   10.40910   87.32690  -59.59520    2.53420    2.30670    2.38130
 5800.00000    0.30580    0.14230  101.46530    0.09950    2.41460   10.22580  126.65490  -60.03160    1.86230    1.40880    1.36520
 5850.00000    0.30230    0.14800   99.30260   -0.00810    2.40190   10.82170   97.00850  -59.95350    1.88680    1.53840    1.49570
 5900.00000    0.29150    0.10440  103.35890    0.06500    2.46700   11.21990   99.79270  -61.27940    1.82460    1.42490    1.39710
 5950.00000    0.28020    0.14450  105.51590    0.03980    2.40660   12.21630  103.41300  -56.24480    1.77700    1.31150    1.25720
 6000.00000    0.28020    0.11720  102.73700    0.02040    2.45450   11.69730   96.72220  -57.00320    1.94380    1.54950    1.51720
 6050.00000    0.31040    0.21130  105.27980    0.09570    2.30060    9.72790  100.97450  -56.95270    1.71410    1.23390    1.20380
 6100.00000    0.31480    0.24750  110.68950    0.09920    2.22750    9.81830  108.11970  -56.08280    1.58460    1.20440    1.17550
 6150.00000    0.29940    0.18160  105.09500    0.09730    2.35060    9.84120   90.74990  -59.64600    1.82180    1.48640    1.47140
 6200.00000    0.31030    0.17850  102.01450    0.07980    2.34960   10.29830   85.51420  -60.06130    1.61930    1.20060    1.17640
 6250.00000    0.34530    0.17890  100.34830    0.06220    2.35030   10.18920  109.12600  -57.19550    1.36560    0.82380    0.86330
 6300.00000    0.26860    0.14420   87.38960    0.05010    2.42200   10.28400   94.48920  -60.75180    1.96960    1.64440    1.68790
 6350.00000    0.26410    0.15340   90.75250    0.02080    2.39690   10.53640   98.63580  -61.43090    1.86750    1.43500    1.46710
 6400.00000    0.29360    0.14900   93.25620    0.02790    2.40390   11.12360   98.17590  -62.28170    1.94580    1.46570    1.44080
 6450.00000    0.29100    0.14840   90.78180    0.02390    2.40450   11.46280  101.15120  -63.15480    1.76970    1.26260    1.20820
 6500.00000    0.30020    0.13880   91.11380    0.02920    2.42150   11.36490   99.97860  -60.74120    1.70890    1.33780    1.27540
 6550.00000    0.31030    0.14660   92.29730    0.02110    2.41020   11.42930  108.44100  -55.00770    1.52380    1.01360    0.98450
 6600.00000    0.23490    0.08100   73.22380    0.03330    2.51910   10.87840   85.47280  -58.60960    2.13450    1.61770    1.55610
 6650.00000    0.30090    0.12570   95.83320    0.07550    2.44260   10.57940  100.45490  -56.07260    1.66430    1.23870    1.17960
 6700.00000    0.30670    0.16580   90.01700    0.04770    2.37480   10.48750  102.82580  -62.45160    1.61940    1.17140    1.14530
 6750.00000    0.34120    0.17680  100.19080    0.06240    2.35650   11.23510  106.21960  -63.39280    1.47210    0.98270    0.96310
 6800.00000    0.28710    0.12950   89.07340    0.02720    2.43410   11.44150   99.99550  -58.81050    1.79270    1.43720    1.38650
 6850.00000    0.28770    0.17700   96.41140    0.03300    2.35820   10.51200   94.72330  -55.94670    1.72390    1.23790    1.30010
