~Version ---------------------------------------------------
VERS. 2.0 : CWLS log ASCII Standard -VERSION 2.0
WRAP.  NO : ONE LINE PER DEPTH STEP
~Well ------------------------------------------------------
STRT.F                  1800.0 : START DEPTH
STOP.F                  9900.0 : STOP DEPTH
STEP.F                50.00000 : STEP LENGTH
NULL.                  -999.25 : NULL VALUE
COMP.  NORTH CENTRAL OIL CORP. : COMPANY
WELL.         TAMUS TRACT A #1 : WELL
FLD .                    BRYAN : FIELD
LOC .                          : LOCATION
CNTY.                   BRAZOS : COUNTY
STAT.                    TEXAS : STATE
CTRY. UNITED STATES OF AMERICA : COUNTRY
SRVC.             Schlumberger : SERVICE COMPANY
DATE.              02-May-1983 : LOGDATE
API .           42041309360000 : API NUMBER
UWI .           42041309360000 : UNIQUE WELL ID
SLAT.WGS84       30.6307291199 : SURFACE LATITUDE
SLON.WGS84      -96.3419803106 : SURFACE LONGITUDE
~Curve Information -----------------------------------------
DEPT.F                 : 
GRR .GAPI 07 310 01 00 : GAMMA RAY FROM RES. LOG.
SPR .MV   07 010 01 00 : SPONTANEOUS POTENTIAL FROM RES.
ILD .OHMM 07 120 46 00 : INDUCTION LOG DEEP
ILM .OHMM 07 120 44 00 : INDUCTION LOG MEDIUM
SFLU.OHMM 07 220 01 00 : SPHERICALLY FOCUSED LOG UNAVERAGED RESISTIVITY
DRHO.G/C3 45 356 01 00 : DENSITY CORRECTION
DCAL.IN   07 280 30 00 : DIFFERENTIAL CALIPER
DPHI.DEC  45 890 10 00 : DENSITY POROSITY LIMESTONE
NPHI.DEC  42 890 01 00 : NEUTRON POROSITY LIMESTONE
ASFL.OHMM 07 221 06 00 : AMPLIFIED SHALLOW FOCUSED LOG RESISTIVITY
CILD.MMHO 07 110 46 00 : CONDUCTIVITY INDUCTION LOG DEEP
~Params ----------------------------------------------------
PD  .                     GL : PERMANENT DATUM
EPD .FT                  310 : ELEVATION PERMANENT DATUM
LMF .                    RKB : LOG MEASURED FROM
DAPD.FT                 17.5 : FEET ABOVE PERMANENT DATUM
DMF .                    RKB : DRILLING MEASURED FROM
EKB .FT                327.5 : KELLY BUSHING
EDF .FT                326.5 : DRILLING FLOOR
EGL .FT                  310 : GROUND LEVEL
DATE.               05/02/83 : RUN DATE
RUN .                      1 : RUN NUMBER
DD  .FT                 9920 : DEPTH DRILLER
DL  .FT                 9919 : DEPTH LOGGER
BLI .FT                 9913 : BOTTOM LOG INTERVAL
TLI .FT                 1807 : TOP LOG INTERVAL
CS  .IN                9.625 : CASING SIZE
CBD .FT                 1805 : CASING BOTTOM DRILLER
CBL .FT                 1807 : CASING BOTTOM LOGGER
BS  .IN                 8.75 : BIT SIZE
BSD .FT                 9920 : BIT SIZE AT DEPTH
DFT .                  LIGNO : DRILLING FLUID TYPE
DFD .                    9.6 : DRILLING FLUID DENSITY
DFV .                     37 : DRILLING FLUID VISCOSITY
DFPH.                    9.5 : DRILLING FLUID PH
DFL .                      8 : DRILLING FLUID LOSS
MSS .                   TANK : MUD SAMPLE SOURCE
RMS .OHMM               2.01 : RESISTIVITY MUD SAMPLE
MST .DEGF                102 : MUD SAMPLE TEMPERATURE
RMF .OHMM               1.51 : RESISTIVITY MUD FILTRATE SAMPLE
MFST.DEGF                102 : MUD FILTRATE SAMPLE TEMPERATURE
RMC .OHMM               3.02 : RESISTIVITY MUD CAKE
MCST.DEGF                102 : MUD CAKE SAMPLE TEMPERATURE
MFSS.                     CA : MUD FILTRATE SAMPLE SOURCE
MCSS.                     CA : MUD CAKE SAMPLE SOURCE
RMB .OHMM              0.973 : RESISTIVITY MUD AT BHT
TCS .HRS                1800 : TIME CIRCULATED STOPPED
TLAB.HRS                   0 : TIME LOGGER AT BOTTOM
LUN .                   8262 : LOGGING UNIT NUMBER
LUL .             BRENHAM OH : LOGGING UNIT LOCATION
ENGI.                CARON R : RECORDING ENGINEER
WITN.        AIVAND MC KLAHN : WITNESSED BY
CLNT.                A2DTECH : CLIENT CODE
ORIG.            2" 5" PRINT : ORIGIN OF DATA
UWI .         42041309360000 : UNIQUE WELL ID
DICO. A2D Technologies, Inc. : DIGITIZING COMPANY
~Other -----------------------------------------------------
~ASCII -----------------------------------------------------
# ...
 7900.00000   96.44050  -18.63070    1.55150    1.61720    1.75370    -999.25    2.42490    0.11400    0.30250    -999.25    -999.25
 7950.00000   88.30170  -15.82420    1.97290    2.05620    2.16790    -999.25    1.81120    0.09260    0.23500    -999.25    -999.25
 8000.00000   65.96330  -15.83350    3.48750    3.69130    3.92870    0.00980    0.97230    0.07850    0.13800    -999.25    -999.25
 8050.00000   89.25050  -18.28380    3.01830    3.11450    3.30690    0.05250    1.15690    0.06600    0.16840    -999.25    -999.25
 8100.00000   94.97610  -21.67220    1.94560    1.99810    2.21150    -999.25    3.10090    0.10260    0.24780    -999.25    -999.25
 8150.00000   92.15490  -22.38400    1.93480    1.98810    2.33280    -999.25    2.73780    0.08140    0.24720    -999.25    -999.25
 8200.00000   93.46770  -22.62610    2.06140    2.11760    2.50270    -999.25    2.72110    0.04190    0.20370    -999.25    -999.25
 8250.00000   99.35300  -25.38660    1.59190    1.63490    1.82720    -999.25    4.49070    0.10260    0.29110    -999.25    -999.25
 8300.00000   95.16460  -23.74030    1.96060    2.01460    2.23990    -999.25    4.47360    0.09800    0.25940    -999.25    -999.25
 8350.00000   94.69330  -25.34720    1.92190    1.97370    2.17090    -999.25    5.36090    0.08970    0.24320    -999.25    -999.25
 8400.00000   86.82230  -26.05370    1.91360    1.96530    2.22330    -999.25    5.63030    0.08120    0.23610    -999.25    -999.25
 8450.00000   93.40540  -25.13690    1.78320    1.83130    2.05570    -999.25    6.17110    0.10590    0.25880    -999.25    -999.25
 8500.00000   92.46590  -25.17650    1.85180    1.90170    2.17610    -999.25    5.58050    0.08370    0.26040    -999.25    -999.25
 8550.00000   93.69760  -26.60690    1.96230    2.01670    2.28880    -999.25    4.65210    0.06630    0.25510    -999.25    -999.25
 8600.00000   92.51100  -27.81670    1.75740    1.80520    2.10930    -999.25    4.95340    0.09350    0.27110    -999.25    -999.25
 8650.00000   77.01580  -22.95780    3.05170    3.13980    3.95160   -0.00160    2.56240    0.07060    0.19150    -999.25    -999.25
 8700.00000  100.99460  -24.49490    2.86710    2.94440    3.33140    0.09600    4.00880    0.03360    0.21410    -999.25    -999.25
 8750.00000   87.31570  -29.23920    2.22790    2.29740    2.44080    -999.25    5.90240    0.09260    0.29430    -999.25    -999.25
 8800.00000   56.40430  -22.52120    5.15680    5.31640    8.10180   -0.00180    2.62250    0.05360    0.13060    -999.25    -999.25
 8850.00000   55.75120  -23.35800    6.27530    6.80110    5.68900    0.01700    2.19090    0.04450    0.11680    -999.25    -999.25
 8900.00000   51.22230  -26.20970   10.47010   10.81680   11.37320    0.01220    1.72500    0.04390    0.08970    -999.25    -999.25
 8950.00000   58.75150  -27.61810    5.86960    6.30070   10.31510    0.01610    1.71410    0.06630    0.09140    -999.25    -999.25
 9000.00000   42.56090  -26.66970   12.20920   12.54650   14.46020    0.00840    2.04450    0.04070    0.07140    -999.25    -999.25
 9050.00000   60.58860  -23.36570    8.39900    8.97380   13.28700   -0.01080    1.65360    0.06850    0.12560    -999.25    -999.25
 9100.00000   76.06000  -37.45640   11.45600   10.05540   25.20560    -999.25    4.92950    0.33620    0.06610    -999.25    -999.25
 9150.00000   85.36390  -28.75890    1.82120    1.88740    2.25010    -999.25    7.22320    0.09350    0.34480    -999.25    -999.25
 9200.00000   84.07010  -29.19160    1.81690    1.88550    2.18760    -999.25    9.02700    0.12950    0.33760    -999.25    -999.25
 9250.00000   81.91050  -31.58810    1.55100    1.60720    1.91640    -999.25    9.29490    0.19080    0.37080    -999.25    -999.25
 9300.00000   84.70580  -27.97220    1.62630    1.68590    1.99000    -999.25    7.38080    0.18790    0.37870    -999.25    -999.25
 9350.00000   97.58230  -27.40760    1.58590    1.64360    2.12110    -999.25    6.45430    0.12200    0.31470    -999.25    -999.25
 9400.00000   99.99720  -28.54910    2.10120    2.01200    2.84960    -999.25    6.35030    0.19840    0.37230    -999.25    -999.25
 9450.00000   94.41400  -23.08770    2.22790    2.00490    2.53220    -999.25    6.09290    0.33980    0.38650    -999.25    -999.25
 9500.00000  111.87410  -26.46130    2.21920    2.16330    2.95180    -999.25    4.31560    0.10030    0.34210    -999.25    -999.25
 9550.00000  124.50310  -17.43390    5.61280    5.79260    8.02500    0.05140    1.16110    0.15380    0.31230    -999.25    -999.25
 9600.00000  102.34940  -25.73680    2.17290    2.32230    4.56080    -999.25    4.38210    0.14000    0.31310    -999.25    -999.25
 9650.00000   61.65250  -16.04510    4.62600    4.81050    5.05500    0.02500    1.63010    0.01980    0.15810    -999.25    -999.25
 9700.00000   20.24010  -25.00630   62.93700   47.57730   67.04890    0.03090    0.95410    0.00230    0.01190    -999.25    -999.25
 9750.00000   23.54890  -17.48340   27.98440   30.44990   38.03660    0.01340    0.72600   -0.00660    0.01410    -999.25    -999.25
 9800.00000   21.97160  -41.83240   71.41850   81.37050   67.09120    0.02560    0.49050   -0.00740    0.00770    -999.25    -999.25
 9850.00000   22.15410  -35.48920   65.58540   58.81660   92.39550    0.01090    0.30250    0.00930    0.01380    -999.25    -999.25
 9900.00000    -999.25  -14.31390   20.71600   20.26390   28.13320    0.02850    0.01460    0.01580    0.01410    -999.25    -999.25
