~Version ---------------------------------------------------
VERS. 2.0 : CWLS log ASCII Standard -VERSION 2.0
WRAP.  NO : ONE LINE PER DEPTH STEP
~Well ------------------------------------------------------
STRT.F                                 1650.0 : START DEPTH
STOP.F                                 7900.0 : STOP DEPTH
STEP.F                               50.00000 : STEP LENGTH
NULL.                                 -999.25 : NULL VALUE
COMP. MGF OIL CORPORATION & J. FRANK STRINGER : COMPANY
WELL.                           N. C. KING #4 : WELL
FLD .                           JPS (EDWARDS) : FIELD
LOC .                                         : LOCATION
CNTY.                                  DIMMIT : COUNTY
STAT.                                   TEXAS : STATE
CTRY.                UNITED STATES OF AMERICA : COUNTRY
SRVC.                                   Welex : SERVICE COMPANY
DATE.                             18-Aug-1975 : LOGDATE
API .                          42127308630000 : API NUMBER
UWI .                          42127308630000 : UNIQUE WELL ID
SLAT.WGS84                      28.4776440277 : SURFACE LATITUDE
SLON.WGS84                      -99.645495277 : SURFACE LONGITUDE
~Curve Information -----------------------------------------
DEPT .F                  : 
CILD .MMHO  05 110 46 00 : CONDUCTIVITY INDUCTION LOG DEEP
CALS .IN    60 280 50 00 : CALIPER
DT   .US/FT 60 520 42 00 : INTERVAL TRANSIT TIME
NEUT .NAPI  35 330 01 00 : NEUTRON
GRR  .GAPI  05 310 01 00 : GAMMA RAY FROM RES.
SPR  .MV    05 010 01 00 : SPONTANEOUS POTENTIAL FROM RES.
ILD  .OHMM  05 120 46 00 : INDUCTION LOG DEEP
SN   .OHMM  05 040 16 00 : SHORT NORMAL 16"
TGAS .UNITS 91 830 01 00 : TOTAL GAS UNIT
ROP  .FT/HR 91 810 01 00 : RAT OF DRILLING PENETRATION
TGAS1.UNITS 91 830 01 00 : TOTAL GAS UNIT
C1   .PPM   91 831 01 00 : METHANE
~Params ----------------------------------------------------
PD  .                     GL : PERMANENT DATUM
EPD .F                   518 : ELEVATION PERMANENT DATUM
LMF .                     KB : LOG MEASURED FROM
DAPD.F                    10 : FEET ABOVE PERMANENT DATUM
DMF .                     KB : DRILLING MEASURED FROM
EKB .F                   528 : KELLING BUSHING
EDF .F                   527 : DRILLING FLOOR
EGL .F                   518 : GROUND LEVEL
DATE.              8-18-1975 : RUN DATE
RUN .                      1 : RUN NUMBER
DD  .F                  7925 : DEPTH DRILLER
DL  .F                  7922 : DEPTH LOGGER
BLI .F                  7916 : BOTTOM LOG INTERVAL
TLI .F                  2700 : TOP LOG INTERVAL
CS  .IN                8.625 : CASING SIZE
CBD .F                  1640 : CASING BOTTOM DRILLER
BS  .IN                7.875 : BIT SIZE
BSD .F                  7925 : BIT SIZE AT DEPTH
DFT .         WATER BASE MUD : DRILLING FLUID TYPE
DFD .                   10.6 : DRILLING FLUID DENSITY
DFV .                     72 : DRILLING FLUID VISCOSITY
DFPH.                    9.5 : DRILLING FLUID PH
DFL .                    4.8 : DRILLING FLUID LOSS
MSS .                    PIT : MUD SAMPLE SOURCE
RMS .OHMM               0.85 : RESISTIVITY MUD SAMPLE
MST .F                    75 : MUD SAMPLE TEMPERATURE
RMF .OHMM                0.5 : RESISTIVITY MUD FILTRATE SAMPLE
MFST.F                    75 : MUD FILTRATE SAMPLE TEMPERATURE
RMC .OHMM               0.96 : RESISTIVITY MUD CAKE
MCST.F                    75 : MUD CAKE SAMPLE TEMPERATURE
MFSS.                   MEAS : MUD FILTRATE SAMPLE SOURCE
MCSS.                   MEAS : MUD CAKE SAMPLE SOURCE
RMB .OHMM               0.28 : RESISTIVITY MUD AT BHT
TCS .HRS                   4 : TIME CURCULATED STOPPED
LUN .                   9684 : LOGGING UNIT NUMBER
LUL .                  ALICE : LOGGING UNIT LOCATION
ENGI.                 HASSAN : RECORDING ENGINEER
WITN.             MR. GUYTON : WITNESSED BY
CLNT.                A2DTECH : CLIENT CODE
ORIG.            2" 5" PRINT : ORIGIN OF DATA
UWI .         42127308630000 : UNIQUE WELL ID
DICO. A2D Technologies, Inc. : DIGITIZING COMPANY
~Other -----------------------------------------------------
~ASCII -----------------------------------------------------
 1650.00000  171.96160    -999.25    -999.25    -999.25  121.97870  -53.68800    5.70100    5.37100    -999.25    -999.25    -999.25    -999.25
 1700.00000  190.99850    -999.25    -999.25    -999.25  128.22090  -50.96300    6.60700    5.82800    -999.25    -999.25    -999.25    -999.25
 1750.00000  145.48650    -999.25    -999.25    -999.25  131.20140  -48.65300    7.40800    6.67900    -999.25    -999.25    -999.25    -999.25
 1800.00000  181.16490    -999.25    -999.25    -999.25  134.51940  -45.34800    6.20900    5.80100    -999.25    -999.25    -999.25    -999.25
 1850.00000  178.51660    -999.25    -999.25    -999.25  134.96930  -50.55730    5.15700    5.21500    -999.25    -999.25    -999.25    -999.25
 1900.00000  182.67580    -999.25    -999.25    -999.25  144.19220  -49.50920    4.37300    5.58400    -999.25    -999.25    -999.25    -999.25
 1950.00000  157.71630    -999.25    -999.25    -999.25  124.17180  -58.63490    6.83000    6.40400    -999.25    -999.25    -999.25    -999.25
 2000.00000  293.87290    -999.25    -999.25    -999.25  131.04940  -55.28630    4.52700    5.15900    -999.25    -999.25    -999.25    -999.25
 2050.00000  122.54200    -999.25    -999.25    -999.25  118.15430  -67.02100    8.23000   11.16900    -999.25    -999.25    -999.25    -999.25
 2100.00000  128.97130    -999.25    -999.25    -999.25  124.84660  -61.81600    7.07500    8.63100    -999.25    -999.25    -999.25    -999.25
 2150.00000  130.10630    -999.25    -999.25    -999.25  122.20350  -70.70000    7.55500    9.83400    -999.25    -999.25    -999.25    -999.25
 2200.00000  160.74130    -999.25    -999.25    -999.25  108.65030  -71.02600    5.79500    7.49300    -999.25    -999.25    -999.25    -999.25
 2250.00000  177.76100    -999.25    -999.25    -999.25  148.46620  -55.53000    6.42700    6.07300    -999.25    -999.25    -999.25    -999.25
 2300.00000  200.83210    -999.25    -999.25    -999.25  159.48890  -55.66000    5.22700    5.07100    -999.25    -999.25    -999.25    -999.25
 2350.00000  180.03100    -999.25    -999.25    -999.25  145.93560  -55.78300    5.36200    5.01800    -999.25    -999.25    -999.25    -999.25
 2400.00000  297.65510    -999.25    -999.25    -999.25  137.46680  -53.95000    3.40600    3.30900    -999.25    -999.25    -999.25    -999.25
 2450.00000  489.78670    -999.25    -999.25    -999.25  140.98660  -49.80900    2.48100    2.36300    -999.25    -999.25    -999.25    -999.25
 2500.00000  404.31010    -999.25    -999.25    -999.25  146.44170  -52.10200    3.18100    2.75700    -999.25    -999.25    -999.25    -999.25
 2550.00000  384.01510    -999.25    -999.25    -999.25  147.73520  -51.73900    2.90400    2.46100    -999.25    -999.25    -999.25    -999.25
 2600.00000  366.49020    -999.25    -999.25    -999.25  146.10430  -54.22000    2.94100    2.73200    -999.25    -999.25    -999.25    -999.25
 2650.00000  494.32600    -999.25    -999.25    -999.25  149.64750  -53.19600    2.65600    2.39600    -999.25    -999.25    -999.25    -999.25
 2700.00000  262.85930    8.59700   91.54850  246.08500  140.36810  -55.34600    4.00600    3.75900    -999.25    -999.25    -999.25    -999.25
 2750.00000  192.51130    8.68660   83.54480  234.52230  134.06920  -61.13800    4.79600    4.60000    -999.25    -999.25    -999.25    -999.25
 2800.00000  109.80940    8.89050   74.26610  335.18810  122.82210  -60.92800    7.49100    7.86300    -999.25    -999.25    -999.25    -999.25
 2850.00000   97.95760    9.05970   79.08030  298.47130  119.89780  -63.75500    7.79600    7.57800    -999.25    -999.25    -999.25    -999.25
 2900.00000  118.56150    9.37300  102.01490  406.78590  122.37230  -64.14700    9.09600    7.75000    -999.25    -999.25    -999.25    -999.25
 2950.00000  100.67280    9.77610   80.01870  383.48250  125.35280  -62.54800   10.14100    8.55000    -999.25    -999.25    -999.25    -999.25
 3000.00000   83.83530    9.62440   72.91040  599.91830  128.78340  -58.42900   10.96200    8.60700    -999.25    -999.25    -999.25    -999.25
 3050.00000  129.72770    9.65670   80.92020  445.55940  135.13800  -54.46300    7.15400    7.29300    -999.25    -999.25    -999.25    -999.25
 3100.00000  245.46140    9.76620   92.08960  256.15210  145.99170  -55.08300    4.73300    4.17700    -999.25    -999.25    -999.25    -999.25
 3150.00000  109.68230    9.85450   77.96040  623.78290  117.42330  -77.18500    9.26000   12.55900    -999.25    -999.25    -999.25    -999.25
 3200.00000  179.40040    9.82100   86.67910  401.00670  139.24330  -55.53900    5.31000    5.50800    -999.25    -999.25    -999.25    -999.25
 3250.00000  243.94860    9.53720    -999.25    -999.25  141.71780  -54.35200    4.84400    4.11300    -999.25    -999.25    -999.25    -999.25
 3300.00000  213.69140    -999.25    -999.25    -999.25  133.61960  -55.45000    4.77800    4.57000    -999.25    -999.25    -999.25    -999.25
 3350.00000  199.69710    -999.25    -999.25    -999.25  140.59300  -54.89400    4.92000    4.85400    -999.25    -999.25    -999.25    -999.25
 3400.00000  180.66090    -999.25    -999.25    -999.25  140.03040  -55.02300    5.63300    5.20400    -999.25    -999.25    -999.25    -999.25
 3450.00000  157.71560    -999.25    -999.25    -999.25  134.91320  -54.39800    6.16900    5.54200    -999.25    -999.25    -999.25    -999.25
 3500.00000  198.31080    -999.25    -999.25    -999.25  143.06750  -55.05300    5.19100    4.44900    -999.25    -999.25    -999.25    -999.25
 3550.00000  237.51890    -999.25    -999.25    -999.25  140.76170  -52.76400    4.71900    3.94400    -999.25    -999.25    -999.25    -999.25
 3600.00000  214.44480    -999.25    -999.25    -999.25  136.31900  -53.46700    4.14200    3.97800    -999.25    -999.25    -999.25    -999.25
 3650.00000  335.98020    -999.25    -999.25    -999.25  144.41680  -50.82700    3.53100    3.07500    -999.25    -999.25    -999.25    -999.25
 3700.00000  255.29200    -999.25    -999.25    -999.25  143.06750  -52.95700    4.19000    3.91100    -999.25    -999.25    -999.25    -999.25
 3750.00000  313.91750    -999.25    -999.25    -999.25  143.57360  -51.91000    3.75500    3.27000    -999.25    -999.25    -999.25    -999.25
 3800.00000  200.83210    -999.25    -999.25    -999.25  142.84240  -53.50500    5.51200    4.80300    -999.25    -999.25    -999.25    -999.25
 3850.00000  274.20570    -999.25    -999.25    -999.25  145.54190  -51.71600    4.05100    3.92000    1.81530   34.28770   28.53600    -999.25
 3900.00000  253.02570    8.79600  130.35990  236.00440  141.71780  -51.60800    3.91100    3.89400    1.89420   39.50620   35.68960    -999.25
 3950.00000  255.42110    8.74630  106.59250  272.95750  145.14830  -51.35400    4.02300    3.78700    1.49680   27.42500   32.42350    -999.25
 4000.00000  154.43770    8.64160   85.19170  438.51000  142.95510  -54.35400    7.82500    7.41500    0.92300   25.93510   26.83120    -999.25
 4050.00000  115.73260    8.62560   78.68340  432.84700  148.29750  -52.39100    8.93900    8.21800    0.98570   21.56090   28.71290    -999.25
 4100.00000  598.20980    8.51860  139.65690  247.56450  140.81890  -51.31600    2.98000    2.83900    1.27190   22.49130   32.83830    -999.25
 4150.00000  180.02650    8.28990  119.80310  366.31810  135.75630  -56.46300    6.43500    4.99900    2.05090   46.16400   45.37950    -999.25
 4200.00000  259.07720    8.45520  103.67740  243.08530  140.74520  -47.33600    4.20100    3.43900    2.07010   44.44500   38.61390    -999.25
 4250.00000  256.42700    8.28360  140.22420  222.86570  154.03350  -46.10800    3.80500    5.03000    0.95540   35.97880   31.51810    -999.25
 4300.00000  203.85780    8.40420   74.30450  511.95860  132.71980  -64.19200    4.48800    7.27100    0.81210   25.13230   26.23760    -999.25
 4350.00000  231.46750    8.25130   87.31000  441.75410  135.86880  -59.98900    4.54600    5.39200    0.97400   30.02650   17.90520    -999.25
 4400.00000  197.04770    8.86560   82.97520  496.08200  164.21240  -50.21600    4.86300    5.09900    0.77870   20.26320   15.34650    -999.25
