~Version ---------------------------------------------------
VERS. 2.0 : CWLS log ASCII Standard -VERSION 2.0
WRAP. YES : Multiple lines per depth step
~Well ------------------------------------------------------
STRT.FT                  2550.0 : START DEPTH
STOP.FT                 14350.0 : STOP DEPTH
STEP.FT                50.00000 : STEP LENGTH
NULL.                   -999.25 : NULL VALUE
COMP. GENERAL CRUDE OIL COMPANY : COMPANY
WELL.    A G HENKES GAS UNIT #1 : WELL
FLD .                   WILDCAT : FIELD
LOC .                           : LOCATION
CNTY.                    LAVACA : COUNTY
STAT.                     TEXAS : STATE
CTRY.  UNITED STATES OF AMERICA : COUNTRY
SRVC.                   Unknown : SERVICE COMPANY
DATE.               29-Aug-1977 : LOGDATE
API .            42285307220000 : API NUMBER
UWI .            42285307220000 : UNIQUE WELL ID
SLAT.WGS84        29.3839239903 : SURFACE LATITUDE
SLON.WGS84       -96.9359395822 : SURFACE LONGITUDE
~Curve Information -----------------------------------------
DEPT  .FT    : DEPTH
SPED  .MV    : SPONTANEOUS POTENTIAL FROM DIL/SONIC LOG
CALRED.IN    : CALIPER FROM DIL/SONIC LOG
ILDED .OHMM  : INDUCTION LOG DEEP RESISTIVITY FROM DIL/SONIC LOG
ILMED .OHMM  : INDUCTION LOG MEDIUM RESISTIVITY FROM DIL/SONIC LOG
LL8ED .OHMM  : LATEROLOG 8 INCH FROM DIL/SONIC LOG
CILDED.MMHO  : CONDUCTIVITY FROM DIL/SONIC LOG
CALDED.IN    : CALIPER FROM CN/FD LOG
GRDED .GAPI  : GAMMA RAY FROM CN/FD LOG
DRHOED.G/C3  : DENSITY CORRECTION FROM CN/FD LOG
RHOBED.G/C3  : BULK DENSITY FROM CN/FD LOG
NPHIED.V/V   : NEUTRON POROSITY LIMETONE FROM CN/FD LOG
DTED  .US/F  : DELTA TIME FROM DIL/SONIC LOG
DPHIED.V/V   : DENSITY POROSITY [M=2.68, F=1.0] FROM CN/FD LOG
SPWS  .MV    : SPONTANEOUS POTENTIAL [BASELINE 0 MV]
CALWS .IN    : CALIPER [2520 CALRED, 9690.5 CALDED]
CONDWS.MMHO  : CONDUCTIVITY [CILDED]
DCORWS.G/C3  : DENSITY CORRECTION [DRHOED]
DENWS .G/C3  : BULK DENSITY [RHOBED]
DPOWS .V/V   : DENSITY POROSITY [M=2.68, F=1.0] [DPHIED]
DRESWS.OHMM  : DEEP RESISTIVITY [ILDED]
DTWS  .US/F  : DELTA TIME [DTED]
GRWS  .GAPI  : GAMMA RAY [GRDED]
MRESWS.OHMM  : MEDIUM RESISTIVITY [ILMED]
NPOWS .V/V   : NEUTRON POROSITY LIMETONE [NPHIED]
SRESWS.OHMM  : SHALLOW RESISTIVITY [LL8ED]
~Params ----------------------------------------------------
EKB .F                 278.0 : Kelly bushing
EGL .F                 260.0 : Ground level
EDF .F                 277.0 : Drilling floor
EPD .F                 260.0 : Permanent datum
TD  .F               14505.0 : Total depth
DATE.            29-AUG-1977 : Date logged
CLNT.                A2DTECH : Client Code
DAPD.F                    18 : Feet Above Permanent Datum
DD  .F                 14505 : Depth driller
DL  .F                 14401 : Depth logger
BLI .F                 14394 : Bottom log interval
TLI .F                 13663 : Top log interval
CS1 .IN                    7 : Casing size
CBD1.             7" @ 3646' : Casing driller 1
CBL1.F                 13663 : Casing logger 1
BS1 .IN                    6 : Bit size
BSD1.F                 14505 : Depth drilled with bit1
DFT .                CLS-LIG : Type fluid in hole
DFD .                   11.6 : Density
DFV .                     45 : Viscosity
DFPH.                     11 : pH
DFL .                    3.8 : Fluid loss
MSS .              CIRC. PIT : Source of sample
RMS .OHMM              0.865 : Rm
RMF .OHMM               0.57 : Rmf
RMC .OHMM                1.3 : Rmc
MFSS.                   MEAS : Source Rmf.
MCSS.                   CALC : Source Rmc.
TCS .HRS                 330 : Time Circ. stopped
TLAB.HRS                 530 : Time logger at bottom
LUN .                   8005 : Logging unit number
LUL .                   VICT : Logging unit location
ORIG.            2" 5" PRINT : Origin of data
UWI .         42285307220000 : Unique Well ID
DICO. A2D TECHNOLOGIES, INC. : Digitizing Company
SL  .  3700' FWL & 1000' FNL : Surface Location
PD  .                     GL : Permanent Datum
LMF .                     KB : Log Measured From
DMF .                     KB : Drilling Measured From
~Other -----------------------------------------------------
~ASCII -----------------------------------------------------
 2550.00000    -999.25   12.37960    -999.25    -999.25    -999.25    -999.25    -999.25    -999.25    -999.25    -999.25    -999.25    -999.25    -999.25    -999.25   12.37960    -999.25    -999.25    -999.25    -999.25    -999.25    -999.25    -999.25    -999.25    -999.25    -999.25
 2600.00000  -43.94860   12.67870    0.96310    0.89690    1.40420 1053.89220    -999.25    -999.25    -999.25    -999.25    -999.25  160.54220    -999.25   -1.17080   12.67870 1053.89220    -999.25    -999.25    -999.25    0.96310  160.54220    -999.25    0.89690    -999.25    1.40420
 2650.00000  -45.14010   12.44700    1.32040    1.19570    1.62430  756.73870    -999.25    -999.25    -999.25    -999.25    -999.25  153.46260    -999.25   -2.40850   12.44700  756.73870    -999.25    -999.25    -999.25    1.32040  153.46260    -999.25    1.19570    -999.25    1.62430
 2700.00000  -41.79250   12.08670    0.74120    0.73100    1.19760 1360.27770    -999.25    -999.25    -999.25    -999.25    -999.25  162.64910    -999.25    0.82640   12.08670 1360.27770    -999.25    -999.25    -999.25    0.74120  162.64910    -999.25    0.73100    -999.25    1.19760
 2750.00000  -43.58210   12.43950    0.80560    0.75660    1.24630 1231.53530    -999.25    -999.25    -999.25    -999.25    -999.25  156.32460    -999.25   -1.07590   12.43950 1231.53530    -999.25    -999.25    -999.25    0.80560  156.32460    -999.25    0.75660    -999.25    1.24630
 2800.00000  -44.65700   12.45430    1.08950    1.00560    1.51210  907.18570    -999.25    -999.25    -999.25    -999.25    -999.25  150.75200    -999.25   -2.26350   12.45430  907.18570    -999.25    -999.25    -999.25    1.08950  150.75200    -999.25    1.00560    -999.25    1.51210
 2850.00000  -44.23440   12.56650    1.01600    0.98100    1.47400  984.02620    -999.25    -999.25    -999.25    -999.25    -999.25  150.60220    -999.25   -1.95360   12.56650  984.02620    -999.25    -999.25    -999.25    1.01600  150.60220    -999.25    0.98100    -999.25    1.47400
 2900.00000  -42.26250   12.09560    0.75370    0.71660    1.30100 1335.32930    -999.25    -999.25    -999.25    -999.25    -999.25  159.18610    -999.25   -0.09440   12.09560 1335.32930    -999.25    -999.25    -999.25    0.75370  159.18610    -999.25    0.71660    -999.25    1.30100
 2950.00000  -42.84030   12.80570    0.80450    0.79620    1.26540 1228.23380    -999.25    -999.25    -999.25    -999.25    -999.25  157.37780    -999.25   -0.78490   12.80570 1228.23380    -999.25    -999.25    -999.25    0.80450  157.37780    -999.25    0.79620    -999.25    1.26540
 3000.00000  -44.14260   12.85800    1.30640    1.24470    1.61310  766.61520    -999.25    -999.25    -999.25    -999.25    -999.25  131.77630    -999.25   -2.19980   12.85800  766.61520    -999.25    -999.25    -999.25    1.30640  131.77630    -999.25    1.24470    -999.25    1.61310
 3050.00000  -42.87810   12.91030    1.30640    1.27830    1.47400  753.75380    -999.25    -999.25    -999.25    -999.25    -999.25  116.86700    -999.25   -1.04800   12.91030  753.75380    -999.25    -999.25    -999.25    1.30640  116.86700    -999.25    1.27830    -999.25    1.47400
 3100.00000  -43.17770   12.58910    0.89670    0.82320    1.34700 1131.13270    -999.25    -999.25    -999.25    -999.25    -999.25  152.55980    -999.25   -1.46030   12.58910 1131.13270    -999.25    -999.25    -999.25    0.89670  152.55980    -999.25    0.82320    -999.25    1.34700
 3150.00000  -43.17840   12.59650    0.95320    0.90460    1.36570 1064.56460    -999.25    -999.25    -999.25    -999.25    -999.25  147.50850    -999.25   -1.57370   12.59650 1064.56460    -999.25    -999.25    -999.25    0.95320  147.50850    -999.25    0.90460    -999.25    1.36570
 3200.00000  -41.07800   12.81320    0.63680    0.62780    1.14040 1567.56760    -999.25    -999.25    -999.25    -999.25    -999.25  148.11080    -999.25    0.41400   12.81320 1567.56760    -999.25    -999.25    -999.25    0.63680  148.11080    -999.25    0.62780    -999.25    1.14040
 3250.00000  -41.58360   12.79080    0.87200    0.82430    1.38490 1157.65760    -999.25    -999.25    -999.25    -999.25    -999.25  148.12310    -999.25   -0.20430   12.79080 1157.65760    -999.25    -999.25    -999.25    0.87200  148.12310    -999.25    0.82430    -999.25    1.38490
 3300.00000  -43.10830   12.48420    0.90920    0.85220    1.39450 1132.13210    -999.25    -999.25    -999.25    -999.25    -999.25  154.28000    -999.25   -1.84170   12.48420 1132.13210    -999.25    -999.25    -999.25    0.90920  154.28000    -999.25    0.85220    -999.25    1.39450
 3350.00000  -41.97800   12.78330    1.11980    1.05660    1.48430  912.41080    -999.25    -999.25    -999.25    -999.25    -999.25  132.95770    -999.25   -0.82410   12.78330  912.41080    -999.25    -999.25    -999.25    1.11980  132.95770    -999.25    1.05660    -999.25    1.48430
 3400.00000  -41.08030   12.48440    0.86060    0.86600    1.41390 1162.16220    -999.25    -999.25    -999.25    -999.25    -999.25  144.66970    -999.25   -0.03910   12.48440 1162.16220    -999.25    -999.25    -999.25    0.86060  144.66970    -999.25    0.86600    -999.25    1.41390
 3450.00000  -41.52750   12.64130    1.05080    0.91140    1.38480 1035.04390    -999.25    -999.25    -999.25    -999.25    -999.25  144.27820    -999.25   -0.59890   12.64130 1035.04390    -999.25    -999.25    -999.25    1.05080  144.27820    -999.25    0.91140    -999.25    1.38480
 3500.00000  -66.56770   12.78330    0.96750    1.08290    1.77750 1024.02890    -999.25    -999.25    -999.25    -999.25    -999.25  122.89380    -999.25  -25.75180   12.78330 1024.02890    -999.25    -999.25    -999.25    0.96750  122.89380    -999.25    1.08290    -999.25    1.77750
 3550.00000  -41.07900   12.55900    0.89660    0.89890    1.41390 1081.08110    -999.25    -999.25    -999.25    -999.25    -999.25  135.24270    -999.25   -0.37580   12.55900 1081.08110    -999.25    -999.25    -999.25    0.89660  135.24270    -999.25    0.89890    -999.25    1.41390
 3600.00000  -41.55460   12.40960    0.91340    0.88860    1.43360 1088.19130    -999.25    -999.25    -999.25    -999.25    -999.25  145.72010    -999.25   -0.96410   12.40960 1088.19130    -999.25    -999.25    -999.25    0.91340  145.72010    -999.25    0.88860    -999.25    1.43360
 3650.00000  -43.04840   12.24510    0.87640    0.84080    1.32830 1111.60780    -999.25    -999.25    -999.25    -999.25    -999.25  140.11510    -999.25   -2.51510   12.24510 1111.60780    -999.25    -999.25    -999.25    0.87640  140.11510    -999.25    0.84080    -999.25    1.32830
 3700.00000  -49.32780   12.36940    1.16020    1.16320    1.60910  864.97100    -999.25    -999.25    -999.25    -999.25    -999.25  115.99100    -999.25   -8.82670   12.36940  864.97100    -999.25    -999.25    -999.25    1.16020  115.99100    -999.25    1.16320    -999.25    1.60910
 3750.00000  -41.45870   11.84370    0.83110    0.79410    1.24630 1211.50390    -999.25    -999.25    -999.25    -999.25    -999.25  156.53150    -999.25   -0.98990   11.84370 1211.50390    -999.25    -999.25    -999.25    0.83110  156.53150    -999.25    0.79410    -999.25    1.24630
 3800.00000  -41.44340   12.03900    0.86630    0.87450    1.28310 1165.91920    -999.25    -999.25    -999.25    -999.25    -999.25  139.71620    -999.25   -1.00680   12.03900 1165.91920    -999.25    -999.25    -999.25    0.86630  139.71620    -999.25    0.87450    -999.25    1.28310
 3850.00000  -43.13940   12.07030    0.79180    0.78310    1.19710 1234.17870    -999.25    -999.25    -999.25    -999.25    -999.25  141.06700    -999.25   -2.73510   12.07030 1234.17870    -999.25    -999.25    -999.25    0.79180  141.06700    -999.25    0.78310    -999.25    1.19710
 3900.00000  -54.79040   12.05040    1.11880    1.15210    1.84040  915.79310    -999.25    -999.25    -999.25    -999.25    -999.25  117.49350    -999.25  -14.41830   12.05040  915.79310    -999.25    -999.25    -999.25    1.11880  117.49350    -999.25    1.15210    -999.25    1.84040
