~Version ---------------------------------------------------
VERS. 2.0 : CWLS log ASCII Standard -VERSION 2.0
WRAP.  NO : ONE LINE PER DEPTH STEP
~Well ------------------------------------------------------
STRT.F                        3500.0 : START DEPTH
STOP.F                       12550.0 : STOP DEPTH
STEP.F                      50.00000 : STEP LENGTH
NULL.                        -999.25 : NULL VALUE
COMP. THE LOUISIANA LAND & EXPL. CO. : COMPANY
WELL.          J. C. HOWARD ET AL #1 : WELL
FLD .                        WILDCAT : FIELD
LOC .                                : LOCATION
CNTY.                         GRIMES : COUNTY
STAT.                          TEXAS : STATE
CTRY.       UNITED STATES OF AMERICA : COUNTRY
SRVC.                                : SERVICE COMPANY
DATE.                                : LOGDATE
API .                 42185302710000 : API NUMBER
UWI .                 42185302710000 : UNIQUE WELL ID
SLAT.WGS84             30.6614468236 : SURFACE LATITUDE
SLON.WGS84             -96.041932739 : SURFACE LONGITUDE
~Curve Information -----------------------------------------
DEPT.F                 : 
TENR.LBS  07 635 01 00 : TENSION FROM RESISTIVITY
SPR .MV   07 010 01 00 : SPONTANEOUS POTENTIAL
CALR.IN   07 280 01 00 : CALIPER FROM RESISTIVITY
ILD .OHMM 07 120 46 00 : DEEP INDUCTION RESISTIVITY
GRR .GAPI 07 310 01 00 : GAMMA RAY FROM RESISTIVITY
SFLU.OHMM 07 220 01 00 : SPHERICALLY FOCUSED LOG UNAVERAGED RESISTIVITY
ILM .OHMM 07 120 44 00 : INDUCTION LOG MEDIUM RESISTIVITY
DT  .US/F 60 520 00 00 : DELTA TIME
~Params ----------------------------------------------------
EKB .F                 302.0 : KELLY BUSHING
EGL .F                   285 : ELEVATION GROUND LEVEL
EDF .F                   301 : ELEVATION DERRICK FLOOR
EPD .F                   285 : ELEVATION PERMANENT DATUM
TD  .F               12600.0 : TOTAL DEPTH
DATE.            06-JUL-1981 : DATE LOGGED
CLNT.                A2DTECH : CLIENT CODE
LMF .                     KB : LOG MEASURED FROM
DMF .                     KB : DRILLING MEASURED FROM
DD  .F                 12600 : DEPTH DRILLER
DL  .F                 12580 : DEPTH LOGGER
BLI .F                 12577 : BOTTOM LOG INTERVAL
TLI .F                  6300 : TOP LOG INTERVAL
CBD1.         9.625" @ 3465' : CASING DRILLER 1
BS1 .IN                 8.75 : BIT SIZE
BSD1.F                 12600 : DEPTH DRILLED WITH BIT1
DFT .                 BEN-EX : TYPE FLUID IN HOLE
DFD .                   10.1 : DENSITY
DFV .                     50 : VISCOSITY
DFPH.                    8.5 : PH
DFL .                    7.6 : FLUID LOSS
MSS .            CIRCULATION : SOURCE OF SAMPLE
RMS .OHMM               1.73 : RM
RMF .OHMM                1.2 : RMF
RMC .OHMM               2.59 : RMC
RMB .OHMM              0.531 : RM. AT BHT
BHT .F                   260 : BHT.
TCS .HRS                 830 : TIME CIRC. STOPPED
TLAB.HRS                1530 : TIME LOGGER AT BOTTOM
LUN .                   8149 : LOGGING UNIT NUMBER
LUL .                 DAYTON : LOGGING UNIT LOCATION
ENGI.            WOLESBERGER : RECORDED BY
WITN.               REYNOLDS : WITNESSED BY
ORIG.               5" PRINT : ORIGIN OF DATA
UWI .         42185302710000 : UNIQUE WELL ID
DICO. A2D TECHNOLOGIES, INC. : DIGITIZING COMPANY
PD  .                     GL : PERMANENT DATUM
DAPD.F                    17 : FEET ABOVE PERMANENT DATUM
CS1 .IN                9.625 : CASING SIZE
~Other -----------------------------------------------------
~ASCII -----------------------------------------------------
 3500.00000    -999.25  -25.10100    -999.25    2.44700   74.27100    3.03700    2.91300  115.18700
 3550.00000    -999.25  -28.43200    -999.25    2.85800   61.91700    4.32800    3.64600   89.59500
 3600.00000    -999.25  -52.43800    -999.25    2.35700   74.69900    4.89800    3.16500  101.78600
 3650.00000    -999.25  -28.07500    -999.25    2.47700   77.71600    4.45500    3.02600  100.57800
 3700.00000    -999.25  -42.13900    -999.25    2.19600   54.49500    4.51400    3.01400  103.61400
 3750.00000    -999.25  -30.57800    -999.25    2.15600   66.11200    3.79800    2.67500  118.34300
 3800.00000    -999.25  -28.11600    -999.25    2.53300   57.35700    4.40900    3.03700  101.13700
 3850.00000    -999.25  -32.77200    -999.25    2.08900   82.47100    4.31300    2.67500  101.17400
 3900.00000    -999.25  -29.15000    -999.25    2.35500   78.39200    4.29200    3.09300  104.33900
 3950.00000    -999.25   -8.43800    -999.25    2.11200   97.60100    2.50800    2.15100  107.49200
 4000.00000    -999.25  -50.39100    -999.25    1.68300   48.52100    4.19100    2.33400   96.94300
 4050.00000    -999.25  -21.17600    -999.25    2.24100   79.93700    3.95300    2.67500   99.81200
 4100.00000    -999.25  -24.83200    -999.25    1.98200   73.34600    3.41800    2.29200  104.25400
 4150.00000    -999.25   -5.12600    -999.25    1.84300   89.09700    2.09300    1.91100  103.94500
 4200.00000    -999.25  -43.88200    -999.25    1.57500   68.39200    3.53600    2.11200  101.79900
 4250.00000    -999.25  -31.58700    -999.25    2.18800   68.34900    5.04400    2.79800   94.18100
 4300.00000    -999.25  -25.04900    -999.25    1.94600   85.72900    3.05300    2.48700   96.09300
 4350.00000    -999.25  -38.75500    -999.25    1.75500   74.47900    4.35600    2.37700   93.75700
 4400.00000    -999.25  -39.05200    -999.25    1.84900   74.12300    5.80000    2.21600   96.16300
 4450.00000    -999.25  -36.61800    -999.25    1.98200   70.63500    5.48200    2.46300   97.49700
 4500.00000    -999.25  -58.86700    -999.25    1.35600   65.85900    4.03000    1.77700   99.30600
 4550.00000    -999.25  -15.32300    -999.25    2.32500   96.74100    3.46000    2.48700  100.04800
 4600.00000    -999.25  -69.54300    -999.25    1.06800   46.41300    3.36900    1.44500  101.92200
 4650.00000    -999.25  -37.79300    -999.25    1.56400   81.65600    3.88200    2.03700   95.58000
 4700.00000    -999.25  -68.03900    -999.25    0.76500   40.19800    2.79600    1.08400   98.71900
 4750.00000    -999.25  -67.02900    -999.25    0.90000   51.89500    3.64100    1.27600   97.51000
 4800.00000    -999.25  -67.72300    -999.25    0.80900   38.67900    2.90800    1.14600   99.05400
 4850.00000    -999.25  -59.57800    -999.25    0.73800   60.45100    3.38700    1.07900   99.01300
 4900.00000    -999.25  -69.45100    -999.25    0.59000   45.16800    2.57900    0.81400   98.34900
 4950.00000    -999.25  -69.07400    -999.25    0.59600   39.28700    1.91200    0.81600   95.98100
 5000.00000    -999.25  -69.77600    -999.25    0.61000   49.55700    3.15000    0.92600   98.81700
 5050.00000    -999.25  -16.89800    -999.25    2.23900   78.10800    3.05400    2.19000  114.68600
 5100.00000    -999.25  -57.01100    -999.25    0.64500   63.62300    3.18200    0.94100   95.73200
 5150.00000    -999.25  -71.96100    -999.25    0.62600   58.09900    3.44600    0.90600   93.91200
 5200.00000    -999.25  -72.80100    -999.25    0.54100   42.06900    2.76600    0.70800   92.02400
 5250.00000    -999.25  -70.83500    -999.25    0.58900   48.70100    3.23100    0.84400   93.97600
 5300.00000    -999.25  -11.51500    -999.25    1.76200   85.28900    2.51000    1.82600   91.12400
 5350.00000    -999.25  -29.04900    -999.25    1.63200   82.94600    1.87700    1.64300   89.29700
 5400.00000    -999.25  -14.34700    -999.25    2.29200  105.43500    2.93700    2.37700   91.95500
 5450.00000    -999.25  -38.07800    -999.25    1.05300   70.63000    4.13700    1.20300   91.39400
 5500.00000    -999.25  -77.02500    -999.25    0.48500   51.54300    3.60900    0.67100   91.32100
 5550.00000    -999.25  -16.96900    -999.25    1.26200   96.31700    2.81200    1.42100   90.53300
 5600.00000    -999.25  -73.50700    -999.25    0.50900   55.46800    3.41700    0.72300   92.01800
 5650.00000    -999.25   -6.29200    -999.25    1.93200   88.50000    2.42200    2.20200   82.55900
 5700.00000    -999.25  -76.73000    -999.25    0.41700   48.72900    3.06700    0.57600   92.06000
 5750.00000    -999.25  -52.37700    -999.25    0.59400   77.59200    4.17400    0.85900   90.07900
 5800.00000    -999.25  -79.17800    -999.25    0.41600   46.27800    3.35600    0.57600   89.29100
 5850.00000    -999.25  -78.66900    -999.25    0.30800   48.37700    2.57300    0.44700   92.27800
 5900.00000    -999.25  -77.62600    -999.25    0.39300   49.02900    2.19600    0.56600   91.15600
 5950.00000    -999.25    7.69500    -999.25    2.30600  117.59000    2.81300    2.41000   88.94400
 6000.00000    -999.25  -68.36000    -999.25    0.45700   54.37600    3.48700    0.66000   89.47300
 6050.00000    -999.25    3.97900    -999.25    1.71400  106.04400    2.77800    2.17000   83.79100
 6100.00000    -999.25  -18.26200    -999.25    1.46500   91.88500    3.74300    1.97400   81.56600
 6150.00000    -999.25  -70.16200    -999.25    0.48500   56.76700    3.53300    0.71000   88.13700
 6200.00000    -999.25  -10.59800    -999.25    1.73700  100.47800    2.60300    2.03700   86.16900
 6250.00000    -999.25  -84.71600    -999.25    0.50700   52.44300    3.23200    0.71700   90.08300
 6300.00000    -999.25  -91.74400    -999.25    0.35400   45.15400    2.99300    0.52100   89.43900
 6350.00000 3772.35110  -69.84100    8.03900    0.69600   60.90200    4.44700    1.00300   87.75300
 6400.00000 3810.03710  -27.64800    8.26400    1.56500   86.17400    3.50600    1.72900   83.20700
 6450.00000 3804.05300  -79.01700    8.08900    0.55500   59.55800    3.95300    0.79000   85.16400
 6500.00000 3871.10300  -81.43500    8.03900    0.40800   49.19900    3.54500    0.58500   86.40500
 6550.00000 3902.20610  -81.12400    8.19700    0.48900   62.66700    4.04800    0.70000   85.40100
 6600.00000 3864.60790  -62.65400    8.21400    0.72000   78.12100    3.58400    0.96300   83.19200
 6650.00000 3883.82100   -9.98800    8.59500    1.74500   99.64000    2.46500    2.01700   85.56300
 6700.00000 3916.95090  -86.83100    8.28300    0.70500   59.28700    4.79300    0.92200   81.26600
 6750.00000 3953.01810   -0.90100    9.14600    2.09200  111.69400    2.53100    2.39900   86.46700
 6800.00000 3915.22410  -32.82600    9.02300    1.39800   84.11900    2.86400    1.41600   81.67500
 6850.00000 4014.25810   -7.86300    9.19100    2.23500   87.92600    2.72800    2.32900   83.66600
 6900.00000 4039.40890   -4.46400    9.64400    2.33400   95.71400    2.93300    2.43900   84.38800
 6950.00000 4060.47900   -9.21400    9.46600    2.60200   96.99000    3.35600    2.67500   82.39200
 7000.00000 4117.67480   -5.69500   10.06700    2.19000   95.92200    2.84700    2.30400   87.29100
 7050.00000 4068.51390   -1.76500   10.06900    2.18700   90.42600    2.90200    2.33400   86.01000
 7100.00000 4078.81810   -3.49900    9.79500    1.72900   91.59000    2.32500    1.85700   90.96500
 7150.00000 4149.60210   -0.02600   10.46100    2.23000   89.25900    3.02500    2.25100   85.96500
 7200.00000 4106.86820    3.26600   10.25900    2.00800   87.56500    2.53200    2.01400   88.68300
 7250.00000 4142.72800  -34.74600    9.91500    2.05200   86.08000    2.29000    2.12300   87.63300
 7300.00000 4207.94480  -34.02300    9.89200    2.38900   73.37000    3.02900    2.44000   83.73900
 7350.00000 4215.73580  -35.31400   10.19000    2.38600   73.14400    2.68200    2.37200   86.99800
 7400.00000 4433.49800  -32.94600    9.75100    2.39300   82.03800    2.60200    2.36100   84.82800
 7450.00000 4519.01420  -32.02500   10.43200    1.98700   73.70200    2.28600    2.00600   88.59300
