~Version ---------------------------------------------------
VERS. 2.0 : CWLS log ASCII Standard -VERSION 2.0
WRAP. YES : MULTIPLE LINES PER DEPTH STEP
~Well ------------------------------------------------------
STRT.FT                  300.0 : START DEPTH
STOP.FT                14000.0 : STOP DEPTH
STEP.FT               50.00000 : STEP LENGTH
NULL.                  -999.25 : NULL VALUE
COMP.      MGF OIL CORPORATION : COMPANY
WELL.                 BOONE #1 : WELL
FLD .                  WILDCAT : FIELD
LOC .                          : LOCATION
CNTY.                      BEE : COUNTY
STAT.                    TEXAS : STATE
CTRY. UNITED STATES OF AMERICA : COUNTRY
SRVC.             Schlumberger : SERVICE COMPANY
DATE.              11-Feb-1976 : LOGDATE
API .           42025304380000 : API NUMBER
UWI .           42025304380000 : UNIQUE WELL ID
SLAT.WGS84       28.6868031711 : SURFACE LATITUDE
SLON.WGS84       -97.929230078 : SURFACE LONGITUDE
~Curve Information -----------------------------------------
DEPT    .FT    : DEPTH FEET
ALL8ED  .OHMM  : AMP. LATEROLOG 8
CALDED  .IN    : CALIPER FROM DENSITY LOG
CALSED  .IN    : CALIPER FROM SONIC LOG
CALWS   .IN    : CALIPER [CALDED]
CILDED  .MMHO  : CONDUCTIVITY FROM RESISTIVITY LOG
CONDWS  .MMHO  : CONDUCTIVITY [1000/DRESWS]
CORRED  .G/C3  : DENSITY CORRECTION FROM DENSITY LOG
DCORWS  .G/C3  : DENSITY CORRECTION [CORRED]
DENWS   .G/C3  : BULK DENSITY [M=2.65/2.71 FROM 13350-TD F=1.0] [RHOBED]
DPHILSED.V/V   : DENSITY POROSITY LIMESTONE FROM DENSITY LOG
DPHISSED.V/V   : DENSITY POROSITY SANDSTONE FROM DENSITY LOG
DPOWS   .V/V   : DENSITY POROSITY [M=2.65/2.71 FROM 13350-TD F=1.0] [CALCULATED FROM DENWS]
DRESWS  .OHMM  : DEEP RESISTIVITY [ILDED] FROM 3588 IF ILDED<1;1000/CILDED;ELSE ILDED
DTED    .US/F  : DELTA TIME FROM SONIC LOG [DEPTH ADJ TO ALL8]
DTWS    .US/F  : DELTA TIME [DTED]
GRDED   .GAPI  : GAMMA RAY FROM DENSITY LOG [DEPTH ADJ TO SPR]
GRSED   .GAPI  : GAMMA RAY FROM SONIC LOG
GRWS    .GAPI  : GAMMA RAY [GRDED]
ILDED   .OHMM  : INDUCTION LOG DEEP RESISTIVITY
NPHILSED.V/V   : NEUTRON POROSITY LIMESTONE FROM DENSITY LOG
NPHISSED.V/V   : NEUTRON POROSITY SANDSTONE FROM DENSITY LOG
NPOWS   .V/V   : NEUTRON POROSITY [MERGED NPHISSED/NPHILSED FROM 13350-TD]
RHOBED  .G/C3  : BULK DENSITY FROM DENSITY LOG
SPRED   .MV    : SPONTANEOUS POTENTIAL FROM RESISTIVITY LOG SHIFTED
SPWS    .MV    : SPONTANEOUS POTENTIAL [SHIFTED/BASELINE 0 MV] [SPRED]
SRESWS  .OHMM  : SHALLOW RESISTIVITY [ALL8ED]
~Params ----------------------------------------------------
PD  .                     GL : PERMANENT DATUM
EPD .FT                  503 : ELEVATION PERMANENT DATUM
LMF .                     KB : LOG MEASURED FROM
DAPD.FT                   21 : FEET ABOVE PERMANENT DATUM
DMF .                     KB : DRILLING MEASURED FROM
EKB .FT                  524 : KELLY BUSHING
EDF .FT                  523 : DRILLING FLOOR
EGL .FT                  503 : GROUND LEVEL
DATE.               02/11/76 : RUN DATE
RUN .                      2 : RUN NUMBER
DD  .FT                14000 : DEPTH DRILLER
DL  .FT                14017 : DEPTH LOGGER
BLI .FT                14014 : BOTTOM LOG INTERVAL
TLI .FT                 3588 : TOP LOG INTERVAL
CS  .IN                10.75 : CASING SIZE
CBD .FT                 3536 : CASING BOTTOM DRILLER
CBL .FT                 3588 : CASING BOTTOM LOGGER
BS  .IN                 8.75 : BIT SIZE
BSD .FT                14000 : BIT SIZE AT DEPTH
DFT .             RD 111 OIL : DRILLING FLUID TYPE
DFD .                   11.1 : DRILLING FLUID DENSITY
DFV .                     59 : DRILLING FLUID VISCOSITY
DFPH.                    9.5 : DRILLING FLUID PH
DFL .                    3.7 : DRILLING FLUID LOSS
MSS .             RETURN PIT : MUD SAMPLE SOURCE
RMS .OHMM               0.59 : RESISTIVITY MUD SAMPLE
MST .DEGF                101 : MUD SAMPLE TEMPERATURE
RMF .OHMM               0.62 : RESISTIVITY MUD FILTRATE SAMPLE
MFST.DEGF                 76 : MUD FILTRATE SAMPLE TEMPERATURE
RMC .OHMM               0.75 : RESISTIVITY MUD CAKE
MCST.DEGF                101 : MUD CAKE SAMPLE TEMPERATURE
MFSS.                   MEAS : MUD FILTRATE SAMPLE SOURCE
MCSS.                  CHART : MUD CAKE SAMPLE SOURCE
RMB .OHMM               0.19 : RESISTIVITY MUD AT BHT
TCS .HRS                  24 : TIME CIRCULATED STOPPED
LUN .                   7676 : LOGGING UNIT NUMBER
LUL .                  PLEAS : LOGGING UNIT LOCATION
ENGI.                 POWELL : RECORDING ENGINEER
WITN.                  ADAMS : WITNESSED BY
CLNT.                A2DTECH : CLIENT CODE
ORIG.               1" PRINT : ORIGIN OF DATA
UWI .         42025304380000 : UNIQUE WELL ID
DICO. A2D Technologies, Inc. : DIGITIZING COMPANY
~Other -----------------------------------------------------
~ASCII -----------------------------------------------------
# ...
 7050.00000    3.36310   10.93330   10.91040   10.91040  373.19380  373.19380    0.02030    0.02030    2.50300    -999.25    0.09560    0.08910    2.67960   79.02620   79.02620   79.49630   69.34130   69.34130    2.49510    -999.25    0.24050    0.24050    2.50300   -4.07940  -12.40480    3.36310
 7100.00000    2.58930   11.50300   11.80580   11.80580  413.55260  413.55260    0.00530    0.00530    2.49780    -999.25    0.09760    0.09220    2.41810   85.24340   85.24340   89.81700   70.51690   70.51690    2.47020    -999.25    0.28290    0.28290    2.49780   -1.04480   -9.68970    2.58930
 7150.00000    1.92860   12.69450   12.32820   12.32820  623.31840  623.31840    0.05330    0.05330    2.42800    -999.25    0.13800    0.13450    1.60430   93.85920   93.85920   84.17390   72.97840   72.97840    1.96920    -999.25    0.34370    0.34370    2.42800    4.47760   -4.48690    1.92860
 7200.00000    1.95350   11.67110   12.04450   12.04450  708.52930  708.52930    0.04880    0.04880    2.34480    -999.25    0.17780    0.18500    1.41140   98.72810   98.72810   81.51510   67.61010   67.61010    1.56750    -999.25    0.35540    0.35540    2.34480    4.30610   -4.97800    1.95350
 7250.00000    1.53080   11.52250   11.61190   11.61190  787.24460  787.24460    0.03680    0.03680    2.36880    -999.25    0.16400    0.17040    1.27030   87.38050   87.38050   81.23510   68.27030   68.27030    1.43350    -999.25    0.36690    0.36690    2.36880    6.56720   -3.03650    1.53080
 7300.00000    3.64880   11.23160   11.25290   11.25290  432.48630  432.48630    0.01350    0.01350    2.43770    -999.25    0.13260    0.12870    2.31220   83.71260   83.71260   69.48560   57.52110   57.52110    2.41070    -999.25    0.24280    0.24280    2.43770  -23.73130  -33.52310    3.64880
 7350.00000    3.06850   11.38260   11.49210   11.49210  412.55610  412.55610    0.00370    0.00370    2.49400    -999.25    0.09480    0.09450    2.42390   86.63170   86.63170   85.03860   70.79320   70.79320    2.51490    -999.25    0.28330    0.28330    2.49400    2.68660   -7.01400    3.06850
 7400.00000    5.85320   10.40900   10.75340   10.75340  277.03040  277.03040   -0.00080   -0.00080    2.50370    -999.25    0.07920    0.08870    3.60970   72.03590   72.03590   65.43480   51.93990   51.93990    3.69050    -999.25    0.18600    0.18600    2.50370  -23.19440  -32.80380    5.85320
 7450.00000    3.26980   10.52840   10.55260   10.55260  380.17000  380.17000    0.01800    0.01800    2.44830    -999.25    0.13190    0.12220    2.63040   88.00150   88.00150   79.58840   66.27900   66.27900    2.81250    -999.25    0.29770    0.29770    2.44830   -4.27850  -13.79680    3.26980
 7500.00000    4.36900   10.20500    9.92550    9.92550  363.72560  363.72560    0.03050    0.03050    2.40240    -999.25    0.16470    0.15010    2.74930   84.11210   84.11210   75.66930   71.72680   71.72680    2.88690    -999.25    0.26930    0.26930    2.40240  -25.72130  -35.14840    4.36900
 7550.00000    2.65480   12.17650   12.27370   12.27370  464.88020  464.88020    0.01880    0.01880    2.48220    -999.25    0.10810    0.10170    2.15110   86.17690   86.17690   85.50090   72.54760   72.54760    2.42560    -999.25    0.31480    0.31480    2.48220    6.11940   -3.21650    2.65480
 7600.00000    2.71430   13.07770   12.44970   12.44970  404.58560  404.58560    0.07810    0.07810    2.57720    -999.25    0.04950    0.04410    2.47170   88.20020   88.20020    -999.25   77.63210   77.63210    2.57580    -999.25    0.32110    0.32110    2.57720    5.82090   -3.42270    2.71430
 7650.00000    2.00990   14.22020   12.92590   12.92590  630.29400  630.29400    0.04800    0.04800    2.47080    -999.25    0.10490    0.10860    1.58660   95.47150   95.47150    -999.25   70.52240   70.52240    1.54770    -999.25    -999.25    -999.25    2.47080    4.47760   -4.67330    2.00990
 7700.00000    2.02380    -999.25   12.73170   12.73170  559.05540  559.05540    -999.25    -999.25    -999.25    -999.25    -999.25    -999.25    1.78870   92.92350   92.92350    -999.25   79.70390   79.70390    1.87500    -999.25    -999.25    -999.25    -999.25    6.11940   -2.93880    2.02380
 7750.00000    1.80760    -999.25   12.89800   12.89800  756.34350  756.34350    -999.25    -999.25    -999.25    -999.25    -999.25    -999.25    1.32220  102.74200  102.74200    -999.25   74.41170   74.41170    1.49310    -999.25    -999.25    -999.25    -999.25    8.35820   -0.60730    1.80760
 7800.00000    2.19670    -999.25   12.71700   12.71700  557.33330  557.33330    -999.25    -999.25    -999.25    -999.25    -999.25    -999.25    1.79430   89.32380   89.32380    -999.25   78.37250   78.37250    1.82540    -999.25    -999.25    -999.25    -999.25    6.46100   -2.41180    2.19670
 7850.00000    3.55650    -999.25   12.58300   12.58300  327.34660  327.34660    -999.25    -999.25    -999.25    -999.25    -999.25    -999.25    3.05490   82.12890   82.12890    -999.25   71.87520   71.87520    3.05550    -999.25    -999.25    -999.25    -999.25    5.67170   -3.10840    3.55650
 7900.00000    1.68450    -999.25   12.85140   12.85140  705.53060  705.53060    -999.25    -999.25    -999.25    -999.25    -999.25    -999.25    1.41740  101.01790  101.01790    -999.25   69.16310   69.16310    1.42860    -999.25    -999.25    -999.25    -999.25    6.41790   -2.26950    1.68450
 7950.00000    2.52680   13.10050   12.10370   12.10370  490.77850  490.77850    0.04610    0.04610    2.50830    -999.25    0.08830    0.08590    2.03760   89.69850   89.69850   90.88250   80.38200   80.38200    2.02380    -999.25    0.32240    0.32240    2.50830    7.01490   -1.57970    2.52680
 8000.00000    5.07940   11.36200   10.49340   10.49340  267.06200  267.06200    0.01720    0.01720    2.44120    -999.25    0.12810    0.12650    3.74440   78.37920   78.37920   67.21750   56.87890   56.87890    3.95820    -999.25    0.21000    0.21000    2.44120   -6.71640  -15.21830    5.07940
 8050.00000    2.89190   13.22440   12.37410   12.37410  427.50370  427.50370    0.03510    0.03510    2.53050    -999.25    0.07570    0.07240    2.33920   87.52470   87.52470   91.07470   82.17380   82.17380    2.48510    -999.25    0.29240    0.29240    2.53050    6.86570   -1.54350    2.89190
 8100.00000    3.10510   11.17110   11.31120   11.31120  358.74830  358.74830    0.06070    0.06070    2.51160    -999.25    0.08470    0.08390    2.78750   84.52610   84.52610   85.07820   79.26810   79.26810    2.66870    -999.25    0.32060    0.32060    2.51160    4.92540   -3.39110    3.10510
 8150.00000    3.09230   12.09520   12.17970   12.17970  389.64010  389.64010    0.07410    0.07410    2.49540    -999.25    0.10110    0.09370    2.56650   84.90090   84.90090   90.96470   75.68600   75.68600    2.63390    -999.25    0.29600    0.29600    2.49540    6.56820   -1.65560    3.09230
 8200.00000    1.61320   13.36980   12.59780   12.59780  789.23770  789.23770    0.08080    0.08080    2.21560    -999.25    0.25160    0.26330    1.26700  102.22190  102.22190   78.69340   66.28250   66.28250    1.37790    -999.25    0.44750    0.44750    2.21560    5.64890   -2.48220    1.61320
 8250.00000    3.03870   11.63470   11.41120   11.41120  406.57700  406.57700    0.02170    0.02170    2.54340    -999.25    0.06880    0.06460    2.45960   83.02390   83.02390   89.62340   77.92420   77.92420    2.63390    -999.25    0.29630    0.29630    2.54340    5.52240   -2.51600    3.03870
 8300.00000    2.93450   12.05910   11.77650   11.77650  401.45460  401.45460    0.05910    0.05910    2.51870    -999.25    0.07780    0.07960    2.49090   88.87400   88.87400   84.40630   68.97920   68.97920    2.39080    -999.25    0.30810    0.30810    2.51870    4.12870   -3.81690    2.93450
 8350.00000    2.84420   11.71010   12.19530   12.19530  492.26700  492.26700    0.00820    0.00820    2.45200    -999.25    0.10900    0.12000    2.03140   83.24860   83.24860   73.92850   59.73680   59.73680    2.40580    -999.25    0.25900    0.25900    2.45200    1.34330   -6.50960    2.84420
