~Version ---------------------------------------------------
VERS. 2.0 : CWLS log ASCII Standard -VERSION 2.0
WRAP. YES : MULTIPLE LINES PER DEPTH STEP
~Well ------------------------------------------------------
STRT.FT                 3700.0 : START DEPTH
STOP.FT                11650.0 : STOP DEPTH
STEP.FT               50.00000 : STEP LENGTH
NULL.                  -999.25 : NULL VALUE
COMP.     LA SALLE ENERGY CORP : COMPANY
WELL.                   PAM #1 : WELL
FLD .                  WILDCAT : FIELD
LOC .                          : LOCATION
CNTY.                   GRIMES : COUNTY
STAT.                    TEXAS : STATE
CTRY. UNITED STATES OF AMERICA : COUNTRY
SRVC.             Schlumberger : SERVICE COMPANY
DATE.              15-May-1981 : LOGDATE
API .           42185302670000 : API NUMBER
UWI .           42185302670000 : UNIQUE WELL ID
SLAT.WGS84       30.7678132029 : SURFACE LATITUDE
SLON.WGS84      -95.8888588158 : SURFACE LONGITUDE
~Curve Information -----------------------------------------
DEPT    .FT    : DEPTH FEET
CALWS   .IN    : CALIPER [DCALED+8.75]
CONDWS  .MMHO  : CONDUCTIVITY [1000/DRESWS]
DCALRED .IN    : DIFFERENTIAL CALIPER FROM RES. LOG
DCORWS  .G/C3  : DENSITY CORRECTION [DRHOED]
DENWS   .G/C3  : BULK DENSITY [CALCULATED FROM DPOWS][M=2.65 F=1.0]<9830>[M=2.71 F=1.0]<10130>[M=2.68 F=1.0]<11075>[M=2.71 F=1.0] TO TD
DPHILSED.V/V   : DENSITY POROSITY [M=2.71 F=1.0] FROM DENSITY LOG
DPHISSED.V/V   : DENSITY POROSITY [M=2.65 F=1.0] FROM DENSITY LOG
DPOWS   .V/V   : DENSITY POROSITY SNADSTONE [DPHISSED]<9830>[DPHILSED]<10130>[DPHISSED]<11075>[DPHILSED] TO TD
DRESWS  .OHMM  : DEEP RESISTIVITY [ILDED]
DRHOED  .G/C3  : DENSITY CORRECTION FROM DENSITY LOG
GRRED   .GAPI  : GAMMA RAY FROM RESISTIVITY LOG
GRWS    .GAPI  : GAMMA RAY [GRRED]
ILDED   .OHMM  : INDUCTION LOG DEEP RESISTIVITY
ILMED   .OHMM  : INDUCTION LOG MEDIUM RESISTIVITY
MRESWS  .OHMM  : MEDIUM RESISTIVITY [ILMED]
NPHILSED.V/V   : NEUTRON POROSITY LIMESTONE FROM DENSITY LOG
NPHISSED.V/V   : NEUTRON POROSITY SANDSTONE FROM DENSITY LOG
NPOWS   .V/V   : NEUTRON POROSITY SANDSTONE [NPHISSED]<9830>[NPHILSED]<10130>[NPHISSED]<11075>[NPHILSED] TO TD
SFLUED  .OHMM  : SPHERICALLY FOCUSED LOG RESISTIVITY
SPRED   .MV    : SPONTANEOUS POTENTIAL FROM RESISTIVITY LOG
SPWS    .MV    : SPONTANEOUS POTENTIAL [BASELINE 0 MV] [SPRED]
SRESWS  .OHMM  : SHALLOW RESISTIVITY [SFLUED]
TENRED  .LBF   : TENSION FROM RESISTIVITY LOG
~Params ----------------------------------------------------
PD  .                     GL : PERMANENT DATUM
EPD .FT                  259 : ELEVATION PERMANENT DATUM
LMF .                    TKB : LOG MEASURED FROM
DAPD.FT                   13 : FEET ABOVE PERMANENT DATUM
DMF .                    TKB : DRILLING MEASURED FROM
EKB .FT                  272 : KELLY BUSHING
EDF .FT                  271 : DRILLING FLOOR
EGL .FT                  259 : GROUND LEVEL
DATE.               05/15/81 : RUN DATE
RUN .                      1 : RUN NUMBER
DD  .FT                11590 : DEPTH DRILLER
DL  .FT                11619 : DEPTH LOGGER
BLI .FT                11616 : BOTTOM LOG INTERVAL
TLI .FT                 3730 : TOP LOG INTERVAL
CS  .IN                9.625 : CASING SIZE
CBD .FT                 3819 : CASING BOTTOM DRILLER
CBL .FT                 3730 : CASING BOTTOM LOGGER
BS  .IN                 8.75 : BIT SIZE
BSD .FT                11590 : BIT SIZE AT DEPTH
DFT .                  GELEX : DRILLING FLUID TYPE
DFD .                    9.6 : DRILLING FLUID DENSITY
DFV .                     44 : DRILLING FLUID VISCOSITY
DFPH.                      9 : DRILLING FLUID PH
DFL .                    6.6 : DRILLING FLUID LOSS
MSS .               CIRC PIT : MUD SAMPLE SOURCE
RMS .OHMM                1.7 : RESISTIVITY MUD SAMPLE
MST .DEGF                 75 : MUD SAMPLE TEMPERATURE
RMF .OHMM               1.38 : RESISTIVITY MUD FILTRATE SAMPLE
MFST.DEGF                 75 : MUD FILTRATE SAMPLE TEMPERATURE
RMC .OHMM               2.04 : RESISTIVITY MUD CAKE
MCST.DEGF                 75 : MUD CAKE SAMPLE TEMPERATURE
MFSS.                      M : MUD FILTRATE SAMPLE SOURCE
MCSS.                      C : MUD CAKE SAMPLE SOURCE
RMB .OHMM              0.557 : RESISTIVITY MUD AT BHT
TCS .HRS                1300 : TIME CIRCULATED STOPPED
TLAB.HRS                2300 : TIME LOGGER AT BOTTOM
LUN .                   8066 : LOGGING UNIT NUMBER
LUL .                 DAYTON : LOGGING UNIT LOCATION
ENGI.               HARRISON : RECORDING ENGINEER
WITN.                  DUKES : WITNESSED BY
CLNT.                A2DTECH : CLIENT CODE
ORIG.            2" 5" PRINT : ORIGIN OF DATA
UWI .         42185302670000 : UNIQUE WELL ID
DICO. A2D Technologies, Inc. : DIGITIZING COMPANY
~Other -----------------------------------------------------
~ASCII -----------------------------------------------------
# ...
 8350.00000   12.45280  387.67200    3.70280    0.00870    2.61160    -999.25    0.02330    0.02330    2.57950    0.00870   93.22430   93.22430    2.57950    2.70070    2.70070    -999.25    0.24790    0.24790    3.32000  -15.81670   -8.35060    3.32000 4157.12010
 8400.00000   13.02850  406.20680    4.27850    0.06050    2.57310    -999.25    0.04660    0.04660    2.46180    0.06050   89.06620   89.06620    2.46180    2.53950    2.53950    -999.25    0.25520    0.25520    2.94750  -13.70430   -5.92510    2.94750 4124.05520
 8450.00000   13.30770  392.43390    4.55770    0.06520    2.59720    -999.25    0.03200    0.03200    2.54820    0.06520   91.52170   91.52170    2.54820    2.70190    2.70190    -999.25    0.25340    0.25340    3.11450  -10.14030   -2.13050    3.11450 4082.18920
 8500.00000   12.79190  375.47400    4.04190    0.04260    2.61400    -999.25    0.02180    0.02180    2.66330    0.04260   95.82670   95.82670    2.66330    2.80680    2.80680    -999.25    0.24490    0.24490    3.14840  -10.71320   -2.62610    3.14840 4150.46830
 8550.00000   11.33990  399.37700    2.58990    0.10320    2.61470    -999.25    0.02140    0.02140    2.50390    0.10320  104.52270  104.52270    2.50390    2.60870    2.60870    -999.25    0.26070    0.26070    3.07530   -9.85800   -1.69360    3.07530 4181.85690
 8600.00000   12.32820  349.05230    3.57820    0.02460    2.62840    -999.25    0.01310    0.01310    2.86490    0.02460   95.99590   95.99590    2.86490    3.01990    3.01990    -999.25    0.24150    0.24150    3.52450  -11.51390   -3.27210    3.52450 4282.31050
 8650.00000   16.47340  336.51900    7.72340    0.09800    2.63050    -999.25    0.01180    0.01180    2.97160    0.09800   92.75300   92.75300    2.97160    3.11300    3.11300    -999.25    0.23850    0.23850    3.22810  -13.81450   -5.49540    3.22810 4206.72750
 8700.00000   15.05360  377.18770    6.30360    0.07800    2.58680    -999.25    0.03830    0.03830    2.65120    0.07800   94.26610   94.26610    2.65120    2.73570    2.73570    -999.25    0.26080    0.26080    3.08970  -15.94470   -7.54830    3.08970 4188.57810
 8750.00000   13.51600  400.41640    4.76600    0.09790    2.61400    -999.25    0.02180    0.02180    2.49740    0.09790   97.46760   97.46760    2.49740    2.57860    2.57860    -999.25    0.25790    0.25790    3.27220  -13.22420   -4.75040    3.27220 4229.78370
 8800.00000   14.08660  366.21980    5.33660    0.06120    2.64060    -999.25    0.00570    0.00570    2.73060    0.06120   98.38560   98.38560    2.73060    2.81940    2.81940    -999.25    0.25450    0.25450    2.96950  -14.87670   -6.32560    2.96950 4262.91210
 8850.00000   16.86610  429.83020    8.11610    0.07320    2.54770    -999.25    0.06200    0.06200    2.32650    0.07320   96.37900   96.37900    2.32650    2.27460    2.27460    -999.25    0.24020    0.24020    2.69110  -12.30810   -3.67970    2.69110 4247.31690
 8900.00000   18.88970  523.83450   10.13970    0.05600    2.49520    -999.25    0.09380    0.09380    1.90900    0.05600   89.63040   89.63040    1.90900    1.97440    1.97440    -999.25    0.26370    0.26370    2.02830  -12.46210   -3.75640    2.02830 4268.63330
 8950.00000   18.38600  542.59360    9.63600    0.07730    2.49610    -999.25    0.09330    0.09330    1.84300    0.07730   96.51210   96.51210    1.84300    1.91540    1.91540    -999.25    0.25960    0.25960    2.15550  -11.17790   -2.39480    2.15550 4317.74020
 9000.00000   18.68900  520.77910    9.93900    0.02770    2.50640    -999.25    0.08700    0.08700    1.92020    0.02770   91.15740   91.15740    1.92020    1.98130    1.98130    -999.25    0.25410    0.25410    2.22900  -11.52970   -2.66930    2.22900 4307.19580
 9050.00000   17.55070  640.61500    8.80070    0.10010    2.49420    -999.25    0.09440    0.09440    1.56100    0.10010   84.46930   84.46930    1.56100    1.63470    1.63470    -999.25    0.28110    0.28110    1.92260  -12.39320   -3.45550    1.92260 4330.88720
 9100.00000   15.37330  507.82040    6.62330    0.09930    2.52820    -999.25    0.07380    0.07380    1.96920    0.09930   89.87570   89.87570    1.96920    2.06550    2.06550    -999.25    0.24270    0.24270    2.44750  -11.72630   -2.71120    2.44750 4364.69430
 9150.00000   11.85410  177.18240    3.10410    0.00150    2.65410    -999.25   -0.00250   -0.00250    5.64390    0.00150   44.51470   44.51470    5.64390    5.92850    5.92850    -999.25    0.10460    0.10460    7.83620  -16.83260   -7.74020    7.83620 4366.04390
 9200.00000   11.06910  211.49250    2.31910    0.03280    2.67480    -999.25   -0.01500   -0.01500    4.72830    0.03280   68.43800   68.43800    4.72830    4.96800    4.96800    -999.25    0.13390    0.13390    5.22330  -13.38630   -4.21660    5.22330 4437.28120
 9250.00000    9.87540  200.86770    1.12540    0.00090    2.65810    -999.25   -0.00490   -0.00490    4.97840    0.00090   55.16780   55.16780    4.97840    5.41790    5.41790    -999.25    0.18910    0.18910    7.16830    -999.25    -999.25    7.16830 4576.72170
 9300.00000   10.41420  209.72720    1.66420    0.00490    2.68760    -999.25   -0.02280   -0.02280    4.76810    0.00490   53.39420   53.39420    4.76810    5.09800    5.09800    -999.25    0.18290    0.18290    6.85960  -11.92790   -2.60350    6.85960 4629.02730
 9350.00000   10.35340  216.41270    1.60340    0.00220    2.68150    -999.25   -0.01910   -0.01910    4.62080    0.00220   50.90000   50.90000    4.62080    4.92240    4.92240    -999.25    0.16850    0.16850    6.80860  -13.81200   -4.41030    6.80860 4660.22070
 9400.00000   10.62170  248.43490    1.87170   -0.00340    2.65330    -999.25   -0.00200   -0.00200    4.02520   -0.00340   62.44500   62.44500    4.02520    4.22200    4.22200    -999.25    0.20790    0.20790    5.69120  -12.81590   -3.33680    5.69120 4725.44580
 9450.00000   10.83350  249.96870    2.08350    0.03080    2.63140    -999.25    0.01130    0.01130    4.00050    0.03080   62.94940   62.94940    4.00050    4.40040    4.40040    -999.25    0.24960    0.24960    5.87650  -11.89430   -2.33790    5.87650 4669.82470
 9500.00000   11.39010  244.48080    2.64010    0.09460    2.62210    -999.25    0.01690    0.01690    4.09030    0.09460   78.81670   78.81670    4.09030    4.32040    4.32040    -999.25    0.27510    0.27510    6.10440  -12.69900   -3.06530    6.10440 4712.60690
 9550.00000   11.17860  229.45780    2.42860    0.05710    2.57640    -999.25    0.04460    0.04460    4.35810    0.05710   65.95110   65.95110    4.35810    4.70590    4.70590    -999.25    0.24920    0.24920    6.31170  -11.03940   -1.32840    6.31170 4735.16310
 9600.00000   12.34320  277.72380    3.59320    0.10170    2.50740    -999.25    0.08640    0.08640    3.60070    0.10170   76.43060   76.43060    3.60070    3.80930    3.80930    -999.25    0.29920    0.29920    4.91560  -13.76090   -4.09600    4.91560 4758.38180
 9650.00000   12.38410  254.10380    3.63410    0.09590    2.43500    -999.25    0.13030    0.13030    3.93540    0.09590   86.99020   86.99020    3.93540    4.21720    4.21720    -999.25    0.27250    0.27250    5.45630  -14.97220   -5.35470    5.45630 4748.70800
 9700.00000   13.16090  282.09540    4.41090    -999.25    2.30150    -999.25    0.21120    0.21120    3.54490    -999.25   76.07790   76.07790    3.54490    3.76250    3.76250    -999.25    0.33880    0.33880    4.50940  -17.16470   -7.59460    4.50940 4765.05710
 9750.00000   13.27560  333.07800    4.52560    -999.25    2.24870    -999.25    0.24320    0.24320    3.00230    -999.25   79.17230   79.17230    3.00230    3.15440    3.15440    -999.25    0.36480    0.36480    3.65280  -17.55780   -8.03510    3.65280 4759.75050
 9800.00000   13.80630  348.93050    5.05630    -999.25    2.47670    -999.25    0.10500    0.10500    2.86590    -999.25   91.03620   91.03620    2.86590    3.01570    3.01570    -999.25    0.30170    0.30170    3.22940  -21.52360  -12.04830    3.22940 4822.71190
 9850.00000   10.57360  178.79810    1.82360    0.04630    2.64040    0.04070    -999.25    0.04070    5.59290    0.04630   66.57510   66.57510    5.59290    5.90020    5.90020    0.16980    -999.25    0.16980    7.73880  -21.63550  -12.20760    7.73880 4827.16750
