~Version ---------------------------------------------------
VERS. 2.0 : CWLS log ASCII Standard -VERSION 2.0
WRAP.  NO : ONE LINE PER DEPTH STEP
~Well ------------------------------------------------------
STRT.F                          550.0 : START DEPTH
STOP.F                         6700.0 : STOP DEPTH
STEP.F                       50.00000 : STEP LENGTH
NULL.                         -999.25 : NULL VALUE
COMP. TIPPERARY OIL & GAS CORPORATION : COMPANY
WELL.                        REESE #1 : WELL
FLD .                         WILDCAT : FIELD
LOC .                                 : LOCATION
CNTY.                        GONZALES : COUNTY
STAT.                           TEXAS : STATE
CTRY.        UNITED STATES OF AMERICA : COUNTRY
SRVC.                        Gearhart : SERVICE COMPANY
DATE.                     06-Mar-1981 : LOGDATE
API .                  42177308340000 : API NUMBER
UWI .                  42177308340000 : UNIQUE WELL ID
SLAT.WGS84              29.5724543994 : SURFACE LATITUDE
SLON.WGS84             -97.4453806133 : SURFACE LONGITUDE
~Curve Information -----------------------------------------
DEPT.F                 : 
GRR .GAPI 05 310 01 00 : GAMMA RAY FROM RESISTIVITY LOG
ILD .OHMM 05 120 46 00 : INDUCTION LOG DEEP
ASN .OHMM 05 041 00 00 : AMPLIFIED SHORT NORMAL RESISTIVITY
SPR .MV   05 010 01 00 : SPONTANEOUS POTENTIAL FROM RESISTIVITY LOG
GRN .GAPI 35 310 01 00 : GAMMA RAY FROM GRN LOG
NEUT.NAPI 35 330 01 00 : NEUTRON
DT  .US/F 81 500 00 00 : DELTA-T (INTERVAL TRANSIT TIME)
CILD.MMHO 05 110 46 00 : INDUCTION DEEP CONDUCTIVITY
~Params ----------------------------------------------------
PD  .                     GL : PERMANENT DATUM
EPD .FT                  405 : ELEVATION PERMANENT DATUM
LMF .                    TKB : LOG MEASURED FROM
DAPD.FT                   12 : FEET ABOVE PERMANENT DATUM
DMF .                    TKB : DRILLING MEASURED FROM
EKB .FT                  417 : KELLY BUSHING
EDF .FT                  416 : DRILLING FLOOR
EGL .FT                  405 : GROUND LEVEL
DATE.               03/06/81 : RUN DATE
RUN .                      1 : RUN NUMBER
DD  .FT                 6725 : DEPTH DRILLER
DL  .FT                 6711 : DEPTH LOGGER
BLI .FT                 6710 : BOTTOM LOG INTERVAL
TLI .FT                  578 : TOP LOG INTERVAL
CS  .IN                8.625 : CASING SIZE
CBD .FT                  577 : CASING BOTTOM DRILLER
CBL .FT                  578 : CASING BOTTOM LOGGER
BS  .IN                7.875 : BIT SIZE
BSD .FT                 6725 : BIT SIZE AT DEPTH
DFT .                GEL LIG : DRILLING FLUID TYPE
DFD .                    9.6 : DRILLING FLUID DENSITY
DFV .                     58 : DRILLING FLUID VISCOSITY
DFPH.                     10 : DRILLING FLUID PH
DFL .                    6.8 : DRILLING FLUID LOSS
MSS .               FLOWLINE : MUD SAMPLE SOURCE
RMS .OHMM               2.54 : RESISTIVITY MUD SAMPLE
MST .DEGF                 75 : MUD SAMPLE TEMPERATURE
RMF .OHMM               2.51 : RESISTIVITY MUD FILTRATE SAMPLE
MFST.DEGF                 75 : MUD FILTRATE SAMPLE TEMPERATURE
RMC .OHMM                2.8 : RESISTIVITY MUD CAKE
MCST.DEGF                 75 : MUD CAKE SAMPLE TEMPERATURE
MFSS.                      M : MUD FILTRATE SAMPLE SOURCE
MCSS.                      M : MUD CAKE SAMPLE SOURCE
RMB .OHMM               1.13 : RESISTIVITY MUD AT BHT
TCS .HRS                2000 : TIME CIRCULATED STOPPED
TLAB.HRS                  30 : TIME LOGGER AT BOTTOM
LUN .                   7561 : LOGGING UNIT NUMBER
LUL .                   VICT : LOGGING UNIT LOCATION
WITN.          CLUTTER MOORE : WITNESSED BY
CLNT.                A2DTECH : CLIENT CODE
ORIG.               1" PRINT : ORIGIN OF DATA
UWI .         42177308340000 : UNIQUE WELL ID
DICO. A2D Technologies, Inc. : DIGITIZING COMPANY
~Other -----------------------------------------------------
~ASCII -----------------------------------------------------
# ...
 4550.00000   83.39690    1.49710    1.36970  -22.34360    -999.25    -999.25    -999.25  667.97060
 4600.00000   84.15630    2.31460    2.24210  -20.93500    -999.25    -999.25    -999.25  432.04980
 4650.00000   82.23460    2.09660    2.22150  -22.01990    -999.25    -999.25    -999.25  476.96850
 4700.00000   59.02140    1.53370    2.29140  -34.92090    -999.25    -999.25    -999.25  652.04590
 4750.00000   59.95650    2.36430    2.54340  -28.66240    -999.25    -999.25    -999.25  422.95940
 4800.00000   80.13380    1.86510    2.04790  -25.05590    -999.25    -999.25    -999.25  536.16750
 4850.00000   80.14060    1.59400    1.74930  -22.84770    -999.25    -999.25    -999.25  627.34870
 4900.00000   77.89080    1.44360    1.50470  -21.59570    -999.25    -999.25    -999.25  692.72490
 4950.00000   87.15130    1.11540    1.28460  -21.16530    -999.25    -999.25    -999.25  896.51890
 5000.00000   83.44610    1.07440    1.19080  -24.60980    -999.25    -999.25    -999.25  930.77800
 5050.00000   74.07840    1.58040    1.64220  -27.86350    -999.25    -999.25    -999.25  632.76660
 5100.00000   83.30510    1.40190    1.49000  -27.16620    -999.25    -999.25    -999.25  713.29340
 5150.00000   78.09860    1.49730    1.58200  -25.65460    -999.25    -999.25    -999.25  667.87000
 5200.00000   73.95970    1.53670    1.70570  -24.81370    -999.25    -999.25    -999.25  650.73720
 5250.00000   64.59600    2.64710    2.76170  -22.50900    -999.25    -999.25    -999.25  377.77330
 5300.00000   89.03530    1.47660    1.60920  -25.32900    -999.25    -999.25    -999.25  677.05050
 5350.00000  100.52080    1.00940    1.10420  -22.07900    -999.25    -999.25    -999.25  990.69430
 5400.00000   80.77460    1.23350    1.27890  -20.58680    -999.25    -999.25    -999.25  810.70840
 5450.00000   87.35470    1.13790    1.15100  -18.70720    -999.25    -999.25    -999.25  878.82680
 5500.00000   89.56620    0.68620    0.79120  -18.35850    -999.25    -999.25    -999.25 1457.37000
 5550.00000   85.76960    0.99150    0.97140  -21.62550    -999.25    -999.25    -999.25 1008.50290
 5600.00000   81.66880    0.93060    0.97870  -18.21470    -999.25    -999.25    -999.25 1074.54880
 5650.00000   84.46730    1.09190    1.15140  -18.94350    -999.25    -999.25    -999.25  915.86770
 5700.00000   80.71180    0.91470    0.94710  -29.78060    -999.25    -999.25    -999.25 1093.26290
 5750.00000   89.10450    1.10250    1.15380  -30.24360    -999.25    -999.25    -999.25  907.11180
 5800.00000   89.01450    1.14590    1.22410  -34.07680    -999.25    -999.25  104.35800  872.68400
 5850.00000   88.71580    1.90990    2.01110  -23.23490    -999.25    -999.25   88.69010  523.59750
 5900.00000   81.33500    1.98800    2.09600  -22.72330    -999.25    -999.25   91.04800  503.00830
 5950.00000   83.24240    1.30640    1.49130  -32.70850    -999.25    -999.25   99.87880  765.44080
 6000.00000   84.54380    1.33380    1.54250  -30.93990    6.95130  114.99720   98.77130  749.73780
 6050.00000   67.99060    2.81660    3.34020  -23.38830    9.09790  148.63420   82.82860  355.03180
 6100.00000   43.10050    4.46700    5.21030  -24.43560   12.55970  413.52820   73.18490  223.86220
 6150.00000   47.77360    5.42180    6.56990  -24.08260   10.06200  560.19860   66.99790  176.26190
 6200.00000   29.11940    6.98770   10.07640  -27.42970    5.63410  773.52470   58.45450  143.10960
 6250.00000   42.80350    3.90730    7.50190  -30.36350   13.30170  572.11100   79.72060  255.93000
 6300.00000   29.65390    4.82250   12.96690  -42.88120    7.73790  714.41470   53.94610  204.75740
 6350.00000   26.12130    9.31380   10.49220  -66.89940    7.06850  603.85360   58.83840  100.26500
 6400.00000   41.08510    5.53870    7.62450  -37.24500   12.43560  405.88860   73.23440  155.67440
 6450.00000   37.62260    6.16730    6.73980  -41.41200    4.66160  641.78440   67.89160  162.14750
 6500.00000   24.54530    7.52710    9.07880  -40.59590    7.67790  599.91250   62.92670  127.27630
 6550.00000   78.07700   15.14810   29.14460  -23.85700   18.53010  200.12350   85.80440   57.50860
 6600.00000   15.84420   19.56870   24.60230  -51.53900    4.39830  824.26950   54.53720   45.87370
 6650.00000   36.70860    8.66620   12.01990  -30.27860    7.85940  358.43440   61.97430  113.41690
 6700.00000    -999.25   22.06440   24.58560  -78.19130    4.37100  624.95170    -999.25   45.32220
