~Version ---------------------------------------------------
VERS. 2.0 : CWLS log ASCII Standard -VERSION 2.0
WRAP.  NO : ONE LINE PER DEPTH STEP
~Well ------------------------------------------------------
STRT.F                    3400.0 : START DEPTH
STOP.F                    8650.0 : STOP DEPTH
STEP.F                  50.00000 : STEP LENGTH
NULL.                    -999.25 : NULL VALUE
COMP. CHAMPLIN PETROLEUM COMPANY : COMPANY
WELL.              E M DANSBY #2 : WELL
FLD .             BRYAN WOODBINE : FIELD
LOC .                            : LOCATION
CNTY.                     BRAZOS : COUNTY
STAT.                      TEXAS : STATE
CTRY.   UNITED STATES OF AMERICA : COUNTRY
SRVC.              Dresser Atlas : SERVICE COMPANY
DATE.                14-Jan-1983 : LOGDATE
API .             42041308650000 : API NUMBER
UWI .             42041308650000 : UNIQUE WELL ID
SLAT.WGS84         30.6976768619 : SURFACE LATITUDE
SLON.WGS84        -96.3909915206 : SURFACE LONGITUDE
~Curve Information -----------------------------------------
DEPT   .F    0   1   0  0 : 1 MEASURED DEPTH
GRR    .GAPI 07 310 01 00 : GAMMA RAY FROM RESISTIVITY LOG
SPR    .MV   07 010 01 00 : SPONTANEOUS POTENTIAL FROM RESISTIVITY LOG
RFOC   .OHMM 07 220 01 00 : SHALLOW FOCUSED LOG RESISTIVITY
RILD   .OHMM 07 120 46 00 : INDUCTION DEEP RESISTIVITY
RILM   .OHMM 07 120 44 00 : INDUCTION MEDIUM RESISTIVITY
CALR   .IN   07 280 01 00 : CALIPER FROM RESISTIVITY LOG
PORD_SS.DEC  45 890 12 00 : DENSITY POROSITY [SANDSTONE]
CN_SS  .DEC  42 890 03 00 : COMPENSATED NEUTRON POROSITY SANDSTONE
CORR   .G/C3 45 356 01 00 : DENSITY CORRECTION
DEN    .G/C3 45 350 01 00 : COMPENSATED BULK DENSITY
~Params ----------------------------------------------------
PD  .                     GL : PERMANENT DATUM
EPD .FT                  318 : ELEVATION PERMANENT DATUM
LMF .                     KB : LOG MEASURED FROM
DAPD.FT                   16 : FEET ABOVE PERMANENT DATUM
DMF .                     KB : DRILLING MEASURED FROM
EKB .FT                  334 : KELLY BUSHING
EDF .FT                  333 : DRILLING FLOOR
EGL .FT                  318 : GROUND LEVEL
DATE.               01/14/83 : RUN DATE
RUN .                      1 : RUN NUMBER
DD  .FT                 8717 : DEPTH DRILLER
DL  .FT                 8665 : DEPTH LOGGER
BLI .FT                 8663 : BOTTOM LOG INTERVAL
TLI .FT                 3424 : TOP LOG INTERVAL
CS  .IN                9.625 : CASING SIZE
CBD .FT                 3420 : CASING BOTTOM DRILLER
CBL .FT                 3424 : CASING BOTTOM LOGGER
BS  .IN                 8.75 : BIT SIZE
BSD .FT                 8717 : BIT SIZE AT DEPTH
DFT .                  BENEX : DRILLING FLUID TYPE
DFD .                    9.2 : DRILLING FLUID DENSITY
DFV .                     36 : DRILLING FLUID VISCOSITY
DFPH.                     10 : DRILLING FLUID PH
DFL .                      9 : DRILLING FLUID LOSS
MSS .                   TANK : MUD SAMPLE SOURCE
RMS .OHMM               3.16 : RESISTIVITY MUD SAMPLE
MST .DEGF                 75 : MUD SAMPLE TEMPERATURE
RMF .OHMM               2.46 : RESISTIVITY MUD FILTRATE SAMPLE
MFST.DEGF                 75 : MUD FILTRATE SAMPLE TEMPERATURE
RMC .OHMM               4.01 : RESISTIVITY MUD CAKE
MCST.DEGF                 75 : MUD CAKE SAMPLE TEMPERATURE
MFSS.                   CALC : MUD FILTRATE SAMPLE SOURCE
MCSS.                   CALC : MUD CAKE SAMPLE SOURCE
RMB .OHMM               1.31 : RESISTIVITY MUD AT BHT
TCS .HRS                   7 : TIME CIRCULATED STOPPED
LUN .                   6309 : LOGGING UNIT NUMBER
LUL .                  BRYAN : LOGGING UNIT LOCATION
ENGI.                   KIRK : RECORDING ENGINEER
WITN.                  VODAK : WITNESSED BY
CLNT.                A2DTECH : CLIENT CODE
ORIG.            2" 5" PRINT : ORIGIN OF DATA
UWI .         42041308650000 : UNIQUE WELL ID
DICO. A2D Technologies, Inc. : DIGITIZING COMPANY
~Other -----------------------------------------------------
~ASCII -----------------------------------------------------
 3400.00000   48.63140    -999.25    -999.25    -999.25    -999.25    -999.25    -999.25    -999.25    -999.25    -999.25
 3450.00000   84.26330  -27.64140    5.86620    6.69950    7.04520   10.72780    -999.25    -999.25    -999.25    -999.25
 3500.00000   33.33400  -18.32390   29.02270   11.26770   12.93200   11.66000    -999.25    -999.25    -999.25    -999.25
 3550.00000   88.15540  -16.19740    4.77320    5.18960    5.44830   11.37120    -999.25    -999.25    -999.25    -999.25
 3600.00000   88.01820  -19.28570    4.78440    4.30190    4.61790   10.38910    -999.25    -999.25    -999.25    -999.25
 3650.00000   45.08230   -8.29720    9.23810    6.51550    8.91650   12.07500    -999.25    -999.25    -999.25    -999.25
 3700.00000   61.78010  -63.40750   10.22800    4.16910    6.24960    8.83920    -999.25    -999.25    -999.25    -999.25
 3750.00000   48.34230  -61.44570    9.17610    3.52660    4.79510    9.29930    -999.25    -999.25    -999.25    -999.25
 3800.00000   49.06960  -66.64550   10.28000    3.32130    4.81330    9.71670    -999.25    -999.25    -999.25    -999.25
 3850.00000   69.64410  -49.06250    7.19430    4.23980    5.69000    9.73060    -999.25    -999.25    -999.25    -999.25
 3900.00000   82.56570  -35.68990    6.16950    4.26850    5.34140    9.55950    -999.25    -999.25    -999.25    -999.25
 3950.00000   70.89060  -25.14840    3.80340    3.19690    3.60490   11.98910    -999.25    -999.25    -999.25    -999.25
 4000.00000   89.63990  -28.08660    4.46600    3.77940    4.62090    9.92230    -999.25    -999.25    -999.25    -999.25
 4050.00000   79.63950  -38.59690    6.13590    3.52010    4.95860    9.25890    -999.25    -999.25    -999.25    -999.25
 4100.00000   81.01790  -43.48090    5.62340    3.23300    4.58600    9.95830    -999.25    -999.25    -999.25    -999.25
 4150.00000   87.74980  -35.42130    4.19770    2.57710    3.29130    9.17120    -999.25    -999.25    -999.25    -999.25
 4200.00000   81.52720  -22.99450    3.74970    2.64390    2.87980   10.25220    -999.25    -999.25    -999.25    -999.25
 4250.00000   89.98920  -11.48130    2.83580    2.59150    2.63660    9.71760    -999.25    -999.25    -999.25    -999.25
 4300.00000   88.14110   -6.93270    2.29720    2.11700    2.23460    9.66650    -999.25    -999.25    -999.25    -999.25
 4350.00000   85.98850   -8.13480    2.29340    1.98870    2.02620   10.23520    -999.25    -999.25    -999.25    -999.25
 4400.00000   83.35570   -6.59450    2.13730    1.88040    1.91510   10.28040    -999.25    -999.25    -999.25    -999.25
 4450.00000   82.50240   -7.05820    2.42390    2.01650    2.05670    9.86930    -999.25    -999.25    -999.25    -999.25
 4500.00000   91.62520   -7.66910    2.32170    2.04540    2.08320    9.49300    -999.25    -999.25    -999.25    -999.25
 4550.00000   88.86910   -6.51150    2.24580    2.11520    2.15400    9.93280    -999.25    -999.25    -999.25    -999.25
 4600.00000   81.58390   -8.12870    2.48780    2.41030    2.45570    9.80220    -999.25    -999.25    -999.25    -999.25
 4650.00000   91.10870   -7.16210    2.19810    1.90720    1.94220   10.50220    -999.25    -999.25    -999.25    -999.25
 4700.00000   89.26190   -8.19930    1.85450    1.54590    1.57420   10.23350    -999.25    -999.25    -999.25    -999.25
 4750.00000   86.75340   -6.56430    1.86970    1.57840    1.60930   10.29480    -999.25    -999.25    -999.25    -999.25
 4800.00000   85.52470   -9.26460    1.67090    1.28250    1.31390   10.53490    -999.25    -999.25    -999.25    -999.25
 4850.00000   91.76360   -6.02560    1.66950    1.26580    1.28910   11.32630    -999.25    -999.25    -999.25    -999.25
 4900.00000  105.30050   -6.09220    2.10200    1.89220    1.92860   10.15410    -999.25    -999.25    -999.25    -999.25
 4950.00000   97.75180   -8.83460    2.06970    1.77920    1.81830   10.02830    -999.25    -999.25    -999.25    -999.25
 5000.00000   97.57470   -4.84500    1.67690    1.27540    1.29960   10.34310    -999.25    -999.25    -999.25    -999.25
 5050.00000   81.68030   -5.06470    1.57870    1.01950    1.03920    9.86660    -999.25    -999.25    -999.25    -999.25
 5100.00000   75.73260   -3.62790    1.53270    1.14650    1.16750   10.20470    -999.25    -999.25    -999.25    -999.25
 5150.00000   79.46910   -0.51740    1.33640    0.85740    0.87310   10.60690    -999.25    -999.25    -999.25    -999.25
 5200.00000   79.06360   -2.04410    1.29880    0.79950    0.81430   11.01070    -999.25    -999.25    -999.25    -999.25
 5250.00000   78.84840   -3.56200    1.41420    0.94030    0.98960   10.51450    -999.25    -999.25    -999.25    -999.25
 5300.00000   83.35060   -5.03000    2.14380    1.98150    2.01960    9.67890    -999.25    -999.25    -999.25    -999.25
 5350.00000   77.50270   -7.43240    1.79720    1.45110    1.47780    9.61210    -999.25    -999.25    -999.25    -999.25
 5400.00000   82.35700   -9.76090    1.62120    1.24490    1.26980   10.71390    -999.25    -999.25    -999.25    -999.25
 5450.00000   79.25660   -9.73560    1.47540    0.92240    0.95850   11.21050    -999.25    -999.25    -999.25    -999.25
 5500.00000   81.32540  -10.48980    1.41900    0.95360    0.97120   11.29330    -999.25    -999.25    -999.25    -999.25
 5550.00000   80.51310   -9.42620    1.41020    0.92100    0.96060   11.19910    -999.25    -999.25    -999.25    -999.25
 5600.00000   82.46700   -7.72920    1.47580    1.02970    1.04910   11.18750    -999.25    -999.25    -999.25    -999.25
 5650.00000   85.80240   -7.17110    1.41460    0.92170    0.94000   11.85300    -999.25    -999.25    -999.25    -999.25
 5700.00000   81.10310   -9.73730    1.74890    1.37170    1.41730   11.43330    -999.25    -999.25    -999.25    -999.25
 5750.00000   86.42590   -6.71650    1.88850    1.50450    1.54930   10.02330    -999.25    -999.25    -999.25    -999.25
 5800.00000   76.15480   -9.51240    1.93600    1.64090    1.67280    9.86700    -999.25    -999.25    -999.25    -999.25
 5850.00000   72.15440   -6.56560    2.04690    1.63470    1.66470    9.05920    -999.25    -999.25    -999.25    -999.25
 5900.00000   75.45240   -5.16510    2.45750    2.22630    2.31690    9.05690    -999.25    -999.25    -999.25    -999.25
 5950.00000   99.16820   -6.79160    1.25090    0.79920    0.83800    9.35540    -999.25    -999.25    -999.25    -999.25
 6000.00000   91.24400   -5.33920    1.37350    1.05000    1.06740   11.20480    -999.25    -999.25    -999.25    -999.25
 6050.00000   81.49270   -7.39840    1.50810    1.26470    1.28810   11.17330    -999.25    -999.25    -999.25    -999.25
 6100.00000   83.24520   -6.93190    1.46300    1.11140    1.13180   11.40700    -999.25    -999.25    -999.25    -999.25
 6150.00000   85.61200   -6.55930    1.38670    0.97340    0.99130   12.09280    -999.25    -999.25    -999.25    -999.25
 6200.00000   92.96160   -6.68100    1.37000    0.95720    0.99530   11.30780    -999.25    -999.25    -999.25    -999.25
 6250.00000   91.99200   -6.98400    1.37080    0.90810    0.95350   11.74420    -999.25    -999.25    -999.25    -999.25
 6300.00000   99.92260   -5.53900    1.71970    1.39950    1.44540   11.15570    -999.25    -999.25    -999.25    -999.25
 6350.00000   96.08240   -6.79330    1.69590    1.34260    1.38480   11.19760    -999.25    -999.25    -999.25    -999.25
 6400.00000  100.22470   -5.16990    1.76970    1.37680    1.41790   11.14140    -999.25    -999.25    -999.25    -999.25
 6450.00000   81.49310   -6.41940    1.84530    1.45270    1.49370   10.91760    -999.25    -999.25    -999.25    -999.25
 6500.00000   92.12160   -6.86460    1.85350    1.47500    1.51770   10.76850    -999.25    -999.25    -999.25    -999.25
 6550.00000  113.07010   -9.41240    1.61440    1.30580    1.34850   11.88290    -999.25    -999.25    -999.25    -999.25
 6600.00000   91.52640   -6.90450    1.89240    1.55620    1.60290   11.87590    -999.25    -999.25    -999.25    -999.25
 6650.00000   82.07200   -3.93720    1.64950    1.19140    1.22480   12.07470    -999.25    -999.25    -999.25    -999.25
