~Version ---------------------------------------------------
VERS.      2.0 : CWLS log ASCII Standard -VERSION 2.0
WRAP.      YES : Multiple lines per depth step
CREA. 08/18/12 : LAS Creation Date
~Well ------------------------------------------------------
STRT.FT                 2900.0 : START DEPTH
STOP.FT                17850.0 : STOP DEPTH
STEP.FT               50.00000 : STEP LENGTH
NULL.                  -999.25 : NULL VALUE
COMP. AMOCO PRODUCTION COMPANY : COMPANY
WELL.   JIMMY HILL GAS UNIT #1 : WELL
FLD .                  WILDCAT : FIELD
LOC .                          : LOCATION
CNTY.                     LEON : COUNTY
STAT.                    TEXAS : STATE
CTRY. UNITED STATES OF AMERICA : COUNTRY
SRVC.             Schlumberger : SERVICE COMPANY
DATE.              04-Jun-1996 : LOGDATE
API .           42289312310000 : API NUMBER
UWI .           42289312310000 : UNIQUE WELL ID
SLAT.WGS84       31.2538599246 : SURFACE LATITUDE
SLON.WGS84      -96.2196025838 : SURFACE LONGITUDE
~Curve Information -----------------------------------------
DEPT    .FT                                                                                                : DEPTH FEET
AO10ED  .OHMM                                                                                              : ARRAY INDUCTION ONE FOOT RESISTIVITY A10 FROM AIT-PI-DITE-LDT-CNT LOG
AO20ED  .OHMM                                                                                              : ARRAY INDUCTION ONE FOOT RESISTIVITY A20 FROM AIT-PI-DITE-LDT-CNT LOG
AO30ED  .OHMM                                                                                              : ARRAY INDUCTION ONE FOOT RESISTIVITY A30 FROM AIT-PI-DITE-LDT-CNT LOG
AO60ED  .OHMM                                                                                              : ARRAY INDUCTION ONE FOOT RESISTIVITY A60 FROM AIT-PI-DITE-LDT-CNT LOG
AO90ED  .OHMM                                                                                              : ARRAY INDUCTION ONE FOOT RESISTIVITY A90 FROM AIT-PI-DITE-LDT-CNT LOG
CALSED  .IN                                                                                                : CALIPER FROM BCS-CALIPER-GR LOG [ADJ. TO GRRED]
CALWS   .IN                                                                                                : CALIPER [DCALED+BITS]
CONDWS  .MMHO                                                                                              : CONDUCTIVITY [1000/DRESWS]
DCALED  .IN                                                                                                : DIFFERENTIAL CALIPER FROM AIT-PI-DITE-LDT-CNT LOG
DCORWS  .G/C3                                                                                              : DENSITY CORRECTION [DRHED SPL. TO DRHOED @ 10860']
DENWS   .G/C3 :   FORMATION BULK DENSITY [RHOMED, DENWS CALCULATED FROM DPOWS FROM 7004'-10889'] [M:2.71,F : 1.0]
DPHILSED.V/V                                                      :   DENSITY POROSITY LIMESTONE [M:2.71,F : 1.0] FROM AIT-PI-DITE-LDT-CNT LOG
DPOLSED .V/V                                                                                               : DENSITY POROSITY LIMESTONE FROM HOSTILE LDL-CN-GR LOG
DPOWS   .V/V                                                                                               : DENSITY POROSITY [DPHILSED SPL. TO DPOLSED @ 10852']
DRESWS  .OHMM                                                                                              : DEEP RESISTIVITY [AO30ED SPL. TO IDPHED]
DRHED   .G/C3                                                                                              : BULK DENSITY CORRECTION FROM HOSTILE LDL-CN-GR LOG
DRHOED  .G/C3                                                                                              : BULK DENSITY CORRECTION FROM AIT-PI-DITE-LDT-CNT LOG
DTED    .US/F                                                                                              : DELTA T FROM BCS-CALIPER-GR LOG [ADJ. TO GRRED/NPHILSED]
DTLFED  .US/F                                                                                              : DELTA-T LONG SPACING FAR FROM AIT-PI-DITE-LDT-CNT-PI-LSS-GR LOG
DTLNED  .US/F                                                                                              : DELTA-T LONG SPACING NEAR FROM AIT-PI-DITE-LDT-CNT-PI-LSS-GR LOG
DTWS    .US/F                                                                                              : COMPRESSIONAL SONIC [DTED SPL. TO DTLNED @ 10865.5'-15946.5']
GRRED   .GAPI                                                                                              : GAMMA RAY FROM AIT-PI-DITE-LDT-CNT LOG
GRSED   .GAPI                                                                                              : GAMMA RAY FROM BCS-CALIPER-GR-PI-LSS LOG [ADJ. TO GRRED]
GRWS    .GAPI                                                                                              : GAMMA RAY [GRRED]
IDPHED  .OHMM                                                                                              : DEEP INDUCTION PHASOR FROM AIT-PI-DITE-LDT-CNT- PI-LSS-GR LOG
LCALED  .IN                                                                                                : LOWER CALIPER FROM HOSTILE LDL-CN-GR LOG
MRESWS  .OHMM                                                                                              : MEDIUM RESISTIVITY [AO30ED]
NPHILSED.V/V                                                                                               : NEUTRON POROSITY LIMESTONE FROM AIT-PI-DITE-LDT-CNT LOG
NPOWS   .V/V                                                                                               : NEUTRON POROSITY [NPHILSED]
PEFED   .B/E                                                                                               : PHOTOELECTRIC FACTOR FROM AIT-PI-DITE-LDT-CNT LOG
PEFLED  .B/E                                                                                               : HLDT PEF LONG SPACING FROM HOSTILE LDL-CN-GR LOG
PEFSED  .B/E                                                                                               : SHORT SPACED CORRECTED PHOTOELECTRIC FACTOR FROM HOSTILE LDL-CN-GR LOG
PEFWS   .B/E                                                                                               : PHOTOELECTRIC FACTOR [PEFED SPL. TO PEFSED @ 10847.5']
RHOMED  .G/C3                                                                                              : CORRECTED BULK DENSITY FROM HOSTILE LDL-CN-GR LOG
SPRED   .MV                                                                                                : SPONTANEOUS POTENTIAL  FROM AIT-PI-DITE-LDT-CNT LOG
SPWS    .MV                                                                                                : SPONTANEOUS POTENTIAL [BASELINE 0, MV SPRED]
SRESWS  .OHMM                                                                                              : SHALLOW RESISTIVITY [AO10ED]
TENDED  .LBF                                                                                               : DIFFERENTIAL TENSION FROM HOSTILE LDL-CN-GR LOG
TENRED  .LBF                                                                                               : TENSION FROM AIT-PI-DITE-LDT-CNT LOG
TENSED  .LBF                                                                                               : TOTAL TENSION FROM BCS-CALIPER-GR LOG [ADJ. TO GRRED]
~Params ----------------------------------------------------
PD  .                     GL : PERMANENT DATUM
EPD .FT                 3759 : ELEVATION PERMANENT DATUM
LMF .                     KB : LOG MEASURED FROM
DAPD.FT                 37.2 : FEET ABOVE PERMANENT DATUM
DMF .                     KB : DRILLING MEASURED FROM
EKB .FT                 4131 : KELLY BUSHING
EDF .FT                 4121 : DRILLING FLOOR
EGL .FT                 3759 : GROUND LEVEL
DATE.               06/04/96 : RUN DATE
RUN .                      4 : RUN NUMBER
DD  .FT                17800 : DEPTH DRILLER
DL  .FT                17800 : DEPTH LOGGER
BLI .FT                17797 : BOTTOM LOG INTERVAL
TLI .FT                15944 : TOP LOG INTERVAL
CS  .IN                    7 : CASING SIZE
CBD .FT                15950 : CASING BOTTOM DRILLER
CBL .FT                15944 : CASING BOTTOM LOGGER
BS  .IN                5.875 : BIT SIZE
BSD .FT                17800 : BIT SIZE AT DEPTH
DFT .              OIL BASED : DRILLING FLUID TYPE
DFD .                     18 : DRILLING FLUID DENSITY
DFV .                     88 : DRILLING FLUID VISCOSITY
RMC .OHMM      OIL BASED MUD : RESISTIVITY MUD CAKE
MCST.DEGF      OIL BASED MUD : MUD CAKE SAMPLE TEMPERATURE
TCS .HRS                2100 : TIME CIRCULATED STOPPED
TLAB.HRS                1500 : TIME LOGGER AT BOTTOM
LUN .                   2019 : LOGGING UNIT NUMBER
LUL .                  TYLER : LOGGING UNIT LOCATION
ENGI.                 FERRIS : RECORDING ENGINEER
WITN.              MCGINNUSS : WITNESSED BY
CLNT.                A2DTECH : CLIENT CODE
ORIG.               5' PRINT : ORIGIN OF DATA
UWI .         42289312310000 : UNIQUE WELL ID
DICO. A2D Technologies, Inc. : DIGITIZING COMPANY
~Other -----------------------------------------------------
~ASCII -----------------------------------------------------
# ...
 11900.00000    -999.25    -999.25    -999.25    -999.25    -999.25    -999.25    8.83660   54.97040    0.33660   -0.01880    2.61520    -999.25    0.05520    0.05520   18.19160   -0.01880    -999.25    -999.25   58.62980   58.77770   58.77770   54.54470    -999.25   54.54470   18.19160    8.82970    -999.25    0.01210    0.01210    -999.25    3.28920    2.61290    2.61290    2.61520    -999.25    -999.25    -999.25 4272.96730 4294.27880    -999.25
 11950.00000    -999.25    -999.25    -999.25    -999.25    -999.25    -999.25    8.87410   11.55720    0.37410   -0.01090    2.67230    -999.25    0.02280    0.02280   86.52610   -0.01090    -999.25    -999.25   54.19690   54.31000   54.31000   33.34170    -999.25   33.34170   86.52610    8.86160    -999.25   -0.00190   -0.00190    -999.25    3.10550    2.80260    2.80260    2.67230    -999.25    -999.25    -999.25 4353.95750 4316.54000    -999.25
 12000.00000    -999.25    -999.25    -999.25    -999.25    -999.25    -999.25    8.90510   41.66390    0.40510   -0.01740    2.66340    -999.25    0.02530    0.02530   24.00160   -0.01740    -999.25    -999.25   56.89940   57.02140   57.02140   57.23430    -999.25   57.23430   24.00160    8.81040    -999.25    0.01580    0.01580    -999.25    4.22490    3.10100    3.10100    2.66340    -999.25    -999.25    -999.25 4289.86570 4302.92820    -999.25
 12050.00000    -999.25    -999.25    -999.25    -999.25    -999.25    -999.25    9.06260   73.93280    0.56260    0.00300    2.67600    -999.25    0.02240    0.02240   13.52580    0.00300    -999.25    -999.25   60.95680   61.30590   61.30590   64.95670    -999.25   64.95670   13.52580    8.95060    -999.25    0.06130    0.06130    -999.25    4.18630    3.70390    3.70390    2.67600    -999.25    -999.25    -999.25 4364.32180 4354.50100    -999.25
 12100.00000    -999.25    -999.25    -999.25    -999.25    -999.25    -999.25    8.86040   24.27780    0.36040   -0.01200    2.60430    -999.25    0.06520    0.06520   41.18990   -0.01200    -999.25    -999.25   57.74420   57.85800   57.85800   40.95450    -999.25   40.95450   41.18990    8.81180    -999.25    0.00180    0.00180    -999.25    4.40720    3.39590    3.39590    2.60430    -999.25    -999.25    -999.25 4328.66260 4313.63870    -999.25
 12150.00000    -999.25    -999.25    -999.25    -999.25    -999.25    -999.25    8.89940   10.03240    0.39940   -0.01090    2.69190    -999.25    0.01350    0.01350   99.67670   -0.01090    -999.25    -999.25   53.69520   53.81010   53.81010   33.44600    -999.25   33.44600   99.67670    8.83360    -999.25    0.00570    0.00570    -999.25    3.67850    2.85060    2.85060    2.69190    -999.25    -999.25    -999.25 4347.23630 4347.04640    -999.25
 12200.00000    -999.25    -999.25    -999.25    -999.25    -999.25    -999.25    8.88310   14.96930    0.38310   -0.01900    2.59530    -999.25    0.06790    0.06790   66.80360   -0.01900    -999.25    -999.25   57.13040   57.24590   57.24590   48.13500    -999.25   48.13500   66.80360    8.85300    -999.25    0.00180    0.00180    -999.25    3.27620    2.55360    2.55360    2.59530    -999.25    -999.25    -999.25 4361.17720 4384.44630    -999.25
 12250.00000    -999.25    -999.25    -999.25    -999.25    -999.25    -999.25    8.88490   22.81160    0.38490   -0.00770    2.71160    -999.25   -0.00050   -0.00050   43.83740   -0.00770    -999.25    -999.25   55.38070   55.53370   55.53370   70.91580    -999.25   70.91580   43.83740    8.86380    -999.25    0.02250    0.02250    -999.25    4.76980    3.16180    3.16180    2.71160    -999.25    -999.25    -999.25 4413.41890 4396.34180    -999.25
 12300.00000    -999.25    -999.25    -999.25    -999.25    -999.25    -999.25    8.88360   28.54350    0.38360    0.02950    2.60950    -999.25    0.06100    0.06100   35.03430    0.02950    -999.25    -999.25   56.32770   56.49620   56.49620   56.61930    -999.25   56.61930   35.03430    8.85990    -999.25    0.01060    0.01060    -999.25    7.13700    4.75060    4.75060    2.60950    -999.25    -999.25    -999.25 4349.57180 4374.18360    -999.25
 12350.00000    -999.25    -999.25    -999.25    -999.25    -999.25    -999.25    8.89840   28.81500    0.39840   -0.00940    2.62680    -999.25    0.04550    0.04550   34.70420   -0.00940    -999.25    -999.25   58.69520   58.95920   58.95920   58.93160    -999.25   58.93160   34.70420    8.85070    -999.25    0.00840    0.00840    -999.25    5.52320    3.86140    3.86140    2.62680    -999.25    -999.25    -999.25 4395.90330 4384.89360    -999.25
 12400.00000    -999.25    -999.25    -999.25    -999.25    -999.25    -999.25    8.93650   33.46370    0.43650   -0.00100    2.67510    -999.25    0.02050    0.02050   29.88310   -0.00100    -999.25    -999.25   58.77520   58.98540   58.98540   83.92120    -999.25   83.92120   29.88310    8.94400    -999.25    0.04710    0.04710    -999.25    4.44160    3.67830    3.67830    2.67510    -999.25    -999.25    -999.25 4445.87700 4451.91210    -999.25
 12450.00000    -999.25    -999.25    -999.25    -999.25    -999.25    -999.25    8.93320   21.39350    0.43320   -0.01090    2.64470    -999.25    0.03780    0.03780   46.74310   -0.01090    -999.25    -999.25   56.08580   56.18640   56.18640   58.66050    -999.25   58.66050   46.74310    8.92550    -999.25    0.00380    0.00380    -999.25    4.36730    3.11910    3.11910    2.64470    -999.25    -999.25    -999.25 4421.12650 4418.34520    -999.25
 12500.00000    -999.25    -999.25    -999.25    -999.25    -999.25    -999.25    8.97740   11.58090    0.47740   -0.00140    2.62290    -999.25    0.05570    0.05570   86.34880   -0.00140    -999.25    -999.25   56.65350   56.76930   56.76930   19.09480    -999.25   19.09480   86.34880    8.95700    -999.25   -0.00310   -0.00310    -999.25    3.82390    3.08190    3.08190    2.62290    -999.25    -999.25    -999.25 4404.50000 4439.07280    -999.25
 12550.00000    -999.25    -999.25    -999.25    -999.25    -999.25    -999.25    9.05920    8.09010    0.55920   -0.01130    2.62410    -999.25    0.04290    0.04290  123.60770   -0.01130    -999.25    -999.25   54.17880   54.32680   54.32680   18.24940    -999.25   18.24940  123.60770    9.00620    -999.25   -0.00460   -0.00460    -999.25    3.78350    2.71110    2.71110    2.62410    -999.25    -999.25    -999.25 4457.77980 4482.27340    -999.25
 12600.00000    -999.25    -999.25    -999.25    -999.25    -999.25    -999.25    8.93900   73.07480    0.43900   -0.01350    2.58750    -999.25    0.07230    0.07230   13.68460   -0.01350    -999.25    -999.25   57.92930   58.04510   58.04510   25.91540    -999.25   25.91540   13.68460    8.96070    -999.25    0.00360    0.00360    -999.25    4.28540    2.88580    2.88580    2.58750    -999.25    -999.25    -999.25 4486.91060 4472.84180    -999.25
 12650.00000    -999.25    -999.25    -999.25    -999.25    -999.25    -999.25    8.89440   28.37850    0.39440   -0.01410    2.63270    -999.25    0.04440    0.04440   35.23790   -0.01410    -999.25    -999.25   58.02470   58.15190   58.15190   62.50240    -999.25   62.50240   35.23790    8.85120    -999.25    0.00980    0.00980    -999.25    4.36610    2.83560    2.83560    2.63270    -999.25    -999.25    -999.25 4573.17920 4550.23390    -999.25
 12700.00000    -999.25    -999.25    -999.25    -999.25    -999.25    -999.25    8.95070    8.52860    0.45070   -0.01810    2.56030    -999.25    0.08760    0.08760  117.25220   -0.01810    -999.25    -999.25   58.10350   59.06600   59.06600   15.38020    -999.25   15.38020  117.25220    8.86870    -999.25    0.00080    0.00080    -999.25    3.40370    2.46600    2.46600    2.56030    -999.25    -999.25    -999.25 4575.07130 4583.59180    -999.25
 12750.00000    -999.25    -999.25    -999.25    -999.25    -999.25    -999.25    8.74400   51.60520    0.24400   -0.01570    2.61450    -999.25    0.05860    0.05860   19.37790   -0.01570    -999.25    -999.25   60.29450   60.54490   60.54490   53.54020    -999.25   53.54020   19.37790    8.69630    -999.25    0.01230    0.01230    -999.25    4.24580    3.03230    3.03230    2.61450    -999.25    -999.25    -999.25 4527.41750 4565.15820    -999.25
