~Version ---------------------------------------------------
VERS. 2.0 : CWLS log ASCII Standard -VERSION 2.0
WRAP. YES : MULTIPLE LINES PER DEPTH STEP
~Well ------------------------------------------------------
STRT.FT                   400.0 : START DEPTH
STOP.FT                  7700.0 : STOP DEPTH
STEP.FT                50.00000 : STEP LENGTH
NULL.                   -999.25 : NULL VALUE
COMP. ENCANA OIL & GAS USA INC. : COMPANY
WELL.            BARCLAY 162 #2 : WELL
FLD .                   CHITTIM : FIELD
LOC .                           : LOCATION
CNTY.                  MAVERICK : COUNTY
STAT.                     TEXAS : STATE
CTRY.  UNITED STATES OF AMERICA : COUNTRY
SRVC.              Schlumberger : SERVICE COMPANY
DATE.               22-Oct-2006 : LOGDATE
API .            42323329160000 : API NUMBER
UWI .            42323329160000 : UNIQUE WELL ID
SLAT.WGS84        28.8174515047 : SURFACE LATITUDE
SLON.WGS84      -100.3519501945 : SURFACE LONGITUDE
~Curve Information -----------------------------------------
DEPT  .FT    : DEPTH FEET
AF10ED.OHMM  : 10 INCH ARRAY RESISTIVITY FOUR FOOT RESOLUTION
AF20ED.OHMM  : 20 INCH ARRAY RESISTIVITY FOUR FOOT RESOLUTION
AF30ED.OHMM  : 30 INCH ARRAY RESISTIVITY FOUR FOOT RESOLUTION
AF60ED.OHMM  : 60 INCH ARRAY RESISTIVITY FOUR FOOT RESOLUTION
AF90ED.OHMM  : 90 INCH ARRAY RESISTIVITY FOUR FOOT RESOLUTION
BITED .IN    : BIT SIZE FROM LOG HEADER
CALWS .IN    : CALIPER [(DCALED+BITED)]
CONDWS.MMHO  : CONDUCTIVITY [1000/DRESWS]
DCALED.IN    : DIFFERENTIAL CALIPER FROM DENSITY LOG
DCORWS.G/C3  : DENSITY CORRECTION [HDRAED]
DENWS .G/C3  : BULK DENSITY [M=2.71 F=1.0] [CALCULATED FROM DPOWS]
DPHZED.V/V   : DENSITY POROSITY [M=2.71 F=1.0] FROM DENSITY LOG
DPOWS .V/V   : DENSITY POROSITY [M=2.71 F=1.0] [DPHZED]
DRESWS.OHMM  : DEEP RESISTIVITY [AF90ED]
DT1ED .US/F  : DELTA TIME SHEAR LOWER DIPOLE FROM DIPOLE SONIC LOG
DT4PED.US/F  : DELTA TIME COMP - P & S FROM DIPOLE SONIC LOG
DTSWS .US/F  : DELTA TIME SHEAR [DT1ED]
DTWS  .US/F  : DELTA TIME [DT4PED]
GRRED .GAPI  : GAMMA RAY FROM RESISTIVITY LOG
GRWS  .GAPI  : GAMMA RAY [GRRED. CASED ABOVE 620]
HDRAED.G/C3  : DENSITY CORRECTION FROM DENSITY LOG
MRESWS.OHMM  : MEDIUM RESISTIVITY [AF30ED]
NPOWS .V/V   : NEUTRON POROSITY LIMESTONE [TNPHED. CASED ABOVE 620]
PEFWS .B/E   : PHOTOELECTRIC FACTOR [PEFZED]
PEFZED.B/E   : PHOTOELECTRIC FACTOR STANDARD RESOLUTION FROM DENSITY LOG
SPHIED.V/V   : SONIC POROSITY FROM SONIC LOG
SPOWS .V/V   : SONIC POROSITY [SPHIED]
SPRED .MV    : SPONTANEOUS POTENTIAL FROM RESISTIVITY LOG
SPWS  .MV    : SPONTANEOUS POTENTIAL [BASELINE 0 MV] [SPRED]
SRESWS.OHMM  : SHALLOW RESISTIVITY [AF20ED]
TENRED.LBF   : TENSION FROM RESISTIVITY LOG
TNPHED.V/V   : THERMAL NEUTRON POROSITY LIMESTONE FROM DENSITY LOG
~Params ----------------------------------------------------
PD  .                           GL : PERMANENT DATUM
EPD .FT                      770.7 : ELEVATION PERMANENT DATUM
LMF .                           KB : LOG MEASURED FROM
DAPD.FT                         25 : FEET ABOVE PERMANENT DATUM
DMF .                           KB : DRILLING MEASURED FROM
EKB .FT                      795.7 : KELLY BUSHING
EDF .FT                      794.7 : DRILLING FLOOR
EGL .FT                      770.7 : GROUND LEVEL
DATE.                     10/22/08 : RUN DATE
RUN .                            2 : RUN NUMBER
DD  .FT                       7700 : DEPTH DRILLER
DL  .FT                       7716 : DEPTH LOGGER
BLI .FT                       7708 : BOTTOM LOG INTERVAL
TLI .FT                       6610 : TOP LOG INTERVAL
CS  .IN                      7.875 : CASING SIZE
CBD .FT                       6600 : CASING BOTTOM DRILLER
CBL .FT                       6610 : CASING BOTTOM LOGGER
BS  .IN                       6.75 : BIT SIZE
BSD .FT                       7700 : BIT SIZE AT DEPTH
DFT .                    FRESH MUD : DRILLING FLUID TYPE
DFD .                         16.4 : DRILLING FLUID DENSITY
DFV .                           64 : DRILLING FLUID VISCOSITY
DFPH.                         10.1 : DRILLING FLUID PH
DFL .                          5.2 : DRILLING FLUID LOSS
MSS .                    FLOW LINE : MUD SAMPLE SOURCE
RMS .OHMM                    0.425 : RESISTIVITY MUD SAMPLE
MST .DEGF                      114 : MUD SAMPLE TEMPERATURE
RMF .OHMM                    0.306 : RESISTIVITY MUD FILTRATE SAMPLE
MFST.DEGF                      114 : MUD FILTRATE SAMPLE TEMPERATURE
RMC .OHMM                     0.55 : RESISTIVITY MUD CAKE
MCST.DEGF                      114 : MUD CAKE SAMPLE TEMPERATURE
MFSS.                     COMPUTED : MUD FILTRATE SAMPLE SOURCE
MCSS.                     COMPUTED : MUD CAKE SAMPLE SOURCE
RMB .OHMM                    0.241 : RESISTIVITY MUD AT BHT
TCS .HRS                      1330 : TIME CIRCULATED STOPPED
TLAB.HRS                      2342 : TIME LOGGER AT BOTTOM
LUN .                         2024 : LOGGING UNIT NUMBER
LUL .                    LAREDO TX : LOGGING UNIT LOCATION
ENGI. CARLOS DOSTAL CURT LADBETLER : RECORDING ENGINEER
WITN.                   JEFF FABER : WITNESSED BY
CLNT.                      A2DTECH : CLIENT CODE
ORIG.               1" 2" 5" PRINT : ORIGIN OF DATA
UWI .               42323329160000 : UNIQUE WELL ID
DICO.       A2D Technologies, Inc. : DIGITIZING COMPANY
~Other -----------------------------------------------------
1. CURVE AF20ED WAS CHOSEN FOR SRESWS BECAUSE AF10ED SEEMED TO BEHAVE ERRATICALLY OVER PART OF RUN 1.
~ASCII -----------------------------------------------------
# ...
 3700.00000    6.16390   24.28020   18.78430   22.50010   23.04650    9.87500    9.84710   43.39050   -0.02790    0.00820    2.68540    0.01440    0.01440   23.04650  110.30500   57.06820  110.30500   57.06820   20.32480   20.32480    0.00820   18.78430    0.02680    4.77210    4.77210    0.06960    0.06960   -5.21360   -7.10750   24.28020 2754.43160    0.02680
 3750.00000    5.79460   22.79990   18.10100   20.63070   21.57580    9.87500    9.94860   46.34820    0.07360    0.00450    2.67370    0.02120    0.02120   21.57580  111.15950   55.62610  111.15950   55.62610   18.44310   18.44310    0.00450   18.10100    0.01670    5.07990    5.07990    0.05580    0.05580    0.10290   -0.07600   22.79990 2745.00290    0.01670
 3800.00000    7.37630  100.29960   50.87620   91.68440   95.45830    9.87500    9.93020   10.47580    0.05520    0.00500    2.67600    0.01990    0.01990   95.45830  100.82960   52.73180  100.82960   52.73180   33.17540   33.17540    0.00500   50.87620    0.01150    5.10240    5.10240    0.03910    0.03910  -16.55610  -15.26070  100.29960 2722.90970    0.01150
 3850.00000    6.98340   56.70170   35.03910   51.51710   53.77020    9.87500    9.92270   18.59770    0.04770    0.00360    2.67430    0.02090    0.02090   53.77020  100.96650   53.20360  100.96650   53.20360   32.53760   32.53760    0.00360   35.03910    0.02140    5.13110    5.13110    0.04020    0.04020  -14.82060  -12.06090   56.70170 2793.05570    0.02140
 3900.00000    6.12970   49.11580   33.27340   41.71960   44.88940    9.87500    9.91940   22.27700    0.04440    0.00200    2.63600    0.04330    0.04330   44.88940   99.88450   51.55120   99.88450   51.55120   12.18200   12.18200    0.00200   33.27340    0.01310    5.28830    5.28830    0.03430    0.03430  -18.47110  -14.24710   49.11580 2823.46680    0.01310
 3950.00000    5.91760   23.71300   18.17330   26.06110   22.16760    9.87500   11.13120   45.11090    1.25620    0.21840    2.44100    0.15730    0.15730   22.16760   97.29730   52.80550   97.29730   52.80550   17.74060   17.74060    0.21840   18.17330    0.04030    6.33660    6.33660    0.03850    0.03850  -20.04050  -14.35230   23.71300 2833.04420    0.04030
 4000.00000    6.29850 1648.85390   51.76060  408.84840  426.06430    9.87500    9.79510    2.34710   -0.07990   -0.00070    2.79940   -0.05230   -0.05230  426.06430   95.97350   50.15760   95.97350   50.15760   38.02900   38.02900   -0.00070   51.76060   -0.01060    5.25900    5.25900    0.02290    0.02290  -54.02790  -46.87540 1648.85390 2878.27830   -0.01060
 4050.00000    0.61390    2.35360    7.00970 1972.63540  276.67210    9.87500   15.30260    3.61440    5.42760    0.04510    1.98390    0.42460    0.42460  276.67210  113.16310   70.06540  113.16310   70.06540   11.96360   11.96360    0.04510    7.00970   -0.03820    7.96600    7.96600    0.15610    0.15610  -68.46200  -59.84520    2.35360 2849.18460   -0.03820
 4100.00000    6.27260  486.01700   73.25300  940.24980  264.11730    9.87500    9.92960    3.78620    0.05460    0.00750    2.87890   -0.09880   -0.09880  264.11730   95.42820   49.09710   95.42820   49.09710   19.35340   19.35340    0.00750   73.25300   -0.01650    5.27510    5.27510    0.02070    0.02070  -38.03930  -27.95820  486.01700 2852.22880   -0.01650
 4150.00000    7.46750  165.86520   59.66710  189.81070  147.24860    9.87500    9.91700    6.79120    0.04200    0.00700    2.63490    0.04390    0.04390  147.24860   97.00440   52.45970   97.00440   52.45970   46.32550   46.32550    0.00700   59.66710    0.01620    5.07850    5.07850    0.03670    0.03670  -40.83000  -29.94260  165.86520 2883.09400    0.01620
 4200.00000    6.76690  286.26660   77.03520  517.53690  390.44590    9.87500    9.87480    2.56120   -0.00020    0.00890    2.64380    0.03870    0.03870  390.44590  100.03600   52.15360  100.03600   52.15360   34.31590   34.31590    0.00890   77.03520    0.00440    4.97980    4.97980    0.03800    0.03800  -65.78370  -55.11910  286.26660 2875.80880    0.00440
 4250.00000    7.04750 2054.23100   97.71070 2000.00000 1973.16600    9.87500    9.86640    0.50680   -0.00860   -0.00230    2.64420    0.03850    0.03850 1973.16600   95.55130   53.10530   95.55130   53.10530   27.84420   27.84420   -0.00230   97.71070   -0.00700    5.16200    5.16200    0.03660    0.03660  -76.13910  -65.69740 2054.23100 2881.73440   -0.00700
 4300.00000    5.71340   26.52530   20.32840   29.47070   24.05520    9.87500    9.86160   41.57110   -0.01340    0.00450    2.64230    0.03960    0.03960   24.05520   98.56370   51.79470   98.56370   51.79470   20.40920   20.40920    0.00450   20.32840    0.02690    5.05950    5.05950    0.02950    0.02950  -42.21410  -31.99520   26.52530 2809.30570    0.02690
 4350.00000    8.92980 2000.00000  125.30070  573.14160  928.88920    9.87500   12.28160    1.07660    2.40660    0.36060    2.45280    0.15040    0.15040  928.88920   96.01020   49.29800   96.01020   49.29800   28.64740   28.64740    0.36060  125.30070    0.00190    6.21840    6.21840    0.01220    0.01220  -63.43440  -53.43830 2000.00000 2922.18550    0.00190
 4400.00000    6.42510   75.91290   40.99720   80.23600   71.72160    9.87500    9.84110   13.94280   -0.03390    0.01990    2.73570   -0.01500   -0.01500   71.72160   89.91650   50.21940   89.91650   50.21940   18.89250   18.89250    0.01990   40.99720    0.03160    3.84910    3.84910    0.01880    0.01880  -43.43400  -33.66070   75.91290 2931.24780    0.03160
 4450.00000    8.34520  142.56490   46.18050  101.55430   97.81330    9.87500    9.84910   10.22360   -0.02590    0.00150    2.69700    0.00760    0.00760   97.81330  103.97650   54.06010  103.97650   54.06010   39.31680   39.31680    0.00150   46.18050    0.01770    5.23760    5.23760    0.04370    0.04370  -36.34140  -26.79090  142.56490 2879.41670    0.01770
 4500.00000    7.18080   42.21660   26.55560   45.71920   37.01910    9.87500    9.88730   27.01310    0.01230    0.00150    2.69840    0.00680    0.00680   37.01910  112.54260   59.09860  112.54260   59.09860   37.32220   37.32220    0.00150   26.55560    0.04420    4.67350    4.67350    0.07350    0.07350  -14.20230   -5.25240   42.21660 2920.13940    0.04420
 4550.00000    6.81680  182.50650   65.02730  189.98370  174.09000    9.87500    9.88610    5.74420    0.01110    0.00920    2.69840    0.00680    0.00680  174.09000   98.95500   51.30470   98.95500   51.30470   34.00200   34.00200    0.00920   65.02730    0.00260    5.15960    5.15960    0.02580    0.02580  -32.46790  -26.64640  182.50650 2904.34810    0.00260
 4600.00000    6.32750  130.57710   58.19700  139.95520  136.98870    9.87500    9.85670    7.29990   -0.01830    0.00790    2.69220    0.01040    0.01040  136.98870   99.25770   51.32690   99.25770   51.32690   37.37940   37.37940    0.00790   58.19700    0.00600    5.07200    5.07200    0.02700    0.02700  -27.28280  -24.58980  130.57710 2827.22580    0.00600
 4650.00000    6.19330   89.56190   47.38050   93.08440   82.10320    9.87500    9.82700   12.17980   -0.04800    0.00630    2.72350   -0.00790   -0.00790   82.10320   99.84900   52.37150   99.84900   52.37150   36.15880   36.15880    0.00630   47.38050    0.02260    4.87890    4.87890    0.03730    0.03730  -16.65800  -17.09340   89.56190 2996.21530    0.02260
 4700.00000    5.15630   26.08020   23.07620   30.27800   27.09330    9.87500    9.82630   36.90950   -0.04870    0.00340    2.69680    0.00770    0.00770   27.09330  110.26070   55.71210  110.26070   55.71210   35.35040   35.35040    0.00340   23.07620    0.03820    4.67590    4.67590    0.06260    0.06260    0.69860   -2.86530   26.08020 2996.32010    0.03820
 4750.00000    6.27550   31.22530   27.28900   38.83970   38.09870    9.87500    9.89340   26.24760    0.01840    0.00470    2.63560    0.04350    0.04350   38.09870   94.86010   52.77180   94.86010   52.77180   28.01240   28.01240    0.00470   27.28900    0.03370    5.10120    5.10120    0.03330    0.03330  -13.03550  -18.67930   31.22530 2936.56030    0.03370
