~Version ---------------------------------------------------
VERS. 2.0 : CWLS log ASCII Standard -VERSION 2.0
WRAP. YES : Multiple lines per depth step
~Well ------------------------------------------------------
STRT.FT                   3650.0 : START DEPTH
STOP.FT                   7750.0 : STOP DEPTH
STEP.FT                 50.00000 : STEP LENGTH
NULL.                    -999.25 : NULL VALUE
COMP. CHAMPLIN EXPLORATION, INC. : COMPANY
WELL.           SPITZENBERGER #1 : WELL
FLD .                   GIDDINGS : FIELD
LOC .                            : LOCATION
CNTY.                        LEE : COUNTY
STAT.                      TEXAS : STATE
CTRY.   UNITED STATES OF AMERICA : COUNTRY
SRVC.               Schlumberger : SERVICE COMPANY
DATE.                05-Jul-1979 : LOGDATE
API .             42287305130000 : API NUMBER
UWI .             42287305130000 : UNIQUE WELL ID
SLAT.WGS84         30.3689100217 : SURFACE LATITUDE
SLON.WGS84        -96.8269770979 : SURFACE LONGITUDE
~Curve Information -----------------------------------------
DEPT    .FT    : DEPTH FEET
CALDED  .IN    : CALIPER FROM COMPENSATED NEUTRON FORMATION DENSITY LOG
CALWS   .IN    : CALIPER [CALDED]
CONDWS  .MMHO  : CONDUCTIVITY [1000/DRESWS]
CORRED  .G/C3  : DENSITY CORRECTION FROM COMPENSATED NEUTRON FORMATION DENSITY LOG
DCORWS  .G/C3  : DENSITY CORRECTION [CORRED]
DENWS   .G/C3  : BULK DENSITY [RHOBED]
DPHILSED.V/V   : DENSITY POROSITY LIMESTONE [M=2.71 F=1.0] FROM COMPENSATED NEUTRON FORMATION DENSITY LOG
DPOWS   .V/V   : DENSITY POROSITY LIMESTONE [DPHILSED]
DRESWS  .OHMM  : DEEP RESISTIVITY [ILDED]
GRDED   .GAPI  : GAMMA RAY  FROM COMPENSATED NEUTRON FORMATION DENSITY LOG
GRED    .GAPI  : GAMMA RAY IN CASING FROM CEMENT EVALUATION LOG [ADJ. TO GRDED]
GRWS    .GAPI  : GAMMA RAY [GRDED SPLICED TO GRED AFTER RESCALING IT FROM 0-90 TO 0-150]
ILDED   .OHMM  : DEEP INDUCTION  FROM DUAL INDUCTION-SFL LOG
ILMED   .OHMM  : MEDIUM INDUCTION  FROM DUAL INDUCTION-SFL LOG
MRESWS  .OHMM  : MEDIUM RESISTIVITY [ILMED]
NPHILSED.V/V   : NEUTRON POROSITY LIMESTONE  FROM COMPENSATED NEUTRON FORMATION DENSITY LOG
NPOWS   .V/V   : NEUTRON POROSITY LIMESTONE [NPHILSED]
RHOBED  .G/C3  : BULK DENSITY FROM FORMATION DENSITY LOG
SFLED   .OHMM  : SPHERICALLY FOCUSED LOG FROM DUAL INDUCTION-SFL LOG
SPRED   .MV    : SPONTANEOUS POTENTIAL FROM DUAL INDUCTION-SFL LOG
SPWS    .MV    : SPONTANEOUS POTENTIAL [BASELINE 0 MV, SPRED]
SRESWS  .OHMM  : SHALLOW RESISTIVITY [SFLED]
~Params ----------------------------------------------------
PD  .                     GL : PERMANENT DATUM
EPD .FT                  324 : ELEVATION PERMANENT DATUM
LMF .                     KB : LOG MEASURED FROM
DAPD.FT                   11 : FEET ABOVE PERMANENT DATUM
DMF .                     KB : DRILLING MEASURED FROM
EKB .FT                  335 : KELLY BUSHING
EDF .FT                  334 : DRILLING FLOOR
EGL .FT                  324 : GROUND LEVEL
DATE.               07/05/79 : RUN DATE
RUN .                      1 : RUN NUMBER
DD  .FT                 7775 : DEPTH DRILLER
DL  .FT                 7780 : DEPTH LOGGER
BLI .FT                 7774 : BOTTOM LOG INTERVAL
TLI .FT                 3611 : TOP LOG INTERVAL
CS  .IN                9.625 : CASING SIZE
CBD .FT                 3650 : CASING BOTTOM DRILLER
CBL .FT                 3611 : CASING BOTTOM LOGGER
BS  .IN                 8.75 : BIT SIZE
BSD .FT                 7775 : BIT SIZE AT DEPTH
DFT .                    LNS : DRILLING FLUID TYPE
DFD .                    9.8 : DRILLING FLUID DENSITY
DFV .                     45 : DRILLING FLUID VISCOSITY
DFPH.                   10.5 : DRILLING FLUID PH
DFL .                    9.6 : DRILLING FLUID LOSS
MSS .                   TANK : MUD SAMPLE SOURCE
RMS .OHMM               1.09 : RESISTIVITY MUD SAMPLE
MST .DEGF                 98 : MUD SAMPLE TEMPERATURE
RMF .OHMM               0.82 : RESISTIVITY MUD FILTRATE SAMPLE
MFST.DEGF                 98 : MUD FILTRATE SAMPLE TEMPERATURE
RMC .OHMM               1.63 : RESISTIVITY MUD CAKE
MCST.DEGF                 98 : MUD CAKE SAMPLE TEMPERATURE
MFSS.                      C : MUD FILTRATE SAMPLE SOURCE
MCSS.                      C : MUD CAKE SAMPLE SOURCE
RMB .OHMM               0.57 : RESISTIVITY MUD AT BHT
TCS .HRS                1300 : TIME CIRCULATED STOPPED
TLAB.HRS                1800 : TIME LOGGER AT BOTTOM
LUN .                   8096 : LOGGING UNIT NUMBER
LUL .                BRENHAM : LOGGING UNIT LOCATION
CLNT.                A2DTECH : CLIENT CODE
ORIG.            2" 5" PRINT : ORIGIN OF DATA
UWI .         42287305130000 : UNIQUE WELL ID
DICO. A2D Technologies, Inc. : DIGITIZING COMPANY
~Other -----------------------------------------------------
~ASCII -----------------------------------------------------
# ...
 5250.00000    -999.25    -999.25  878.58020    -999.25    -999.25    -999.25    -999.25    -999.25    1.13820    -999.25    -999.25    -999.25    1.13820    1.32770    1.32770    -999.25    -999.25    -999.25    1.34680 -131.72460   -3.00960    1.34680
 5300.00000    -999.25    -999.25  978.18640    -999.25    -999.25    -999.25    -999.25    -999.25    1.02230    -999.25    -999.25    -999.25    1.02230    1.21800    1.21800    -999.25    -999.25    -999.25    1.33010 -131.55480   -3.45110    1.33010
 5350.00000    -999.25    -999.25  676.22400    -999.25    -999.25    -999.25    -999.25    -999.25    1.47880    -999.25    -999.25    -999.25    1.47880    1.69750    1.69750    -999.25    -999.25    -999.25    1.63510 -129.54140   -2.59150    1.63510
 5400.00000    -999.25    -999.25  624.02500    -999.25    -999.25    -999.25    -999.25    -999.25    1.60250    -999.25    -999.25    -999.25    1.60250    1.87130    1.87130    -999.25    -999.25    -999.25    1.81770 -128.88470   -3.08860    1.81770
 5450.00000    -999.25    -999.25  791.76560    -999.25    -999.25    -999.25    -999.25    -999.25    1.26300    -999.25    -999.25    -999.25    1.26300    1.42570    1.42570    -999.25    -999.25    -999.25    1.32980 -125.95520   -1.31300    1.32980
 5500.00000    -999.25    -999.25  484.49610    -999.25    -999.25    -999.25    -999.25    -999.25    2.06400    -999.25    -999.25    -999.25    2.06400    2.37490    2.37490    -999.25    -999.25    -999.25    2.35640 -126.41730   -2.82120    2.35640
 5550.00000    -999.25    -999.25  612.21990    -999.25    -999.25    -999.25    -999.25    -999.25    1.63340    -999.25    -999.25    -999.25    1.63340    1.86260    1.86260    -999.25    -999.25    -999.25    1.82110 -128.21010   -4.99830    1.82110
 5600.00000    -999.25    -999.25  823.65540    -999.25    -999.25    -999.25    -999.25    -999.25    1.21410    -999.25    -999.25    -999.25    1.21410    1.42800    1.42800    -999.25    -999.25    -999.25    1.35650 -127.15920   -4.33180    1.35650
 5650.00000    -999.25    -999.25  728.22600    -999.25    -999.25    -999.25    -999.25    -999.25    1.37320    -999.25    -999.25    -999.25    1.37320    1.56550    1.56550    -999.25    -999.25    -999.25    1.48340 -128.60530   -6.16220    1.48340
 5700.00000    -999.25    -999.25  621.23380    -999.25    -999.25    -999.25    -999.25    -999.25    1.60970    -999.25    -999.25    -999.25    1.60970    1.82070    1.82070    -999.25    -999.25    -999.25    1.73350 -131.34090   -9.28210    1.73350
 5750.00000    -999.25    -999.25  864.30420    -999.25    -999.25    -999.25    -999.25    -999.25    1.15700    -999.25    -999.25    -999.25    1.15700    1.33160    1.33160    -999.25    -999.25    -999.25    1.25540 -125.48410   -3.80970    1.25540
 5800.00000    -999.25    -999.25  746.65870    -999.25    -999.25    -999.25    -999.25    -999.25    1.33930    -999.25    -999.25    -999.25    1.33930    1.58270    1.58270    -999.25    -999.25    -999.25    1.49380 -125.56570   -4.27560    1.49380
 5850.00000    -999.25    -999.25  487.04460    -999.25    -999.25    -999.25    -999.25    -999.25    2.05320    -999.25   51.23290   85.38820    2.05320    2.38430    2.38430    -999.25    -999.25    -999.25    2.23990 -124.43950   -3.53370    2.23990
 5900.00000    -999.25    -999.25  749.90630    -999.25    -999.25    -999.25    -999.25    -999.25    1.33350    -999.25   54.77880   91.29800    1.33350    1.51310    1.51310    -999.25    -999.25    -999.25    1.50880 -125.93770   -5.41620    1.50880
 5950.00000    -999.25    -999.25  759.76300    -999.25    -999.25    -999.25    -999.25    -999.25    1.31620    -999.25   56.12150   93.53580    1.31620    1.58930    1.58930    -999.25    -999.25    -999.25    1.56740 -126.29520   -6.15810    1.56740
 6000.00000    -999.25    -999.25  806.71180    -999.25    -999.25    -999.25    -999.25    -999.25    1.23960    -999.25   56.39590   93.99320    1.23960    1.47030    1.47030    -999.25    -999.25    -999.25    1.48450 -124.82500   -5.07220    1.48450
 6050.00000    -999.25    -999.25  654.15060    -999.25    -999.25    -999.25    -999.25    -999.25    1.52870    -999.25   62.87070  104.78450    1.52870    1.77760    1.77760    -999.25    -999.25    -999.25    1.75640 -125.07080   -5.70230    1.75640
 6100.00000   14.40600   14.40600  827.60900    0.14590    0.14590    2.35730    0.20760    0.20760    1.20830  100.62610   65.12820  100.62610    1.20830    1.37000    1.37000    0.31940    0.31940    2.35730    1.34720 -127.18470   -8.20060    1.34720
 6150.00000   12.93780   12.93780  690.60770    0.10070    0.10070    2.33480    0.21890    0.21890    1.44800  103.67760   54.15480  103.67760    1.44800    1.74060    1.74060    0.32810    0.32810    2.33480    1.75910 -125.32880   -6.74280    1.75910
 6200.00000   10.50680   10.50680  306.68260   -0.01060   -0.01060    2.46400    0.13400    0.13400    3.26070   61.93660   33.80680   61.93660    3.26070    4.09320    4.09320    0.17680    0.17680    2.46400    5.92330 -123.36670   -5.85320    5.92330
 6250.00000   10.40450   10.40450  327.45010    0.00740    0.00740    2.51510    0.11300    0.11300    3.05390   51.90580   39.22190   51.90580    3.05390    3.58700    3.58700    0.12760    0.12760    2.51510    3.81580 -120.69430   -4.25340    3.81580
 6300.00000   10.56010   10.56010  369.48090    0.00070    0.00070    2.53200    0.10360    0.10360    2.70650   65.27160   45.36150   65.27160    2.70650    3.30570    3.30570    0.14160    0.14160    2.53200    4.21720 -117.22810   -1.85980    4.21720
 6350.00000   10.54870   10.54870  357.35980   -0.00840   -0.00840    2.51950    0.11150    0.11150    2.79830   87.41610   44.69280   87.41610    2.79830    3.25110    3.25110    0.18820    0.18820    2.51950    3.06780 -115.01830   -0.72250    3.06780
 6400.00000   11.41310   11.41310  447.12720    0.11400    0.11400    2.55340    0.09020    0.09020    2.23650   93.50250   66.09810   93.50250    2.23650    2.62680    2.62680    0.17510    0.17510    2.55340    2.79530 -117.15110   -3.92790    2.79530
 6450.00000   10.91690   10.91690  340.50670    0.00540    0.00540    2.55250    0.09120    0.09120    2.93680   90.64730   54.83760   90.64730    2.93680    3.34290    3.34290    0.17950    0.17950    2.55250    3.27510 -113.65610   -1.50550    3.27510
 6500.00000   11.08110   11.08110  339.42030   -0.00830   -0.00830    2.53000    0.10450    0.10450    2.94620   90.19940   51.44200   90.19940    2.94620    3.10720    3.10720    0.15950    0.15950    2.53000    3.68630 -111.75400   -0.67590    3.68630
 6550.00000   12.85760   12.85760  574.05280    0.11140    0.11140    2.46320    0.14340    0.14340    1.74200  110.18880   61.38610  110.18880    1.74200    1.88230    1.88230    0.28780    0.28780    2.46320    2.20470 -114.72320   -4.71770    2.20470
 6600.00000   12.85740   12.85740  592.20660    0.09600    0.09600    2.42340    0.16670    0.16670    1.68860   94.34140   52.24650   94.34140    1.68860    1.82470    1.82470    0.30950    0.30950    2.42340    2.18200 -115.21080   -5.75120    2.18200
 6650.00000   11.85780   11.85780  547.67510    0.11010    0.11010    2.46750    0.14090    0.14090    1.82590   98.21030   48.20240   98.21030    1.82590    1.94590    1.94590    0.25950    0.25950    2.46750    2.29430 -116.48250   -4.33360    2.29430
 6700.00000   11.97860   11.97860  518.96830    0.09910    0.09910    2.53050    0.10400    0.10400    1.92690  100.51830   51.53890  100.51830    1.92690    2.01260    2.01260    0.20920    0.20920    2.53050    2.55060 -120.52460   -8.97030    2.55060
 6750.00000   11.28050   11.28050  521.73010    0.05580    0.05580    2.52410    0.10780    0.10780    1.91670   95.77880   59.70660   95.77880    1.91670    2.05430    2.05430    0.23270    0.23270    2.52410    2.48460 -113.10540   -3.80120    2.48460
 6800.00000   10.74480   10.74480  271.98300   -0.00490   -0.00490    2.54630    0.09520    0.09520    3.67670   47.52560   39.66720   47.52560    3.67670    3.74720    3.74720    0.11500    0.11500    2.54630    4.27210 -113.66520  -11.31220    4.27210
