~Version ---------------------------------------------------
VERS.      2.0 : CWLS log ASCII Standard -VERSION 2.0
WRAP.      YES : Multiple lines per depth step
CREA. 08/01/20 : LAS Creation Date
~Well ------------------------------------------------------
STRT.FT                       3500.0 : START DEPTH
STOP.FT                       9850.0 : STOP DEPTH
STEP.FT                     50.00000 : STEP LENGTH
NULL.                        -999.25 : NULL VALUE
COMP. INTERNATIONAL DRILLING SYSTEMS : COMPANY
WELL.                        COOK #1 : WELL
FLD .                         KURTEN : FIELD
LOC .                                : LOCATION
CNTY.                         BRAZOS : COUNTY
STAT.                          TEXAS : STATE
CTRY.       UNITED STATES OF AMERICA : COUNTRY
SRVC.                   Schlumberger : SERVICE COMPANY
DATE.                    18-Apr-1986 : LOGDATE
API .                 42041313380000 : API NUMBER
UWI .                 42041313380000 : UNIQUE WELL ID
SLAT.WGS84             30.6850268218 : SURFACE LATITUDE
SLON.WGS84            -96.2700084962 : SURFACE LONGITUDE
~Curve Information -----------------------------------------
DEPT    .FT    : DEPTH FEET
BITSED  .IN    : BIT SIZE
CALWS   .IN    : CALIPER [DCALRED+BITS]
CILDED  .MMHO  : CONDUCTIVITY FROM DIL-SFL-CDL-CNL LOG FROM 2" SECTION
CONDWS  .MMHO  : CONDUCTIVITY [1000/DRESWS]
DCALRED .IN    : DIFFERENTIAL CALIPER FROM DIL-SFL-CDL-CNL LOG
DCORWS  .G/C3  : DENSITY CORRECTION [DRHOED]
DENWS   .G/C3  : FORMATION BULK DENSITY [CALC. DPOLSWS M=2.71, F=1.0]
DPHILSED.V/V   : DENSITY POROSITY LIMESTONE [ M=2.71,F=1.0] FROM DIL-SFL-CDL-CNL LOG
DPHISSED.V/V   : DENSITY POROSITY SANDSTONE [ M=2.68,F=1.0] FROM DIL-SFL-CDL-CNL LOG
DPOLSWS .V/V   : DENSITY POROSITY LIMESTONE [TOP DPHILSED 9130' DPHISSED CONVERTED TO LIMESTONE MATRIX M=2.71,F=1.0, SPL. TO 9741' DPHILSED TD]
DRESWS  .OHMM  : DEEP RESISTIVITY [ILDED]
DRHOED  .G/C3  : BULK DENSITY CORRECTION FROM DIL-SFL-CDL-CNL LOG
GRRED   .GAPI  : GAMMA RAY FROM DIL-SFL-CDL-CNL LOG
GRWS    .GAPI  : GAMMA RAY [GRRED]
ILD1ED  .OHMM  : DEEP INDUCTION RESISTIVITY FROM DIL-SFL-CDL-CNL LOG FROM 2" SECTION
ILDED   .OHMM  : DEEP INDUCTION RESISTIVITY FROM DIL-SFL-CDL-CNL LOG
ILMED   .OHMM  : MEDIUM INDUCTION RESISTIVITY FROM DIL-SFL-CDL-CNL LOG
MRESWS  .OHMM  : MEDIUM RESISTIVITY [ILMED]
NPHILSED.V/V   : NEUTRON POROSITY LIMESTONE FROM DIL-SFL-CDL-CNL LOG
NPHISSED.V/V   : NEUTRON POROSITY SANDSTONE FROM DIL-SFL-CDL-CNL LOG
NPOLSWS .V/V   : NEUTRON POROSITY LIMESTONE [TOP NPHILSED 9125' MATRIX CONVERSION FOR LIMESTONE (SLB-CNL) SPL. TO 9741' NPHILSED TD]
PEED    .B/E   : PHOTO ELECTRIC CROSS SECTION FROM DIL-SFL-CDL-CNL LOG
PEFWS   .B/E   : PHOTO ELECTRIC FACTOR [PEED]
SFLAED  .OHMM  : SPHERICALLY FOCUSED LOG RESISTIVITY FROM DIL-SFL-CDL-CNL LOG FROM 2" SECTION
SFLED   .OHMM  : SPHERICALLY FOCUSED LOG RESISTIVITY FROM DIL-SFL-CDL-CNL LOG
SPRED   .MV    : SPONTANEOUS POTENTIAL FROM DIL-SFL-CDL-CNL LOG
SPWS    .MV    : SPONTANEOUS POTENTIAL [BASELINE 0MV, SPRED]
SRESWS  .OHMM  : SHALLOW RESISTIVITY [SFLED]
TENRED  .LBF   : TENSION  FROM DIL-SFL-CDL-CNL LOG
~Params ----------------------------------------------------
PD  .                     GL : PERMANENT DATUM
EPD .FT                  300 : ELEVATION PERMANENT DATUM
LMF .                     KB : LOG MEASURED FROM
DAPD.FT                 18.6 : FEET ABOVE PERMANENT DATUM
DMF .                     KB : DRILLING MEASURED FROM
EKB .FT                318.6 : KELLY BUSHING
EDF .FT                317.6 : DRILLING FLOOR
EGL .FT                  300 : GROUND LEVEL
DATE.               04/18/86 : RUN DATE
RUN .                      1 : RUN NUMBER
DD  .FT                 9899 : DEPTH DRILLER
DL  .FT                 9877 : DEPTH LOGGER
BLI .FT                 9871 : BOTTOM LOG INTERVAL
TLI .FT                 3533 : TOP LOG INTERVAL
CS  .IN                9.625 : CASING SIZE
CBD .FT                 3532 : CASING BOTTOM DRILLER
CBL .FT                 3533 : CASING BOTTOM LOGGER
BS  .IN                 8.75 : BIT SIZE
BSD .FT                 9899 : BIT SIZE AT DEPTH
DFT .                  BENEX : DRILLING FLUID TYPE
DFD .                    9.2 : DRILLING FLUID DENSITY
DFV .                     44 : DRILLING FLUID VISCOSITY
DFPH.                      9 : DRILLING FLUID PH
DFL .                    5.8 : DRILLING FLUID LOSS
MSS .              CIRC TANK : MUD SAMPLE SOURCE
RMS .OHMM               3.66 : RESISTIVITY MUD SAMPLE
MST .DEGF                 96 : MUD SAMPLE TEMPERATURE
RMF .OHMM               2.67 : RESISTIVITY MUD FILTRATE SAMPLE
MFST.DEGF                 80 : MUD FILTRATE SAMPLE TEMPERATURE
RMC .OHMM               5.49 : RESISTIVITY MUD CAKE
MCST.DEGF                 96 : MUD CAKE SAMPLE TEMPERATURE
MFSS.                  PRESS : MUD FILTRATE SAMPLE SOURCE
MCSS.                  CHART : MUD CAKE SAMPLE SOURCE
RMB .OHMM               1.77 : RESISTIVITY MUD AT BHT
TCS .HRS                 600 : TIME CIRCULATED STOPPED
TLAB.HRS                1100 : TIME LOGGER AT BOTTOM
LUN .                   8137 : LOGGING UNIT NUMBER
LUL .                BRENHAM : LOGGING UNIT LOCATION
ENGI.                   ONEY : RECORDING ENGINEER
WITN.                MITCHAM : WITNESSED BY
CLNT.                A2DTECH : CLIENT CODE
ORIG.         1" 2" 5" PRINT : ORIGIN OF DATA
UWI .         42041313380000 : UNIQUE WELL ID
DICO. A2D Technologies, Inc. : DIGITIZING COMPANY
~Other -----------------------------------------------------
DIL-SFL-CDL-CNL LOG RUN.
SFLA_1,ILD_1,CILD VERYFIED FROM 2" LINEAR SECTION.
~ASCII -----------------------------------------------------
# ...
 4750.00000    8.75000   10.27050  519.94880  526.95370    1.52050    -999.25    -999.25    -999.25    -999.25    -999.25    1.89770    -999.25  118.16210  118.16210    1.90230    1.89770    1.96430    1.96430    -999.25    -999.25    -999.25    -999.25    -999.25    2.10700    2.03160    4.13050   -8.27650    2.03160 3132.38390
 4800.00000    8.75000   11.29300  554.26360  547.19560    2.54300    -999.25    -999.25    -999.25    -999.25    -999.25    1.82750    -999.25  114.81060  114.81060    1.85270    1.82750    1.86880    1.86880    -999.25    -999.25    -999.25    -999.25    -999.25    2.01690    2.06080    6.79480   -5.61220    2.06080 3164.47940
 4850.00000    8.75000   10.34360  527.82300  522.41150    1.59360    -999.25    -999.25    -999.25    -999.25    -999.25    1.91420    -999.25  125.89460  125.89460    1.94040    1.91420    1.95760    1.95760    -999.25    -999.25    -999.25    -999.25    -999.25    2.19550    2.15870    7.96150   -3.91140    2.15870 3226.13070
 4900.00000    8.75000    8.68080  475.87100  464.79200   -0.06920    -999.25    -999.25    -999.25    -999.25    -999.25    2.15150    -999.25   81.87170   81.87170    2.13180    2.15150    2.78580    2.78580    -999.25    -999.25    -999.25    -999.25    -999.25    5.54270    5.88260  -39.78920  -46.80690    5.88260 3270.28530
 4950.00000    8.75000    8.62760  387.92780  394.19740   -0.12240    -999.25    -999.25    -999.25    -999.25    -999.25    2.53680    -999.25   96.75440   96.75440    2.52550    2.53680    3.32930    3.32930    -999.25    -999.25    -999.25    -999.25    -999.25    5.75210    5.65250  -37.36280  -39.52530    5.65250 3178.42850
 5000.00000    8.75000    9.94840  429.42150  429.35040    1.19840    -999.25    -999.25    -999.25    -999.25    -999.25    2.32910    -999.25  106.42240  106.42240    2.36940    2.32910    2.38190    2.38190    -999.25    -999.25    -999.25    -999.25    -999.25    2.65670    2.68590   -7.63740   -7.23570    2.68590 3122.53620
 5050.00000    8.75000    8.95870  371.13330  360.43830    0.20870    -999.25    -999.25    -999.25    -999.25    -999.25    2.77440    -999.25  100.40750  100.40750    2.63820    2.77440    3.22970    3.22970    -999.25    -999.25    -999.25    -999.25    -999.25    4.92230    5.34970  -26.60490  -26.55480    5.34970 3114.65270
 5100.00000    8.75000    9.41230  411.73110  418.23500    0.66230    -999.25    -999.25    -999.25    -999.25    -999.25    2.39100    -999.25  105.79080  105.79080    2.42530    2.39100    2.44510    2.44510    -999.25    -999.25    -999.25    -999.25    -999.25    2.69810    2.71450   -4.77300   -5.07460    2.71450 3290.36320
 5150.00000    8.75000    9.58580  408.45490  406.33890    0.83580    -999.25    -999.25    -999.25    -999.25    -999.25    2.46100    -999.25   92.75730   92.75730    2.61730    2.46100    2.51590    2.51590    -999.25    -999.25    -999.25    -999.25    -999.25    3.31760    3.36010  -13.42950  -14.08270    3.36010 3338.89930
 5200.00000    8.75000    9.75690  427.99220  428.24720    1.00690    -999.25    -999.25    -999.25    -999.25    -999.25    2.33510    -999.25  104.09060  104.09060    2.31480    2.33510    2.41820    2.41820    -999.25    -999.25    -999.25    -999.25    -999.25    2.81830    2.95080   -9.13090  -10.13570    2.95080 3353.83670
 5250.00000    8.75000    9.79630  499.28140  491.56960    1.04630    -999.25    -999.25    -999.25    -999.25    -999.25    2.03430    -999.25  107.02730  107.02730    2.03090    2.03430    2.08020    2.08020    -999.25    -999.25    -999.25    -999.25    -999.25    2.42050    2.33090   -5.51410   -6.87060    2.33090 3403.72990
 5300.00000    8.75000    9.25640  469.40900  460.21450    0.50640    -999.25    -999.25    -999.25    -999.25    -999.25    2.17290    -999.25   98.27040   98.27040    2.08290    2.17290    2.22210    2.22210    -999.25    -999.25    -999.25    -999.25    -999.25    2.40730    2.41610   -4.66770   -6.37580    2.41610 3481.48610
 5350.00000    8.75000    9.22390  520.24750  537.46100    0.47390    -999.25    -999.25    -999.25    -999.25    -999.25    1.86060    -999.25  109.55420  109.55420    1.90410    1.86060    1.90380    1.90380    -999.25    -999.25    -999.25    -999.25    -999.25    2.14610    2.00940   -5.53380   -7.59350    2.00940 3465.85440
 5400.00000    8.75000    9.03930  468.64480  463.52090    0.28930    -999.25    -999.25    -999.25    -999.25    -999.25    2.15740    -999.25   93.40360   93.40360    2.10540    2.15740    2.20450    2.20450    -999.25    -999.25    -999.25    -999.25    -999.25    2.44130    2.47960   -5.55800   -7.96940    2.47960 3612.79160
 5450.00000    8.75000    9.03600  419.00820  406.53710    0.28600    -999.25    -999.25    -999.25    -999.25    -999.25    2.45980    -999.25  109.87250  109.87250    2.40760    2.45980    2.51540    2.51540    -999.25    -999.25    -999.25    -999.25    -999.25    2.79170    2.79240   -5.18720   -7.95020    2.79240 3819.27650
 5500.00000    8.75000   10.64470  465.28370  469.77030    1.89470    -999.25    -999.25    -999.25    -999.25    -999.25    2.12870    -999.25  103.42170  103.42170    2.20700    2.12870    2.17750    2.17750    -999.25    -999.25    -999.25    -999.25    -999.25    2.39800    2.44240   -2.68800   -5.80260    2.44240 3649.24880
 5550.00000    8.75000   11.61260  431.73420  441.81320    2.86260    -999.25    -999.25    -999.25    -999.25    -999.25    2.26340    -999.25   92.89090   92.89090    2.28810    2.26340    2.29320    2.29320    -999.25    -999.25    -999.25    -999.25    -999.25    2.58070    2.51730   -6.76780  -10.23410    2.51730 3720.90380
 5600.00000    8.75000   11.74640  547.38870  554.41590    2.99640    -999.25    -999.25    -999.25    -999.25    -999.25    1.80370    -999.25  111.14280  111.14280    1.84500    1.80370    1.82760    1.82760    -999.25    -999.25    -999.25    -999.25    -999.25    2.07870    2.07630   -4.03580   -7.85370    2.07630 3728.41920
 5650.00000    8.75000   11.39340  599.20650  597.90730    2.64340    -999.25    -999.25    -999.25    -999.25    -999.25    1.67250    -999.25   99.91710   99.91710    1.69520    1.67250    1.69480    1.69480    -999.25    -999.25    -999.25    -999.25    -999.25    1.96420    1.98240   -4.49160   -8.66110    1.98240 3702.13420
 5700.00000    8.75000   11.52360  645.80480  657.15980    2.77360    -999.25    -999.25    -999.25    -999.25    -999.25    1.52170    -999.25  112.24710  112.24710    1.52200    1.52170    1.54310    1.54310    -999.25    -999.25    -999.25    -999.25    -999.25    1.76900    1.81370   -4.43820   -8.95940    1.81370 3654.97310
 5750.00000    8.75000   11.75840  586.87740  601.90200    3.00840    -999.25    -999.25    -999.25    -999.25    -999.25    1.66140    -999.25   98.42210   98.42210    1.75890    1.66140    1.68220    1.68220    -999.25    -999.25    -999.25    -999.25    -999.25    2.04210    2.14170   -3.83840   -8.71120    2.14170 3600.41160
 5800.00000    8.75000   11.18960  624.83320  633.91440    2.43960    -999.25    -999.25    -999.25    -999.25    -999.25    1.57750    -999.25  105.87420  105.87420    1.59440    1.57750    1.59860    1.59860    -999.25    -999.25    -999.25    -999.25    -999.25    1.86530    1.84110   -1.68260   -6.90700    1.84110 3739.05700
 5850.00000    8.75000   10.89200  539.44710  525.87290    2.14200    -999.25    -999.25    -999.25    -999.25    -999.25    1.90160    -999.25  109.22850  109.22850    1.82830    1.90160    1.92840    1.92840    -999.25    -999.25    -999.25    -999.25    -999.25    2.08940    2.16270   -1.32290   -6.89890    2.16270 3583.19460
 5900.00000    8.75000    9.19460  462.17950  458.77870    0.44460    -999.25    -999.25    -999.25    -999.25    -999.25    2.17970    -999.25  111.93170  111.93170    2.18980    2.17970    2.20870    2.20870    -999.25    -999.25    -999.25    -999.25    -999.25    2.53510    2.53440   -1.42760   -7.35530    2.53440 3633.47270
 5950.00000    8.75000    8.57320  430.38990  436.58590   -0.17680    -999.25    -999.25    -999.25    -999.25    -999.25    2.29050    -999.25  103.68000  103.68000    2.43780    2.29050    2.33790    2.33790    -999.25    -999.25    -999.25    -999.25    -999.25    2.87640    2.68520   -4.16190  -10.44120    2.68520 3575.69240
