~Version ---------------------------------------------------
VERS. 2.0 : CWLS log ASCII Standard -VERSION 2.0
WRAP. YES : MULTIPLE LINES PER DEPTH STEP
~Well ------------------------------------------------------
STRT.FT                 2050.0 : START DEPTH
STOP.FT                15100.0 : STOP DEPTH
STEP.FT               50.00000 : STEP LENGTH
NULL.                  -999.25 : NULL VALUE
COMP. BUTTES RESOURCES COMPANY : COMPANY
WELL.             KING GAIL #1 : WELL
FLD .                  WILDCAT : FIELD
LOC .                          : LOCATION
CNTY.                     LEON : COUNTY
STAT.                    TEXAS : STATE
CTRY. UNITED STATES OF AMERICA : COUNTRY
SRVC.             Schlumberger : SERVICE COMPANY
DATE.              13-Apr-1977 : LOGDATE
API .           42289301060000 : API NUMBER
UWI .           42289301060000 : UNIQUE WELL ID
SLAT.WGS84        31.383896527 : SURFACE LATITUDE
SLON.WGS84      -96.2493859425 : SURFACE LONGITUDE
~Curve Information -----------------------------------------
DEPT    .FT    : DEPTH FEET
CALDED  .IN    : CALIPER FROM DENSITY LOG [AJD TO ILDED]
CALWS   .IN    : CALIPER [CALDED]
CONDWS  .MMHO  : CONDUCTIVITY [1000/DRESWS]
CORRED  .G/C3  : DENSITY CORRECTION FROM DENSITY LOG [AJD TO ILDED]
DCORWS  .G/C3  : DENSITY CORRECTION [CORRED]
DENWS   .G/C3  : BULK DENSITY [M=2.71 F=1.0] [CALCULATED FROM DPOWS]
DPHILSED.V/V   : DENSITY POROSITY [M=2.71 F=1.0] FROM DENSITY LOG [AJD TO ILDED]
DPOWS   .V/V   : DENSITY POROSITY [M=2.71 F=1.0] [DPHILSED]
DRESWS  .OHMM  : DEEP RESISTIVITY [ILDED]
DRHOED  .G/C3  : DENSITY CORRECTION FROM DENSITY LOG [AJD TO ILDED]
DTED    .US/F  : DELTA TIME FROM SONIC LOG [AJD TO RHOBED]
DTWS    .US/F  : DELTA TIME [DTED]
GRDED   .GAPI  : GAMMA RAY FROM DENSITY LOG [AJD TO ILDED]
GRWS    .GAPI  : GAMMA RAY [GRDED]
ILDED   .OHMM  : INDUCTION LOG DEEP RESISTIVITY
ILMED   .OHMM  : INDUCTION LOG MEDIUM RESISTIVITY
LL8ED   .OHMM  : 8 INCH LATEROLOG RESISTIVITY
MCALED  .IN    : CALIPER MICROLOG [AJD TO SPRED]
MRESWS  .OHMM  : MEDIUM RESISTIVITY [ILMED]
NPHILSED.V/V   : NEUTRON POROSITY LIMESTONE FROM DENSITY LOG [AJD TO ILDED]
NPOWS   .V/V   : NEUTRON POROSITY LIMESTONE [NPHILSED]
RHOBED  .G/C3  : BULK DENSITY FROM DENSITY LOG [AJD TO ILDED]
SFLED   .OHMM  : SPHERICALLY FOCUSED LOG RESISTIVITY [AJD TO ILDED]
SPMED   .MV    : SPONTANEOUS POTENTIAL FROM MICROLOGLOG [AJD TO SPRED]
SPRED   .MV    : SPONTANEOUS POTENTIAL FROM RESISTIVITY LOG
SPWS    .MV    : SPONTANEOUS POTENTIAL [BASELINE 0 MV] [SPRED]
SRESWS  .OHMM  : SHALLOW RESISTIVITY [SPL SFLED <14485> LL8ED]
TENDED  .LBF   : TENSION FROM DENSITY LOG
~Params ----------------------------------------------------
PD  .                     GL : PERMANENT DATUM
EPD .FT                  503 : ELEVATION PERMANENT DATUM
LMF .                     KB : LOG MEASURED FROM
DAPD.FT                   18 : FEET ABOVE PERMANENT DATUM
DMF .                     KB : DRILLING MEASURED FROM
EKB .FT                  521 : KELLY BUSHING
EDF .FT                  520 : DRILLING FLOOR
EGL .FT                  503 : GROUND LEVEL
DATE.               04/13/77 : RUN DATE
RUN .                      1 : RUN NUMBER
DD  .FT                15147 : DEPTH DRILLER
DL  .FT                15148 : DEPTH LOGGER
BLI .FT                15147 : BOTTOM LOG INTERVAL
TLI .FT                13098 : TOP LOG INTERVAL
CS  .IN                    7 : CASING SIZE
CBD .FT                13097 : CASING BOTTOM DRILLER
CBL .FT                13098 : CASING BOTTOM LOGGER
BS  .IN                    6 : BIT SIZE
BSD .FT                15147 : BIT SIZE AT DEPTH
DFT .               LOW LIME : DRILLING FLUID TYPE
DFD .                   15.7 : DRILLING FLUID DENSITY
DFV .                     48 : DRILLING FLUID VISCOSITY
DFPH.                   12.5 : DRILLING FLUID PH
DFL .                   10.8 : DRILLING FLUID LOSS
MSS .                    PIT : MUD SAMPLE SOURCE
RMS .OHMM               0.89 : RESISTIVITY MUD SAMPLE
MST .DEGF                 75 : MUD SAMPLE TEMPERATURE
RMF .OHMM               0.67 : RESISTIVITY MUD FILTRATE SAMPLE
MFST.DEGF                 75 : MUD FILTRATE SAMPLE TEMPERATURE
RMC .OHMM               0.34 : RESISTIVITY MUD CAKE
MCST.DEGF                 75 : MUD CAKE SAMPLE TEMPERATURE
MFSS.                      M : MUD FILTRATE SAMPLE SOURCE
MCSS.                      C : MUD CAKE SAMPLE SOURCE
RMB .OHMM               0.21 : RESISTIVITY MUD AT BHT
TCS .HRS                2000 : TIME CIRCULATED STOPPED
TLAB.HRS                 300 : TIME LOGGER AT BOTTOM
LUN .                   7659 : LOGGING UNIT NUMBER
LUL .                 DAYTON : LOGGING UNIT LOCATION
ENGI.          CHENAULT EAST : RECORDING ENGINEER
WITN.                  MILES : WITNESSED BY
CLNT.                A2DTECH : CLIENT CODE
ORIG.            2" 5" PRINT : ORIGIN OF DATA
UWI .         42289301060000 : UNIQUE WELL ID
DICO. A2D Technologies, Inc. : DIGITIZING COMPANY
~Other -----------------------------------------------------
~ASCII -----------------------------------------------------
# ...
 12050.00000   10.85590   10.85590   15.96100    0.02390    -999.25    2.54500    0.09650    0.09650   62.65280    -999.25    -999.25    -999.25   26.51850   26.51850   62.65280   33.04360    -999.25    -999.25   33.04360    0.00370    0.00370    -999.25  142.36890    -999.25  -70.17090  -40.87610  142.36890    -999.25
 12100.00000   12.38890   12.38890  124.50040    0.01990    -999.25    2.28340    0.24950    0.24950    8.03210    -999.25    -999.25    -999.25   93.28000   93.28000    8.03210    8.67230    -999.25    -999.25    8.67230    0.15190    0.15190    -999.25   14.79040    -999.25  -29.46310   -0.58320   14.79040    -999.25
 12150.00000   11.75290   11.75290   22.54300    0.07310    -999.25    2.57710    0.07770    0.07770   44.35960    -999.25    -999.25    -999.25   43.86530   43.86530   44.35960   31.63850    -999.25    -999.25   31.63850    0.07300    0.07300    -999.25   39.41290    -999.25  -46.00330  -17.53830   39.41290    -999.25
 12200.00000   11.05310   11.05310   32.26830    0.03370    -999.25    2.38190    0.19190    0.19190   30.99020    -999.25    -999.25    -999.25   28.14830   28.14830   30.99020   37.95120    -999.25    -999.25   37.95120    0.02240    0.02240    -999.25   77.31300    -999.25  -85.62060  -57.57050   77.31300    -999.25
 12250.00000    -999.25    -999.25   26.63500    -999.25    -999.25    -999.25    -999.25    -999.25   37.54460    -999.25    -999.25    -999.25    -999.25    -999.25   37.54460   17.74090    -999.25    -999.25   17.74090    -999.25    -999.25    -999.25   51.15060    -999.25  -59.16720  -31.53210   51.15060    -999.25
 12300.00000   10.97050   10.97050   25.19300    0.02200    -999.25    2.51160    0.11600    0.11600   39.69360    -999.25    -999.25    -999.25   28.76400   28.76400   39.69360   22.67450    -999.25    -999.25   22.67450    0.00930    0.00930    -999.25  179.66110    -999.25  -88.16080  -61.28810  179.66110    -999.25
 12350.00000   12.98810   12.98810   44.24230    0.05200    -999.25    2.29210    0.24440    0.24440   22.60280    -999.25    -999.25    -999.25   57.37830   57.37830   22.60280   16.98010    -999.25    -999.25   16.98010    0.02890    0.02890    -999.25   36.29470    -999.25  -53.60830  -27.59600   36.29470    -999.25
 12400.00000   12.28740   12.28740   23.33440    0.04270    -999.25    2.38820    0.18820    0.18820   42.85520    -999.25    -999.25    -999.25   25.23530   25.23530   42.85520   37.14430    -999.25    -999.25   37.14430    0.02800    0.02800    -999.25   80.14650    -999.25 -100.32440  -75.17260   80.14650    -999.25
 12450.00000   12.96460   12.96460  136.80450    0.04580    -999.25    2.21560    0.28910    0.28910    7.30970    -999.25    -999.25    -999.25   24.59400   24.59400    7.30970    6.72480    -999.25    -999.25    6.72480    0.02970    0.02970    -999.25   21.71000    -999.25 -114.98220  -90.69080   21.71000    -999.25
 12500.00000   11.07820   11.07820   14.30960    0.05240    -999.25    2.45130    0.15130    0.15130   69.88330    -999.25    -999.25    -999.25   24.86170   24.86170   69.88330   38.06330    -999.25    -999.25   38.06330    0.01270    0.01270    -999.25  117.72110    -999.25  -85.30610  -61.87520  117.72110    -999.25
 12550.00000   11.02860   11.02860   31.24270    0.00590    -999.25    2.61130    0.05770    0.05770   32.00750    -999.25    -999.25    -999.25   39.84990   39.84990   32.00750   25.41440    -999.25    -999.25   25.41440    0.04870    0.04870    -999.25   95.31170    -999.25  -55.17970  -32.60920   95.31170    -999.25
 12600.00000   11.91540   11.91540  101.99810   -0.00030    -999.25    2.43400    0.16140    0.16140    9.80410    -999.25    -999.25    -999.25   81.87520   81.87520    9.80410   10.41730    -999.25    -999.25   10.41730   -0.15100   -0.15100    -999.25   20.20310    -999.25  -49.48150  -27.77150   20.20310    -999.25
 12650.00000   11.52970   11.52970   15.70830    0.02410    -999.25    2.48940    0.12900    0.12900   63.66070    -999.25    -999.25    -999.25   19.74770   19.74770   63.66070   26.41420    -999.25    -999.25   26.41420   -0.00310   -0.00310    -999.25  179.40160    -999.25  -79.89040  -59.04080  179.40160    -999.25
 12700.00000   12.30940   12.30940   21.26190    0.06040    -999.25    2.29910    0.24030    0.24030   47.03240    -999.25    -999.25    -999.25   25.75170   25.75170   47.03240   27.33150    -999.25    -999.25   27.33150    0.01300    0.01300    -999.25   77.54110    -999.25  -93.08110  -73.09200   77.54110    -999.25
 12750.00000   13.77620   13.77620  207.28400    0.04510    -999.25    2.01250    0.40790    0.40790    4.82430    -999.25    -999.25    -999.25   89.99330   89.99330    4.82430    5.53380    -999.25    -999.25    5.53380    0.13430    0.13430    -999.25   11.40630    -999.25  -48.35310  -29.22440   11.40630    -999.25
 12800.00000   12.25140   12.25140   29.87730    0.05650    -999.25    2.32560    0.22480    0.22480   33.47020    -999.25    -999.25    -999.25   29.89610   29.89610   33.47020   31.90210    -999.25    -999.25   31.90210    0.02420    0.02420    -999.25   61.00820    -999.25  -83.56770  -65.29950   61.00820    -999.25
 12850.00000   11.37430   11.37430   29.38140    0.07050    -999.25    2.56120    0.08700    0.08700   34.03510    -999.25    -999.25    -999.25   29.43200   29.43200   34.03510   30.87810    -999.25    -999.25   30.87810    0.01320    0.01320    -999.25   62.76460    -999.25  -91.99360  -74.58580   62.76460    -999.25
 12900.00000   13.14310   13.14310   28.23220    0.06050    -999.25    2.15960    0.32190    0.32190   35.42050    -999.25    -999.25    -999.25   26.83040   26.83040   35.42050   22.26770    -999.25    -999.25   22.26770    0.00970    0.00970    -999.25   69.02410    -999.25  -65.06760  -48.52030   69.02410    -999.25
 12950.00000   11.71000   11.71000   40.98600    0.03450    -999.25    2.62130    0.05190    0.05190   24.39860    -999.25    -999.25    -999.25   77.89530   77.89530   24.39860   17.00510    -999.25    -999.25   17.00510    0.09350    0.09350    -999.25   87.46240    -999.25  -58.84290  -43.15600   87.46240    -999.25
 13000.00000   11.39800   11.39800   44.21470    0.06380    -999.25    2.46840    0.14130    0.14130   22.61690    -999.25    -999.25    -999.25   32.18610   32.18610   22.61690   15.69270    -999.25    -999.25   15.69270    0.01540    0.01540    -999.25   47.46990    -999.25  -84.78200  -69.95560   47.46990    -999.25
 13050.00000   11.31630   11.31630   31.50640    0.03060    -999.25    2.49900    0.12340    0.12340   31.73960    -999.25    -999.25    -999.25   31.12320   31.12320   31.73960   37.51500    -999.25    -999.25   37.51500    0.01120    0.01120    -999.25   70.51250    -999.25  -68.59270  -54.62670   70.51250    -999.25
 13100.00000   10.47430   10.47430  114.40470    0.03700    -999.25    2.50920    0.11740    0.11740    8.74090    -999.25   74.25240   74.25240   87.51450   87.51450    8.74090   10.33150   12.95520    -999.25   10.33150    0.20860    0.20860    -999.25   17.23220    -999.25  -40.60630  -27.50080   17.23220    -999.25
 13150.00000    6.40770    6.40770  110.42770    -999.25   -0.15530    2.70040    0.00560    0.00560    9.05570   -0.15530   59.93090   59.93090   29.67920   29.67920    9.05570    9.11090   15.67960    -999.25    9.11090    0.05240    0.05240    2.69800   14.93960    -999.25  -50.15680  -37.91170   14.93960    -999.25
 13200.00000    6.24670    6.24670  103.73770    -999.25   -0.14080    2.66590    0.02580    0.02580    9.63970   -0.14080   68.60110   68.60110   86.29990   86.29990    9.63970    8.18410    9.81450    -999.25    8.18410    0.12270    0.12270    2.68160   10.65590    -999.25  -17.03210   -5.64750   10.65590    -999.25
 13250.00000    6.24620    6.24620   81.53950    -999.25   -0.11370    2.62420    0.05020    0.05020   12.26400   -0.11370   69.83610   69.83610   69.71340   69.71340   12.26400    9.08650    8.97010    -999.25    9.08650    0.10270    0.10270    2.62810   11.88250    -999.25  -18.63770   -7.21260   11.88250    -999.25
