~Version ---------------------------------------------------
VERS. 2.0 : CWLS log ASCII Standard -VERSION 2.0
WRAP.  NO : ONE LINE PER DEPTH STEP
~Well ------------------------------------------------------
STRT.F                     300.0 : START DEPTH
STOP.F                    5250.0 : STOP DEPTH
STEP.F                  50.00000 : STEP LENGTH
NULL.                    -999.25 : NULL VALUE
COMP. ULTRAMAR OIL & GAS LIMITED : COMPANY
WELL.     EISENHAUER CLIFFORD #1 : WELL
FLD .                         WC : FIELD
LOC .                            : LOCATION
CNTY.                   ATASCOSA : COUNTY
STAT.                      TEXAS : STATE
CTRY.   UNITED STATES OF AMERICA : COUNTRY
SRVC.               Schlumberger : SERVICE COMPANY
DATE.                26-Feb-1984 : LOGDATE
API .             42013325590000 : API NUMBER
UWI .             42013325590000 : UNIQUE WELL ID
SLAT.WGS84         28.9866777383 : SURFACE LATITUDE
SLON.WGS84        -98.7030402947 : SURFACE LONGITUDE
~Curve Information -----------------------------------------
DEPT.F                 : 
GRR .GAPI 07 310 01 00 : GAMMA RAY FROM RES. LOG.
DT  .US/F 60 520 00 00 : INTERVAL TRANSIT TIME
ILD .OHMM 07 120 46 00 : INDUCTION LOG DEEP
ILM .OHMM 07 120 44 00 : INDUCTION LOG MEDIUM
SFLU.OHMM 07 220 01 00 : SPHERICALLY FOCUSED LOG UNAVERAGED RESISTIVITY
SPR .MV   07 010 01 00 : SPONTANEOUS POTENTIAL FROM RES.
DCAL.IN   06 280 30 00 : DIFFERENTIAL CALIPER
~Params ----------------------------------------------------
PD  .                     GL : PERMANENT DATUM
EPD .FT                  528 : ELEVATION PERMANENT DATUM
LMF .                     KB : LOG MEASURED FROM
DAPD.FT                   12 : FEET ABOVE PERMANENT DATUM
DMF .                     KB : DRILLING MEASURED FROM
EKB .FT                  540 : KELLY BUSHING
EDF .FT                  539 : DRILLING FLOOR
EGL .FT                  528 : GROUND LEVEL
DATE.               02/26/84 : RUN DATE
RUN .                      2 : RUN NUMBER
DD  .FT                 5260 : DEPTH DRILLER
DL  .FT                 5256 : DEPTH LOGGER
BLI .FT                 5250 : BOTTOM LOG INTERVAL
TLI .FT                 2595 : TOP LOG INTERVAL
CS  .IN                9.625 : CASING SIZE
CBD .FT                 2595 : CASING BOTTOM DRILLER
CBL .FT                 2595 : CASING BOTTOM LOGGER
BS  .IN                 8.75 : BIT SIZE
BSD .FT                 5260 : BIT SIZE AT DEPTH
DFT .                TAN GEL : DRILLING FLUID TYPE
DFD .                    9.5 : DRILLING FLUID DENSITY
DFV .                     38 : DRILLING FLUID VISCOSITY
DFPH.                   10.5 : DRILLING FLUID PH
DFL .                    7.8 : DRILLING FLUID LOSS
MSS .                    PIT : MUD SAMPLE SOURCE
RMS .OHMM               2.95 : RESISTIVITY MUD SAMPLE
MST .DEGF                 75 : MUD SAMPLE TEMPERATURE
RMF .OHMM               2.21 : RESISTIVITY MUD FILTRATE SAMPLE
MFST.DEGF                 75 : MUD FILTRATE SAMPLE TEMPERATURE
RMC .OHMM               3.22 : RESISTIVITY MUD CAKE
MCST.DEGF                 75 : MUD CAKE SAMPLE TEMPERATURE
MFSS.                  PRESS : MUD FILTRATE SAMPLE SOURCE
MCSS.                   MEAS : MUD CAKE SAMPLE SOURCE
RMB .OHMM                1.7 : RESISTIVITY MUD AT BHT
TCS .HRS                 600 : TIME CIRCULATED STOPPED
TLAB.HRS                 830 : TIME LOGGER AT BOTTOM
LUN .                   8329 : LOGGING UNIT NUMBER
LUL .                  PLEAS : LOGGING UNIT LOCATION
ENGI.                TOMBARI : RECORDING ENGINEER
WITN.                CALVERT : WITNESSED BY
CLNT.                A2DTECH : CLIENT CODE
ORIG.         1" 2" 5" PRINT : ORIGIN OF DATA
UWI .         42013325590000 : UNIQUE WELL ID
DICO. A2D Technologies, Inc. : DIGITIZING COMPANY
~Other -----------------------------------------------------
~ASCII -----------------------------------------------------
  300.00000   54.60450  145.20370    6.32170    6.53480    7.61870    0.33050    -999.25
  350.00000   52.06180  142.83650    5.75560    5.98090    6.77750    0.82460    -999.25
  400.00000   65.90110  156.22340    3.05820    3.15970    3.57280    3.29360    -999.25
  450.00000   31.55200  147.82170   22.60110   20.43810   19.09460  -22.02730    -999.25
  500.00000   47.87340  148.30920   18.87030   16.89350   20.43450  -14.25690    -999.25
  550.00000   32.77080  132.32730   38.27990   31.67750   30.21410  -26.22220    -999.25
  600.00000   73.25620  137.35740    8.19010    7.71630    6.17220    7.52520    -999.25
  650.00000   51.55100  131.72700   78.98020   50.50920   45.64330  -24.02970    -999.25
  700.00000   67.34900  125.45820   20.01820   17.79550   18.32030    1.90970    -999.25
  750.00000   34.73640  132.33380  124.76330   62.36210   57.57010  -28.17240    -999.25
  800.00000   50.90590  134.26370   56.31640   33.68200   31.76000  -16.25950    -999.25
  850.00000   34.00530  136.73770  123.64370   60.85960   56.20380  -25.04720    -999.25
  900.00000   23.56260  121.07750  242.55620   78.08380   72.14960  -26.59770    -999.25
  950.00000   29.95070  128.85350  174.41020   64.45720   62.47700  -30.29470    -999.25
 1000.00000   27.09370  129.70420  181.13090   68.68480   64.50260  -34.34110    -999.25
 1050.00000   37.03730  122.46880   84.37260   50.43450   44.46990  -32.83160    -999.25
 1100.00000   29.11670  127.28260  112.69060   57.46500   51.99240  -34.73250    -999.25
 1150.00000   22.42810  125.41760  144.09400   63.26400   56.32240  -34.88640    -999.25
 1200.00000   31.73110  125.94870   82.95230   52.56350   47.42540  -31.89640    -999.25
 1250.00000   34.40590  127.92350   94.94810   52.93220   48.00580  -33.53610    -999.25
 1300.00000   48.07360  115.95600   82.20670   55.73210   51.91640  -24.17620    -999.25
 1350.00000   40.62750  118.42280   71.36630   46.63830   41.74730  -31.46390    -999.25
 1400.00000   36.13510  128.91180   78.01290   44.72110   42.62250  -29.57020    -999.25
 1450.00000   82.83810  127.76310    8.82260    8.14160    7.44760    6.86830    -999.25
 1500.00000   56.69750  127.84240    9.84910    9.26010    8.31130   -4.57310    -999.25
 1550.00000   52.59400  124.14950   21.87070   20.42340   19.94220  -12.83280    -999.25
 1600.00000   75.44180   92.38980   12.89670   11.92700   10.57540   -9.67480    -999.25
 1650.00000   71.40290  127.64610    5.12220    4.95350    5.53000   -3.49950    -999.25
 1700.00000   71.81680  121.99320    7.78150    6.50650    9.64560   -8.62300    -999.25
 1750.00000   77.07880  121.46090    5.80650    5.60230    5.37910   -0.91150    -999.25
 1800.00000   69.52550  125.26540    4.81700    4.59190    5.57860    0.95390    -999.25
 1850.00000   50.23740  125.30500    6.59020    6.28720    6.95960   -2.65400    -999.25
 1900.00000   48.05690  117.88730   14.98760   14.58480   14.00150  -12.67830    -999.25
 1950.00000   46.32600  120.77190   11.98980   11.63240   11.38780  -10.58080    -999.25
 2000.00000   60.29240  108.92280    8.97460    8.29150    9.68760    2.14440    -999.25
 2050.00000   66.77060  119.70000    7.96390    7.31910    8.86480   -8.47140    -999.25
 2100.00000   53.29200   99.55220   14.55670   14.06570   20.34820  -11.64580    -999.25
 2150.00000   48.44520  120.08350   16.49830   14.91660   14.37580  -19.80640    -999.25
 2200.00000   45.89270  114.55460   16.64580   16.39920   15.64510  -18.05400    -999.25
 2250.00000   56.13030  114.94610    9.72840    9.57470    9.19290  -15.58660    -999.25
 2300.00000   78.46630  120.31580    2.34620    2.26860    2.74100    3.35790    -999.25
 2350.00000   68.58520  115.18890    3.93670    3.74210    3.55980   -1.95970    -999.25
 2400.00000   36.35620  116.13810   10.08470    9.80330   11.09990  -18.44390    -999.25
 2450.00000   56.75420  113.83470    3.91590    4.19230    3.43750   -6.00860    -999.25
 2500.00000   80.69500  113.65130    2.93810    3.04830    3.60030   -3.89510    -999.25
 2550.00000    -999.25  114.09380    2.99420    3.07620    3.23020   -5.33370    -999.25
 2600.00000   95.57160  118.83640    2.14290    2.36400    3.21880  -32.53430   -0.01920
 2650.00000   79.48950  112.49070    3.34570    3.17310    2.98560  -37.22080    0.20670
 2700.00000   80.44540  110.18270    3.02450    2.91250    2.82130  -35.40750    0.72870
 2750.00000   90.20770  120.26970    1.74040    1.82190    1.88500  -34.97680   -0.26000
 2800.00000   91.14670  122.88820    1.70030    1.77970    1.95640  -37.31790   -0.16020
 2850.00000   90.64040  117.34700    1.92470    2.01470    2.15180  -36.24300   -0.68420
 2900.00000  102.75270  125.46620    1.32160    1.29090    1.10350  -33.66230   -0.02420
 2950.00000   64.02250  103.50790    2.08830    2.18820    2.32280  -32.98140   -0.52500
 3000.00000   67.54990  108.10340    1.84550    1.89290    2.00110  -34.28900   -0.29910
 3050.00000   79.53500  109.11320    1.91280    1.98650    2.12890  -30.86650    0.54070
 3100.00000   66.01300  108.68160    2.19060    2.26060    2.33110  -38.10220    1.20960
 3150.00000   70.95690  108.35750    2.23470    2.31380    2.35630  -36.69250   -0.32140
 3200.00000   59.22980   94.94580    2.54670    2.67580    3.05880  -34.62790   -0.47710
 3250.00000   58.44530   92.38240    3.39890    3.76300    4.25750  -36.96320   -0.66880
 3300.00000   66.35710  104.50340    2.31360    2.38110    2.65120  -34.04760    0.60250
 3350.00000   77.20790  117.16350    1.43590    1.49970    1.63050  -31.66290    0.76330
 3400.00000   69.75120  108.04780    1.93290    1.98190    2.18510  -32.81910    1.55890
 3450.00000   76.71230  114.32360    1.58850    1.65340    1.93480  -32.03260    0.46800
 3500.00000   60.73300  106.89420    1.98100    2.03420    2.25110  -31.55260    2.20700
 3550.00000   72.25850  106.85300    1.82000    1.88350    2.12170  -33.48560    0.16600
 3600.00000   65.92040  106.60530    2.02780    2.10390    2.18410  -33.17920    1.66880
 3650.00000   61.79090  108.84560    1.94240    2.01640    2.13190  -30.91360    3.02200
 3700.00000   73.80730  110.24790    1.79880    1.91770    2.03180  -27.15450    2.41990
 3750.00000   57.44610   91.35110    3.65040    3.54800    3.29840  -22.42250   -0.48200
 3800.00000   73.02530  103.03200    1.51640    1.57810    1.77250  -25.02900    0.80080
 3850.00000   83.90200   97.38810    2.04310    2.12490    2.23830  -24.54780   -0.44060
 3900.00000   88.66020   97.11630    2.23140    2.20190    2.17170  -30.62300   -0.28990
 3950.00000   74.37260   95.97340    2.20550    2.13190    1.85270  -30.56240   -0.42700
 4000.00000   79.98360   98.72390    1.83700    1.89360    1.98480  -24.09830    1.46630
 4050.00000   82.66830   99.65070    1.75660    1.83170    1.96570  -20.14750    1.54360
 4100.00000   87.30390  107.48760    1.45200    1.51150    1.56120  -22.75310    2.89350
 4150.00000   87.16100   94.95220    2.10470    2.19550    2.35080  -19.18250    0.33750
 4200.00000   79.86320  101.75890    1.74580    1.78010    1.86260  -17.66100    1.82950
 4250.00000   77.29660  104.66800    1.50580    1.55880    1.73490  -18.87250    2.62890
 4300.00000   81.41480  110.79450    1.05010    1.09350    1.24700  -15.31100    2.25740
 4350.00000   83.65320  107.04650    1.19100    1.24110    1.48230  -16.30030    2.82480
 4400.00000   75.29780   90.31460    2.87510    3.05460    3.20760  -15.00070    1.32420
 4450.00000   75.37970   98.68370    1.85170    1.94730    2.08180  -15.54360    2.83370
 4500.00000   80.40000   96.26240    2.02740    1.95360    1.71250  -13.77430    1.68580
 4550.00000   55.41190   85.51080    3.23660    3.31630    3.58440  -11.14990    1.29900
 4600.00000   42.78650   85.87460    5.45860    4.82850    3.77700  -12.24260    0.91960
 4650.00000   39.89460   74.01510    5.29360    5.21910    4.98470   -6.64170    1.72920
 4700.00000   38.24020   70.26580    6.56470    6.09280    5.75700   -6.17630    1.05570
 4750.00000   38.70480   74.64110    5.82700    5.86420    6.19370   -4.72390    3.33970
