~Version ---------------------------------------------------
VERS. 2.0 : CWLS log ASCII Standard -VERSION 2.0
WRAP. YES : MULTIPLE LINES PER DEPTH STEP
~Well ------------------------------------------------------
STRT.FT                  300.0 : START DEPTH
STOP.FT                14000.0 : STOP DEPTH
STEP.FT               50.00000 : STEP LENGTH
NULL.                  -999.25 : NULL VALUE
COMP.      MGF OIL CORPORATION : COMPANY
WELL.                 BOONE #1 : WELL
FLD .                  WILDCAT : FIELD
LOC .                          : LOCATION
CNTY.                      BEE : COUNTY
STAT.                    TEXAS : STATE
CTRY. UNITED STATES OF AMERICA : COUNTRY
SRVC.             Schlumberger : SERVICE COMPANY
DATE.              11-Feb-1976 : LOGDATE
API .           42025304380000 : API NUMBER
UWI .           42025304380000 : UNIQUE WELL ID
SLAT.WGS84       28.6868031711 : SURFACE LATITUDE
SLON.WGS84       -97.929230078 : SURFACE LONGITUDE
~Curve Information -----------------------------------------
DEPT    .FT    : DEPTH FEET
ALL8ED  .OHMM  : AMP. LATEROLOG 8
CALDED  .IN    : CALIPER FROM DENSITY LOG
CALSED  .IN    : CALIPER FROM SONIC LOG
CALWS   .IN    : CALIPER [CALDED]
CILDED  .MMHO  : CONDUCTIVITY FROM RESISTIVITY LOG
CONDWS  .MMHO  : CONDUCTIVITY [1000/DRESWS]
CORRED  .G/C3  : DENSITY CORRECTION FROM DENSITY LOG
DCORWS  .G/C3  : DENSITY CORRECTION [CORRED]
DENWS   .G/C3  : BULK DENSITY [M=2.65/2.71 FROM 13350-TD F=1.0] [RHOBED]
DPHILSED.V/V   : DENSITY POROSITY LIMESTONE FROM DENSITY LOG
DPHISSED.V/V   : DENSITY POROSITY SANDSTONE FROM DENSITY LOG
DPOWS   .V/V   : DENSITY POROSITY [M=2.65/2.71 FROM 13350-TD F=1.0] [CALCULATED FROM DENWS]
DRESWS  .OHMM  : DEEP RESISTIVITY [ILDED] FROM 3588 IF ILDED<1;1000/CILDED;ELSE ILDED
DTED    .US/F  : DELTA TIME FROM SONIC LOG [DEPTH ADJ TO ALL8]
DTWS    .US/F  : DELTA TIME [DTED]
GRDED   .GAPI  : GAMMA RAY FROM DENSITY LOG [DEPTH ADJ TO SPR]
GRSED   .GAPI  : GAMMA RAY FROM SONIC LOG
GRWS    .GAPI  : GAMMA RAY [GRDED]
ILDED   .OHMM  : INDUCTION LOG DEEP RESISTIVITY
NPHILSED.V/V   : NEUTRON POROSITY LIMESTONE FROM DENSITY LOG
NPHISSED.V/V   : NEUTRON POROSITY SANDSTONE FROM DENSITY LOG
NPOWS   .V/V   : NEUTRON POROSITY [MERGED NPHISSED/NPHILSED FROM 13350-TD]
RHOBED  .G/C3  : BULK DENSITY FROM DENSITY LOG
SPRED   .MV    : SPONTANEOUS POTENTIAL FROM RESISTIVITY LOG SHIFTED
SPWS    .MV    : SPONTANEOUS POTENTIAL [SHIFTED/BASELINE 0 MV] [SPRED]
SRESWS  .OHMM  : SHALLOW RESISTIVITY [ALL8ED]
~Params ----------------------------------------------------
PD  .                     GL : PERMANENT DATUM
EPD .FT                  503 : ELEVATION PERMANENT DATUM
LMF .                     KB : LOG MEASURED FROM
DAPD.FT                   21 : FEET ABOVE PERMANENT DATUM
DMF .                     KB : DRILLING MEASURED FROM
EKB .FT                  524 : KELLY BUSHING
EDF .FT                  523 : DRILLING FLOOR
EGL .FT                  503 : GROUND LEVEL
DATE.               02/11/76 : RUN DATE
RUN .                      2 : RUN NUMBER
DD  .FT                14000 : DEPTH DRILLER
DL  .FT                14017 : DEPTH LOGGER
BLI .FT                14014 : BOTTOM LOG INTERVAL
TLI .FT                 3588 : TOP LOG INTERVAL
CS  .IN                10.75 : CASING SIZE
CBD .FT                 3536 : CASING BOTTOM DRILLER
CBL .FT                 3588 : CASING BOTTOM LOGGER
BS  .IN                 8.75 : BIT SIZE
BSD .FT                14000 : BIT SIZE AT DEPTH
DFT .             RD 111 OIL : DRILLING FLUID TYPE
DFD .                   11.1 : DRILLING FLUID DENSITY
DFV .                     59 : DRILLING FLUID VISCOSITY
DFPH.                    9.5 : DRILLING FLUID PH
DFL .                    3.7 : DRILLING FLUID LOSS
MSS .             RETURN PIT : MUD SAMPLE SOURCE
RMS .OHMM               0.59 : RESISTIVITY MUD SAMPLE
MST .DEGF                101 : MUD SAMPLE TEMPERATURE
RMF .OHMM               0.62 : RESISTIVITY MUD FILTRATE SAMPLE
MFST.DEGF                 76 : MUD FILTRATE SAMPLE TEMPERATURE
RMC .OHMM               0.75 : RESISTIVITY MUD CAKE
MCST.DEGF                101 : MUD CAKE SAMPLE TEMPERATURE
MFSS.                   MEAS : MUD FILTRATE SAMPLE SOURCE
MCSS.                  CHART : MUD CAKE SAMPLE SOURCE
RMB .OHMM               0.19 : RESISTIVITY MUD AT BHT
TCS .HRS                  24 : TIME CIRCULATED STOPPED
LUN .                   7676 : LOGGING UNIT NUMBER
LUL .                  PLEAS : LOGGING UNIT LOCATION
ENGI.                 POWELL : RECORDING ENGINEER
WITN.                  ADAMS : WITNESSED BY
CLNT.                A2DTECH : CLIENT CODE
ORIG.               1" PRINT : ORIGIN OF DATA
UWI .         42025304380000 : UNIQUE WELL ID
DICO. A2D Technologies, Inc. : DIGITIZING COMPANY
~Other -----------------------------------------------------
~ASCII -----------------------------------------------------
# ...
 12450.00000    2.81250    -999.25   10.44720   10.44720  460.38860  460.38860    -999.25    -999.25    -999.25    -999.25    -999.25    -999.25    2.17210   85.42580   85.42580    -999.25   72.97660   72.97660    2.35120    -999.25    -999.25    -999.25    -999.25   -1.94030   -1.35700    2.81250
 12500.00000    3.02770    -999.25   10.83610   10.83610  476.32950  476.32950    -999.25    -999.25    -999.25    -999.25    -999.25    -999.25    2.09940   86.92640   86.92640    -999.25   61.55910   61.55910    2.26190    -999.25    -999.25    -999.25    -999.25   -2.53730   -1.64860    3.02770
 12550.00000    2.92170    -999.25   10.55210   10.55210  472.34680  472.34680    -999.25    -999.25    -999.25    -999.25    -999.25    -999.25    2.11710   85.27200   85.27200    -999.25   57.08180   57.08180    2.23210    -999.25    -999.25    -999.25    -999.25   -1.94030   -0.74630    2.92170
 12600.00000    3.12710    -999.25    9.52230    9.52230  448.43050  448.43050    -999.25    -999.25    -999.25    -999.25    -999.25    -999.25    2.23000   84.44380   84.44380    -999.25   63.12630   63.12630    2.25160    -999.25    -999.25    -999.25    -999.25   -2.53730   -1.03790    3.12710
 12650.00000    3.13610    -999.25    9.88060    9.88060  435.97720  435.97720    -999.25    -999.25    -999.25    -999.25    -999.25    -999.25    2.29370   84.89490   84.89490    -999.25   57.53530   57.53530    2.27680    -999.25    -999.25    -999.25    -999.25   -3.13430   -1.32950    3.13610
 12700.00000    2.69670    -999.25   10.52240   10.52240  511.21070  511.21070    -999.25    -999.25    -999.25    -999.25    -999.25    -999.25    1.95610   87.00040   87.00040    -999.25   52.38620   52.38620    2.02380    -999.25    -999.25    -999.25    -999.25   -3.73130   -1.62110    2.69670
 12750.00000    3.29430    -999.25    9.46270    9.46270  437.95330  437.95330    -999.25    -999.25    -999.25    -999.25    -999.25    -999.25    2.28330   83.46880   83.46880    -999.25   53.69080   53.69080    2.29180    -999.25    -999.25    -999.25    -999.25   -6.11940   -3.70390    3.29430
 12800.00000    3.38750    -999.25    9.47240    9.47240  454.40950  454.40950    -999.25    -999.25    -999.25    -999.25    -999.25    -999.25    2.20070   84.18370   84.18370    -999.25   58.25600   58.25600    2.14290    -999.25    -999.25    -999.25    -999.25   -2.53730    0.18360    3.38750
 12850.00000    4.10210    -999.25    9.38840    9.38840  385.65020  385.65020    -999.25    -999.25    -999.25    -999.25    -999.25    -999.25    2.59300   81.34540   81.34540    -999.25   54.18580   54.18580    2.67860    -999.25    -999.25    -999.25    -999.25   -4.77610   -1.74980    4.10210
 12900.00000    4.62060    -999.25    9.26200    9.26200  336.82710  336.82710    -999.25    -999.25    -999.25    -999.25    -999.25    -999.25    2.96890   77.82760   77.82760    -999.25   50.79850   50.79850    3.37300    -999.25    -999.25    -999.25    -999.25   -4.62690   -1.29520    4.62060
 12950.00000    5.21920    -999.25    9.21450    9.21450  260.08960  260.08960    -999.25    -999.25    -999.25    -999.25    -999.25    -999.25    3.84480   76.66750   76.66750    -999.25   48.81440   48.81440    3.59120    -999.25    -999.25    -999.25    -999.25   -3.88060   -0.24350    5.21920
 13000.00000    4.15620    -999.25    9.40300    9.40300  340.80720  340.80720    -999.25    -999.25    -999.25    -999.25    -999.25    -999.25    2.93420   79.17760   79.17760    -999.25   49.92500   49.92500    3.09540    -999.25    -999.25    -999.25    -999.25   -4.50030   -0.55790    4.15620
 13050.00000   11.41170    -999.25    9.11940    9.11940  134.52910  134.52910    -999.25    -999.25    -999.25    -999.25    -999.25    -999.25    7.43330   65.30650   65.30650    -999.25   28.66190   28.66190    7.11310    -999.25    -999.25    -999.25    -999.25   -5.67160   -1.42380   11.41170
 13100.00000   13.77250    -999.25    9.07550    9.07550   95.61890   95.61890    -999.25    -999.25    -999.25    -999.25    -999.25    -999.25   10.45820   62.06570   62.06570    -999.25   34.26170   34.26170    8.46620    -999.25    -999.25    -999.25    -999.25   -7.01490   -2.46170   13.77250
 13150.00000    3.98200    -999.25    9.67180    9.67180  178.57500  178.57500    -999.25    -999.25    -999.25    -999.25    -999.25    -999.25    5.59990   80.76280   80.76280    -999.25   47.61600   47.61600    3.25330    -999.25    -999.25    -999.25    -999.25   -5.37310   -0.51450    3.98200
 13200.00000    3.54110    -999.25    9.91040    9.91040  182.76030  182.76030    -999.25    -999.25    -999.25    -999.25    -999.25    -999.25    5.47160   83.63350   83.63350    -999.25   49.70150   49.70150    3.59420    -999.25    -999.25    -999.25    -999.25   -6.11940   -0.95540    3.54110
 13250.00000   22.16440    -999.25    9.47760    9.47760  104.33480  104.33480    -999.25    -999.25    -999.25    -999.25    -999.25    -999.25    9.58450   83.33330   83.33330    -999.25   75.44780   75.44780   13.61360    -999.25    -999.25    -999.25    -999.25   -7.31340   -1.84410   22.16440
 13300.00000  190.83150    -999.25    9.00040    9.00040   16.54210   16.32350    -999.25    -999.25    -999.25    -999.25    -999.25    -999.25   61.26130   67.02150   67.02150    -999.25   28.21680   28.21680   61.26130    -999.25    -999.25    -999.25    -999.25  -15.07460   -8.30120  190.83150
 13350.00000   92.23060    -999.25    9.03500    9.03500   17.14000   20.09980    -999.25    -999.25    -999.25    -999.25    -999.25    -999.25   49.75180   69.64500   69.64500    -999.25   42.31860   42.31860   49.75180    -999.25    -999.25    -999.25    -999.25  -16.86570   -8.56890   92.23060
 13400.00000   82.05190    9.29690    9.10250    9.10250   67.26460   67.26460   -0.00300   -0.00300    2.67420    0.02180    -999.25    0.02090   14.86670   52.30070   52.30070   20.67840   17.46690   17.46690   35.63560    0.01130    -999.25    0.01130    2.67420  -18.68490   -8.86470   82.05190
 13450.00000  826.29960    9.36450    9.13490    9.13490    1.87130    2.86890   -0.01050   -0.01050    2.66510    0.02640    -999.25    0.02630  348.56880   50.77160   50.77160   12.78040   12.10790   12.10790  348.56880    0.00040    -999.25    0.00040    2.66510  -53.88060  -42.53710  826.29960
 13500.00000 1000.00000    9.41520    8.71750    8.71750    0.00000    1.00260   -0.00300   -0.00300    2.69730    0.00290    -999.25    0.00740  997.44740   49.45830   49.45830   16.78870   16.36120   16.36120  997.44740   -0.00210    -999.25   -0.00210    2.69730  -64.52710  -51.66020 1000.00000
 13550.00000  296.63170    9.42730    8.91140    8.91140    4.11620    6.37630   -0.00690   -0.00690    2.61330    0.05440    -999.25    0.05650  156.83180   55.39660   55.39660    7.21840    6.94990    6.94990  156.83180    0.00150    -999.25    0.00150    2.61330  -72.38750  -57.99730  296.63170
 13600.00000  661.67660    9.28190    8.98530    8.98530    1.39730    2.54920    0.02160    0.02160    2.66750    0.02080    -999.25    0.02490  392.28600   55.03250   55.03250    5.47160    6.27790    6.27790  392.28600    0.00450    -999.25    0.00450    2.66750  -74.17910  -58.26550  661.67660
 13650.00000  286.03050    9.51420    9.52330    9.52330    1.77150    2.93710    0.00040    0.00040    2.63000    0.04210    -999.25    0.04680  340.46910   53.06130   53.06130    6.75120    6.94940    6.94940  340.46910    0.00360    -999.25    0.00360    2.63000  -70.74630  -53.30940  286.03050
 13700.00000  329.55090    9.28520   10.18780   10.18780    3.14370    3.15380    0.00050    0.00050    2.67720    0.01240    -999.25    0.01920  317.07820   50.86420   50.86420    7.88180    7.34650    7.34650  317.07820   -0.00050    -999.25   -0.00050    2.67720  -73.78110  -54.82080  329.55090
 13750.00000   61.39230    9.20690    8.77670    8.77670   28.26850   27.80770   -0.00010   -0.00010    2.63380    0.04360    -999.25    0.04460   35.96130   52.69010   52.69010    8.48910    8.70110    8.70110   35.96130    0.00630    -999.25    0.00630    2.63380  -74.02980  -53.54620   61.39230
