~Version ---------------------------------------------------
VERS. 2.0 : CWLS log ASCII Standard -VERSION 2.0
WRAP. YES : Multiple lines per depth step
~Well ------------------------------------------------------
STRT.FT                   2500.0 : START DEPTH
STOP.FT                  17250.0 : STOP DEPTH
STEP.FT                 50.00000 : STEP LENGTH
NULL.                    -999.25 : NULL VALUE
COMP. CHAMPLIN PETROLEUM COMPANY : COMPANY
WELL.    FRIAR RANCH GAS UNIT #1 : WELL
FLD .                    WILDCAT : FIELD
LOC .                            : LOCATION
CNTY.                    DE WITT : COUNTY
STAT.                      TEXAS : STATE
CTRY.   UNITED STATES OF AMERICA : COUNTRY
SRVC.                    Unknown : SERVICE COMPANY
DATE.                27-Nov-1979 : LOGDATE
API .             42123309830000 : API NUMBER
UWI .             42123309830000 : UNIQUE WELL ID
SLAT.WGS84           29.12059862 : SURFACE LATITUDE
SLON.WGS84          -97.21043026 : SURFACE LONGITUDE
~Curve Information -----------------------------------------
DEPT    .FT    : DEPTH FEET
ACED    .US/F  : DELTA TIME (ACOUSTIC) FROM SONIC LOG [DEP ADJ TO DTED]
CALDED  .IN    : CALIPER FROM DENSITY LOG [DEP ADJ TO GRRED]
CALRED  .IN    : CALIPER FROM RESISTIVITY LOG
CALWS   .IN    : CALIPER [CALDED]
CONDWS  .MMHO  : CONDUCTIVITY [1000/DRESWS]
CORRED  .G/C3  : DENSITY CORRECTION FROM DENSITY LOG
DCORWS  .G/C3  : DENSITY CORRECTION [CORRED]
DENWS   .G/C3  : BULK DENSITY [M=2.71 F=1.0] [RHOBED]
DPHILSED.V/V   : DENSITY POROSITY [M=2.71 F=1.0] FROM DENSITY LOG [DEP ADJ TO GRRED]
DPHISSED.V/V   : DENSITY POROSITY [M=2.65 F=1.0][7100-10800F M=2.68] FROM DENSITY LOG
DPOLSWS .V/V   : DENSITY POROSITY [M=2.71 F=1.0] [CAL FR DENWS]
DRESWS  .OHMM  : DEEP RESISTIVITY [ILDED]
DTED    .US/F  : DELTA TIME FROM SONIC LOG
DTWS    .US/F  : DELTA TIME [2490 DTED 15878 ACED]
GRDED   .GAPI  : GAMMA RAY FROM DENSITY LOG [DEP ADJ TO GRRED]
GRRED   .GAPI  : GAMMA RAY FROM RESISTIVITY LOG
GRWS    .GAPI  : GAMMA RAY [2490 GRDED 17231 GRRED]
ILDED   .OHMM  : INDUCTION LOG DEEP RESISTIVITY
ILMED   .OHMM  : INDUCTION LOG MEDIUM RESISTIVITY
MRESWS  .OHMM  : MEDIUM RESISTIVITY [ILMED]
NPHILSED.V/V   : NEUTRON POROSITY LIMESTONE FROM DENSITY LOG [DEP ADJ TO GRRED]
NPHISSED.V/V   : NEUTRON POROSITY SANDSTONE FROM DENSITY LOG
NPOLSWS .V/V   : NEUTRON POROSITY LIMESTONE [2490 NPOLSCAL 14943 NPHILSED] [NPHISSED WAS CONVERTED TO NPOLSCAL USING POWERLOG MODULE]
RHOBED  .G/C3  : BULK DENSITY FROM DENSITY LOG [DEP ADJ TO GRRED]
SFLED   .OHMM  : SPHERICALLY FOCUSED LOG RESISTIVITY
SPHILSED.V/V   : SONIC POROSITY FROM SONIC LOG [DEP ADJ TO DTED] [LIMESTONE M=47.5, F=189]
SPOWS   .V/V   : SONIC POROSITY [CAL FR DTWS] [LIMESTONE M=47.5, F=189]
SPRED   .MV    : SPONTANEOUS POTENTIAL FROM RESISTIVITY LOG [SHIFTS ARE REMOVED]
SPWS    .MV    : SPONTANEOUS POTENTIAL [BASELINE 0 MV] [SPRED]
SRESWS  .OHMM  : SHALLOW RESISTIVITY [SFLED]
~Params ----------------------------------------------------
PD  .                     GL : PERMANENT DATUM
EPD .FT                223.8 : ELEVATION PERMANENT DATUM
LMF .                     KB : LOG MEASURED FROM
DAPD.FT                   26 : FEET ABOVE PERMANENT DATUM
DMF .                     KB : DRILLING MEASURED FROM
EKB .FT                249.8 : KELLY BUSHING
EDF .FT                248.8 : DRILLING FLOOR
EGL .FT                223.8 : GROUND LEVEL
DATE.               11/27/79 : RUN DATE
RUN .                      1 : RUN NUMBER
DD  .FT                17252 : DEPTH DRILLER
DL  .FT                17259 : DEPTH LOGGER
BLI .FT                17258 : BOTTOM LOG INTERVAL
TLI .FT                15013 : TOP LOG INTERVAL
CS  .IN                    7 : CASING SIZE
CBD .FT                15015 : CASING BOTTOM DRILLER
CBL .FT                15018 : CASING BOTTOM LOGGER
BS  .IN                5.875 : BIT SIZE
BSD .FT                17252 : BIT SIZE AT DEPTH
DFT .               OIL FAZE : DRILLING FLUID TYPE
DFD .                   12.8 : DRILLING FLUID DENSITY
DFV .                     45 : DRILLING FLUID VISCOSITY
DFL .                   13.6 : DRILLING FLUID LOSS
TCS .HRS                 545 : TIME CIRCULATED STOPPED
TLAB.HRS                1500 : TIME LOGGER AT BOTTOM
LUN .                   8011 : LOGGING UNIT NUMBER
LUL .                   VICT : LOGGING UNIT LOCATION
ENGI.                   SHEA : RECORDING ENGINEER
WITN.            BLANKENSHIP : WITNESSED BY
CLNT.                A2DTECH : CLIENT CODE
ORIG.            1" 5" PRINT : ORIGIN OF DATA
UWI .         42123309830000 : UNIQUE WELL ID
DICO. A2D Technologies, Inc. : DIGITIZING COMPANY
~Other -----------------------------------------------------
~ASCII -----------------------------------------------------
# ...
 7300.00000    -999.25   13.23690    -999.25   13.23690  433.40700    0.11180    0.11180    2.47770    -999.25    0.12370    0.13580    2.30730   89.56630   89.56630   89.05850    -999.25   89.05850    2.30730    2.38770    2.38770    -999.25    0.34920    0.30560    2.47770    2.65860    -999.25    0.29730  -30.11510   -7.25570    2.65860
 7350.00000    -999.25   11.83270    -999.25   11.83270 1006.54250    0.04600    0.04600    2.33740    -999.25    0.20960    0.21790    0.99350   85.05990   85.05990   44.60460    -999.25   44.60460    0.99350    1.40070    1.40070    -999.25    0.24390    0.20000    2.33740    2.94130    -999.25    0.26540 -118.97590  -95.44460    2.94130
 7400.00000    -999.25   11.65280    -999.25   11.65280  599.73610    0.02800    0.02800    2.35690    -999.25    0.19320    0.20650    1.66740   84.47920   84.47920   53.29680    -999.25   53.29680    1.66740    2.67150    2.67150    -999.25    0.27690    0.23290    2.35690    6.66140    -999.25    0.26130 -106.51740  -82.31420    6.66140
 7450.00000    -999.25   12.47090    -999.25   12.47090  564.93980    0.10960    0.10960    2.42570    -999.25    0.16820    0.16630    1.77010   88.01380   88.01380   88.48150    -999.25   88.48150    1.77010    2.14280    2.14280    -999.25    0.32610    0.28220    2.42570    2.50140    -999.25    0.28630  -47.79590  -22.92090    2.50140
 7500.00000    -999.25   13.58520    -999.25   13.58520  445.69240    0.11560    0.11560    2.40980    -999.25    0.16630    0.17560    2.24370   91.77530   91.77530   99.95380    -999.25   99.95380    2.24370    2.32370    2.32370    -999.25    0.39840    0.35550    2.40980    2.75550    -999.25    0.31290  -26.63530   -1.08840    2.75550
 7550.00000    -999.25   11.65290    -999.25   11.65290  369.00370    0.06430    0.06430    2.42260    -999.25    0.15260    0.16810    2.71000   82.56770   82.56770   79.66110    -999.25   79.66110    2.71000    4.40710    4.40710    -999.25    0.27310    0.22910    2.42260    7.59780    -999.25    0.24780  -85.85940  -60.47310    7.59780
 7600.00000    -999.25   11.49580    -999.25   11.49580  581.63200    0.05540    0.05540    2.34650    -999.25    0.20400    0.21260    1.71930   81.96070   81.96070   61.79560    -999.25   61.79560    1.71930    2.88780    2.88780    -999.25    0.28660    0.24260    2.34650    8.47540    -999.25    0.24350 -114.60840  -89.41740    8.47540
 7650.00000    -999.25   12.45040    -999.25   12.45040  326.39210    0.00450    0.00450    2.48140    -999.25    0.11890    0.13370    3.06380   78.87030   78.87030   83.72570    -999.25   83.72570    3.06380    3.65500    3.65500    -999.25    0.26350    0.21950    2.48140    5.85730    -999.25    0.22170  -52.97380  -27.97820    5.85730
 7700.00000    -999.25   12.37330    -999.25   12.37330  419.65670    0.05490    0.05490    2.47800    -999.25    0.12450    0.13570    2.38290   77.43960   77.43960   90.53640    -999.25   90.53640    2.38290    3.09660    3.09660    -999.25    0.27640    0.23240    2.47800    4.14040    -999.25    0.21160  -67.22110  -42.42080    4.14040
 7750.00000    -999.25   12.29090    -999.25   12.29090  415.24790    0.00180    0.00180    2.55690    -999.25    0.07510    0.08950    2.40820   78.68970   78.68970   94.11490    -999.25   94.11490    2.40820    2.98690    2.98690    -999.25    0.26710    0.22310    2.55690    4.28430    -999.25    0.22040  -49.95110  -25.34610    4.28430
 7800.00000    -999.25   11.76050    -999.25   11.76050 1368.73800    0.05030    0.05030    2.47310    -999.25    0.12220    0.13850    0.73060   83.28740   83.28740   86.46640    -999.25   86.46640    0.73060    0.96600    0.96600    -999.25    0.29520    0.25120    2.47310    0.85200    -999.25    0.25290  -92.27830  -67.86860    0.85200
 7850.00000    -999.25   12.28620    -999.25   12.28620  505.17810    0.00970    0.00970    2.09710    -999.25    0.33940    0.35840    1.97950   90.86460   90.86460   67.96120    -999.25   67.96120    1.97950    2.79050    2.79050    -999.25    0.38260    0.33940    2.09710    2.67600    -999.25    0.30650  -77.96000  -53.74560    2.67600
 7900.00000    -999.25   12.32090    -999.25   12.32090  355.18930    0.04400    0.04400    2.53650    -999.25    0.08610    0.10150    2.81540   79.91890   79.91890   91.83770    -999.25   91.83770    2.81540    3.08950    3.08950    -999.25    0.27450    0.23050    2.53650    3.77180    -999.25    0.22910  -41.48170  -17.46260    3.77180
 7950.00000    -999.25   12.33710    -999.25   12.33710  306.20370   -0.00810   -0.00810    2.56910    -999.25    0.06780    0.08240    3.26580   81.00540   81.00540   97.75130    -999.25   97.75130    3.26580    3.32770    3.32770    -999.25    0.27230    0.22830    2.56910    3.63280    -999.25    0.23680  -36.34840  -12.52470    3.63280
 8000.00000    -999.25   12.76580    -999.25   12.76580  359.69930    0.02210    0.02210    2.45730    -999.25    0.13340    0.14780    2.78010   85.59740   85.59740   94.39710    -999.25   94.39710    2.78010    2.88150    2.88150    -999.25    0.28950    0.24550    2.45730    3.06580    -999.25    0.26920  -32.61570   -8.98730    3.06580
 8050.00000    -999.25   14.14030    -999.25   14.14030  399.84010    0.11830    0.11830    2.47400    -999.25    0.12450    0.13800    2.50100   87.68400   87.68400   96.04710    -999.25   96.04710    2.50100    2.58810    2.58810    -999.25    0.35230    0.30870    2.47400    2.87520    -999.25    0.28400  -24.94680   -1.51370    2.87520
 8100.00000    -999.25   13.99660    -999.25   13.99660  416.51050    0.12300    0.12300    2.42020    -999.25    0.16670    0.16950    2.40090   87.98500   87.98500   90.83100    -999.25   90.83100    2.40090    2.50160    2.50160    -999.25    0.36900    0.32560    2.42020    2.88630    -999.25    0.28610  -25.61000   -2.37220    2.88630
 8150.00000    -999.25   12.66490    -999.25   12.66490  424.26810    0.04720    0.04720    2.42250    -999.25    0.15440    0.16810    2.35700   87.39840   87.39840   87.98760    -999.25   87.98760    2.35700    2.69100    2.69100    -999.25    0.28300    0.23900    2.42250    3.02210    -999.25    0.28200  -37.38840  -14.37220    3.02210
 8200.00000    -999.25   13.17490    -999.25   13.17490  443.69510    0.03270    0.03270    2.29290    -999.25    0.20280    0.24390    2.25380   89.46650   89.46650   87.27580    -999.25   87.27580    2.25380    2.67660    2.67660    -999.25    0.33980    0.29610    2.29290    2.78280    -999.25    0.29660  -31.56770   -8.81770    2.78280
 8250.00000    -999.25   13.10370    -999.25   13.10370  380.28600    0.00100    0.00100    2.38220    -999.25    0.17910    0.19170    2.62960   88.67220   88.67220   88.19530    -999.25   88.19530    2.62960    2.72270    2.72270    -999.25    0.31500    0.27110    2.38220    3.14280    -999.25    0.29100  -26.27550   -3.79170    3.14280
 8300.00000    -999.25   11.92360    -999.25   11.92360  521.15910    0.04380    0.04380    2.37460    -999.25    0.18120    0.19610    1.91880   80.18690   80.18690   41.07970    -999.25   41.07970    1.91880    3.27340    3.27340    -999.25    0.22170    0.17800    2.37460    8.82430    -999.25    0.23100 -114.68630  -92.46880    8.82430
 8350.00000    -999.25   13.32840    -999.25   13.32840  342.90020    0.10280    0.10280    2.50730    -999.25    0.10240    0.11850    2.91630   86.54640   86.54640   89.75510    -999.25   89.75510    2.91630    3.01750    3.01750    -999.25    0.33800    0.29420    2.50730    3.35720    -999.25    0.27590  -30.23470   -8.28340    3.35720
 8400.00000    -999.25   13.68440    -999.25   13.68440  344.64930    0.08050    0.08050    2.51350    -999.25    0.10300    0.11490    2.90150   85.54820   85.54820   95.95100    -999.25   95.95100    2.90150    3.00210    3.00210    -999.25    0.32030    0.27640    2.51350    3.34720    -999.25    0.26890  -25.11050   -3.42540    3.34720
 8450.00000    -999.25   13.91950    -999.25   13.91950  300.71570    0.08140    0.08140    2.50230    -999.25    0.10450    0.12150    3.32540   84.46430   84.46430   90.05950    -999.25   90.05950    3.32540    3.45810    3.45810    -999.25    0.29600    0.25200    2.50230    3.80210    -999.25    0.26120  -27.63730   -6.21850    3.80210
