~Version ---------------------------------------------------
VERS. 2.0 : CWLS log ASCII Standard -VERSION 2.0
WRAP. YES : MULTIPLE LINES PER DEPTH STEP
~Well ------------------------------------------------------
STRT.FT                       2050.0 : START DEPTH
STOP.FT                      10550.0 : STOP DEPTH
STEP.FT                     50.00000 : STEP LENGTH
NULL.                        -999.25 : NULL VALUE
COMP. QUINTANA PETROLEUM CORPORATION : COMPANY
WELL.                       HARLE #1 : WELL
FLD .                        BUCKLEY : FIELD
LOC .                                : LOCATION
CNTY.                       LA SALLE : COUNTY
STAT.                          TEXAS : STATE
CTRY.       UNITED STATES OF AMERICA : COUNTRY
SRVC.    HALLIBURTON Sperry Drilling : SERVICE COMPANY
DATE.                    12-Nov-1991 : LOGDATE
API .                 42283314640000 : API NUMBER
UWI .                 42283314640000 : UNIQUE WELL ID
SLAT.WGS84             28.3427642272 : SURFACE LATITUDE
SLON.WGS84            -99.0284847769 : SURFACE LONGITUDE
~Curve Information -----------------------------------------
DEPT    .FT    : DEPTH FEET
CALRED  .IN    : CALIPER FROM RESISTIVITY LOG
CALWS   .IN    : CALIPER [DCALRED+8.75]
CONDWS  .MMHO  : CONDUCTIVITY [1000/DRESWS]
DCALRED .IN    : DIFFERENTIAL CALIPER FROM RESISTIVITY LOG
DCORWS  .G/C3  : DENSITY CORRECTION [DRHOED]
DENWS   .G/C3  : BULK DENSITY  [CALCULATED FROM DPOWS][M=2.65 F=1.0]<9190>[M=2.71 F=1.0]
DFLED   .OHMM  : DIGITALLY FOCUSED LATEROLOG
DPHILSED.V/V   : DENSITY POROSITY [M=2.71 F=1.0] FROM DENSITY LOG
DPHISSED.V/V   : DENSITY POROSITY [M=2.65 F=1.0] FROM DENSITY LOG
DPOWS   .V/V   : DENSITY POROSITY [DPHISSED]<9190>DPHILSED
DRESWS  .OHMM  : DEEP RESISTIVITY [HDRSED]
DRHOED  .G/C3  : DENSITY CORRECTION FROM RES. LOG, DEPTH ADJUSTED WITH [GRRED]
DTED    .US/F  : DELTA TIME FROM SONIC LOG
DTWS    .US/F  : DELTA TIME [DTED]
GRKTED  .GAPI  : GAMMA RAY KT FROM SPECTRAL LOG, DEPTH ADJUSTED WITH [GRRED]
GRKUTED .GAPI  : GAMMA RAY KUT FROM SPECTRAL LOG, DEPTH ADJUSTED WITH [GRRED]
GRR1ED  .GAPI  : GAMMA RAY FROM INDUCTION [ILDED] LOG, DEPTH ADJUSTED WITH [GRRED]
GRRED   .GAPI  : GAMMA RAY FROM RESISTIVITY LOG
GRTHED  .GAPI  : GAMMA RAY TH FROM SPECTRAL LOG, DEPTH ADJUSTED WITH [GRRED]
GRWS    .GAPI  : GAMMA RAY [GRRED]
GUARDED .OHMM  : GUARD LOG RESISTIVITY
HDRSED  .OHMM  : HRI DEEP RESISTIVITY
HMRSED  .OHMM  : HRI MEDIUM RESISTIVITY
ILDED   .OHMM  : INDUCTION LOG DEEP RESISTIVITY , DEPTH ADJUSTED WITH [GRRED]
ILMED   .OHMM  : INDUCTION LOG MEDIUM RESISTIVITY, DEPTH ADJUSTED WITH [GRRED]
MRESWS  .OHMM  : MEDIUM RESISTIVITY [HMRSED]
NPHILSED.V/V   : NEUTRON POROSITY LIMESTONE FROM DENSITY LOG
NPHISSED.V/V   : NEUTRON POROSITY SANDSTONE FROM DENSITY LOG
NPOWS   .V/V   : NEUTRON POROSITY SANDSTONE [NPHISSED]<9190>LIMESTONE [NPHILSED]
SFLED   .OHMM  : SPHERICALLY FOCUSED LOG RESISTIVITY
SPRED   .MV    : SPONTANEOUS POTENTIAL FROM RESISTIVITY LOG
SPWS    .MV    : SPONTANEOUS POTENTIAL [BASELINE 0 MV] [SPRED]
SRESWS  .OHMM  : SHALLOW RESISTIVITY [DFLED]
TENRED  .LBF   : TENSION FROM RESISTIVITY LOG
~Params ----------------------------------------------------
PD  .                     GL : PERMANENT DATUM
EPD .F                 379.7 : ELEVATION PERMANENT DATUM
LMF .                    TKB : LOG MEASURED FROM
DAPD.F                    19 : FEET ABOVE PERMANENT DATUM
DMF .                    TKB : DRILLING MEASURED FROM
EKB .F                 398.7 : KELLING BUSHING
EDF .F                 397.7 : DRILLING FLOOR
EGL .F                 379.7 : GROUND LEVEL
DATE.             11-12-1991 : RUN DATE
RUN .                      1 : RUN NUMBER
DD  .F                 10615 : DEPTH DRILLER
DL  .F                 10568 : DEPTH LOGGER
BLI .F                 10566 : BOTTOM LOG INTERVAL
TLI .F                  2010 : TOP LOG INTERVAL
CS  .IN                9.625 : CASING SIZE
CBD .F                  2012 : CASING BOTTOM DRILLER
CBL .F                  2010 : CASING BOTTOM LOGGER
BS  .IN                 8.75 : BIT SIZE
BSD .F                 10615 : BIT SIZE AT DEPTH
DFT .              LIGNO-HFI : DRILLING FLUID TYPE
DFD .                   10.3 : DRILLING FLUID DENSITY
DFV .                     42 : DRILLING FLUID VISCOSITY
DFPH.                   10.5 : DRILLING FLUID PH
DFL .                    5.7 : DRILLING FLUID LOSS
MSS .               FLOWLINE : MUD SAMPLE SOURCE
RMS .OHMM               1.31 : RESISTIVITY MUD SAMPLE
MST .F                    75 : MUD SAMPLE TEMPERATURE
RMF .OHMM               1.04 : RESISTIVITY MUD FILTRATE SAMPLE
MFST.F                    75 : MUD FILTRATE SAMPLE TEMPERATURE
RMC .OHMM                2.6 : RESISTIVITY MUD CAKE
MCST.F                    75 : MUD CAKE SAMPLE TEMPERATURE
MFSS.                   MEAS : MUD FILTRATE SAMPLE SOURCE
MCSS.                   MEAS : MUD CAKE SAMPLE SOURCE
RMB .OHMM               0.43 : RESISTIVITY MUD AT BHT
TCS .HRS                16.5 : TIME CURCULATED STOPPED
TLAB.HRS                1200 : TIME LOGGER AT BOTTOM
LUN .                  51561 : LOGGING UNIT NUMBER
LUL .                  ALICE : LOGGING UNIT LOCATION
ENGI.                MERRELL : RECORDING ENGINEER
WITN.  MR. EVANS/MR. DUCKETT : WITNESSED BY
CLNT.                A2DTECH : CLIENT CODE
ORIG.               5" PRINT : ORIGIN OF DATA
UWI .         42283314640000 : UNIQUE WELL ID
DICO. A2D Technologies, Inc. : DIGITIZING COMPANY
~Other -----------------------------------------------------
~ASCII -----------------------------------------------------
# ...
 7300.00000    -999.25   12.11200  479.80040    3.36200    -999.25    2.41770    2.12760    -999.25    0.14080    0.14080    2.08420    -999.25   91.87890   91.87890    -999.25    -999.25   81.05390   87.82640    -999.25   87.82640    2.29120    2.08420    2.01380    1.99420    2.10420    2.01380    -999.25    0.33650    0.33650    2.34020  -41.44190   -4.03850    2.12760 3214.80710
 7350.00000    -999.25   11.60410  374.63000    2.85410    -999.25    2.51320    2.87900    -999.25    0.08290    0.08290    2.66930    -999.25   85.11280   85.11280    -999.25    -999.25   70.59360   75.70670    -999.25   75.70670    2.83470    2.66930    2.65110    2.25560    2.41580    2.65110    -999.25    0.30330    0.30330    2.80030  -42.41750   -5.08630    2.87900 3273.12040
 7400.00000    -999.25   11.15600  366.98590    2.40600    -999.25    2.52050    3.04170    -999.25    0.07850    0.07850    2.72490    -999.25   84.81160   84.81160    -999.25    -999.25   81.50940   72.58760    -999.25   72.58760    2.93380    2.72490    2.72490    2.35100    2.51730    2.72490    -999.25    0.29000    0.29000    3.01680  -42.04180   -4.78270    3.04170 3341.32670
 7450.00000    -999.25   10.73920  317.45020    1.98920    -999.25    2.46920    3.12650    -999.25    0.10960    0.10960    3.15010    -999.25   76.05840   76.05840    -999.25    -999.25   67.80340   68.63740    -999.25   68.63740    2.57480    3.15010    2.93900    2.25660    2.36720    2.93900    -999.25    0.27180    0.27180    4.08360  -42.04200   -4.85500    3.12650 3353.65430
 7500.00000    -999.25   11.87170  357.02810    3.12170    -999.25    2.50640    2.83970    -999.25    0.08700    0.08700    2.80090    -999.25   85.71430   85.71430    -999.25    -999.25   80.17370   78.91920    -999.25   78.91920    2.79710    2.80090    2.76270    2.31940    2.43310    2.76270    -999.25    0.27660    0.27660    3.03430  -42.04200   -4.92710    2.83970 3305.77050
 7550.00000    -999.25   13.39760  328.76350    4.64760    -999.25    2.55730    3.21380    -999.25    0.05620    0.05620    3.04170    -999.25   84.05940   84.05940    -999.25    -999.25   66.55160   72.79910    -999.25   72.79910    3.01480    3.04170    2.95920    2.55310    2.73460    2.95920    -999.25    0.29400    0.29400    3.14940  -41.44140   -4.39860    3.21380 3372.94750
 7600.00000    -999.25   11.18760  326.50930    2.43760    -999.25    2.45690    3.21370    -999.25    0.11700    0.11700    3.06270    -999.25   84.36030   84.36030    -999.25    -999.25   73.23850   78.84290    -999.25   78.84290    2.95330    3.06270    3.06270    2.58790    2.75280    3.06270    -999.25    0.36410    0.36410    3.15210  -41.44140   -4.47070    3.21370 3325.28080
 7650.00000    -999.25   12.59050  292.50890    3.84050    -999.25    2.57860    4.11590    -999.25    0.04330    0.04330    3.41870    -999.25   82.70680   82.70680    -999.25    -999.25   73.33600   76.39190    -999.25   76.39190    3.55650    3.41870    3.44230    2.92960    3.20040    3.44230    -999.25    0.20370    0.20370    3.91850  -39.63870   -2.74020    4.11590 3659.24510
 7700.00000    -999.25   12.34970  199.04860    3.59970    -999.25    2.63610    5.27150    -999.25    0.00840    0.00840    5.02390    -999.25   74.58650   74.58650    -999.25    -999.25   72.79980   75.68970    -999.25   75.68970    4.30740    5.02390    4.98960    3.74760    3.98360    4.98960    -999.25    0.16850    0.16850    5.06650  -39.93800   -3.11160    5.27150 3421.80620
 7750.00000    -999.25   11.24440  213.21510    2.49440    0.06160    2.61850    5.56940    -999.25    0.01910    0.01910    4.69010    0.06160   76.54260   76.54260    -999.25    -999.25   62.90110   69.80220    -999.25   69.80220    5.18540    4.69010    4.68990    4.09570    4.29460    4.68990    -999.25    0.16360    0.16360    5.07420  -40.54050   -3.78620    5.56940 3403.03000
 7800.00000    -999.25   10.34740  337.92920    1.59740    0.11560    2.43680    2.97960    -999.25    0.12920    0.12920    2.95920    0.11560   81.05220   81.05220    -999.25    -999.25   71.12600   69.23620    -999.25   69.23620    3.36360    2.95920    2.97960    2.64090    2.90840    2.97960    -999.25    0.25150    0.25150    3.09420  -44.48210   -7.68400    2.97960 3355.30350
 7850.00000    -999.25   10.94740  296.55110    2.19740    0.09440    2.50480    3.32610    -999.25    0.08800    0.08800    3.37210    0.09440   79.09660   79.09660    -999.25    -999.25   64.66580   69.09230    -999.25   69.09230    2.97430    3.37210    3.32610    2.67850    2.86760    3.32610    -999.25    0.22680    0.22680    3.29450  -45.64560   -8.54590    3.32610 3421.07180
 7900.00000    -999.25   10.61820  324.27520    1.86820    0.15800    2.42590    2.95920    -999.25    0.13580    0.13580    3.08380    0.15800   80.90230   80.90230    -999.25    -999.25   72.47460   79.37600    -999.25   79.37600    2.85320    3.08380    3.10510    2.58670    2.78960    3.10510    -999.25    0.28350    0.28350    3.11630  -45.76650   -8.36520    2.95920 3406.61690
 7950.00000    -999.25   10.76460  290.49500    2.01460    0.07960    2.51370    3.85300    -999.25    0.08260    0.08260    3.44240    0.07960   79.09730   79.09730    -999.25    -999.25   85.11310   86.48280    -999.25   86.48280    3.48110    3.44240    3.44240    2.82880    3.15590    3.44240    -999.25    0.21540    0.21540    3.58380  -47.44740   -9.74440    3.85300 3452.88990
 8000.00000    -999.25   10.16960  267.50130    1.41960    0.07990    2.51750    3.73830    -999.25    0.08030    0.08030    3.73830    0.07990   75.48820   75.48820    -999.25    -999.25   66.19230   72.67430    -999.25   72.67430    3.62930    3.73830    3.71270    3.13530    3.35740    3.71270    -999.25    0.20420    0.20420    3.81070  -45.64560   -7.64100    3.73830 3460.37550
 8050.00000    -999.25   11.12400  496.57370    2.37400    0.18160    2.42030    1.89300    -999.25    0.13920    0.13920    2.01380    0.18160   88.42050   88.42050    -999.25    -999.25   98.70090  104.34460    -999.25  104.34460    2.50500    2.01380    1.90610    2.09160    2.13560    1.90610    -999.25    0.32260    0.32260    2.50280  -48.64860  -10.34230    1.89300 3553.67990
 8100.00000    -999.25   11.69330  401.28410    2.94330    -999.25    2.49850    2.47490    -999.25    0.09180    0.09180    2.49200    -999.25   86.76680   86.76680    -999.25    -999.25   87.97360   83.34310    -999.25   83.34310    2.40340    2.49200    2.47490    2.06360    2.20920    2.47490    -999.25    0.27830    0.27830    2.75830  -47.74730   -9.13940    2.47490 3551.31640
 8150.00000    -999.25   12.19950  377.20190    3.44950    -999.25    2.47080    2.56150    -999.25    0.10860    0.10860    2.65110    -999.25   86.61650   86.61650    -999.25    -999.25   87.54680   92.50120    -999.25   92.50120    2.50450    2.65110    2.57920    2.28640    2.48430    2.57920    -999.25    0.30030    0.30030    2.66450  -49.54950  -10.64000    2.56150 3537.02390
 8200.00000    -999.25   12.26240  435.14210    3.51240    -999.25    2.47720    2.49500    -999.25    0.10470    0.10470    2.29810    -999.25   88.77780   88.77780    -999.25    -999.25   85.17330   93.21940    -999.25   93.21940    2.48600    2.29810    2.23240    1.92700    2.10620    2.23240    -999.25    0.30770    0.30770    2.35790  -49.84980  -10.63860    2.49500 3546.30620
 8250.00000    -999.25   13.24840  430.42230    4.49840    -999.25    2.50380    2.43340    -999.25    0.08860    0.08860    2.32330    -999.25   88.34340   88.34340    -999.25    -999.25   85.30900   80.69270    -999.25   80.69270    2.38820    2.32330    2.27900    2.02180    2.14940    2.27900    -999.25    0.31560    0.31560    2.52540  -49.84960  -10.33680    2.43340 3658.95210
 8300.00000    -999.25   10.85750  313.84360    2.10750    -999.25    2.55300    3.43340    -999.25    0.05880    0.05880    3.18630    -999.25   80.86300   80.86300    -999.25    -999.25   79.04880   85.84200    -999.25   85.84200    3.23130    3.18630    3.21370    2.69670    3.03040    3.21370    -999.25    0.27830    0.27830    3.21350  -50.75080  -10.93630    3.43340 3504.45040
