~Version ---------------------------------------------------
VERS. 2.0 : CWLS log ASCII Standard -VERSION 2.0
WRAP. YES : MULTIPLE LINES PER DEPTH STEP
~Well ------------------------------------------------------
STRT.FT                      1000.0 : START DEPTH
STOP.FT                      8050.0 : STOP DEPTH
STEP.FT                    50.00000 : STEP LENGTH
NULL.                       -999.25 : NULL VALUE
COMP. MACHII ROSS PETROLEUM COMPANY : COMPANY
WELL.                    KINCAID #1 : WELL
FLD .                   LOS CUATROS : FIELD
LOC .                               : LOCATION
CNTY.                      MAVERICK : COUNTY
STAT.                         TEXAS : STATE
CTRY.      UNITED STATES OF AMERICA : COUNTRY
SRVC.                 Dresser Atlas : SERVICE COMPANY
DATE.                   19-Sep-1978 : LOGDATE
API .                42323312560000 : API NUMBER
UWI .                42323312560000 : UNIQUE WELL ID
SLAT.WGS84             28.770602727 : SURFACE LATITUDE
SLON.WGS84          -100.4374528413 : SURFACE LONGITUDE
~Curve Information -----------------------------------------
DEPT  .FT    : DEPTH FEET
CALDED.IN    : CALIPER FROM DENSITY LOG [DEP AD TO GRRED]
CALRED.IN    : CALIPER FROM RESISTIVITY LOG
CALWS .IN    : CALIPER [976 CALRED 1886.5 CALDED]
CONDWS.MMHO  : CONDUCTIVITY [1000/DRESWS]
CORRED.G/C3  : DENSITY CORRECTION FROM DENSITY LOG [DEP AD TO GRRED]
DCORWS.G/C3  : DENSITY CORRECTION [CORRED]
DENWS .G/C3  : BULK DENSITY [M=2.71 F=1.0] [CALCULATED FROM DPOWS]
DPHIED.V/V   : DENSITY POROSITY [M=2.71 F=1.0] FROM DENSITY LOG [DEP AD TO GRRED]
DPOWS .V/V   : DENSITY POROSITY [M=2.71 F=1.0] [DPHIED]
DRESWS.OHMM  : DEEP RESISTIVITY [ILDED]
DTED  .US/F  : DELTA TIME FROM SONIC LOG
DTWS  .US/F  : DELTA TIME [DTED]
GRDED .GAPI  : GAMMA RAY FROM DENSITY LOG [DEP AD TO GRRED]
GRRED .GAPI  : GAMMA RAY FROM RESISTIVITY LOG
GRWS  .GAPI  : GAMMA RAY [976 GRRED 1805.5 GRDED 7558.5 GRRED 7718.5 GRDED]
ILDED .OHMM  : INDUCTION LOG DEEP RESISTIVITY
ILMED .OHMM  : INDUCTION LOG MEDIUM RESISTIVITY
MRESWS.OHMM  : MEDIUM RESISTIVITY [ILMED]
NPHIED.V/V   : NEUTRON POROSITY SANDSTONE FROM DENSITY LOG [DEP AD TO GRRED]
NPOWS .V/V   : NEUTRON POROSITY SANDSTONE [NPHIED]
SFLUED.OHMM  : SPHERICALLY FOCUSED LOG RESISTIVITY
SPRED .MV    : SPONTANEOUS POTENTIAL FROM RESISTIVITY LOG
SPWS  .MV    : SPONTANEOUS POTENTIAL [BASELINE 0 MV] [SPRED]
SRESWS.OHMM  : SHALLOW RESISTIVITY [SFLUED]
TENDED.LBF   : TENSION FROM DENSITY LOG [DEP AD TO GRRED]
~Params ----------------------------------------------------
PD  .                     GL : PERMANENT DATUM
EPD .FT                  884 : ELEVATION PERMANENT DATUM
LMF .                     KB : LOG MEASURED FROM
DAPD.FT                   21 : FEET ABOVE PERMANENT DATUM
DMF .                     KB : DRILLING MEASURED FROM
EKB .FT                  905 : KELLY BUSHING
EDF .FT                  904 : DRILLING FLOOR
EGL .FT                  884 : GROUND LEVEL
DATE.              9-19-1978 : RUN DATE
RUN .                      2 : RUN NUMBER
DD  .FT                 8050 : DEPTH DRILLER
DL  .FT                 8050 : DEPTH LOGGER
BLI .FT                 8048 : BOTTOM LOG INTERVAL
TLI .FT                 6461 : TOP LOG INTERVAL
CS  .IN                9.625 : CASING SIZE
CBD .FT                 6473 : CASING BOTTOM DRILLER
CBL .FT                 6456 : CASING BOTTOM LOGGER
BS  .IN                7.875 : BIT SIZE
BSD .FT                 8050 : BIT SIZE AT DEPTH
DFT .                  LIGNO : DRILLING FLUID TYPE
DFD .                   14.6 : DRILLING FLUID DENSITY
DFV .                     48 : DRILLING FLUID VISCOSITY
DFPH.                     11 : DRILLING FLUID PH
DFL .                    7.2 : DRILLING FLUID LOSS
MSS .                    PIT : MUD SAMPLE SOURCE
RMS .OHMM                1.4 : RESISTIVITY MUD SAMPLE
MST .DEGF                 75 : MUD SAMPLE TEMPERATURE
RMF .OHMM               1.07 : RESISTIVITY MUD FILTRATE SAMPLE
MFST.DEGF                 75 : MUD FILTRATE SAMPLE TEMPERATURE
RMC .OHMM               1.75 : RESISTIVITY MUD CAKE
MCST.DEGF                 75 : MUD CAKE SAMPLE TEMPERATURE
MFSS.                   MEAS : MUD FILTRATE SAMPLE SOURCE
MCSS.                   CALC : MUD CAKE SAMPLE SOURCE
RMB .OHMM               0.61 : RESISTIVITY MUD AT BHT
TCS .HRS                   6 : TIME CIRCULATED STOPPED
LUN .                   6160 : LOGGING UNIT NUMBER
LUL .                  ALICE : LOGGING UNIT LOCATION
ENGI.                 BOYKIN : RECORDING ENGINEER
WITN.                 WALKER : WITNESSED BY
CLNT.                A2DTECH : CLIENT CODE
ORIG.          1" 2.5" PRINT : ORIGIN OF DATA
UWI .         42323312560000 : UNIQUE WELL ID
DICO. A2D Technologies, Inc. : DIGITIZING COMPANY
~Other -----------------------------------------------------
~ASCII -----------------------------------------------------
# ...
 5200.00000   12.33000   12.39440   12.33000   81.73540   -0.02600   -0.02600    2.63990    0.04100    0.04100   12.23460   64.21260   64.21260   40.66700   36.95220   40.66700   12.23460   14.08570   14.08570    0.09600    0.09600   10.83610  -28.08770   -1.66120   10.83610  909.05900
 5250.00000   12.34400   12.35460   12.34400   67.00980   -0.02000   -0.02000    2.67920    0.01800    0.01800   14.92320   55.82050   55.82050   36.33200   36.75300   36.33200   14.92320   22.46540   22.46540    0.02700    0.02700   25.19530  -39.69370  -14.72120   25.19530  896.36500
 5300.00000   12.33000   12.38220   12.33000   46.62810   -0.02100   -0.02100    2.68090    0.01700    0.01700   21.44630   56.73230   56.73230   32.09900   36.23010   32.09900   21.44630   24.05970   24.05970    0.05200    0.05200   16.93370  -52.19120  -28.67260   16.93370  908.88200
 5350.00000   12.40800   12.44560   12.40800   54.16380   -0.01700   -0.01700    2.67580    0.02000    0.02000   18.46250   55.66930   55.66930   38.28400   37.35060   38.28400   18.46250   25.26630   25.26630    0.04100    0.04100   22.93790  -52.96760  -30.90300   22.93790  894.49500
 5400.00000   12.41200   12.67950   12.41200   42.71660    0.00300    0.00300    2.58520    0.07300    0.07300   23.41010   52.40160   52.40160   32.94900   36.34470   32.94900   23.41010   33.05860   33.05860    0.03600    0.03600   35.67280  -57.88830  -37.27770   35.67280  925.43500
 5450.00000   12.46700   12.55380   12.46700   48.34940   -0.02100   -0.02100    2.69630    0.00800    0.00800   20.68280   57.31700   57.31700   37.07600   34.21310   37.07600   20.68280   21.39710   21.39710    0.04600    0.04600   24.72220  -58.56570  -39.40910   24.72220  910.14300
 5500.00000   12.47000   12.45820   12.47000   84.24950   -0.03100   -0.03100    2.65190    0.03400    0.03400   11.86950   59.64610   59.64610   34.83200   37.39280   34.83200   11.86950   19.10680   19.10680    0.05100    0.05100   17.52500  -45.53600  -27.83330   17.52500  930.00000
 5550.00000   12.43200   12.38730   12.43200   59.65880   -0.01500   -0.01500    2.70830    0.00100    0.00100   16.76200   58.55460   58.55460   35.75000   38.54580   35.75000   16.76200   20.44620   20.44620    0.04600    0.04600   12.78160  -33.21870  -16.97000   12.78160  850.00000
 5600.00000   12.50100   12.47410   12.50100   43.59600   -0.00400   -0.00400    2.70830    0.00100    0.00100   22.93790   54.37010   54.37010   30.13700   29.11690   30.13700   22.93790   36.02150   36.02150    0.03800    0.03800   23.34560  -35.94320  -16.90630   23.34560 1057.68010
 5650.00000   13.24600   12.99200   13.24600   30.24930    0.01800    0.01800    2.51340    0.11500    0.11500   33.05860   53.58270   53.58270   33.17900   35.89030   33.17900   33.05860   28.62370   28.62370    0.01900    0.01900   28.27660  -53.05070  -27.61190   28.27660 1054.85000
 5700.00000   14.25000   14.75930   14.25000   39.73960    0.14200    0.14200    2.17140    0.31500    0.31500   25.16380   53.31930   53.31930   16.51100   21.81270   16.51100   25.16380   23.68210   23.68210    0.10400    0.10400   36.39640  -70.17700  -38.33640   36.39640  979.26800
 5750.00000   13.60900   13.88450   13.60900   61.12660    0.03300    0.03300    2.63820    0.04200    0.04200   16.35950   55.66250   55.66250   22.01700   31.37450   22.01700   16.35950   18.44980   18.44980    0.02200    0.02200   12.02390  -59.41670  -21.17420   12.02390 1027.77500
 5800.00000   14.25900   14.62550   14.25900   29.16370    0.17900    0.17900    2.32180    0.22700    0.22700   34.28920   51.61420   51.61420   29.46300   33.88020   29.46300   34.28920   33.05860   33.05860    0.07700    0.07700   37.62530  -65.21110  -26.64360   37.62530  870.00000
 5850.00000   14.20000   13.63030   14.20000   41.34180    0.00700    0.00700    2.68950    0.01200    0.01200   24.18860   52.49110   52.49110   21.41900   26.59360   21.41900   24.18860   20.51730   20.51730    0.04300    0.04300   25.19830  -88.04780  -59.50250   25.19830 1000.69400
 5900.00000   14.22000   14.04010   14.22000   70.62150    0.03400    0.03400    2.63130    0.04600    0.04600   14.16000   54.49650   54.49650   28.82100   30.54910   28.82100   14.16000   17.54120   17.54120    0.07900    0.07900   18.01320  -76.89240  -58.36930   18.01320  970.00000
 5950.00000   14.26200   13.85860   14.26200  105.40960    0.01300    0.01300    2.61770    0.05400    0.05400    9.48680   62.14850   62.14850   39.34800   45.71710   39.34800    9.48680   12.15120   12.15120    0.11600    0.11600   13.03720  -13.94580   -5.44500   13.03720  972.98800
 6000.00000   13.42900   13.24430   13.42900   39.58700   -0.01900   -0.01900    2.69120    0.01100    0.01100   25.26080   54.62600   54.62600   41.75000   38.20650   41.75000   25.26080   27.06650   27.06650    0.05700    0.05700   25.20700  -11.21340   -8.02970   25.20700 1017.60200
 6050.00000   14.19400   13.44390   14.19400   34.34270    0.11800    0.11800    2.41930    0.17000    0.17000   29.11830   52.93490   52.93490   20.70500   29.58170   20.70500   29.11830   27.49570   27.49570    0.08100    0.08100   29.34330  -30.22890  -26.37390   29.34330 1039.26100
 6100.00000   13.49100   12.86680   13.49100   38.81550    0.20900    0.20900    2.62110    0.05200    0.05200   25.76290   52.40160   52.40160   19.73000   28.08770   19.73000   25.76290   29.04310   29.04310    0.04500    0.04500   32.95060  -41.36970  -36.84350   32.95060 1037.13900
 6150.00000   12.99200   13.56970   12.99200   38.39760   -0.01400   -0.01400    2.61600    0.05500    0.05500   26.04330   49.77920   49.77920   25.68100   31.28110   25.68100   26.04330   37.86020   37.86020    0.02100    0.02100   43.49690  -77.00110  -71.80370   43.49690  968.95700
 6200.00000   12.91500   13.01200   12.91500   95.21540   -0.00100   -0.00100    2.57830    0.07700    0.07700   10.50250   56.37010   56.37010   15.36700   21.55990   15.36700   10.50250   15.91560   15.91560    0.09800    0.09800   19.10680  -26.69320  -20.82460   19.10680  891.84200
 6250.00000   12.38500   12.33180   12.38500  121.20180    0.01200    0.01200    2.59890    0.06500    0.06500    8.25070   56.91810   56.91810   14.95300   21.81270   14.95300    8.25070   11.53300   11.53300    0.08200    0.08200   13.01730  -16.04350   -9.50370   13.01730  730.80000
 6300.00000   12.29800   12.18060   12.29800  238.87440   -0.00100   -0.00100    2.53390    0.10300    0.10300    4.18630   58.83140   58.83140   17.08700   23.60560   17.08700    4.18630    6.21480    6.21480    0.09000    0.09000    9.03710  -11.55380   -4.34270    9.03710  820.08900
 6350.00000   11.97900   11.96310   11.97900   39.06860   -0.03900   -0.03900    2.68610    0.01400    0.01400   25.59600   50.18540   50.18540   24.48700   29.96690   24.48700   25.59600   34.40300   34.40300    0.01700    0.01700   36.20840  -55.74830  -45.11750   36.20840  870.03200
 6400.00000   11.86700   12.04880   11.86700   42.38440   -0.00400   -0.00400    2.66550    0.02600    0.02600   23.59360   56.29400   56.29400   38.33200   39.69670   38.33200   23.59360   29.08900   29.08900    0.05700    0.05700   22.72450  -78.97580  -64.68630   22.72450  912.32700
 6450.00000   12.22500   12.16020   12.22500   71.90470   -0.00400   -0.00400    2.65360    0.03300    0.03300   13.90730    -999.25    -999.25   45.74900   30.17930   45.74900   13.90730   16.07250   16.07250    0.11400    0.11400   15.91560  -42.72050  -24.77230   15.91560  935.14300
 6500.00000   10.40900   11.58330   10.40900   66.92720   -0.04000   -0.04000    2.62960    0.04700    0.04700   14.94160   54.57240   54.57240   51.45600   56.12000   51.45600   14.94160    -999.25    -999.25    0.03900    0.03900   31.01870  -71.32140  -26.81770   31.01870    -999.25
 6550.00000    9.77000    8.72910    9.77000   61.65840   -0.02000   -0.02000    2.67920    0.01800    0.01800   16.21840   60.84370   60.84370   72.49000   67.23110   72.49000   16.21840    -999.25    -999.25    0.06100    0.06100   25.75240  -41.35420   -8.78610   25.75240    -999.25
