~Version ---------------------------------------------------
VERS. 2.0 : CWLS log ASCII Standard -VERSION 2.0
WRAP. YES : MULTIPLE LINES PER DEPTH STEP
~Well ------------------------------------------------------
STRT.FT                        2500.0 : START DEPTH
STOP.FT                       11350.0 : STOP DEPTH
STEP.FT                      50.00000 : STEP LENGTH
NULL.                         -999.25 : NULL VALUE
COMP. UNION PACIFIC RESOURCES COMPANY : COMPANY
WELL.             BOZKA-BOZKA UNIT #1 : WELL
FLD .                     PEACH CREEK : FIELD
LOC .                                 : LOCATION
CNTY.                        GONZALES : COUNTY
STAT.                           TEXAS : STATE
CTRY.        UNITED STATES OF AMERICA : COUNTRY
SRVC.                    Schlumberger : SERVICE COMPANY
DATE.                     08-Oct-1991 : LOGDATE
API .                  42177319460000 : API NUMBER
UWI .                  42177319460000 : UNIQUE WELL ID
SLAT.WGS84              29.4649895079 : SURFACE LATITUDE
SLON.WGS84             -97.2961371962 : SURFACE LONGITUDE
~Curve Information -----------------------------------------
DEPT    .FT    : DEPTH FEET
C1ED    .IN    : CALIPER 1 FROM CALIPER LOG
C2ED    .IN    : CALIPER 2 FROM CALIPER LOG
CALRED  .IN    : CALIPER FROM RESISTIVITY LOG
CALWS   .IN    : CALIPER [CALRED]
CONDWS  .MMHO  : CONDUCTIVITY [1000/DRESWS]
DCORWS  .G/C3  : DENSITY CORRECTION [DRHOED]
DENWS   .G/C3  : BULK DENSITY [M=2.65 F=1.0] [CALCULATED FROM DPOWS]
DPHISSED.V/V   : DENSITY POROSITY SANDSTONE [M=2.65 F=1.0] FROM DENSITY LOG, DEPTH ADJUSTED WITH [GRRED]
DPOWS   .V/V   : DENSITY POROSITY [DPHISSED]
DRESWS  .OHMM  : DEEP RESISTIVITY [ILDED]
DRHOED  .G/C3  : DENSITY CORRECTION FROM DENSITY LOG, DEPTH ADJUSTED WITH [GRRED]
GRDED   .GAPI  : GAMMA RAY FROM DENSITY LOG, DEPTH ADJUSTED WITH [GRRED]
GRRED   .GAPI  : GAMMA RAY FROM RESISTIVITY LOG
GRWS    .GAPI  : GAMMA RAY [GRRED]
ILDED   .OHMM  : INDUCTION LOG DEEP RESISTIVITY
ILMED   .OHMM  : INDUCTION LOG MEDIUM RESISTIVITY
MRESWS  .OHMM  : MEDIUM RESISTIVITY [ILMED]
NPHISSED.V/V   : NEUTRON POROSITY SANDSTONE FROM DENSITY LOG, DEPTH ADJUSTED WITH [GRRED]
NPOWS   .V/V   : NEUTRON POROSITY SANDSTONE [NPHISSED]
PEFED   .B/E   : PHOTOELECTRIC FACTOR FROM DENSITY LOG, DEPTH ADJUSTED WITH [GRRED]
PEFWS   .B/E   : PHOTOELECTRIC FACTOR [PEFED]
SFLUED  .OHMM  : SPHERICALLY FOCUSED LOG RESISTIVITY
SPRED   .MV    : SPONTANEOUS POTENTIAL FROM RESISTIVITY LOG
SPWS    .MV    : SPONTANEOUS POTENTIAL [BASELINE 0 MV] [SPRED]
SRESWS  .OHMM  : SHALLOW RESISTIVITY [SFLUED]
TENDED  .LBF   : TENSION FROM DENSITY LOG, DEPTH ADJUSTED WITH [GRRED]
TENRED  .LBF   : TENSION FROM RESISTIVITY LOG
~Params ----------------------------------------------------
PD  .                     GL : PERMANENT DATUM
EPD .FT                  312 : ELEVATION PERMANENT DATUM
LMF .                    RKB : LOG MEASURED FROM
DAPD.FT                   24 : FEET ABOVE PERMANENT DATUM
DMF .                    RKB : DRILLING MEASURED FROM
EKB .FT                  336 : KELLY BUSHING
EDF .FT                  335 : DRILLING FLOOR
EGL .FT                  312 : GROUND LEVEL
DATE.               10/09/91 : RUN DATE
RUN .                      1 : RUN NUMBER
DD  .FT                11400 : DEPTH DRILLER
DL  .FT                11376 : DEPTH LOGGER
BLI .FT                11370 : BOTTOM LOG INTERVAL
TLI .FT                 2518 : TOP LOG INTERVAL
CS  .IN                10.75 : CASING SIZE
CBD .FT                 2520 : CASING BOTTOM DRILLER
CBL .FT                 2518 : CASING BOTTOM LOGGER
BS  .IN                9.875 : BIT SIZE
BSD .FT                11400 : BIT SIZE AT DEPTH
DFT .          NEW DRILL GEL : DRILLING FLUID TYPE
DFD .                    9.6 : DRILLING FLUID DENSITY
MSS .              CIRC TANK : MUD SAMPLE SOURCE
MST .DEGF                 75 : MUD SAMPLE TEMPERATURE
RMF .OHMM               2.01 : RESISTIVITY MUD FILTRATE SAMPLE
MFST.DEGF                 75 : MUD FILTRATE SAMPLE TEMPERATURE
RMC .OHMM               4.02 : RESISTIVITY MUD CAKE
MCST.DEGF                 75 : MUD CAKE SAMPLE TEMPERATURE
MFSS.                   MEAS : MUD FILTRATE SAMPLE SOURCE
MCSS.                   CALC : MUD CAKE SAMPLE SOURCE
TCS .HRS                2200 : TIME CIRCULATED STOPPED
TLAB.HRS                2020 : TIME LOGGER AT BOTTOM
LUL .               ALICE TX : LOGGING UNIT LOCATION
ENGI.             ROTAN CAMP : RECORDING ENGINEER
WITN.                   SVOR : WITNESSED BY
CLNT.                A2DTECH : CLIENT CODE
ORIG.         1" 2" 5" PRINT : ORIGIN OF DATA
UWI .         42177319460000 : UNIQUE WELL ID
DICO. A2D Technologies, Inc. : DIGITIZING COMPANY
~Other -----------------------------------------------------
~ASCII -----------------------------------------------------
# ...
 9000.00000    -999.25    -999.25   11.25860   11.25860  608.93920    -999.25    -999.25    -999.25    -999.25    1.64220    -999.25   90.26550   88.39380   88.39380    1.64220    1.71660    1.71660    0.39540    0.39540    -999.25    -999.25    1.98110  -17.11720    6.59260    1.98110 4142.84670 1599.56320
 9050.00000    -999.25    -999.25   24.45850   24.45850  641.72500    -999.25    -999.25    -999.25    -999.25    1.55830    -999.25   90.85920   92.17910   92.17910    1.55830    1.62760    1.62760    0.34390    0.34390    -999.25    -999.25    1.92650  -20.97170    3.47390    1.92650 4115.90040 1611.41690
 9100.00000    -999.25    -999.25   27.12860   27.12860  613.19600    -999.25    -999.25    -999.25    -999.25    1.63080    -999.25   72.45640   72.79890   72.79890    1.63080    1.68500    1.68500    0.38430    0.38430    -999.25    -999.25    1.98210  -19.80580    5.37550    1.98210 4014.38010 1593.29090
 9150.00000    -999.25    -999.25   13.19680   13.19680  608.34650    -999.25    -999.25    -999.25    -999.25    1.64380    -999.25   75.77310   72.93450   72.93450    1.64380    1.70330    1.70330    0.37310    0.37310    -999.25    -999.25    2.01860  -22.23050    3.68660    2.01860 3960.35110 1562.86020
 9200.00000    -999.25    -999.25   21.91500   21.91500  585.10330    -999.25    -999.25    -999.25    -999.25    1.70910    -999.25  107.75370  106.96670  106.96670    1.70910    1.77210    1.77210    0.35780    0.35780    -999.25    -999.25    2.14760  -32.21110   -5.55820    2.14760 4147.65090 1622.85230
 9250.00000    -999.25    -999.25   23.77390   23.77390  597.97880    -999.25    -999.25    -999.25    -999.25    1.67230    -999.25   89.73400   90.34830   90.34830    1.67230    1.74670    1.74670    0.33170    0.33170    -999.25    -999.25    2.06080  -31.84440   -4.45570    2.06080 4175.23440 1617.16310
 9300.00000    -999.25    -999.25   24.03320   24.03320  586.68230    -999.25    -999.25    -999.25    -999.25    1.70450    -999.25   81.76720   81.22780   81.22780    1.70450    1.78050    1.78050    0.37600    0.37600    -999.25    -999.25    2.01890  -31.01210   -2.88760    2.01890 4182.43510 1580.52910
 9350.00000    -999.25    -999.25   23.23050   23.23050  555.15460    -999.25    -999.25    -999.25    -999.25    1.80130    -999.25   85.47210   85.59340   85.59340    1.80130    1.90340    1.90340    0.32230    0.32230    -999.25    -999.25    2.29020  -40.00000  -11.13970    2.29020 5013.97460 1809.69070
 9400.00000    -999.25    -999.25   25.45540   25.45540  597.08620    -999.25    -999.25    -999.25    -999.25    1.67480    -999.25  108.94670  108.97010  108.97010    1.67480    1.75600    1.75600    0.34140    0.34140    -999.25    -999.25    1.99270  -38.39930   -8.80330    1.99270 4180.13530 1601.50240
 9450.00000    -999.25    -999.25   24.00300   24.00300  602.22820    -999.25    -999.25    -999.25    -999.25    1.66050    -999.25   90.37190   89.63730   89.63730    1.66050    1.73450    1.73450    0.39200    0.39200    -999.25    -999.25    2.08810  -33.00930   -2.67750    2.08810 4218.30960 1641.94100
 9500.00000    -999.25    -999.25   19.91460   19.91460  498.33060    -999.25    -999.25    -999.25    -999.25    2.00670    -999.25   85.01960   85.57420   85.57420    2.00670    2.08840    2.08840    0.32680    0.32680    -999.25    -999.25    2.44140  -34.18700   -3.93020    2.44140 4066.07400 1624.48080
 9550.00000    -999.25    -999.25   22.53440   22.53440  551.66330    -999.25    -999.25    -999.25    -999.25    1.81270    -999.25   86.41880   86.62090   86.62090    1.81270    1.91270    1.91270    0.31690    0.31690    -999.25    -999.25    2.28140  -33.85490   -4.51690    2.28140 4584.22610 1732.74340
 9600.00000    9.96810    9.01930   20.05220   20.05220  402.94960    0.12000    2.43620    0.12960    0.12960    2.48170    0.12000   76.56540   86.98290   86.98290    2.48170    2.58170    2.58170    0.23940    0.23940    4.07290    4.07290    2.74400  -30.98100   -2.56190    2.74400 3671.09740 1631.75550
 9650.00000    9.93890    9.83160   13.92430   13.92430  120.41080    0.06070    2.61210    0.02300    0.02300    8.30490    0.06070   34.85650   40.50110   40.50110    8.30490    8.73560    8.73560    0.08530    0.08530    5.26400    5.26400   11.78910  -32.14770   -4.64750   11.78910 3711.16380 1655.86760
 9700.00000    9.95570    9.83790   14.29080   14.29080  164.45750    0.01890    2.57840    0.04340    0.04340    6.08060    0.01890   49.16080   49.54870   49.54870    6.08060    6.74420    6.74420    0.12110    0.12110    5.01600    5.01600   10.25680  -29.79340   -3.21200   10.25680 3797.55400 1671.37890
 9750.00000   10.52050    9.94810   15.19510   15.19510  195.06480   -0.00460    2.63350    0.01000    0.01000    5.12650   -0.00460   52.65190   55.67140   55.67140    5.12650    5.56330    5.56330    0.09730    0.09730    4.82830    4.82830    6.46320  -26.94790   -1.28540    6.46320 3783.30860 1691.70690
 9800.00000    9.95170    9.80430   12.91420   12.91420  235.64900    0.00880    2.57760    0.04390    0.04390    4.24360    0.00880   63.64440   71.13670   71.13670    4.24360    4.75640    4.75640    0.15380    0.15380    4.49970    4.49970    4.68380  -25.63730   -0.89360    4.68380 3803.80810 1676.44690
 9850.00000    9.53140    9.71960    9.27710    9.27710  206.08360    0.08970    2.53930    0.06710    0.06710    4.85240    0.08970   52.38910   58.37980   58.37980    4.85240    5.45000    5.45000    0.20380    0.20380    4.48320    4.48320    5.66910  -26.78530   -2.96050    5.66910 3743.61550 1659.37380
 9900.00000    9.19690    9.52710   13.28760   13.28760  232.43380    0.00600    2.57720    0.04410    0.04410    4.30230    0.00600   54.70000   65.07630   65.07630    4.30230    4.50430    4.50430    0.17610    0.17610    4.69430    4.69430    5.28230  -24.08040   -1.17450    5.28230 3696.86470 1648.82930
 9950.00000    9.97760    9.51680   10.98150   10.98150   66.46900    0.00910    2.62480    0.01530    0.01530   15.04460    0.00910   38.87480   34.62630   34.62630   15.04460   14.38910   14.38910    0.05590    0.05590    5.34010    5.34010   18.76910  -34.62490  -12.63780   18.76910 3675.26930 1642.86960
 10000.00000    9.56780    9.82070   16.70010   16.70010   33.37970    0.00120    2.64540    0.00280    0.00280   29.95830    0.00120   23.02800   21.85990   21.85990   29.95830   27.70630   27.70630    0.04550    0.04550    5.66410    5.66410   44.01200  -31.43410  -10.36590   44.01200 3763.90670 1650.55020
 10050.00000    9.30160    9.40170   11.21050   11.21050  102.97280    0.04030    2.61850    0.01910    0.01910    9.71130    0.04030   24.43330   18.51350   18.51350    9.71130   12.03580   12.03580    0.04130    0.04130    4.66260    4.66260   22.78990  -34.41200  -14.26270   22.78990 3654.59500 1659.39580
 10100.00000    8.86890    9.70220   10.71430   10.71430   37.34600    0.00030    2.64090    0.00550    0.00550   26.77660    0.00030   21.94090   23.36010   23.36010   26.77660   29.54730   29.54730    0.06850    0.06850    5.26390    5.26390   35.13190  -28.06390   -8.83340   35.13190 3776.74120 1644.28440
 10150.00000    9.66280    9.83410   16.62140   16.62140   68.56830    0.22580    2.39210    0.15630    0.15630   14.58400    0.22580   32.08110   44.57800   44.57800   14.58400   16.69190   16.69190    0.08620    0.08620    4.55440    4.55440   28.14610  -23.93580   -5.62420   28.14610 3742.78980 1728.73380
 10200.00000    9.51600   10.26770   15.23560   15.23560   75.13600   -0.00270    2.59560    0.03300    0.03300   13.30920   -0.00270   38.02650   41.36060   41.36060   13.30920    8.26620    8.26620    0.06880    0.06880    4.69570    4.69570   61.80300  -23.70240   -6.30960   61.80300 3719.13770 1676.81230
 10250.00000    9.62630    9.92020   13.27810   13.27810   34.47590   -0.00980    2.65030   -0.00020   -0.00020   29.00580   -0.00980   21.66100   22.17850   22.17850   29.00580   28.06160   28.06160    0.03240    0.03240    5.16290    5.16290   50.39130  -21.48290   -5.00900   50.39130 3890.72920 1710.25490
