~Version ---------------------------------------------------
VERS. 2.0 : CWLS log ASCII Standard -VERSION 2.0
WRAP.  NO : ONE LINE PER DEPTH STEP
~Well ------------------------------------------------------
STRT.F                   300.0 : START DEPTH
STOP.F                 13150.0 : STOP DEPTH
STEP.F                50.00000 : STEP LENGTH
NULL.                  -999.25 : NULL VALUE
COMP.     SUNDANCE OIL COMPANY : COMPANY
WELL.       PARKER AND SONS #1 : WELL
FLD .                  WILDCAT : FIELD
LOC .                          : LOCATION
CNTY.                LIMESTONE : COUNTY
STAT.                    TEXAS : STATE
CTRY. UNITED STATES OF AMERICA : COUNTRY
SRVC.            Dresser Atlas : SERVICE COMPANY
DATE.              01-Apr-1979 : LOGDATE
API .           42293304380000 : API NUMBER
UWI .           42293304380000 : UNIQUE WELL ID
SLAT.WGS84       31.3046679499 : SURFACE LATITUDE
SLON.WGS84      -96.4505702007 : SURFACE LONGITUDE
~Curve Information -----------------------------------------
DEPT.F                 : 
SPR .MV   07 010 01 00 : SPONTANEOUS POTENTIAL FROM RES. LOG
ILM .OHMM 07 120 44 00 : INDUCTION LOG MEDIUM
SFLU.OHMM 07 220 01 00 : SPHERICALLY FOCUSED LOG UNAVERAGED RESISTIVITY
ILD .OHMM 07 120 46 00 : INDUCTION LOG DEEP
CALS.IN   60 280 50 00 : CALIPER FROM DIL/SONIC
DT  .US/F 60 520 00 00 : INTERVAL TRANSIT TIME
CALD.IN   45 280 60 00 : CALIPER FROM DENSITY LOG
GRD .GAPI 45 310 01 00 : GAMMA RAY FROM DENSITY LOG
PORD.DEC  45 890 12 00 : POROSITY DENSITY SANDSTONE
NPOR.DEC  42 890 03 00 : NEUTRON POROSITY SANDSTONE
CORR.G/C3 45 356 01 00 : DENSITY CORRECTION
RHOB.G/C3 45 350 01 00 : BULK DENSITY
~Params ----------------------------------------------------
PD  .                     GL : PERMANENT DATUM
EPD .F                   393 : ELEVATION PERMANENT DATUM
LMF .                    RKB : LOG MEASURED FROM
DAPD.F                    19 : FEET ABOVE PERMANENT DATUM
DMF .                    RKB : DRILLING MEASURED FROM
EKB .F                   412 : KELLING BUSHING
EDF .F                   410 : DRILLING FLOOR
EGL .F                   393 : GROUND LEVEL
DATE.               4-1-1979 : RUN DATE
RUN .                      1 : RUN NUMBER
DD  .F                 13150 : DEPTH DRILLER
DL  .F                 13144 : DEPTH LOGGER
BLI .F                 13142 : BOTTOM LOG INTERVAL
TLI .F                  4648 : TOP LOG INTERVAL
CS  .IN                9.625 : CASING SIZE
CBD .F                  4647 : CASING BOTTOM DRILLER
CBL .F                  4648 : CASING BOTTOM LOGGER
BS  .IN                 8.75 : BIT SIZE
BSD .F                 13150 : BIT SIZE AT DEPTH
DFT .                 LIGNO. : DRILLING FLUID TYPE
DFD .                   11.1 : DRILLING FLUID DENSITY
DFV .                     40 : DRILLING FLUID VISCOSITY
DFPH.                     10 : DRILLING FLUID PH
DFL .                   11.4 : DRILLING FLUID LOSS
MSS .               MUD TANK : MUD SAMPLE SOURCE
RMS .OHMM               2.21 : RESISTIVITY MUD SAMPLE
MST .F                    92 : MUD SAMPLE TEMPERATURE
RMF .OHMM               1.72 : RESISTIVITY MUD FILTRATE SAMPLE
MFST.F                    92 : MUD FILTRATE SAMPLE TEMPERATURE
RMC .OHMM               2.42 : RESISTIVITY MUD CAKE
MCST.F                    92 : MUD CAKE SAMPLE TEMPERATURE
MFSS.                   CALC : MUD FILTRATE SAMPLE SOURCE
MCSS.                   CALC : MUD CAKE SAMPLE SOURCE
RMB .OHMM               0.81 : RESISTIVITY MUD AT BHT
TCS .HRS                   6 : TIME CURCULATED STOPPED
LUN .                   6209 : LOGGING UNIT NUMBER
LUL .                  TYLER : LOGGING UNIT LOCATION
ENGI.             S. LEONARD : RECORDING ENGINEER
WITN.                 DECKER : WITNESSED BY
CLNT.                A2DTECH : CLIENT CODE
ORIG.               5" PRICE : ORIGIN OF DATA
UWI .         42293304380000 : UNIQUE WELL ID
DICO. A2D Technologies, Inc. : DIGITIZING COMPANY
~Other -----------------------------------------------------
~ASCII -----------------------------------------------------
# ...
 5900.00000  -70.81500    8.55000    9.29000    8.51900    -999.25    -999.25    -999.25    -999.25    -999.25    -999.25    -999.25    -999.25
 5950.00000  -72.86000    2.99200    2.71000    2.91300    -999.25    -999.25    -999.25    -999.25    -999.25    -999.25    -999.25    -999.25
 6000.00000  -69.55700    5.25600   21.35500    4.14000    -999.25    -999.25    -999.25    -999.25    -999.25    -999.25    -999.25    -999.25
 6050.00000  -68.28100   10.56500   10.99100   11.30000    -999.25    -999.25    -999.25    -999.25    -999.25    -999.25    -999.25    -999.25
 6100.00000  -71.42800   11.42700   20.56000    8.13000    -999.25    -999.25   10.89300   45.93700    0.01000    0.15000   -0.10260    2.62230
 6150.00000  -83.77100   11.27000   13.21400    9.77300    -999.25    -999.25   10.37600   43.10100   -0.00300    0.09900   -0.10510    2.62970
 6200.00000  -67.06600   24.71900   32.33500   22.54400    -999.25    -999.25   10.46200   43.33000    0.02800    0.09700   -0.11110    2.62700
 6250.00000  -66.72700   23.17800   49.26400   18.55900    -999.25    -999.25   10.25400   29.20700    0.00300    0.06400   -0.08330    2.66880
 6300.00000  -72.08600   21.72900   35.07800   15.54900    -999.25    -999.25   10.53700   25.77900   -0.00600    0.05700   -0.13000    2.38340
 6350.00000  -69.07200    7.74500   12.27500    6.94900    -999.25    -999.25   10.25400   33.25300    0.02700    0.11600   -0.12290    2.61430
 6400.00000  -67.77400    7.33000    6.32500    7.19500    -999.25    -999.25   10.33900   23.00200    0.00700    0.06900   -0.08410    2.64300
 6450.00000  -69.84900    5.45800    3.91800    5.87500    -999.25    -999.25   12.50700   50.53900    0.18600    0.25500    0.01260    2.27580
 6500.00000  -64.39300   15.88700    9.31200    8.76800    -999.25    -999.25   10.25400   32.00700   -0.00900    0.07900   -0.10290    2.66880
 6550.00000  -81.61800   34.40400   35.73000   21.03800    -999.25    -999.25    9.92900   26.36500    0.01100    0.04800   -0.11740    2.62400
 6600.00000  -85.17300   23.82500  161.81900   37.25900    -999.25    -999.25   10.01200   36.40500    0.01900    0.06800   -0.12370    2.61850
 6650.00000  -82.43000   12.50300   15.03200   11.91800    -999.25    -999.25   10.05700   25.81900   -0.01200    0.05100   -0.09730    2.66380
 6700.00000  -69.20000   21.33200  598.45300   19.53800    -999.25    -999.25   10.26800   34.12300    0.00900    0.08700   -0.07770    2.63890
 6750.00000  -80.32200   22.15300   60.95800   16.18200    -999.25    -999.25   10.13600   24.09500    0.01200    0.08700   -0.06790    2.62770
 6800.00000  -69.96800   20.07500   62.12700   18.63800    -999.25    -999.25   10.60400   27.75100   -0.01300    0.06900   -0.04600    2.66360
 6850.00000 -143.14600   15.03200   26.18700   11.51600    -999.25    -999.25   10.45200   23.84600    0.04000    0.07700   -0.12760    2.58570
 6900.00000    -999.25   11.40300   16.48300    7.32900    -999.25    -999.25    9.71900   12.30200    0.00500    0.08900   -0.06310    2.64410
 6950.00000  -81.10000    3.99100    6.66100    3.84600    -999.25    -999.25   10.43500   31.30600    0.00500    0.13500   -0.08560    2.64640
 7000.00000  -74.68400   22.61600   23.39000   23.45900    -999.25    -999.25   10.32200   15.55800   -0.00800    0.06700   -0.10440    2.66040
 7050.00000  -58.49200   12.23300   16.18200   13.04200    -999.25    -999.25   10.38200   38.37300   -0.00600    0.09000   -0.09430    2.65660
 7100.00000  -64.17600   11.79800   12.50300   11.29000    -999.25    -999.25   11.49500   63.32600   -0.00100    0.17300   -0.04800    2.62290
 7150.00000  -58.46300    6.75000   12.78800    6.20900    -999.25    -999.25   12.84400   55.22300    0.00000    0.21300   -0.04350    2.63930
 7200.00000  -57.62200    2.42700    3.08300    2.29900    -999.25    -999.25   14.74100   76.77900    0.18700    0.32600    0.05530    2.34120
 7250.00000  -58.11200   11.19500    7.60400    9.96400    -999.25    -999.25   13.60700   88.03400    0.07300    0.30200    0.07080    2.52770
 7300.00000  -57.49900    2.10200    2.74500    1.91000    -999.25    -999.25   11.38400   33.52700   -0.03000    0.07800   -0.06610    2.70380
 7350.00000  -72.42100   21.33200   25.09200   25.64700    -999.25    -999.25   14.77900   81.15700    0.12500    0.24500    0.10960    2.50680
 7400.00000  -77.62700   47.10100   53.95200   34.69800    -999.25    -999.25   10.43900   44.80300   -0.02400    0.06800    0.00300    2.68470
 7450.00000  -73.56000   42.48600   84.48000   38.65200    -999.25    -999.25   10.85900   31.54500   -0.02300    0.05300   -0.05070    2.70800
 7500.00000 -101.75000   16.78900   27.60200   20.07100    -999.25    -999.25   10.63600   36.03600   -0.04100    0.07200   -0.01050    2.68320
 7550.00000  -76.91100   16.18200   33.19700   18.97500    -999.25    -999.25   10.53800   43.15500   -0.04600    0.08000   -0.07340    2.72450
 7600.00000  -75.35700    5.19000   19.10000    4.10700    -999.25    -999.25   10.21300   44.38600    0.05400    0.13700   -0.04940    2.55700
 7650.00000  -70.26100    5.20600    6.32500    5.28800    -999.25    -999.25   10.08100   44.58100    0.03100    0.07200   -0.05710    2.57950
 7700.00000 -120.73800    1.63300    3.84600    1.44900    -999.25    -999.25   10.76300   57.26500    0.03400    0.15400   -0.03980    2.61770
 7750.00000  -76.10100    6.96100   10.40000    4.88700    -999.25    -999.25   10.98200   80.17600    0.05900    0.13900   -0.06810    2.55200
 7800.00000  -83.77200    2.84300    3.34900    3.00500    -999.25    -999.25   10.50500   66.86000    0.05600    0.15100   -0.06880    2.56380
 7850.00000 -113.28400    4.97800    7.60400    3.96400    -999.25    -999.25   10.87900   57.62200    0.05900    0.14400   -0.07740    2.55470
 7900.00000  -97.81900    5.56700   17.74300    4.94200    -999.25    -999.25   10.61400   48.95700    0.04900    0.15500   -0.04800    2.59750
 7950.00000 -106.47000   12.50300   29.35900    9.33400    -999.25    -999.25    9.72100   24.94400    0.06100    0.06600   -0.06290    2.56000
 8000.00000  -81.17000    5.98500    5.26100    5.81900    -999.25    -999.25    9.82100   45.17600    0.07500    0.08500   -0.05970    2.52920
 8050.00000  -98.35800   13.21400   26.72600    9.08800    -999.25    -999.25    9.88100   71.63600    0.05400    0.11000   -0.00780    2.57500
 8100.00000 -114.68600    8.68100   20.18500    6.34300    -999.25    -999.25    9.63700   50.82500    0.02600    0.10100   -0.01350    2.64320
 8150.00000 -113.58200   17.10800   24.94900   12.06600    -999.25    -999.25    9.81100   64.18600    0.00200    0.10700   -0.05760    2.64690
 8200.00000 -123.18000   11.40300   19.10000    8.03600    -999.25    -999.25    9.46100   29.12000    0.05900    0.07800   -0.03280    2.55400
 8250.00000 -119.66300   10.89900   17.34600    6.93000    -999.25    -999.25    9.99700   67.61300    0.04500    0.09100   -0.07060    2.57270
 8300.00000 -103.61900    7.48500   14.18900    7.23800    -999.25    -999.25    9.40300   37.89100    0.08700    0.09800   -0.07150    2.49550
 8350.00000  -90.08100    6.09600    9.77200    5.97600    -999.25    -999.25    9.53600   55.76600    0.07400    0.08600   -0.08460    2.52850
 8400.00000  -87.48100    9.84300   11.11400   11.83100    -999.25    -999.25    9.60900   45.52800    0.04600    0.07400   -0.08090    2.57120
 8450.00000 -103.79800   19.04500   30.27100   13.57700    -999.25    -999.25    9.40400   21.08100    0.06800    0.05200   -0.04430    2.55510
 8500.00000  -87.72000   16.42600   39.07400   15.03200    -999.25    -999.25    9.61500   43.00900    0.06500    0.08700   -0.05280    2.53420
 8550.00000 -121.63100   18.89700   42.97300   13.75000    -999.25    -999.25    9.23900   25.87000    0.04300    0.05300   -0.02900    2.58550
 8600.00000 -107.60000   15.06200   20.56000   11.61500    -999.25    -999.25    9.25400   27.47400    0.07300    0.06800   -0.07840    2.55370
 8650.00000 -117.82500   20.56000   46.24100   16.48300    -999.25    -999.25    9.39700   26.79400    0.03500    0.07300   -0.05130    2.60890
