~Version ---------------------------------------------------
VERS. 2.0 : CWLS log ASCII Standard -VERSION 2.0
WRAP.  NO : ONE LINE PER DEPTH STEP
~Well ------------------------------------------------------
STRT.F                       1050.0 : START DEPTH
STOP.F                       7300.0 : STOP DEPTH
STEP.F                     50.00000 : STEP LENGTH
NULL.                       -999.25 : NULL VALUE
COMP. LA JOLLA OIL & MINERALS, INC. : COMPANY
WELL.        A. C. COPELAND UNIT #1 : WELL
FLD .               MARCELINA CREEK : FIELD
LOC .                               : LOCATION
CNTY.                        WILSON : COUNTY
STAT.                         TEXAS : STATE
CTRY.      UNITED STATES OF AMERICA : COUNTRY
SRVC.                  Schlumberger : SERVICE COMPANY
DATE.                   04-Sep-1981 : LOGDATE
API .                42493309720000 : API NUMBER
UWI .                42493309720000 : UNIQUE WELL ID
SLAT.WGS84            29.0553577447 : SURFACE LATITUDE
SLON.WGS84             -98.11338478 : SURFACE LONGITUDE
~Curve Information -----------------------------------------
DEPT.F                 : 
SPR .MV   07 010 01 00 : SPONTANEOUS POTENTIAL FROM RES. LOG
CALD.IN   45 280 60 00 : CALIPER FROM DENSITY LOG
DCAL.IN   45 280 60 00 : DIFFERENTIAL CALIPER
DPHI.DEC  45 890 12 00 : DENSITY POROSITY SANDSTONE
DRHO.G/C3 45 356 01 00 : DENSITY CORRECTION
RHOB.G/C3 45 350 01 00 : BULK DENSITY
GRD .GAPI 45 310 01 00 : GAMMA RAY FROM DENSITY LOG
ILD .OHMM 07 120 46 00 : INDUCTION LOG DEEP
SFLU.OHMM 07 220 01 00 : SPHERICALLY FOCUSED LOG UNAVERAGED RESISTIVITY
ILM .OHMM 07 120 44 00 : INDUCTION LOG MEDIUM
~Params ----------------------------------------------------
PD  .                     GL : PERMANENT DATUM
EPD .F                   374 : ELEVATION PERMANENT DATUM
LMF .                     KB : LOG MEASURED FROM
DAPD.F                  19.5 : FEET ABOVE PERMANENT DATUM
DMF .                     KB : DRILLING MEASURED FROM
EKB .F                 393.5 : KELLING BUSHING
EDF .F                 392.5 : DRILLING FLOOR
EGL .F                   374 : GROUND LEVEL
DATE.               09/04/81 : RUN DATE
RUN .                      1 : RUN NUMBER
DD  .F                  7335 : DEPTH DRILLER
DL  .F                  7328 : DEPTH LOGGER
BLI .F                  7322 : BOTTOM LOG INTERVAL
TLI .F                  1049 : TOP LOG INTERVAL
CS  .IN                8.625 : CASING SIZE
CBD .F                  1034 : CASING BOTTOM DRILLER
CBL .F                  1049 : CASING BOTTOM LOGGER
BS  .IN                7.875 : BIT SIZE
BSD .F                  7335 : BIT SIZE AT DEPTH
DFT .         LIGNOSULFONATE : DRILLING FLUID TYPE
DFD .                    9.3 : DRILLING FLUID DENSITY
DFV .                     43 : DRILLING FLUID VISCOSITY
DFPH.                     10 : DRILLING FLUID PH
DFL .                    6.8 : DRILLING FLUID LOSS
MSS .                MUD PIT : MUD SAMPLE SOURCE
RMS .OHMM              0.564 : RESISTIVITY MUD SAMPLE
MST .F                   116 : MUD SAMPLE TEMPERATURE
RMF .OHMM               0.75 : RESISTIVITY MUD FILTRATE SAMPLE
MFST.F                    75 : MUD FILTRATE SAMPLE TEMPERATURE
RMC .OHMM                0.8 : RESISTIVITY MUD CAKE
MCST.F                    75 : MUD CAKE SAMPLE TEMPERATURE
MFSS.                  CHART : MUD FILTRATE SAMPLE SOURCE
MCSS.                  CHART : MUD CAKE SAMPLE SOURCE
RMB .OHMM              0.374 : RESISTIVITY MUD AT BHT
TCS .HRS                1200 : TIME CURCULATED STOPPED
TLAB.HRS                1700 : TIME LOGGER AT BOTTOM
LUN .                   8258 : LOGGING UNIT NUMBER
LUL .             PLEASANTON : LOGGING UNIT LOCATION
ENGI.               COMSTOCK : RECORDING ENGINEER
WITN.              ROBERTSON : WITNESSED BY
CLNT.                A2DTECH : CLIENT CODE
ORIG.               5" PRINT : ORIGIN OF DATA
UWI .         42493309720000 : UNIQUE WELL ID
DICO. A2D Technologies, Inc. : DIGITIZING COMPANY
~Other -----------------------------------------------------
~ASCII -----------------------------------------------------
 1050.00000  -19.39530    -999.25    -999.25    -999.25    -999.25    -999.25   61.87970 1869.16240    1.85480   91.73930
 1100.00000  -33.93220    -999.25    -999.25    -999.25    -999.25    -999.25   52.60910    3.75940    2.65490    2.91540
 1150.00000  -33.56200    -999.25    -999.25    -999.25    -999.25    -999.25   97.83620    5.27460    3.38410    3.84770
 1200.00000  -33.41770    -999.25    -999.25    -999.25    -999.25    -999.25   77.67800    4.07420    3.32410    3.45030
 1250.00000  -45.57020    -999.25    -999.25    -999.25    -999.25    -999.25   59.72960    2.58050    2.13610    2.29310
 1300.00000  -42.95160    -999.25    -999.25    -999.25    -999.25    -999.25   42.89240    3.14130    2.53370    2.82270
 1350.00000  -43.76260    -999.25    -999.25    -999.25    -999.25    -999.25   86.98930    3.18940    2.77380    3.06300
 1400.00000  -38.44120    -999.25    -999.25    -999.25    -999.25    -999.25   51.02720    3.51540    2.69760    3.12810
 1450.00000  -39.58500    -999.25    -999.25    -999.25    -999.25    -999.25   69.35280    3.20970    2.70360    2.90770
 1500.00000  -40.93460    -999.25    -999.25    -999.25    -999.25    -999.25   87.58090    2.05720    2.00390    1.89040
 1550.00000  -36.11010    -999.25    -999.25    -999.25    -999.25    -999.25   72.19480    2.61640    2.15800    2.32220
 1600.00000  -39.00520    -999.25    -999.25    -999.25    -999.25    -999.25   63.36740    2.28620    2.17520    2.21870
 1650.00000  -30.17110    -999.25    -999.25    -999.25    -999.25    -999.25   56.47790    4.80580    4.20660    3.68640
 1700.00000  -10.07900    -999.25    -999.25    -999.25    -999.25    -999.25   57.74420    6.95610    4.81960    4.57080
 1750.00000  -21.14230    -999.25    -999.25    -999.25    -999.25    -999.25   56.44740   10.92480    6.01520    6.51960
 1800.00000  -14.24240    -999.25    -999.25    -999.25    -999.25    -999.25   30.50680    7.36220    5.60570    4.24400
 1850.00000   -7.97120    -999.25    -999.25    -999.25    -999.25    -999.25   29.25680    6.71410    4.38700    3.87260
 1900.00000    3.05500    -999.25    -999.25    -999.25    -999.25    -999.25   30.03840    9.81810    6.33020    5.16570
 1950.00000   -2.88060    -999.25    -999.25    -999.25    -999.25    -999.25   33.47490    9.89300    6.50980    5.19970
 2000.00000    1.32790    -999.25    -999.25    -999.25    -999.25    -999.25   72.94250   12.62480    8.78600    6.69610
 2050.00000   -1.24470    -999.25    -999.25    -999.25    -999.25    -999.25   52.35630    9.68100    7.80840    6.85130
 2100.00000    5.81740    -999.25    -999.25    -999.25    -999.25    -999.25   53.01940    7.77750    7.75650    4.44420
 2150.00000   -8.17480    -999.25    -999.25    -999.25    -999.25    -999.25   78.59650    7.24150    4.82100    4.99660
 2200.00000    1.46910    -999.25    -999.25    -999.25    -999.25    -999.25   48.22130    8.26210    6.19580    4.98540
 2250.00000    1.41850    -999.25    -999.25    -999.25    -999.25    -999.25   59.03670   12.58530    7.77930    7.28460
 2300.00000    3.35870    -999.25    -999.25    -999.25    -999.25    -999.25   58.44350   21.43520    9.70550   10.68190
 2350.00000    8.39550    -999.25    -999.25    -999.25    -999.25    -999.25   42.62740    9.84260    6.81890    5.16270
 2400.00000   13.87770    -999.25    -999.25    -999.25    -999.25    -999.25   45.43110   12.13250    8.23770    5.92290
 2450.00000   11.27080    -999.25    -999.25    -999.25    -999.25    -999.25   37.31330   18.25050   10.29010    7.51560
 2500.00000   -2.19670    -999.25    -999.25    -999.25    -999.25    -999.25   59.73620   19.30040   12.42230   10.82990
 2550.00000   25.68910    -999.25    -999.25    -999.25    -999.25    -999.25   51.20130   24.99390   13.42590   11.35600
 2600.00000   -0.10920    -999.25    -999.25    -999.25    -999.25    -999.25   66.19300    7.96930    5.92510    5.31040
 2650.00000  -12.58500    -999.25    -999.25    0.25250    -999.25    -999.25   72.98600    4.29710    4.32650    3.76710
 2700.00000   -2.29080    -999.25    0.18310    0.30950    -999.25    -999.25   67.75620    7.49700    5.45600    5.43110
 2750.00000   -7.08720    -999.25   -0.06050    0.25620    -999.25    -999.25   76.15270    6.47440    4.82450    5.01970
 2800.00000   -9.54020    -999.25    0.34590    0.30720    -999.25    -999.25   67.14970    5.57030    4.51450    4.36270
 2850.00000  -14.85180    -999.25    1.15990    0.25070    -999.25    -999.25   78.20610    4.38970    3.90770    3.85630
 2900.00000  -19.52440    -999.25    2.41470    0.25950    -999.25    -999.25   85.09420    3.08820    2.44460    3.12300
 2950.00000  -19.98610    -999.25    2.48560    0.22040    -999.25    -999.25   84.88430    3.47530    3.53860    3.55160
 3000.00000  -19.34120    -999.25    2.01890    0.25080    -999.25    -999.25   81.87940    2.60210    2.11880    2.48690
 3050.00000  -17.66090    -999.25    1.09970   -0.00390    -999.25    -999.25   44.55510    4.70920   25.35160    6.14410
 3100.00000  -17.81440    -999.25    2.78750    0.27870    -999.25    -999.25   87.12520    1.85660    1.89450    1.84560
 3150.00000  -16.00450    -999.25    1.47460    0.21330    -999.25    -999.25   85.04170    3.89740    3.68300    3.73730
 3200.00000  -14.42500    -999.25    1.26980    0.19920    -999.25    -999.25   91.34760    3.61360    3.47530    3.50680
 3250.00000    0.17040    -999.25    1.01860    0.32770    -999.25    -999.25   61.40560    6.10520    4.52630    4.63830
 3300.00000    0.71740    -999.25    1.48470    0.29880    -999.25    -999.25   65.90560    7.65640    5.42970    5.20320
 3350.00000   10.85720    -999.25    -999.25    -999.25    -999.25    -999.25   48.93220    7.76010    4.78340    4.73230
 3400.00000    0.17050    -999.25    -999.25    -999.25    -999.25    -999.25   56.82430    7.20820    4.94060    4.98540
 3450.00000  -17.00670    -999.25    -999.25    -999.25    -999.25    -999.25   92.78210    3.26560    3.32100    3.19420
 3500.00000    2.53360    -999.25    -999.25    -999.25    -999.25    -999.25   64.33470    6.42640    5.25270    4.84510
 3550.00000   -6.06020    -999.25    -999.25    -999.25    -999.25    -999.25   76.71650    6.02690    4.68720    4.63550
 3600.00000  -16.76170    -999.25    -999.25    -999.25    -999.25    -999.25   97.53860    1.66410    1.58060    1.70470
 3650.00000  -15.72560    -999.25    -999.25    -999.25    -999.25    -999.25   87.10790    5.31980    4.27660    4.63830
 3700.00000   11.87300    -999.25    -999.25    -999.25    -999.25    -999.25   50.23190    6.83160    4.85780    4.57180
 3750.00000  -13.87840    -999.25    -999.25    -999.25    -999.25    -999.25   93.76370    4.21270    4.29830    4.05870
 3800.00000   10.60110    -999.25    -999.25    -999.25    -999.25    -999.25   53.23660    7.57540    4.84680    4.82180
 3850.00000   11.84720    -999.25    -999.25    -999.25    -999.25    -999.25   40.88210    8.98780    5.72390    5.73350
 3900.00000   -0.69470    -999.25    -999.25    -999.25    -999.25    -999.25   62.29890    6.06970    5.23560    4.72030
 3950.00000    8.51950    -999.25    -999.25    -999.25    -999.25    -999.25   45.90900    9.29020    5.97220    5.94800
 4000.00000    3.70090    -999.25    -999.25    -999.25    -999.25    -999.25   59.25460    8.96090    6.52670    6.40260
 4050.00000    4.21470    -999.25    -999.25    -999.25    -999.25    -999.25   54.68600    6.95300    5.49140    5.04760
 4100.00000   14.73910    -999.25    -999.25    -999.25    -999.25    -999.25   39.79260    8.41260    6.44730    6.13990
 4150.00000    5.68500    -999.25    -999.25    -999.25    -999.25    -999.25   59.49600   10.54070    9.37640    7.02380
 4200.00000   10.22570    -999.25    -999.25    -999.25    -999.25    -999.25   49.27180    6.90140    4.95940    4.94750
 4250.00000    2.22780    -999.25    -999.25    -999.25    -999.25    -999.25   73.51730    2.78720    2.64670    2.56910
 4300.00000   11.44660    -999.25    -999.25    -999.25    -999.25    -999.25   51.15930    8.25050    5.58930    6.07980
