~Version ---------------------------------------------------
VERS. 2.0 : CWLS log ASCII Standard -VERSION 2.0
WRAP. YES : MULTIPLE LINES PER DEPTH STEP
~Well ------------------------------------------------------
STRT.FT                      1000.0 : START DEPTH
STOP.FT                      8050.0 : STOP DEPTH
STEP.FT                    50.00000 : STEP LENGTH
NULL.                       -999.25 : NULL VALUE
COMP. MACHII ROSS PETROLEUM COMPANY : COMPANY
WELL.                    KINCAID #1 : WELL
FLD .                   LOS CUATROS : FIELD
LOC .                               : LOCATION
CNTY.                      MAVERICK : COUNTY
STAT.                         TEXAS : STATE
CTRY.      UNITED STATES OF AMERICA : COUNTRY
SRVC.                 Dresser Atlas : SERVICE COMPANY
DATE.                   19-Sep-1978 : LOGDATE
API .                42323312560000 : API NUMBER
UWI .                42323312560000 : UNIQUE WELL ID
SLAT.WGS84             28.770602727 : SURFACE LATITUDE
SLON.WGS84          -100.4374528413 : SURFACE LONGITUDE
~Curve Information -----------------------------------------
DEPT  .FT    : DEPTH FEET
CALDED.IN    : CALIPER FROM DENSITY LOG [DEP AD TO GRRED]
CALRED.IN    : CALIPER FROM RESISTIVITY LOG
CALWS .IN    : CALIPER [976 CALRED 1886.5 CALDED]
CONDWS.MMHO  : CONDUCTIVITY [1000/DRESWS]
CORRED.G/C3  : DENSITY CORRECTION FROM DENSITY LOG [DEP AD TO GRRED]
DCORWS.G/C3  : DENSITY CORRECTION [CORRED]
DENWS .G/C3  : BULK DENSITY [M=2.71 F=1.0] [CALCULATED FROM DPOWS]
DPHIED.V/V   : DENSITY POROSITY [M=2.71 F=1.0] FROM DENSITY LOG [DEP AD TO GRRED]
DPOWS .V/V   : DENSITY POROSITY [M=2.71 F=1.0] [DPHIED]
DRESWS.OHMM  : DEEP RESISTIVITY [ILDED]
DTED  .US/F  : DELTA TIME FROM SONIC LOG
DTWS  .US/F  : DELTA TIME [DTED]
GRDED .GAPI  : GAMMA RAY FROM DENSITY LOG [DEP AD TO GRRED]
GRRED .GAPI  : GAMMA RAY FROM RESISTIVITY LOG
GRWS  .GAPI  : GAMMA RAY [976 GRRED 1805.5 GRDED 7558.5 GRRED 7718.5 GRDED]
ILDED .OHMM  : INDUCTION LOG DEEP RESISTIVITY
ILMED .OHMM  : INDUCTION LOG MEDIUM RESISTIVITY
MRESWS.OHMM  : MEDIUM RESISTIVITY [ILMED]
NPHIED.V/V   : NEUTRON POROSITY SANDSTONE FROM DENSITY LOG [DEP AD TO GRRED]
NPOWS .V/V   : NEUTRON POROSITY SANDSTONE [NPHIED]
SFLUED.OHMM  : SPHERICALLY FOCUSED LOG RESISTIVITY
SPRED .MV    : SPONTANEOUS POTENTIAL FROM RESISTIVITY LOG
SPWS  .MV    : SPONTANEOUS POTENTIAL [BASELINE 0 MV] [SPRED]
SRESWS.OHMM  : SHALLOW RESISTIVITY [SFLUED]
TENDED.LBF   : TENSION FROM DENSITY LOG [DEP AD TO GRRED]
~Params ----------------------------------------------------
PD  .                     GL : PERMANENT DATUM
EPD .FT                  884 : ELEVATION PERMANENT DATUM
LMF .                     KB : LOG MEASURED FROM
DAPD.FT                   21 : FEET ABOVE PERMANENT DATUM
DMF .                     KB : DRILLING MEASURED FROM
EKB .FT                  905 : KELLY BUSHING
EDF .FT                  904 : DRILLING FLOOR
EGL .FT                  884 : GROUND LEVEL
DATE.              9-19-1978 : RUN DATE
RUN .                      2 : RUN NUMBER
DD  .FT                 8050 : DEPTH DRILLER
DL  .FT                 8050 : DEPTH LOGGER
BLI .FT                 8048 : BOTTOM LOG INTERVAL
TLI .FT                 6461 : TOP LOG INTERVAL
CS  .IN                9.625 : CASING SIZE
CBD .FT                 6473 : CASING BOTTOM DRILLER
CBL .FT                 6456 : CASING BOTTOM LOGGER
BS  .IN                7.875 : BIT SIZE
BSD .FT                 8050 : BIT SIZE AT DEPTH
DFT .                  LIGNO : DRILLING FLUID TYPE
DFD .                   14.6 : DRILLING FLUID DENSITY
DFV .                     48 : DRILLING FLUID VISCOSITY
DFPH.                     11 : DRILLING FLUID PH
DFL .                    7.2 : DRILLING FLUID LOSS
MSS .                    PIT : MUD SAMPLE SOURCE
RMS .OHMM                1.4 : RESISTIVITY MUD SAMPLE
MST .DEGF                 75 : MUD SAMPLE TEMPERATURE
RMF .OHMM               1.07 : RESISTIVITY MUD FILTRATE SAMPLE
MFST.DEGF                 75 : MUD FILTRATE SAMPLE TEMPERATURE
RMC .OHMM               1.75 : RESISTIVITY MUD CAKE
MCST.DEGF                 75 : MUD CAKE SAMPLE TEMPERATURE
MFSS.                   MEAS : MUD FILTRATE SAMPLE SOURCE
MCSS.                   CALC : MUD CAKE SAMPLE SOURCE
RMB .OHMM               0.61 : RESISTIVITY MUD AT BHT
TCS .HRS                   6 : TIME CIRCULATED STOPPED
LUN .                   6160 : LOGGING UNIT NUMBER
LUL .                  ALICE : LOGGING UNIT LOCATION
ENGI.                 BOYKIN : RECORDING ENGINEER
WITN.                 WALKER : WITNESSED BY
CLNT.                A2DTECH : CLIENT CODE
ORIG.          1" 2.5" PRINT : ORIGIN OF DATA
UWI .         42323312560000 : UNIQUE WELL ID
DICO. A2D Technologies, Inc. : DIGITIZING COMPANY
~Other -----------------------------------------------------
~ASCII -----------------------------------------------------
# ...
 6600.00000    9.03600    8.91310    9.03600   60.57630   -0.09200   -0.09200    2.54070    0.09900    0.09900   16.50810   60.66930   60.66930   72.19900   70.07020   72.19900   16.50810    -999.25    -999.25    0.06700    0.06700   20.04530  -41.10380  -10.83120   20.04530    -999.25
 6650.00000    9.46200    9.07730    9.46200   23.89120   -0.02100   -0.02100    2.65870    0.03000    0.03000   41.85650   55.39940   55.39940   68.26700   71.58510   68.26700   41.85650    -999.25    -999.25    0.03700    0.03700   65.00320  -37.25100   -7.43430   65.00320    -999.25
 6700.00000    9.20400    8.97640    9.20400   19.56020   -0.01200   -0.01200    2.57660    0.07800    0.07800   51.12410   51.61420   51.61420   48.08700   57.07050   48.08700   51.12410    -999.25    -999.25    0.03100    0.03100   82.41670  -47.60960  -18.24870   82.41670    -999.25
 6750.00000    9.31900    8.90340    9.31900   24.74080   -0.00300   -0.00300    2.73910   -0.01700   -0.01700   40.41900   52.65550   52.65550   67.98900   68.13520   67.98900   40.41900    -999.25    -999.25    0.03200    0.03200   51.48210  -44.42230  -15.51730   51.48210    -999.25
 6800.00000    9.55400    8.93200    9.55400   15.66940    0.05900    0.05900    2.68950    0.01200    0.01200   63.81880   49.73530   49.73530   72.00100   70.21910   72.00100   63.81880    -999.25    -999.25    0.02500    0.02500   66.26040  -42.60250  -14.15340   66.26040    -999.25
 6850.00000    8.96200    8.92090    8.96200   23.98790   -0.04900   -0.04900    2.68260    0.01600    0.01600   41.68760   53.79280   53.79280   72.65600   67.58020   72.65600   41.68760    -999.25    -999.25    0.03000    0.03000   60.42110  -37.47680   -9.33860   60.42110    -999.25
 6900.00000    9.13100    8.86700    9.13100   16.25080    0.00100    0.00100    2.64330    0.03900    0.03900   61.53540   53.47160   53.47160   63.77700   66.28420   63.77700   61.53540    -999.25    -999.25    0.02700    0.02700   72.68570  -39.73680  -11.81690   72.68570    -999.25
 6950.00000    9.01200    8.91240    9.01200   18.28190   -0.10500   -0.10500    2.67920    0.01800    0.01800   54.69890   53.60060   53.60060   61.46200   68.42630   61.46200   54.69890    -999.25    -999.25    0.02900    0.02900   56.67750  -37.61830   -9.91670   56.67750    -999.25
 7000.00000    9.77600    8.80880    9.77600   21.27520   -0.05900   -0.05900    2.71510   -0.00300   -0.00300   47.00300   55.72060   55.72060   69.83900   66.68850   69.83900   47.00300    -999.25    -999.25    0.03400    0.03400   48.11390  -35.57790   -8.09450   48.11390    -999.25
 7050.00000    9.20100    8.96840    9.20100   19.59490   -0.04100   -0.04100    2.68090    0.01700    0.01700   51.03370   53.63190   53.63190   75.68800   70.06570   75.68800   51.03370    -999.25    -999.25    0.03000    0.03000   51.03370  -36.60260   -9.33750   51.03370    -999.25
 7100.00000   10.01600    8.80880   10.01600   39.81950   -0.01900   -0.01900    2.63990    0.04100    0.04100   25.11330   58.30710   58.30710   96.01200   85.15940   96.01200   25.11330    -999.25    -999.25    0.04500    0.04500   35.14610  -29.47620   -2.42940   35.14610    -999.25
 7150.00000   10.20500    9.24700   10.20500  114.83690   -0.01600   -0.01600    2.65530    0.03200    0.03200    8.70800   76.59320   76.59320   93.37900   82.77240   93.37900    8.70800    -999.25    -999.25    0.09700    0.09700   10.84320  -30.64730   -3.81870   10.84320    -999.25
 7200.00000    9.65000    9.76490    9.65000   32.50470   -0.04000   -0.04000    2.67240    0.02200    0.02200   30.76480   55.15750   55.15750  106.57300   91.71440  106.57300   30.76480    -999.25    -999.25    0.04700    0.04700   49.41820  -28.08770   -1.47740   49.41820    -999.25
 7250.00000    9.89100    9.32670    9.89100   87.83720   -0.04100   -0.04100    2.62960    0.04700    0.04700   11.38470   67.24690   67.24690  102.39400   91.43770  102.39400   11.38470    -999.25    -999.25    0.08200    0.08200   12.78160  -30.47810   -3.59870   12.78160    -999.25
 7300.00000    9.36300    9.38520    9.36300   97.15340   -0.02100   -0.02100    2.62960    0.04700    0.04700   10.29300   66.23490   66.23490   83.04000   74.31390   83.04000   10.29300    -999.25    -999.25    0.08300    0.08300   20.38450  -31.82920   -4.34200   20.38450    -999.25
 7350.00000    9.69300    9.05240    9.69300  100.12820   -0.05600   -0.05600    2.56470    0.08500    0.08500    9.98720   80.35430   80.35430  114.91500   98.86040  114.91500    9.98720    -999.25    -999.25    0.12900    0.12900   17.76000  -32.61660   -4.51390   17.76000    -999.25
 7400.00000    9.52400    9.29860    9.52400   79.68000   -0.04600   -0.04600    2.62280    0.05100    0.05100   12.55020   65.22690   65.22690   74.01300   64.91840   74.01300   12.55020    -999.25    -999.25    0.06000    0.06000   17.43840  -35.47270   -7.17330   17.43840    -999.25
 7450.00000    9.21000    9.30840    9.21000  104.21880   -0.04300   -0.04300    2.58000    0.07600    0.07600    9.59520   76.17360   76.17360   81.74800   72.90540   81.74800    9.59520    -999.25    -999.25    0.10300    0.10300   13.75090  -39.65850  -12.77580   13.75090    -999.25
 7500.00000    9.09000    8.81790    9.09000   25.79150   -0.05300   -0.05300    2.63480    0.04400    0.04400   38.77240   56.73230   56.73230  101.30300   83.36650  101.30300   38.77240    -999.25    -999.25    0.03900    0.03900   65.59220  -45.46810  -20.00210   65.59220    -999.25
 7550.00000    8.47500    8.67630    8.47500   17.48320   -0.06100   -0.06100    2.57490    0.07900    0.07900   57.19780   54.87880   54.87880   49.89800   54.68130   49.89800   57.19780    -999.25    -999.25    0.01100    0.01100   72.53600  -29.92790   -4.56530   72.53600    -999.25
 7600.00000    9.27500    8.43120    9.27500  269.34580   -0.04700   -0.04700    2.56120    0.08700    0.08700    3.71270   83.60770   83.60770  130.48700  101.31820  101.31820    3.71270    -999.25    -999.25    0.13900    0.13900    6.95500  -46.16480  -15.65240    6.95500    -999.25
 7650.00000    8.82500    9.02590    8.82500  135.02570   -0.04900   -0.04900    2.54750    0.09500    0.09500    7.40600   88.69010   88.69010  145.07300   85.61320   85.61320    7.40600    -999.25    -999.25    0.15100    0.15100    9.97830  -46.25700  -14.44440    9.97830    -999.25
 7700.00000    8.87200    8.52990    8.87200  171.03080   -0.01700   -0.01700    2.69290    0.01000    0.01000    5.84690   72.44850   72.44850   72.79400   74.46280   74.46280    5.84690    -999.25    -999.25    0.07600    0.07600    6.25150  -44.92380  -13.62260    6.25150   28.09080
 7750.00000    8.78800    8.44640    8.78800   16.84880   -0.03500   -0.03500    2.68440    0.01500    0.01500   59.35140   50.80500   50.80500   63.49000   66.63350   63.49000   59.35140    -999.25    -999.25    0.02800    0.02800   73.61530  -43.68670  -13.63140   73.61530   24.58790
 7800.00000    8.71500    8.23670    8.71500   15.83630   -0.05500   -0.05500    2.68440    0.01500    0.01500   63.14590   48.85830   48.85830   65.50100   66.92960   65.50100   63.14590    -999.25    -999.25    0.03000    0.03000   87.83310  -33.79680   -7.75040   87.83310   15.13180
 7850.00000    8.99500    8.56290    8.99500   16.10670   -0.06200   -0.06200    2.64500    0.03800    0.03800   62.08580   49.95830   49.95830   75.10300   70.81670   75.10300   62.08580    -999.25    -999.25    0.02300    0.02300   85.37100  -39.24300  -13.48160   85.37100   23.76070
 7900.00000    9.27300    8.66830    9.27300   15.95650   -0.10200   -0.10200    2.63820    0.04200    0.04200   62.67030   49.29110   49.29110   48.15500   49.55590   48.15500   62.67030    -999.25    -999.25    0.02500    0.02500   89.04130  -53.21060  -27.32050   89.04130   16.56150
 7950.00000    8.61100    8.43430    8.61100   19.60540   -0.07900   -0.07900    2.63820    0.04200    0.04200   51.00630   50.10910   50.10910   38.10100   55.87290   38.10100   51.00630    -999.25    -999.25    0.03000    0.03000   85.37310  -53.88210  -27.86330   85.37310   14.85940
