~Version ---------------------------------------------------
VERS. 2.0 : CWLS log ASCII Standard -VERSION 2.0
WRAP. YES : Multiple lines per depth step
~Well ------------------------------------------------------
STRT.FT                        650.0 : START DEPTH
STOP.FT                       7250.0 : STOP DEPTH
STEP.FT                     50.00000 : STEP LENGTH
NULL.                        -999.25 : NULL VALUE
COMP.      MACHII ROSS PETROLEUM CO. : COMPANY
WELL. WINN EXPLORATION HARPER NBC #1 : WELL
FLD .                             WC : FIELD
LOC .                                : LOCATION
CNTY.                       MAVERICK : COUNTY
STAT.                          TEXAS : STATE
CTRY.       UNITED STATES OF AMERICA : COUNTRY
SRVC.                   Schlumberger : SERVICE COMPANY
DATE.                    24-Sep-1978 : LOGDATE
API .                 42323312660000 : API NUMBER
UWI .                 42323312660000 : UNIQUE WELL ID
SLAT.WGS84             28.7830719209 : SURFACE LATITUDE
SLON.WGS84           -100.5041551949 : SURFACE LONGITUDE
~Curve Information -----------------------------------------
DEPT  .FT    : DEPTH
CALDED.IN    : CALIPER FROM DENSITY LOG (ADJ TO RES.)
CALSED.IN    : CALIPER FROM SONIC LOG (ADJ TO RES.)
CALWS .IN    : CALIPER (CALDED)
CONDWS.MMHO  : CONDUCTIVITY (1000/DRESWS)
DCORWS.G/C3  : DENSITY CORRECTION (DRHOED)
DENWS .G/C3  : BULK DENSITY  (FROM DPOWS ASSUMED LS)
DPHIED.V/V   : DENSITY POROSITY  (ADJ TO RES.)
DPOWS .V/V   : DENSITY POROSITY (M=2.71 F=1 DPHIED)
DRESWS.OHMM  : DEEP RESISTIVITY (ILDED)
DRHOED.G/C3  : DENSITY CORRECTION (ADJ TO RES.)
DTED  .US/F  : DELTA TIME
DTWS  .US/F  : DELTA TIME  (DTED)
GRRED .GAPI  : GAMMA RAY FROM RESISTIVITY LOG
GRSED .GAPI  : GAMMA RAY FROM SONIC LOG (ADJ TO RES.)
GRWS  .GAPI  : GAMMA RAY (GRSED)
ILDED .OHMM  : DEEP INDUCTION RESISTIVITY
ILMED .OHMM  : MEDIUM INDUCTION RESISTIVITY
LL8ED .OHMM  : LATEROLOG-8 RESISTIVITY
MRESWS.OHMM  : MEDIUM RESISTIVITY (ILMED)
NPHIED.V/V   : NEUTRON POROSITY (ADJ TO RES.)
NPOWS .V/V   : NEUTRON POROSITY ASSUMED LIMESTONE (NPHIED)
RHOBED.G/C3  : BULK DENSITY (ADJ TO RES.)
SPRED .MV    : SPONTANEOUS POTENTIAL FROM RESISTIVITY
SPWS  .MV    : SPONTANEOUS POTENTIAL BASELINE 0 MV (SPRED) (INVALID TOP-6222)
SRESWS.OHMM  : SHALLOW RESISTIVITY (LL8ED)
~Params ----------------------------------------------------
PD  .                     GL : PERMANENT DATUM
EPD .FT                  790 : ELEVATION PERMANENT DATUM
LMF .                     KB : LOG MEASURED FROM
DMF .                     KB : DRILLING MEASURED FROM
EGL .FT                  790 : GROUND LEVEL
DATE.              9-24-1978 : RUN DATE
RUN .                      2 : RUN NUMBER
DD  .FT                 7270 : DEPTH DRILLER
DL  .FT                 7271 : DEPTH LOGGER
BLI .FT                 7265 : BOTTOM LOG INTERVAL
TLI .FT                 6232 : TOP LOG INTERVAL
CS  .IN                8.625 : CASING SIZE
CBD .FT                 6231 : CASING BOTTOM DRILLER
CBL .FT                 6232 : CASING BOTTOM LOGGER
BS  .IN                7.875 : BIT SIZE
BSD .FT                 7270 : BIT SIZE AT DEPTH
DFT .              LIGNOSULF : DRILLING FLUID TYPE
DFD .                   14.4 : DRILLING FLUID DENSITY
DFV .                     51 : DRILLING FLUID VISCOSITY
DFPH.                     10 : DRILLING FLUID PH
DFL .                    8.2 : DRILLING FLUID LOSS
MSS .             CIRC. TANK : MUD SAMPLE SOURCE
RMS .OHMM               1.94 : RESISTIVITY MUD SAMPLE
MST .DEGF                 82 : MUD SAMPLE TEMPERATURE
RMF .OHMM               1.45 : RESISTIVITY MUD FILTRATE SAMPLE
MFST.DEGF                 82 : MUD FILTRATE SAMPLE TEMPERATURE
RMC .OHMM               2.91 : RESISTIVITY MUD CAKE
MCST.DEGF                 82 : MUD CAKE SAMPLE TEMPERATURE
MFSS.                   MEAS : MUD FILTRATE SAMPLE SOURCE
MCSS.                   CALC : MUD CAKE SAMPLE SOURCE
RMB .OHMM              0.855 : RESISTIVITY MUD AT BHT
TCS .HRS                 600 : TIME CIRCULATED STOPPED
TLAB.HRS                1300 : TIME LOGGER AT BOTTOM
LUL .                 LAREDO : LOGGING UNIT LOCATION
ENGI.                RENFROW : RECORDING ENGINEER
WITN.                 WALKER : WITNESSED BY
CLNT.                A2DTECH : CLIENT CODE
ORIG.          1" 2.5" PRINT : ORIGIN OF DATA
UWI .         42323312660000 : UNIQUE WELL ID
DICO. A2D Technologies, Inc. : DIGITIZING COMPANY
~Other -----------------------------------------------------
~ASCII -----------------------------------------------------
# ...
 3450.00000   12.29810    -999.25   12.29810   38.68340   -0.00670    2.65820    0.03030    0.03030   25.85090   -0.00670   57.31920   57.31920   24.84940   24.84940   24.84940   25.85090   29.86790   21.00590   29.86790    0.04280    0.04280    2.65030 -141.56720    -999.25   21.00590
 3500.00000   12.44830    -999.25   12.44830   70.33540    0.00590    2.56690    0.08370    0.08370   14.21760    0.00590   59.57830   59.57830   21.23490   21.23490   21.23490   14.21760   17.41610   16.62250   17.41610    0.07660    0.07660    2.56550 -173.69440    -999.25   16.62250
 3550.00000   12.41750    -999.25   12.41750   34.37830    0.01930    2.67120    0.02270    0.02270   29.08810    0.01930   56.86750   56.86750   24.22800   24.22800   24.22800   29.08810   33.83960   20.85860   33.83960    0.03560    0.03560    2.68010 -154.21490    -999.25   20.85860
 3600.00000   12.38110    -999.25   12.38110   39.22880    0.01040    2.68980    0.01180    0.01180   25.49150    0.01040   57.50680   57.50680   26.20520   26.20520   26.20520   25.49150   27.11200   24.67940   27.11200    0.03160    0.03160    2.68600 -153.01210    -999.25   24.67940
 3650.00000   12.32800    -999.25   12.32800   30.55730    0.00370    2.66930    0.02380    0.02380   32.72540    0.00370   56.56580   56.56580   25.00060   25.00060   25.00060   32.72540   41.33810   34.07180   41.33810    0.03160    0.03160    2.66370 -135.54220    -999.25   34.07180
 3700.00000   12.35110    -999.25   12.35110   31.90810   -0.00150    2.67990    0.01760    0.01760   31.34000   -0.00150   56.86750   56.86750   26.02560   26.02560   26.02560   31.34000   36.24840   23.99810   36.24840    0.03250    0.03250    2.66370 -112.04820    -999.25   23.99810
 3750.00000   12.34270    -999.25   12.34270   37.36400   -0.00080    2.68230    0.01620    0.01620   26.76370   -0.00080   56.86750   56.86750   28.91570   28.91570   28.91570   26.76370   41.05460   31.32240   41.05460    0.03110    0.03110    2.68440 -100.29780    -999.25   31.32240
 3800.00000   12.31340    -999.25   12.31340   15.59360   -0.01190    2.65320    0.03320    0.03320   64.12890   -0.01190   55.54470   55.54470   36.59640   36.59640   36.59640   64.12890  119.86060   63.30250  119.86060    0.05760    0.05760    2.63510 -103.61450    -999.25   63.30250
 3850.00000   12.34330    -999.25   12.34330   31.85460   -0.00820    2.63870    0.04170    0.04170   31.39260   -0.00820   54.45690   54.45690   27.56100   27.56100   27.56100   31.39260   58.81770   49.05520   58.81770    0.07910    0.07910    2.63100 -103.31250    -999.25   49.05520
 3900.00000   12.16420   12.11550   12.16420   22.67840    0.01380    2.65020    0.03500    0.03500   44.09490    0.01380   54.15660   54.15660   33.69610   33.69610   33.69610   44.09490   81.96770  105.93710   81.96770    0.07380    0.07380    2.64580  -74.69880    -999.25  105.93710
 3950.00000   13.02990   12.26940   13.02990   67.37320    0.16470    2.48430    0.13200    0.13200   14.84270    0.16470   57.61980   57.61980   25.07550   25.07550   25.07550   14.84270   14.55100   17.26270   14.55100    0.14650    0.14650    2.49400 -118.97470    -999.25   17.26270
 4000.00000   12.49200   12.21370   12.49200    0.97850    0.02520    2.78560   -0.04420   -0.04420 1021.94410    0.02520   51.44650   51.44650   32.98190   32.98190   32.98190 1021.94410    -999.25  196.52810    -999.25    0.04670    0.04670    2.79610 -135.65100    -999.25  196.52810
 4050.00000   12.53690   12.31220   12.53690    2.39700   -0.00890    2.86730   -0.09200   -0.09200  417.18280   -0.00890   51.44510   51.44510   31.85170   31.85170   31.85170  417.18280 1625.41390  387.89000 1625.41390    0.01230    0.01230    2.79230 -155.42310    -999.25  387.89000
 4100.00000   12.10450   12.18360   12.10450    1.21480    0.03560    2.66660    0.02540    0.02540  823.16690    0.03560   51.15000   51.15000   45.63400   45.63400   45.63400  823.16690  617.40150  178.15650  617.40150    0.06030    0.06030    2.67560 -151.56820    -999.25  178.15650
 4150.00000   13.14930   12.10700   13.14930   11.65230    0.02080    2.63030    0.04660    0.04660   85.82020    0.02080   54.00590   54.00590   58.73490   58.73490   58.73490   85.82020 1592.00920  912.18170 1592.00920    0.04370    0.04370    2.61830 -153.61450    -999.25  912.18170
 4200.00000   12.55210   12.24830   12.55210    1.76670    0.01040    2.69800    0.00700    0.00700  566.02710    0.01040   52.95160   52.95160   35.48600   35.48600   35.48600  566.02710 1753.79630 1557.25710 1753.79630    0.05970    0.05970    2.68600 -197.58940    -999.25 1557.25710
 4250.00000   12.23860   12.20440   12.23860    0.50000    0.01780    2.62500    0.04970    0.04970 2000.00000    0.01780   50.84340   50.84340   36.82230   36.82230   36.82230    -999.25 2013.87720 2175.49050 2013.87720    0.11590    0.11590    2.59970 -175.30120    -999.25 2175.49050
 4300.00000   11.92340   12.19630   11.92340    0.50000    0.00740    2.60670    0.06040    0.06040 2000.00000    0.00740   49.63870   49.63870   33.88590   33.88590   33.88590    -999.25    -999.25 1814.22440    -999.25    0.09530    0.09530    2.60720    -999.25    -999.25 1814.22440
 4350.00000   12.28360   12.24700   12.28360    3.17830    0.00150    2.70850    0.00090    0.00090  314.63790    0.00150   51.29520   51.29520   29.14160   29.14160   29.14160  314.63790  345.34850  718.77500  345.34850    0.03460    0.03460    2.69270  -38.85590    -999.25  718.77500
 4400.00000   12.50000   12.36990   12.50000    2.99310    0.02850    2.71990   -0.00580   -0.00580  334.09820    0.02850   51.44550   51.44550   40.59900   40.59900   40.59900  334.09820    -999.25  252.92630    -999.25    0.05430    0.05430    2.67110    -999.25    -999.25  252.92630
 4450.00000   12.46270   12.31560   12.46270   23.53110    0.01560    2.66660    0.02540    0.02540   42.49690    0.01560   55.96430   55.96430   35.46720   35.46720   35.46720   42.49690 2218.70290   62.69280 2218.70290    0.12090    0.12090    2.66370 -136.14360    -999.25   62.69280
 4500.00000   12.04480   12.41590   12.04480    0.50000    0.10380    2.65440    0.03250    0.03250 2000.00000    0.10380   53.25200   53.25200   50.26410   50.26410   50.26410    -999.25 1657.95830 1825.81250 1657.95830    0.10290    0.10290    2.61900 -111.97690    -999.25 1825.81250
 4550.00000   12.55220   12.28910   12.55220   18.73020    0.01190    2.70950    0.00030    0.00030   53.38960    0.01190   53.70480   53.70480   43.14850   43.14850   43.14850   53.38960    -999.25   77.91440    -999.25    0.04730    0.04730    2.70010  -96.38260    -999.25   77.91440
 4600.00000   12.28360   12.26590   12.28360   14.19470    0.02970    2.72900   -0.01110   -0.01110   70.44890    0.02970   52.65060   52.65060   33.43370   33.43370   33.43370   70.44890  974.43190  118.85900  974.43190    0.02000    0.02000    2.70210 -159.63560    -999.25  118.85900
 4650.00000   12.22390   12.38300   12.22390   23.04750    0.20250    2.59200    0.06900    0.06900   43.38860    0.20250   53.85450   53.85450   27.33430   27.33430   27.33430   43.38860  278.73170   64.93220  278.73170    0.00830    0.00830    2.48210    -999.25    -999.25   64.93220
 4700.00000   13.98510   12.93600   13.98510   52.12810    0.11420    2.61030    0.05830    0.05830   19.18350    0.11420   55.06020   55.06020   32.08020   32.08020   32.08020   19.18350   35.75250   38.65000   35.75250    0.07000    0.07000    2.66360 -137.77140    -999.25   38.65000
 4750.00000   12.62690   12.19510   12.62690   27.58500    0.00520    2.70780    0.00130    0.00130   36.25160    0.00520   55.51170   55.51170   34.33520   34.33520   34.33520   36.25160  198.63510   36.28670  198.63510    0.03950    0.03950    2.69620   -1.80630    -999.25   36.28670
 4800.00000   12.15990   12.27490   12.15990   31.09130    0.00650    2.70040    0.00560    0.00560   32.16330    0.00650   57.10500   57.10500   38.64720   38.64720   38.64720   32.16330  150.26120   33.12640  150.26120    0.02990    0.02990    2.69640   24.10920    -999.25   33.12640
