~Version ---------------------------------------------------
VERS.      2.0 : CWLS log ASCII Standard -VERSION 2.0
WRAP.      YES : Multiple lines per depth step
CREA. 10/06/20 : LAS Creation Date
~Well ------------------------------------------------------
STRT.FT                 3150.0 : START DEPTH
STOP.FT                18400.0 : STOP DEPTH
STEP.FT               50.00000 : STEP LENGTH
NULL.                  -999.25 : NULL VALUE
COMP. AMOCO PRODUCTION COMPANY : COMPANY
WELL.       MARTIN GAS UNIT #1 : WELL
FLD .                  WILDCAT : FIELD
LOC .                          : LOCATION
CNTY.                     LEON : COUNTY
STAT.                    TEXAS : STATE
CTRY. UNITED STATES OF AMERICA : COUNTRY
SRVC.             Schlumberger : SERVICE COMPANY
DATE.              06-Oct-1998 : LOGDATE
API .           42289312900000 : API NUMBER
UWI .           42289312900000 : UNIQUE WELL ID
SLAT.WGS84       31.2448401024 : SURFACE LATITUDE
SLON.WGS84      -96.2384028977 : SURFACE LONGITUDE
~Curve Information -----------------------------------------
DEPT    .FT    : DEPTH FEET
AT20ED  .OHMM  : 20 INCH ARRAY RESISTIVITY TWO FOOT RESOLUTION FROM AIT LOG
AT30ED  .OHMM  : 30 INCH ARRAY RESISTIVITY TWO FOOT RESOLUTION FROM AIT LOG
AT60ED  .OHMM  : 60 INCH ARRAY RESISTIVITY TWO FOOT RESOLUTION FROM AIT LOG
AT90ED  .OHMM  : 90 INCH ARRAY RESISTIVITY TWO FOOT RESOLUTION FROM AIT LOG
BITSED  .IN    : BIT SIZE FROM RUN HEADERS
CALDED  .IN    : CALIPER FROM DENSITY LOG [DSH. TO GRRED]
CALWS   .IN    : CALIPER [TOP CALDED 14108' (DCALDED+BITSED) TD]
CONDWS  .MMHO  : DEEP CONDUCTIVITY [1000/DRESWS]
DCALDED .IN    : DIFFERENTIAL CALIPER FROM DENSITY LOG [DSH. TO GRRED]
DCORWS  .G/C3  : DENSITY CORRECTION [TOP DRHOED 16650' DRHED TD]
DENWS   .G/C3  : BULK DENSITY [CALC. FROM DPOLSWS]
DPHILSED.V/V   : DENSITY POROSITY (LS) [M=2.71 F=1.00] [DSH. TO GRRED]
DPOLSED .V/V   : DENSITY POROSITY (LS) [M=2.71 F=1.00] [DSH. TO GRRED]
DPOLSWS .V/V   : DENSITY POROSITY (LS) [M=2.71 F=1.00] [TOP DPHILSED 16650' DPOLSED TD]
DRESWS  .OHMM  : DEEP RESISTIVITY [TOP AT90ED 14100' ILDED 16650' IDPHED TD]
DRHED   .G/C3  : DENSITY CORRECTION FROM DENSITY LOG [DSH. TO GRRED]
DRHOED  .G/C3  : DENSITY CORRECTION FROM DENSITY LOG [DSH. TO GRRED]
DTCOED  .US/F  : DELTA TIME COMPRESSIONAL FROM SONIC LOG
DTLFED  .US/F  : DELTA TIME LONG SPACING FAR DETECTOR FROM SONIC LOG
DTLNED  .US/F  : DELTA TIME LONG SPACING NEAR DETECTOR FROM SONIC LOG
DTSMED  .US/F  : DELTA TIME SHEAR WAVE FROM SONIC LOG
DTSWS   .US/F  : DELTA TIME SHEAR [DTSMED]
DTWS    .US/F  : DELTA TIME COMPRESSIONAL [TOP DTCOED 16650' DTLNED TD]
GRDED   .GAPI  : GAMMA RAY FROM DENSITY LOG [DSH. TO GRRED]
GRRED   .GAPI  : GAMMA RAY FROM RESISTIVITY LOG
GRWS    .GAPI  : GAMMA RAY [GRRED][RESCALED GRWS IN CSG )14030-14106' & 16606-16645') FROM 0/90-0/150]
IDPHED  .OHMM  : DEEP INDUCTION PHASE RESISTIVITY
ILDED   .OHMM  : DEEP INDUCTION RESISTIVITY
ILMED   .OHMM  : MEDIUM INDUCTION RESISTIVITY
IMPHED  .OHMM  : MEDIUM INDUCTION PHASE RESISTIVITY
MRESWS  .OHMM  : MEDIUM RESISTIVITY [TOP AT30ED 14100' ILMED 16650' IMPHED TD]
NPHILSED.V/V   : NEUTRON POROSITY (LS) [DSH. TO GRRED]
NPOLSWS .V/V   : NEUTRON POROSITY (LS) [NPHILSED]
PEFED   .B/E   : PHOTOELECTRIC FACTOR FROM DENSITY LOG [DSH. TO GRRED]
PEFWS   .B/E   : PHOTOELECTRIC FACTOR [PEFED]
SFLUED  .OHMM  : SPHERICALLY FOCUSED UNAVERAGED RESISTIVITY
SPWS    .MV    : SPONTANEOUS POTENTIAL [BASELINE 0 MV] [SPRED]
SPRED   .MV    : SPONTANEOUS POTENTIAL FROM RESISTIVITY LOG
SRESWS  .OHMM  : SHALLOW RESISTIVITY [TOP AT20ED 14100' SFLUED TD]
TENDED  .LBF   : TENSION FROM DENSITY LOG [DSH. TO GRRED]
TENRED  .LBF   : TENSION FROM RESISTIVITY LOG
~Params ----------------------------------------------------
PD  .                     GL : PERMANENT DATUM
EPD .FT                389.3 : ELEVATION PERMANENT DATUM
LMF .                     KB : LOG MEASURED FROM
DAPD.FT                 33.7 : MEASUREMENT ABOVE PERMANENT DATUM
DMF .                     KB : DRILLING MEASURED FROM
EKB .FT                  423 : KELLY BUSHING
EDF .FT                  422 : DRILLING FLOOR
EGL .FT                389.3 : GROUND LEVEL
DATE.               10/06/98 : RUN DATE
RUN .                      3 : RUN NUMBER
DD  .FT                18400 : DEPTH DRILLER
DL  .FT                18391 : DEPTH LOGGER
BLI .FT                18381 : BOTTOM LOG INTERVAL
TLI .FT                16646 : TOP LOG INTERVAL
CS  .IN                7.625 : CASING SIZE
CBD .FT                16650 : CASING BOTTOM DRILLER
CBL .FT                16646 : CASING BOTTOM LOGGER
BS  .IN                 6.25 : BIT SIZE
BSD .FT                18400 : BIT SIZE AT DEPTH
DFT .             VERSADRILL : DRILLING FLUID TYPE
DFD .                   17.9 : DRILLING FLUID DENSITY
DFV .                     45 : DRILLING FLUID VISCOSITY
MSS .                MUD PIT : MUD SAMPLE SOURCE
MFSS.                   CALC : MUD FILTRATE SAMPLE SOURCE
MCSS.                   CALC : MUD CAKE SAMPLE SOURCE
TCS .HRS                 830 : TIME CIRCULATED STOPPED
TLAB.HRS                2357 : TIME LOGGER AT BOTTOM
LUN .                   2142 : LOGGING UNIT NUMBER
LUL .                  TYLER : LOGGING UNIT LOCATION
ENGI.                SKRBICH : RECORDING ENGINEER
WITN.       WALKER WYSZYNSKI : WITNESSED BY
CLNT.                A2DTECH : CLIENT CODE
ORIG.         1" 2" 5" PRINT : ORIGIN OF DATA
UWI .         42289312900000 : UNIQUE WELL ID
DICO. A2D Technologies, Inc. : DIGITIZING COMPANY
~Other -----------------------------------------------------
1) RESISTIVITY INVALID 14360-14404', 15400-15475 NULLED (REPEAT LOG N/A). PATCHED FROM REPEAT LOG 15950-15980' & 16590-16645'.
2) GRRED PATCHED FROM REPEAT LOG 15400-15500 & 16550-16606'.
3) SONIC NOT LOGGED 14100-16650' AND ERRATIC ON SOME AREAS ABOVE 6300' WITH SOME GAPS AND SPIKES HENCE PATCHED SOME SMALL AREAS.
4) LDL/CNL STICKING TOOL ENTIRE RUN2 - NULLED PEF INVALID @ 15410-15625' & 15730-15410', PATCHED DENSITY@16025-16040', PATCHED NEUTRON@14295-14320' & PATCHED GRDED@VARIOUS DEPTHS BASED ON GRRED. ANY DOUBTS, PLEASE REFER TO ORIGINAL CURVES IN STANDARD LAS. STICKING TOOL MAY SLIGHTLY AFFECT LOG QUALITY ON OTHER AREAS, PLEASE USE WITH CAUTIONS.
~ASCII -----------------------------------------------------
# ...
 8550.00000   34.82160   27.80600   22.66310   21.89020   12.25000   12.81560   12.81560   45.68250    -999.25    0.04170    2.58470    0.07330    -999.25    0.07330   21.89020    -999.25    0.04170   54.87370    -999.25    -999.25  106.39000  106.39000   54.87370   15.77440   19.56370   19.56370    -999.25    -999.25    -999.25    -999.25   27.80600    0.04650    0.04650    7.43510    7.43510    -999.25  -71.09760 -115.28560   34.82160 3443.63500 3741.97440
 8600.00000   33.03070   24.22530   33.64710   36.61790   12.25000   13.40180   13.40180   27.30900    -999.25    0.00280    2.73360   -0.01380    -999.25   -0.01380   36.61790    -999.25    0.00280   51.98690    -999.25    -999.25  102.86690  102.86690   51.98690   24.57620   25.60180   25.60180    -999.25    -999.25    -999.25    -999.25   24.22530    0.00600    0.00600    5.78630    5.78630    -999.25  -26.63980  -69.94430   33.03070 3472.17700 3773.92900
 8650.00000   10.73160   11.57740    9.78280   11.55980   12.25000   14.26470   14.26470   86.50670    -999.25   -0.00120    2.68400    0.01520    -999.25    0.01520   11.55980    -999.25   -0.00120   61.39780    -999.25    -999.25  120.75680  120.75680   61.39780   31.53920   33.31360   33.31360    -999.25    -999.25    -999.25    -999.25   11.57740    0.05910    0.05910    5.53360    5.53360    -999.25  -12.08650  -54.50750   10.73160 3428.68190 3781.81520
 8700.00000   18.38710   19.90340   14.81370   20.22060   12.25000   14.90820   14.90820   49.45450    -999.25    0.00160    2.71170   -0.00100    -999.25   -0.00100   20.22060    -999.25    0.00160   53.20520    -999.25    -999.25  111.25790  111.25790   53.20520   25.03450   19.96110   19.96110    -999.25    -999.25    -999.25    -999.25   19.90340    0.00490    0.00490    5.78710    5.78710    -999.25  -17.14940  -58.68690   18.38710 3503.02810 3779.98660
 8750.00000   38.91280   27.94340   16.41190   24.96330   12.25000   14.72990   14.72990   40.05880    -999.25   -0.00220    2.69840    0.00680    -999.25    0.00680   24.96330    -999.25   -0.00220   52.22470    -999.25    -999.25  103.04720  103.04720   52.22470   43.27090   36.06340   36.06340    -999.25    -999.25    -999.25    -999.25   27.94340    0.00670    0.00670    5.41180    5.41180    -999.25  -25.90540  -66.55940   38.91280 3505.01370 3852.49370
 8800.00000   24.18030   18.26380   16.90140   23.43970   12.25000   14.60800   14.60800   42.66270    -999.25   -0.00410    2.71360   -0.00210    -999.25   -0.00210   23.43970    -999.25   -0.00410   53.14100    -999.25    -999.25   99.87390   99.87390   53.14100   35.52540   32.00620   32.00620    -999.25    -999.25    -999.25    -999.25   18.26380    0.02140    0.02140    5.52430    5.52430    -999.25   -6.53420  -46.30470   24.18030 3583.74950 3775.68160
 8850.00000    8.28690    4.82130    3.00680    3.18520   12.25000   16.06150   16.06150  313.95200    -999.25    0.00440    2.56670    0.08380    -999.25    0.08380    3.18520    -999.25    0.00440   58.88070    -999.25    -999.25  113.85300  113.85300   58.88070   15.63980   15.46730   15.46730    -999.25    -999.25    -999.25    -999.25    4.82130    0.06750    0.06750    7.81210    7.81210    -999.25 -105.53440 -141.74420    8.28690 3546.99020 3856.82060
 8900.00000   30.48300   24.96830   22.73250   30.64430   12.25000   14.42860   14.42860   32.63250    -999.25   -0.00670    2.71320   -0.00190    -999.25   -0.00190   30.64430    -999.25   -0.00670   52.49880    -999.25    -999.25  104.16150  104.16150   52.49880   37.19920   38.88540   38.88540    -999.25    -999.25    -999.25    -999.25   24.96830    0.00840    0.00840    5.65740    5.65740    -999.25  -33.62340  -66.24540   30.48300 3577.11040 3857.15160
 8950.00000  145.13730   42.70980   24.62710   52.66580   12.25000   15.57490   15.57490   18.98770    -999.25   -0.00030    2.71030   -0.00020    -999.25   -0.00020   52.66580    -999.25   -0.00030   50.21200    -999.25    -999.25   98.49840   98.49840   50.21200   33.62510   32.99460   32.99460    -999.25    -999.25    -999.25    -999.25   42.70980   -0.00180   -0.00180    5.76140    5.76140    -999.25  -46.57960  -75.61390  145.13730 3639.21460 3853.75370
 9000.00000   56.59230   36.31430   27.11630   44.00620   12.25000   14.43330   14.43330   22.72410    -999.25    0.00290    2.72730   -0.01010    -999.25   -0.01010   44.00620    -999.25    0.00290   52.18220    -999.25    -999.25  102.94400  102.94400   52.18220   32.14740   33.66980   33.66980    -999.25    -999.25    -999.25    -999.25   36.31430    0.00400    0.00400    5.47840    5.47840    -999.25   -6.54080  -31.98740   56.59230 3608.37820 3895.92140
 9050.00000   80.62730   52.27440   32.67750   50.65340   12.25000   14.31690   14.31690   19.74200    -999.25    0.00880    2.73090   -0.01220    -999.25   -0.01220   50.65340    -999.25    0.00880   50.76050    -999.25    -999.25   98.51550   98.51550   50.76050   32.17710   28.64220   28.64220    -999.25    -999.25    -999.25    -999.25   52.27440    0.00140    0.00140    5.97730    5.97730    -999.25   -8.88310  -31.71470   80.62730 3616.09550 3902.15820
 9100.00000   25.79060   21.45660   19.30400   26.03450   12.25000   14.18910   14.18910   38.41060    -999.25    0.00200    2.72110   -0.00650    -999.25   -0.00650   26.03450    -999.25    0.00200   55.35390    -999.25    -999.25  104.81060  104.81060   55.35390   37.23960   40.36250   40.36250    -999.25    -999.25    -999.25    -999.25   21.45660    0.02220    0.02220    6.06480    6.06480    -999.25   -6.78330  -28.28940   25.79060 3695.56200 3945.40500
 9150.00000    2.18730    2.59340    2.79760    2.86230   12.25000   16.32910   16.32910  349.36940    -999.25    0.03650    2.35550    0.20730    -999.25    0.20730    2.86230    -999.25    0.03650   86.23190    -999.25    -999.25  154.53220  154.53220   86.23190   72.99200   79.65280   79.65280    -999.25    -999.25    -999.25    -999.25    2.59340    0.28280    0.28280    6.18640    6.18640    -999.25   -6.59100  -26.77170    2.18730 3706.75440 3992.07890
 9200.00000    2.14870    2.41390    2.53230    2.76040   12.25000   17.41420   17.41420  362.26630    -999.25    0.03590    2.32750    0.22370    -999.25    0.22370    2.76040    -999.25    0.03590  103.94960    -999.25    -999.25  132.74620  132.74620  103.94960   64.81000   64.23480   64.23480    -999.25    -999.25    -999.25    -999.25    2.41390    0.30420    0.30420    9.68410    9.68410    -999.25   -6.61780  -25.47300    2.14870 3795.81420 4032.42480
 9250.00000    2.38690    2.71680    2.84750    2.89600   12.25000   18.48150   18.48150  345.30390    -999.25    0.06740    2.44500    0.15500    -999.25    0.15500    2.89600    -999.25    0.06740   77.04050    -999.25    -999.25  134.44110  134.44110   77.04050   79.09530   77.38480   77.38480    -999.25    -999.25    -999.25    -999.25    2.71680    0.28520    0.28520    6.08300    6.08300    -999.25   -3.43050  -20.96020    2.38690 3748.64210 4052.71140
 9300.00000   21.11820    8.58570   10.37410   13.64450   12.25000   16.76760   16.76760   73.28960    -999.25    0.02260    2.62640    0.04890    -999.25    0.04890   13.64450    -999.25    0.02260   80.43850    -999.25    -999.25  142.20860  142.20860   80.43850   77.96400   75.07120   75.07120    -999.25    -999.25    -999.25    -999.25    8.58570    0.13850    0.13850    6.06280    6.06280    -999.25   -7.05500  -23.25930   21.11820 3739.18970 4041.17750
 9350.00000    8.55070    6.60700    6.90780    7.12590   12.25000   14.84880   14.84880  140.33320    -999.25    0.01620    2.69750    0.00730    -999.25    0.00730    7.12590    -999.25    0.01620   68.12080    -999.25    -999.25  132.18840  132.18840   68.12080   59.05650   52.52200   52.52200    -999.25    -999.25    -999.25    -999.25    6.60700    0.13750    0.13750    5.45760    5.45760    -999.25   -3.04700  -17.92580    8.55070 3818.94210 4046.88770
 9400.00000   23.46580   15.04370   15.82330   16.08920   12.25000   13.45890   13.45890   62.15350    -999.25    0.01500    2.60520    0.06130    -999.25    0.06130   16.08920    -999.25    0.01500   56.72440    -999.25    -999.25  116.07170  116.07170   56.72440   35.50990   37.55450   37.55450    -999.25    -999.25    -999.25    -999.25   15.04370    0.05960    0.05960    7.57030    7.57030    -999.25   -2.89300  -16.44630   23.46580 3833.55590 4145.28860
