~Version ---------------------------------------------------
VERS. 2.0 : CWLS log ASCII Standard -VERSION 2.0
WRAP. YES : Multiple lines per depth step
~Well ------------------------------------------------------
STRT.FT                   3750.0 : START DEPTH
STOP.FT                   8350.0 : STOP DEPTH
STEP.FT                 50.00000 : STEP LENGTH
NULL.                    -999.25 : NULL VALUE
COMP. CHAMPLIN PETROLEUM COMPANY : COMPANY
WELL.        JOHN W. SPRINGER #1 : WELL
FLD .                   GIDDINGS : FIELD
LOC .                            : LOCATION
CNTY.                   BURLESON : COUNTY
STAT.                      TEXAS : STATE
CTRY.   UNITED STATES OF AMERICA : COUNTRY
SRVC.               Schlumberger : SERVICE COMPANY
DATE.                11-Aug-1980 : LOGDATE
API .             42051308540000 : API NUMBER
UWI .             42051308540000 : UNIQUE WELL ID
SLAT.WGS84         30.3606502248 : SURFACE LATITUDE
SLON.WGS84         -96.747724759 : SURFACE LONGITUDE
~Curve Information -----------------------------------------
DEPT    .FT    : 
CALWS   .IN    : CALIPER [DCALED+8.75]
CONDWS  .MMHO  : CONDUCTIVITY [1000/DRESWS]
DCALED  .IN    : DIFFERENTIAL CALIPER FROM DIL-SFL-CNFD LOG
DCORWS  .G/C3  : DENSITY CORRECTION [DRHOED]
DENWS   .G/C3  : FORMATION BULK DENSITY [CALCULATED FROM DPOWS, M=2.71, F=1.0]
DPHILSED.V/V   : DENSITY POROSITY LIMESTONE [M=2.71, F=1.0] FROM DIL-SFL-CNFD LOG
DPHISSED.V/V   : DENSITY POROSITY SANDSTONE [M=2.65, F=1.0] FROM DIL-SFL-CNFD LOG
DPOWS   .V/V   : DENSITY POROSITY LIMESTONE  [DPHISSED CONVERTED TO LIMESTONE (M=2.71, F=1.0) & SPLICED WITH DPHILSED @ 6503']
DRESWS  .OHMM  : DEEP RESISTIVITY [ILDED]
DRHOED  .G/C3  : BULK DENSITY CORRECTION FROM DIL-SFL-CNFD LOG
GRRED   .GAPI  : GAMMA RAY FROM DIL-SFL-CNFD LOG
GRWS    .GAPI  : GAMMA RAY [GRRED] CSG < 3741'
ILDED   .OHMM  : DEEP INDUCTION RESISTIVITY FROM DIL-SFL-CNFD LOG
ILMED   .OHMM  : MEDIUM INDUCTION RESISTIVITY FROM DIL-SFL-CNFD LOG
MRESWS  .OHMM  : MEDIUM RESISTIVITY [ILMED]
NPHILSED.V/V   : NEUTRON POROSITY LIMESTONE FROM DIL-SFL-CNFD LOG
NPHISSED.V/V   : NEUTRON POROSITY SANDSTONE FROM DIL-SFL-CNFD LOG
NPOWS   .V/V   : NEUTRON POROSITY LIMESTONE [NPHISSED CONVERTED TO LIMESTONE MATRIX & SPLICED WITH NPHILSED @ 6496.5'] CSG < 3741'
SFLUED  .OHMM  : SHALLOW FOCUSED RESISTIVITY (UNAVERAGED) FROM DIL-SFL-CNFD LOG
SPRED   .MV    : SPONTANEOUS POTENTIAL FROM RESISTIVITY LOG FROM DIL-SFL-CNFD LOG
SPWS    .MV    : SPONTANEOUS POTENTIAL [BASELINE 0 MV, SPRED]
SRESWS  .OHMM  : SHALLOW RESISTIVITY [SFLUED]
~Params ----------------------------------------------------
PD  .                     GL : PERMANENT DATUM
EPD .FT                  313 : ELEVATION PERMANENT DATUM
LMF .                     KB : LOG MEASURED FROM
DAPD.FT                   14 : FEET ABOVE PERMANENT DATUM
DMF .                     KB : DRILLING MEASURED FROM
EKB .FT                  327 : KELLY BUSHING
EDF .FT                  326 : DRILLING FLOOR
EGL .FT                  313 : GROUND LEVEL
DATE.               08/11/80 : RUN DATE
RUN .                      1 : RUN NUMBER
DD  .FT                 8396 : DEPTH DRILLER
DL  .FT                 8393 : DEPTH LOGGER
BLI .FT                 8387 : BOTTOM LOG INTERVAL
TLI .FT                 3741 : TOP LOG INTERVAL
CS  .IN                9.625 : CASING SIZE
CBD .FT                 3751 : CASING BOTTOM DRILLER
CBL .FT                 3741 : CASING BOTTOM LOGGER
BS  .IN                 8.75 : BIT SIZE
BSD .FT                 8396 : BIT SIZE AT DEPTH
DFT .                 BEN EX : DRILLING FLUID TYPE
DFD .                    9.7 : DRILLING FLUID DENSITY
DFV .                     41 : DRILLING FLUID VISCOSITY
DFPH.                    8.5 : DRILLING FLUID PH
DFL .                    5.6 : DRILLING FLUID LOSS
MSS .              CIRC TANK : MUD SAMPLE SOURCE
RMS .OHMM               1.94 : RESISTIVITY MUD SAMPLE
MST .DEGF                110 : MUD SAMPLE TEMPERATURE
RMF .OHMM               2.13 : RESISTIVITY MUD FILTRATE SAMPLE
MFST.DEGF                 75 : MUD FILTRATE SAMPLE TEMPERATURE
RMC .OHMM               2.91 : RESISTIVITY MUD CAKE
MCST.DEGF                110 : MUD CAKE SAMPLE TEMPERATURE
MFSS.                      M : MUD FILTRATE SAMPLE SOURCE
MCSS.                      C : MUD CAKE SAMPLE SOURCE
RMB .OHMM               1.03 : RESISTIVITY MUD AT BHT
TCS .HRS                1130 : TIME CIRCULATED STOPPED
TLAB.HRS                1600 : TIME LOGGER AT BOTTOM
LUN .                   8101 : LOGGING UNIT NUMBER
LUL .                BRENHAM : LOGGING UNIT LOCATION
ENGI.                 HARDER : RECORDING ENGINEER
WITN.          SCHELL KRAUHS : WITNESSED BY
CLNT.                A2DTECH : CLIENT CODE
ORIG.            2" 5" PRINT : ORIGIN OF DATA
UWI .         42051308540000 : UNIQUE WELL ID
DICO. A2D Technologies, Inc. : DIGITIZING COMPANY
~Other -----------------------------------------------------
~ASCII -----------------------------------------------------
 3750.00000   12.37540    -999.25    3.62540    0.08740    2.35190    -999.25    0.18070    0.20940    -999.25    0.08740   93.39610   93.39610    -999.25    -999.25    -999.25    -999.25    0.28060    0.23660    -999.25    -999.25    -999.25    -999.25
 3800.00000   11.86810  101.12860    3.11810    0.09440    2.29410    -999.25    0.21570    0.24320    9.88840    0.09440  105.72980  105.72980    9.88840   10.10050   10.10050    -999.25    0.23610    0.19230    8.75260  -31.61880   -5.37680    8.75260
 3850.00000   11.95670   79.19660    3.20670    0.01480    2.11050    -999.25    0.32700    0.35060   12.62680    0.01480   59.34380   59.34380   12.62680   14.38490   14.38490    -999.25    0.28080    0.23680   15.33890  -41.19680  -21.89240   15.33890
 3900.00000   11.71970  123.69350    2.96970    0.02950    2.23990    -999.25    0.24850    0.27490    8.08450    0.02950   82.56490   82.56490    8.08450    8.88720    8.88720    -999.25    0.26460    0.22060    9.46290  -34.75600  -22.38910    9.46290
 3950.00000   11.04380  141.76150    2.29380    0.00570    2.38660    -999.25    0.15960    0.18910    7.05410    0.00570  105.17280  105.17280    7.05410    7.30710    7.30710    -999.25    0.24840    0.20450    7.81310  -24.47340  -19.04410    7.81310
 4000.00000   11.66030  263.55320    2.91030   -0.03230    1.68260    -999.25    0.58630    0.60080    3.79430   -0.03230   62.66410   62.66410    3.79430    4.59330    4.59330    -999.25    0.44590    0.40410   16.88460   -3.08490   -1.74110   16.88460
 4050.00000   10.32130  163.12680    1.57130    0.00050    2.18330    -999.25    0.28280    0.30800    6.13020    0.00050   68.40280   68.40280    6.13020    7.65710    7.65710    -999.25    0.29980    0.25580   11.49770  -26.20710  -25.46290   11.49770
 4100.00000   13.60960  289.93070    4.85960    0.06350    2.13070    -999.25    0.31480    0.33880    3.44910    0.06350   89.21840   89.21840    3.44910    3.85260    3.85260    -999.25    0.24710    0.20320    4.78520   -8.96270   -8.81810    4.78520
 4150.00000   12.17360  139.71360    3.42360    0.02630    2.21650    -999.25    0.26270    0.28860    7.15750    0.02630   62.82130   62.82130    7.15750    8.43400    8.43400    -999.25    0.30680    0.26280   10.26910  -32.24410  -32.69910   10.26910
 4200.00000   11.85640  142.66960    3.10640    0.05310    2.23920    -999.25    0.24890    0.27530    7.00920    0.05310   76.04240   76.04240    7.00920    8.25650    8.25650    -999.25    0.14480    0.10230    8.68340  -24.43450  -25.48910    8.68340
 4250.00000   10.59050  136.83630    1.84050    0.02040    2.20860    -999.25    0.26750    0.29320    7.30800    0.02040   70.38220   70.38220    7.30800    9.25070    9.25070    -999.25    0.29530    0.25130   11.21430  -31.03630  -32.69060   11.21430
 4300.00000   11.16260  167.02020    2.41260    0.08450    2.39710    -999.25    0.15330    0.18300    5.98730    0.08450   85.60570   85.60570    5.98730    6.75790    6.75790    -999.25    0.22240    0.17870    7.92480  -17.14610  -19.40000    7.92480
 4350.00000   12.66810  279.42330    3.91810    0.03100    2.36460    -999.25    0.17300    0.20200    3.57880    0.03100  106.67100  106.67100    3.57880    3.77260    3.77260    -999.25    0.30360    0.25960    4.08340   -4.39850   -7.25200    4.08340
 4400.00000   11.32810  270.76060    2.57810    0.03380    2.32180    -999.25    0.19890    0.22700    3.69330    0.03380   90.90860   90.90860    3.69330    4.00890    4.00890    -999.25    0.26780    0.22380    3.73320  -17.76020  -20.98330    3.73320
 4450.00000   12.55920  249.07840    3.80920    0.07200    2.20230    -999.25    0.27130    0.29690    4.01480    0.07200   84.34360   84.34360    4.01480    4.50840    4.50840    -999.25    0.25480    0.21090    5.23700  -24.42540  -27.89960    5.23700
 4500.00000   11.35750  326.13660    2.60750    0.02320    2.39070    -999.25    0.15710    0.18670    3.06620    0.02320  106.37440  106.37440    3.06620    3.16950    3.16950    -999.25    0.29260    0.24860    3.29650    1.18810   -2.53720    3.29650
 4550.00000   11.70570  357.20660    2.95570    0.09080    2.36410    -999.25    0.17330    0.20230    2.79950    0.09080   95.86250   95.86250    2.79950    2.90690    2.90690    -999.25    0.35410    0.31050    2.49670   -7.56970  -11.54610    2.49670
 4600.00000   11.68980  344.69680    2.93980    0.03150    2.41380    -999.25    0.14310    0.17320    2.90110    0.03150  104.05640  104.05640    2.90110    2.98100    2.98100    -999.25    0.27800    0.23400    2.58820   -3.98980   -8.21740    2.58820
 4650.00000   11.29380  353.02010    2.54380    0.01750    2.46050    -999.25    0.11480    0.14590    2.83270    0.01750  107.25170  107.25170    2.83270    2.94910    2.94910    -999.25    0.30490    0.26090    2.70630    1.54690   -2.93180    2.70630
 4700.00000   11.09680  382.16070    2.34680    0.03180    2.46100    -999.25    0.11450    0.14560    2.61670    0.03180  109.96920  109.96920    2.61670    2.68800    2.68800    -999.25    0.26620    0.22220    2.73610    0.84750   -3.88230    2.73610
 4750.00000   10.68810  459.07360    1.93810    0.01650    2.45980    -999.25    0.11530    0.14630    2.17830    0.01650  113.85100  113.85100    2.17830    2.26650    2.26650    -999.25    0.31070    0.26680    2.37930    3.44220   -1.53870    2.37930
 4800.00000   10.20290  402.15560    1.45290    0.05440    2.49950    -999.25    0.09120    0.12310    2.48660    0.05440  111.94730  111.94730    2.48660    2.55500    2.55500    -999.25    0.30210    0.25810    2.85740    3.28240   -1.94970    2.85740
 4850.00000   10.83670  585.20600    2.08670    0.05030    2.46940    -999.25    0.10950    0.14070    1.70880    0.05030  111.95270  111.95270    1.70880    1.75570    1.75570    -999.25    0.35270    0.30910    1.91650    2.86180   -2.62140    1.91650
 4900.00000   10.92790  569.86550    2.17790    0.06550    2.45280    -999.25    0.11950    0.15040    1.75480    0.06550  111.11670  111.11670    1.75480    1.83730    1.83730    -999.25    0.33260    0.28880    1.95810    3.72740   -2.00690    1.95810
 4950.00000   11.13620  513.05730    2.38620    0.06440    2.47250    -999.25    0.10760    0.13890    1.94910    0.06440  102.84580  102.84580    1.94910    2.00220    2.00220    -999.25    0.30480    0.26080    2.11850    3.76080   -2.22460    2.11850
 5000.00000   12.10260  582.71660    3.35260    0.05530    2.45500    -999.25    0.11820    0.14910    1.71610    0.05530  108.25110  108.25110    1.71610    1.76320    1.76320    -999.25    0.32530    0.28140    1.99360    2.18090   -4.05570    1.99360
 5050.00000   12.15170  632.59110    3.40170    0.05820    2.46600    -999.25    0.11150    0.14270    1.58080    0.05820  113.01440  113.01440    1.58080    1.62400    1.62400    -999.25    0.32380    0.27990    1.73890    2.69270   -3.79500    1.73890
 5100.00000   12.51900  668.89630    3.76900    0.04190    2.44970    -999.25    0.12140    0.15220    1.49500    0.04190  108.36650  108.36650    1.49500    1.53580    1.53580    -999.25    0.35350    0.30990    1.72890    1.36650   -5.37230    1.72890
 5150.00000   12.88870  559.62840    4.13870    0.07840    2.48210    -999.25    0.10180    0.13330    1.78690    0.07840  118.79870  118.79870    1.78690    1.83580    1.83580    -999.25    0.30040    0.25640    2.03010    0.02840   -6.96150    2.03010
 5200.00000   13.40370  739.86390    4.65370    0.03590    2.43690    -999.25    0.12910    0.15970    1.35160    0.03590  115.34150  115.34150    1.35160    1.38910    1.38910    -999.25    0.34470    0.30100    1.51540    3.14860   -4.09250    1.51540
 5250.00000   13.79350  841.18440    5.04350    0.06550    2.42250    -999.25    0.13790    0.16810    1.18880    0.06550  113.29730  113.29730    1.18880    1.22150    1.22150    -999.25    0.32880    0.28500    1.31740    5.10780   -2.38440    1.31740
 5300.00000   12.17930  816.45980    3.42930    0.05850    2.51180    -999.25    0.08370    0.11590    1.22480    0.05850  135.51390  135.51390    1.22480    1.30960    1.30960    -999.25    0.32970    0.28590    1.50270    3.16800   -4.55470    1.50270
