~Version ---------------------------------------------------
VERS. 2.0 : CWLS log ASCII Standard -VERSION 2.0
WRAP. YES : Multiple lines per depth step
~Well ------------------------------------------------------
STRT.FT                    1500.0 : START DEPTH
STOP.FT                    9700.0 : STOP DEPTH
STEP.FT                  50.00000 : STEP LENGTH
NULL.                     -999.25 : NULL VALUE
COMP.        MARATHON OIL COMPANY : COMPANY
WELL.                 NEWELL A #5 : WELL
FLD .                  BEAR GRASS : FIELD
LOC .                             : LOCATION
CNTY.                        LEON : COUNTY
STAT.                       TEXAS : STATE
CTRY.    UNITED STATES OF AMERICA : COUNTRY
SRVC. HALLIBURTON Sperry Drilling : SERVICE COMPANY
DATE.                 18-May-2000 : LOGDATE
API .              42289313250000 : API NUMBER
UWI .              42289313250000 : UNIQUE WELL ID
SLAT.WGS84          31.3623770117 : SURFACE LATITUDE
SLON.WGS84           -96.26513599 : SURFACE LONGITUDE
~Curve Information -----------------------------------------
DEPT    .FT    : DEPTH.FT
CALDED  .IN    : CALIPER FROM CNFD LOG
CALWS   .IN    : CALIPER [DCARLED+BIT SIZE]
CONDWS  .MMHO  : CONDUCTIVITY [1000/DRESWS]
DCALED  .IN    : DIFFERENTIAL CALIPER FROM HRIDN LOG
DCORED  .G/C3  : DENSITY CORRECTION FROM HRIDN LOG
DCORWS  .G/C3  : DENSITY CORRECTION [DCORED]
DENWS   .G/C3  : BULK DENSITY [M=2.71 F=1.0] [CALCULATED FROM DPOWS]
DFLED   .OHMM  : DIGITALLY FOCUSED LATEROLOG FROM HRIDN LOG
DPORLSED.V/V   : DENSITY POROSITY LIMESTONE FROM CNFD LOG
DPOWS   .V/V   : DENSITY POROSITY [M=2.71 F=1.0] [DPHILSED]
DRESWS  .OHMM  : DEEP RESISTIVITY [RILDED]
GRRED   .GAPI  : GAMMA RAY FROM IDN LOG
GRWS    .GAPI  : GAMMA RAY [GRRED]
MRESWS  .OHMM  : MEDIUM RESISTIVITY [RILMED]
NPORLSED.V/V   : NEUTRON POROSITY LIMESTONE FROM CNFD LOG
NPOWS   .V/V   : NEUTRON POROSITY LIMESTONE [NPHILSED]
RILDED  .OHMM  : INDUCTION DEEP RESISTIVITY FROM HRIDN LOG
RILMED  .OHMM  : INDUCTION MEDIUM RESISTIVITY FROM HRIDN LOG
SPRED   .MV    : SPONTANEOUS POTENTIAL FROM HRIDN LOG
SPWS    .MV    : SPONTANEOUS POTENTIAL [BASELINE 0 MV] [SPRED]
SRESWS  .OHMM  : SHALLOW RESISTIVITY [DFLED]
TENDED  .LBF   : TENSION FROM CNFD LOG
TENRED  .LBF   : TENSION FROM HRIDN LOG
~Params ----------------------------------------------------
PD  .                     GL : PERMANENT DATUM
EPD .FT                  501 : ELEVATION PERMANENT DATUM
LMF .                     KB : LOG MEASURED FROM
DAPD.FT                   12 : FEET ABOVE PERMANENT DATUM
DMF .                     KB : DRILLING MEASURED FROM
EKB .FT                  513 : KELLY BUSHING
EDF .FT                  512 : DRILLING FLOOR
EGL .FT                  501 : GROUND LEVEL
DATE.               05/18/00 : RUN DATE
RUN .                      1 : RUN NUMBER
DD  .FT                 9700 : DEPTH DRILLER
DL  .FT                 9688 : DEPTH LOGGER
BLI .FT                 9676 : BOTTOM LOG INTERVAL
TLI .FT                 1523 : TOP LOG INTERVAL
CS  .IN                9.625 : CASING SIZE
CBD .FT                 1530 : CASING BOTTOM DRILLER
CBL .FT                 1523 : CASING BOTTOM LOGGER
BS  .IN                7.875 : BIT SIZE
BSD .FT                 9700 : BIT SIZE AT DEPTH
DFT .         WATERBASED MUD : DRILLING FLUID TYPE
DFD .                    9.8 : DRILLING FLUID DENSITY
DFV .                     52 : DRILLING FLUID VISCOSITY
DFPH.                     10 : DRILLING FLUID PH
DFL .                    9.6 : DRILLING FLUID LOSS
MSS .               MUD TANK : MUD SAMPLE SOURCE
RMS .OHMM                1.9 : RESISTIVITY MUD SAMPLE
MST .DEGF                 84 : MUD SAMPLE TEMPERATURE
RMF .OHMM               1.56 : RESISTIVITY MUD FILTRATE SAMPLE
MFST.DEGF                 82 : MUD FILTRATE SAMPLE TEMPERATURE
RMC .OHMM               2.35 : RESISTIVITY MUD CAKE
MCST.DEGF                 82 : MUD CAKE SAMPLE TEMPERATURE
MFSS.                   MEAS : MUD FILTRATE SAMPLE SOURCE
MCSS.                   MEAS : MUD CAKE SAMPLE SOURCE
RMB .OHMM              0.738 : RESISTIVITY MUD AT BHT
TCS .HRS                1830 : TIME CIRCULATED STOPPED
TLAB.HRS                 200 : TIME LOGGER AT BOTTOM
LUN .                  52552 : LOGGING UNIT NUMBER
LUL .                KILGORE : LOGGING UNIT LOCATION
ENGI.                 GLEITZ : RECORDING ENGINEER
WITN.       EWBANK GALLAGHER : WITNESSED BY
CLNT.                A2DTECH : CLIENT CODE
ORIG.         1" 2" 5" PRINT : ORIGIN OF DATA
UWI .         42289313250000 : UNIQUE WELL ID
DICO. A2D Technologies, Inc. : DIGITIZING COMPANY
~Other -----------------------------------------------------
1. ALL CURVES APPEAR ON DEPTH. MATRIX LIMESTONE M=2.71 F=1
~ASCII -----------------------------------------------------
 1500.00000    -999.25    -999.25    -999.25    -999.25    -999.25    -999.25    -999.25    -999.25    -999.25    -999.25    -999.25   72.62770   72.62770    -999.25    -999.25    -999.25    -999.25    -999.25    -999.25    -999.25    -999.25    -999.25    -999.25
 1550.00000    -999.25    -999.25  386.36890    -999.25    -999.25    -999.25    -999.25    2.85560    -999.25    -999.25    2.58820   98.92340   98.92340    2.72900    -999.25    -999.25    2.58820    2.72900  -43.60510   -4.96390    2.85560    -999.25 1562.73840
 1600.00000    -999.25    -999.25  374.68620    -999.25    -999.25    -999.25    -999.25    2.88190    -999.25    -999.25    2.66890   84.88620   84.88620    2.74520    -999.25    -999.25    2.66890    2.74520  -44.75120   -6.11000    2.88190    -999.25 1641.39780
 1650.00000    -999.25    -999.25  465.52770    -999.25    -999.25    -999.25    -999.25    2.23670    -999.25    -999.25    2.14810   85.97330   85.97330    2.06980    -999.25    -999.25    2.14810    2.06980  -40.41730   -1.83780    2.23670    -999.25 1634.00330
 1700.00000    -999.25    -999.25  435.40730    -999.25    -999.25    -999.25    -999.25    2.13400    -999.25    -999.25    2.29670   81.25440   81.25440    2.22950    -999.25    -999.25    2.29670    2.22950  -40.58420   -2.11890    2.13400    -999.25 1707.05260
 1750.00000    -999.25    -999.25  618.19980    -999.25    -999.25    -999.25    -999.25    1.69580    -999.25    -999.25    1.61760  105.97020  105.97020    1.51700    -999.25    -999.25    1.61760    1.51700  -41.04260   -2.69150    1.69580    -999.25 1706.53210
 1800.00000    -999.25    -999.25  611.77050    -999.25    -999.25    -999.25    -999.25    1.66350    -999.25    -999.25    1.63460   89.95620   89.95620    1.54550    -999.25    -999.25    1.63460    1.54550  -40.66850   -2.43160    1.66350    -999.25 1745.12180
 1850.00000    -999.25    -999.25  633.59310    -999.25    -999.25    -999.25    -999.25    1.60580    -999.25    -999.25    1.57830  113.10290  113.10290    1.47460    -999.25    -999.25    1.57830    1.47460  -41.00680   -2.88400    1.60580    -999.25 1775.24060
 1900.00000    -999.25    -999.25  605.62020    -999.25    -999.25    -999.25    -999.25    1.70590    -999.25    -999.25    1.65120  101.21380  101.21380    1.50780    -999.25    -999.25    1.65120    1.50780  -39.63930   -1.63070    1.70590    -999.25 1786.22630
 1950.00000    -999.25    -999.25  560.56950    -999.25    -999.25    -999.25    -999.25    1.82400    -999.25    -999.25    1.78390  105.61320  105.61320    1.63020    -999.25    -999.25    1.78390    1.63020  -39.80530   -1.91090    1.82400    -999.25 1772.77930
 2000.00000    -999.25    -999.25  412.21810    -999.25    -999.25    -999.25    -999.25    2.46970    -999.25    -999.25    2.42590   96.06140   96.06140    2.29220    -999.25    -999.25    2.42590    2.29220  -43.17520   -5.39500    2.46970    -999.25 1814.43860
 2050.00000    -999.25    -999.25  469.94690    -999.25    -999.25    -999.25    -999.25    2.19470    -999.25    -999.25    2.12790  117.75670  117.75670    2.03100    -999.25    -999.25    2.12790    2.03100  -43.44360   -5.77760    2.19470    -999.25 1805.02720
 2100.00000    -999.25    -999.25  418.67280    -999.25    -999.25    -999.25    -999.25    2.55580    -999.25    -999.25    2.38850  102.15730  102.15730    2.31860    -999.25    -999.25    2.38850    2.31860  -44.35130   -6.79950    2.55580    -999.25 1789.49290
 2150.00000    -999.25    -999.25  567.73020    -999.25    -999.25    -999.25    -999.25    1.80620    -999.25    -999.25    1.76140  114.61340  114.61340    1.70430    -999.25    -999.25    1.76140    1.70430  -42.09720   -4.65960    1.80620    -999.25 1789.67940
 2200.00000    -999.25    -999.25  717.61750    -999.25    -999.25    -999.25    -999.25    1.41770    -999.25    -999.25    1.39350  108.17150  108.17150    1.35360    -999.25    -999.25    1.39350    1.35360  -40.85180   -3.52840    1.41770    -999.25 1823.27450
 2250.00000    -999.25    -999.25  924.81270    -999.25    -999.25    -999.25    -999.25    1.12900    -999.25    -999.25    1.08130  101.12210  101.12210    1.04350    -999.25    -999.25    1.08130    1.04350  -39.65120   -2.44200    1.12900    -999.25 1886.34590
 2300.00000    -999.25    -999.25  669.97190    -999.25    -999.25    -999.25    -999.25    1.35990    -999.25    -999.25    1.49260  113.49160  113.49160    1.44170    -999.25    -999.25    1.49260    1.44170  -44.99390   -7.89890    1.35990    -999.25 1882.74130
 2350.00000    -999.25    -999.25  837.87180    -999.25    -999.25    -999.25    -999.25    1.21500    -999.25    -999.25    1.19350  113.12960  113.12960    1.15780    -999.25    -999.25    1.19350    1.15780  -42.36610   -5.38530    1.21500    -999.25 1923.46480
 2400.00000    -999.25    -999.25  842.03440    -999.25    -999.25    -999.25    -999.25    1.22860    -999.25    -999.25    1.18760   92.03980   92.03980    1.14180    -999.25    -999.25    1.18760    1.14180  -43.25350   -6.38690    1.22860    -999.25 1937.68880
 2450.00000    -999.25    -999.25  956.38870    -999.25    -999.25    -999.25    -999.25    1.04700    -999.25    -999.25    1.04560   92.38910   92.38910    1.00820    -999.25    -999.25    1.04560    1.00820  -41.14450   -4.39210    1.04700    -999.25 1970.36720
 2500.00000    -999.25    -999.25  820.21000    -999.25    -999.25    -999.25    -999.25    1.28060    -999.25    -999.25    1.21920  107.25300  107.25300    1.17840    -999.25    -999.25    1.21920    1.17840  -41.12830   -4.49010    1.28060    -999.25 1981.20680
 2550.00000    -999.25    -999.25  756.94500    -999.25    -999.25    -999.25    -999.25    1.34560    -999.25    -999.25    1.32110   83.11480   83.11480    1.24780    -999.25    -999.25    1.32110    1.24780  -39.93370   -3.40970    1.34560    -999.25 2038.72990
 2600.00000    -999.25    -999.25  483.51220    -999.25    -999.25    -999.25    -999.25    2.19660    -999.25    -999.25    2.06820   83.79980   83.79980    1.97950    -999.25    -999.25    2.06820    1.97950  -44.93540   -8.52560    2.19660    -999.25 1985.31340
 2650.00000    -999.25    -999.25  280.49700    -999.25    -999.25    -999.25    -999.25    4.05220    -999.25    -999.25    3.56510   66.29540   66.29540    3.27390    -999.25    -999.25    3.56510    3.27390  -44.66450   -8.36890    4.05220    -999.25 2004.69070
 2700.00000    -999.25    -999.25  668.04730    -999.25    -999.25    -999.25    -999.25    1.38680    -999.25    -999.25    1.49690  118.13070  118.13070    1.59240    -999.25    -999.25    1.49690    1.59240  -40.35250   -4.17110    1.38680    -999.25 2058.29880
 2750.00000    -999.25    -999.25  825.49120    -999.25    -999.25    -999.25    -999.25    1.27620    -999.25    -999.25    1.21140   93.61490   93.61490    1.24520    -999.25    -999.25    1.21140    1.24520  -39.54680   -3.47960    1.27620    -999.25 2094.62890
 2800.00000    -999.25    -999.25 1089.32460    -999.25    -999.25    -999.25    -999.25    0.97100    -999.25    -999.25    0.91800  137.51820  137.51820    0.94580    -999.25    -999.25    0.91800    0.94580  -37.05560   -1.10260    0.97100    -999.25 2089.95510
 2850.00000    -999.25    -999.25  612.03260    -999.25    -999.25    -999.25    -999.25    1.72260    -999.25    -999.25    1.63390   99.49260   99.49260    1.68040    -999.25    -999.25    1.63390    1.68040  -40.16550   -4.51890    1.72260    -999.25 2084.23270
 2900.00000    -999.25    -999.25 1071.81140    -999.25    -999.25    -999.25    -999.25    0.98300    -999.25    -999.25    0.93300   99.32800   99.32800    0.95920    -999.25    -999.25    0.93300    0.95920  -37.91640   -2.57820    0.98300    -999.25 2084.51100
 2950.00000    -999.25    -999.25  967.30510    -999.25    -999.25    -999.25    -999.25    1.10940    -999.25    -999.25    1.03380  102.79330  102.79330    1.08240    -999.25    -999.25    1.03380    1.08240  -39.64450   -4.61470    1.10940    -999.25 2134.83890
 3000.00000    -999.25    -999.25  742.39050    -999.25    -999.25    -999.25    -999.25    1.41990    -999.25    -999.25    1.34700   98.93110   98.93110    1.38530    -999.25    -999.25    1.34700    1.38530  -40.08630   -5.36490    1.41990    -999.25 2140.87350
