~Version ---------------------------------------------------
VERS. 2.0 : CWLS log ASCII Standard -VERSION 2.0
WRAP. YES : MULTIPLE LINES PER DEPTH STEP
~Well ------------------------------------------------------
STRT.FT                  300.0 : START DEPTH
STOP.FT                15250.0 : STOP DEPTH
STEP.FT               50.00000 : STEP LENGTH
NULL.                  -999.25 : NULL VALUE
COMP.  CONTINENTAL OIL COMPANY : COMPANY
WELL.    HALSELL FOUNDATION #1 : WELL
FLD .                  WILDCAT : FIELD
LOC .                          : LOCATION
CNTY.                 MAVERICK : COUNTY
STAT.                    TEXAS : STATE
CTRY. UNITED STATES OF AMERICA : COUNTRY
SRVC.             Schlumberger : SERVICE COMPANY
DATE.              02-Apr-1972 : LOGDATE
API .           42323300720000 : API NUMBER
UWI .           42323300720000 : UNIQUE WELL ID
SLAT.WGS84       28.6077848095 : SURFACE LATITUDE
SLON.WGS84     -100.3259081005 : SURFACE LONGITUDE
~Curve Information -----------------------------------------
DEPT    .FT    : DEPTH FEET
ALL8ED  .MV    : AMPLIFIED LATARLOG 8 FROM RES. LOG
ASNED   .OHMM  : 16 INCH AMPLIFIED SHORT NORMAL RESISTIVITY FROM IEL
CALDED  .IN    : CALIPER FROM DENSITY LOG, DEPTH ADJUSTED WITH [ILDED]
CALSED  .IN    : CALIPER FROM SONIC LOG, DEPTH ADJUSTED WITH [ILDED]
CALWS   .IN    : CALIPER [CALSED]
CILDED  .MMHO  : CONDUCTIVITY FROM RESISTIVITY LOG
CONDWS  .MMHO  : CONDUCTIVITY [1000/DRESWS]
DENWS   .G/C3  : BULK DENSITY [M=2.71 F=1.0] [CALCULATED FROM DPOWS]
DPHILSED.V/V   : DENSITY POROSITY [M=2.71 F=1.0] FROM DENSITY LOG, DEPTH ADJUSTED WITH [ILDED]
DPOWS   .V/V   : DENSITY POROSITY [DPHILSED]
DRESWS  .OHMM  : DEEP RESISTIVITY [ILDED] IF DRESWS<1;1000/CONDWS
DTED    .US/F  : DELTA TIME FROM SONIC LOG, DEPTH ADJUSTED WITH [ILDED]
DTWS    .US/F  : DELTA TIME [DTED]
GRDED   .GAPI  : GAMMA RAY FROM DENSITY LOG, DEPTH ADJUSTED WITH [ILDED]
GRRED   .GAPI  : GAMMA RAY FROM RESISTIVITY LOG
GRSED   .GAPI  : GAMMA RAY FROM SONIC LOG, DEPTH ADJUSTED WITH [ILDED]
GRWS    .GAPI  : GAMMA RAY [GRSED]
ILDED   .OHMM  : INDUCTION LOG DEEP RESISTIVITY
NPHILSED.V/V   : NEUTRON POROSITY LIMESTONE FROM DENSITY LOG, DEPTH ADJUSTED WITH [ILDED]
NPOWS   .V/V   : NEUTRON POROSITY SANDSTONE [NPHILSED]
SPRED   .MV    : SPONTANEOUS POTENTIAL FROM RESISTIVITY LOG
SPWS    .MV    : SPONTANEOUS POTENTIAL [BASELINE 0 MV] [SPRED]
SRESWS  .OHMM  : SHALLOW RESISTIVITY [ASNED], SPLICED WITH [ALL8ED] AT 8750'
~Params ----------------------------------------------------
PD  .                     GL : PERMANENT DATUM
EPD .F                 749.4 : ELEVATION PERMANENT DATUM
LMF .                     KB : LOG MEASURED FROM
DAPD.F                  25.2 : FEET ABOVE PERMANENT DATUM
DMF .                     KB : DRILLING MEASURED FROM
EKB .F                 775.4 : KELLING BUSHING
EDF .F                 774.6 : DRILLING FLOOR
EGL .F                 749.4 : GROUND LEVEL
DATE.               04/02/72 : RUN DATE
RUN .                      8 : RUN NUMBER
DD  .F                 15250 : DEPTH DRILLER
DL  .F                 15273 : DEPTH LOGGER
BLI .F                 15266 : BOTTOM LOG INTERVAL
TLI .F                 14800 : TOP LOG INTERVAL
CS  .IN                9.625 : CASING SIZE
CBD .F                  8736 : CASING BOTTOM DRILLER
CBL .F                  8748 : CASING BOTTOM LOGGER
BS  .IN                  8.5 : BIT SIZE
BSD .F                 15250 : BIT SIZE AT DEPTH
DFT .             LIGNO SULF : DRILLING FLUID TYPE
DFD .                   14.5 : DRILLING FLUID DENSITY
DFV .                     49 : DRILLING FLUID VISCOSITY
DFPH.                     12 : DRILLING FLUID PH
DFL .                    1.6 : DRILLING FLUID LOSS
MSS .               CIRC PIT : MUD SAMPLE SOURCE
RMS .OHMM               0.55 : RESISTIVITY MUD SAMPLE
MST .F                    75 : MUD SAMPLE TEMPERATURE
RMF .OHMM               0.17 : RESISTIVITY MUD FILTRATE SAMPLE
MFST.F                    75 : MUD FILTRATE SAMPLE TEMPERATURE
RMC .OHMM                1.1 : RESISTIVITY MUD CAKE
MCST.F                    75 : MUD CAKE SAMPLE TEMPERATURE
MFSS.                      M : MUD FILTRATE SAMPLE SOURCE
MCSS.                      C : MUD CAKE SAMPLE SOURCE
RMB .OHMM                0.1 : RESISTIVITY MUD AT BHT
TCS .HRS                 4.5 : TIME CURCULATED STOPPED
LUN .                   7029 : LOGGING UNIT NUMBER
LUL .                   VICT : LOGGING UNIT LOCATION
ENGI.               BRADFORD : RECORDING ENGINEER
CLNT.                A2DTECH : CLIENT CODE
ORIG.            2" 5" PRINT : ORIGIN OF DATA
UWI .         42323300720000 : UNIQUE WELL ID
DICO. A2D Technologies, Inc. : DIGITIZING COMPANY
~Other -----------------------------------------------------
~ASCII -----------------------------------------------------
# ...
 3400.00000    -999.25   11.77340    -999.25    -999.25    -999.25   73.55320   79.12390    -999.25    -999.25    -999.25   12.63840   59.10550   59.10550    -999.25    -999.25   20.25360   20.25360   12.63840    -999.25    -999.25  -23.80440   -7.37430   11.77340
 3450.00000    -999.25   21.08380    -999.25    -999.25    -999.25   41.27450   45.19450    -999.25    -999.25    -999.25   22.12660   53.68610   53.68610    -999.25    -999.25   34.73700   34.73700   22.12660    -999.25    -999.25  -19.41370   -2.83950   21.08380
 3500.00000    -999.25   18.89760    -999.25    -999.25    -999.25   37.93870   39.55320    -999.25    -999.25    -999.25   25.28240   61.60250   61.60250    -999.25    -999.25   16.91560   16.91560   25.28240    -999.25    -999.25  -23.36340   -6.64510   18.89760
 3550.00000    -999.25   25.29700    -999.25    -999.25    -999.25   19.24680   22.08190    -999.25    -999.25    -999.25   45.28590   60.23900   60.23900    -999.25    -999.25   26.74220   26.74220   45.28590    -999.25    -999.25  -23.35710   -6.49470   25.29700
 3600.00000    -999.25   22.80590    -999.25    -999.25    -999.25   26.36230   29.54930    -999.25    -999.25    -999.25   33.84170   67.84730   67.84730    -999.25    -999.25   23.60570   23.60570   33.84170    -999.25    -999.25  -19.59940   -2.59300   22.80590
 3650.00000    -999.25   18.14160    -999.25    -999.25    -999.25   33.20260   35.21880    -999.25    -999.25    -999.25   28.39390   73.76870   73.76870    -999.25    -999.25   19.28650   19.28650   28.39390    -999.25    -999.25  -24.55910   -7.40860   18.14160
 3700.00000    -999.25   16.70230    -999.25    -999.25    -999.25   29.28800   34.67440    -999.25    -999.25    -999.25   28.83970   72.74760   72.74760    -999.25    -999.25   17.28120   17.28120   28.83970    -999.25    -999.25  -23.05260   -5.75800   16.70230
 3750.00000    -999.25   15.82810    -999.25    -999.25    -999.25   33.37880   37.44430    -999.25    -999.25    -999.25   26.70630   72.06460   72.06460    -999.25    -999.25   18.36770   18.36770   26.70630    -999.25    -999.25  -19.23630   -1.79760   15.82810
 3800.00000    -999.25   14.17970    -999.25    -999.25    -999.25   34.46040   36.86110    -999.25    -999.25    -999.25   27.12890   78.51890   78.51890    -999.25    -999.25   16.94820   16.94820   27.12890    -999.25    -999.25  -21.07140   -3.48860   14.17970
 3850.00000    -999.25    9.58530    -999.25    -999.25    -999.25   67.83720   69.78710    -999.25    -999.25    -999.25   14.32930   79.13100   79.13100    -999.25    -999.25   24.28930   24.28930   14.32930    -999.25    -999.25  -19.09090   -1.36400    9.58530
 3900.00000    -999.25   17.49640    -999.25    -999.25    -999.25   55.73120   61.23590    -999.25    -999.25    -999.25   16.33030   78.11220   78.11220    -999.25    -999.25   34.24390   34.24390   16.33030    -999.25    -999.25  -20.55290   -2.68200   17.49640
 3950.00000    -999.25   20.43090    -999.25    -999.25    -999.25   39.69240   44.15870    -999.25    -999.25    -999.25   22.64560   91.91400   91.91400    -999.25    -999.25   34.41490   34.41490   22.64560    -999.25    -999.25  -22.45060   -4.43560   20.43090
 4000.00000    -999.25   25.94140    -999.25    -999.25    -999.25   41.24510   45.44830    -999.25    -999.25    -999.25   22.00300   71.79980   71.79980    -999.25    -999.25   44.54900   44.54900   22.00300    -999.25    -999.25  -23.52190   -5.36280   25.94140
 4050.00000    -999.25   18.53340    -999.25    -999.25    -999.25   44.79960   40.93860    -999.25    -999.25    -999.25   24.42680   55.34490   55.34490    -999.25    -999.25    9.23780    9.23780   24.42680    -999.25    -999.25  -28.18420   -9.88100   18.53340
 4100.00000    -999.25   18.54030    -999.25    -999.25    -999.25   48.00560   59.43540    -999.25    -999.25    -999.25   16.82500   53.65720   53.65720    -999.25    -999.25    6.90050    6.90050   16.82500    -999.25    -999.25  -33.20590  -14.75860   18.54030
 4150.00000    -999.25   22.64690    -999.25    -999.25    -999.25   44.71350   48.69310    -999.25    -999.25    -999.25   20.53680   59.01920   59.01920    -999.25    -999.25    7.36190    7.36190   20.53680    -999.25    -999.25  -34.91510  -16.32370   22.64690
 4200.00000    -999.25    4.69570    -999.25    -999.25    -999.25  268.51370  273.20170    -999.25    -999.25    -999.25    3.66030   75.17400   75.17400    -999.25    -999.25   25.35740   25.35740    3.66030    -999.25    -999.25  -20.06490   -1.32950    4.69570
 4250.00000    -999.25    2.01110    -999.25    -999.25    -999.25  519.52050  567.21500    -999.25    -999.25    -999.25    1.76300   99.57470   99.57470    -999.25    -999.25   27.95370   27.95370    1.76300    -999.25    -999.25  -21.84770   -3.20460    2.01110
 4300.00000    -999.25    2.08510    -999.25    -999.25    -999.25  444.53260  469.52760    -999.25    -999.25    -999.25    2.12980   94.71440   94.71440    -999.25    -999.25   35.71320   35.71320    2.12980    -999.25    -999.25  -21.22850   -3.22930    2.08510
 4350.00000    -999.25    2.33440    -999.25    -999.25    -999.25  339.04790  487.47200    -999.25    -999.25    -999.25    2.05140   80.79060   80.79060    -999.25    -999.25   31.73650   31.73650    2.05140    -999.25    -999.25  -22.11730   -4.76200    2.33440
 4400.00000    -999.25    3.13820    -999.25    -999.25    -999.25  317.99950  319.79530    -999.25    -999.25    -999.25    3.12700   84.68890   84.68890    -999.25    -999.25   28.35490   28.35490    3.12700    -999.25    -999.25  -21.70500   -4.99350    3.13820
 4450.00000    -999.25   11.27060    -999.25    -999.25    -999.25   67.21640   70.15430    -999.25    -999.25    -999.25   14.25430   52.81410   52.81410    -999.25    -999.25   11.43870   11.43870   14.25430    -999.25    -999.25  -20.54780   -4.48020   11.27060
 4500.00000    -999.25   17.13660    -999.25    -999.25    -999.25   13.65280   14.69450    -999.25    -999.25    -999.25   68.05260   53.60830   53.60830    -999.25    -999.25    9.25470    9.25470   68.05260    -999.25    -999.25  -26.27140  -10.84770   17.13660
 4550.00000    -999.25   12.03290    -999.25    -999.25    -999.25   48.62780   50.91620    -999.25    -999.25    -999.25   19.64010   60.78510   60.78510    -999.25    -999.25    9.61540    9.61540   19.64010    -999.25    -999.25  -45.65790  -30.87810   12.03290
 4600.00000    -999.25   17.04680    -999.25    -999.25    -999.25   41.07610   41.28360    -999.25    -999.25    -999.25   24.22270   52.56380   52.56380    -999.25    -999.25    8.05470    8.05470   24.22270    -999.25    -999.25  -22.10620   -7.97030   17.04680
 4650.00000    -999.25   14.70540    -999.25    -999.25    -999.25   71.08110   74.78760    -999.25    -999.25    -999.25   13.37120   54.94980   54.94980    -999.25    -999.25    7.92200    7.92200   13.37120    -999.25    -999.25  -31.25390  -17.76190   14.70540
 4700.00000    -999.25   12.54620    -999.25    -999.25    -999.25   64.50420   69.80410    -999.25    -999.25    -999.25   14.32580   55.02020   55.02020    -999.25    -999.25   10.97560   10.97560   14.32580    -999.25    -999.25  -20.21020   -7.36210   12.54620
 4750.00000    -999.25   13.25190    -999.25    -999.25    -999.25   30.81980   28.91580    -999.25    -999.25    -999.25   34.58320   52.50870   52.50870    -999.25    -999.25    8.49630    8.49630   34.58320    -999.25    -999.25  -23.45840  -11.25420   13.25190
 4800.00000    -999.25   16.83870    -999.25    -999.25    -999.25   43.10490   41.24560    -999.25    -999.25    -999.25   24.24500   52.94590   52.94590    -999.25    -999.25   11.21010   11.21010   24.24500    -999.25    -999.25  -28.67590  -17.11560   16.83870
 4850.00000    -999.25   17.25390    -999.25    -999.25    -999.25   44.42540   48.22210    -999.25    -999.25    -999.25   20.73740   51.60750   51.60750    -999.25    -999.25   10.25480   10.25480   20.73740    -999.25    -999.25  -29.90740  -18.99100   17.25390
 4900.00000    -999.25   15.75240    -999.25    -999.25    -999.25   31.84280   44.26700    -999.25    -999.25    -999.25   22.59020   55.45000   55.45000    -999.25    -999.25   17.58660   17.58660   22.59020    -999.25    -999.25  -52.26190  -41.98930   15.75240
