~Version ---------------------------------------------------
VERS. 2.0 : CWLS log ASCII Standard -VERSION 2.0
WRAP. YES : MULTIPLE LINES PER DEPTH STEP
~Well ------------------------------------------------------
STRT.FT                    1450.0 : START DEPTH
STOP.FT                    9350.0 : STOP DEPTH
STEP.FT                  50.00000 : STEP LENGTH
NULL.                     -999.25 : NULL VALUE
COMP.        MARATHON OIL COMPANY : COMPANY
WELL.                 PINNACLE #4 : WELL
FLD .                  BEAR GRASS : FIELD
LOC .                             : LOCATION
CNTY.                        LEON : COUNTY
STAT.                       TEXAS : STATE
CTRY.    UNITED STATES OF AMERICA : COUNTRY
SRVC. HALLIBURTON Sperry Drilling : SERVICE COMPANY
DATE.                 06-Mar-2000 : LOGDATE
API .              42289313140000 : API NUMBER
UWI .              42289313140000 : UNIQUE WELL ID
SLAT.WGS84          31.3279877769 : SURFACE LATITUDE
SLON.WGS84         -96.3002763309 : SURFACE LONGITUDE
~Curve Information -----------------------------------------
DEPT    .FT    : DEPTH FEET
GRRED   .GAPI  : GAMMA RAY FROM RESISTIVITY LOG
HRMED   .OHMM  : HRI MEDIUM RESISTIVITY
DFLED   .OHMM  : DIGITALLY FOCUSED LATEROLOG
HRDED   .OHMM  : HRI DEEP RESISTIVITY
SPRED   .MV    : SPONTANEOUS POTENTIAL FROM RESISTIVITY LOG
DCALED  .IN    : DIFFERENTIAL CALIPER FROM DENSITY LOG
TENRED  .LBF   : TENSION FROM RESISTIVITY LOG
PEFED   .B/E   : PHOTOELECTRIC FACTOR FROM DENSITY LOG
CORRED  .G/C3  : DENSITY CORRECTION FROM DENSITY LOG
DPORLSED.V/V   : DENSITY POROSITY LIMESTONE
NPORLSED.V/V   : NEUTRON POROSITY LIMESTONE FROM DENSITY LOG
SPWS    .MV    : SPONTANEOUS POTENTIAL [BASELINE 0 MV] [SPRED]
GRWS    .GAPI  : GAMMA RAY [GRRED]
CALWS   .IN    : CALIPER [DCALED+BIT]
DCORWS  .G/C3  : DENSITY CORRECTION [CORRED]
DRESWS  .OHMM  : DEEP RESISTIVITY [HRDED]
MRESWS  .OHMM  : MEDIUM RESISTIVITY [HRMED]
SRESWS  .OHMM  : SHALLOW RESISTIVITY [DFLED]
CONDWS  .MMHO  : CONDUCTIVITY [1000/DRESWS]
PEFWS   .B/E   : PHOTOELECTRIC FACTOR [PEFED]
DENWS   .G/C3  : BULK DENSITY [M=2.71 F=1.0] [CALCULATED FROM DPORLSED]
DPOWS   .V/V   : DENSITY POROSITY [M=2.71 F=1] [CALCULATED FROM DENWS]
NPOWS   .V/V   : NEUTRON POROSITY LIME [SWS CONV NPORLSED]
~Params ----------------------------------------------------
PD  .                     GL : PERMANENT DATUM
EPD .FT                  342 : ELEVATION PERMANENT DATUM
LMF .                     KB : LOG MEASURED FROM
DAPD.FT                   12 : FEET ABOVE PERMANENT DATUM
DMF .                     KB : DRILLING MEASURED FROM
EKB .FT                  354 : KELLY BUSHING
EDF .FT                  353 : DRILLING FLOOR
EGL .FT                  342 : GROUND LEVEL
DATE.               03/06/00 : RUN DATE
RUN .                      1 : RUN NUMBER
DD  .FT                 9350 : DEPTH DRILLER
DL  .FT                 9347 : DEPTH LOGGER
BLI .FT                 9335 : BOTTOM LOG INTERVAL
TLI .FT                 1520 : TOP LOG INTERVAL
CS  .IN                9.625 : CASING SIZE
CBD .FT                 1525 : CASING BOTTOM DRILLER
CBL .FT                 1520 : CASING BOTTOM LOGGER
BS  .IN                7.875 : BIT SIZE
BSD .FT                 9350 : BIT SIZE AT DEPTH
DFT .              FRESH MUD : DRILLING FLUID TYPE
DFD .                     10 : DRILLING FLUID DENSITY
DFV .                     55 : DRILLING FLUID VISCOSITY
DFPH.                    9.8 : DRILLING FLUID PH
DFL .                     15 : DRILLING FLUID LOSS
MSS .               MUD TANK : MUD SAMPLE SOURCE
RMS .OHMM               1.83 : RESISTIVITY MUD SAMPLE
MST .DEGF                 74 : MUD SAMPLE TEMPERATURE
RMF .OHMM               1.59 : RESISTIVITY MUD FILTRATE SAMPLE
MFST.DEGF                 74 : MUD FILTRATE SAMPLE TEMPERATURE
RMC .OHMM                2.3 : RESISTIVITY MUD CAKE
MCST.DEGF                 74 : MUD CAKE SAMPLE TEMPERATURE
MFSS.                   MEAS : MUD FILTRATE SAMPLE SOURCE
MCSS.                   MEAS : MUD CAKE SAMPLE SOURCE
TCS .HRS                 630 : TIME CIRCULATED STOPPED
TLAB.HRS                1241 : TIME LOGGER AT BOTTOM
LUN .                  53793 : LOGGING UNIT NUMBER
LUL .                   KILG : LOGGING UNIT LOCATION
ENGI.               REYNOLDS : RECORDING ENGINEER
WITN.                 EWBANK : WITNESSED BY
CLNT.                A2DTECH : CLIENT CODE
ORIG.         1" 2" 5" PRINT : ORIGIN OF DATA
UWI .         42289313140000 : UNIQUE WELL ID
DICO. A2D Technologies, Inc. : DIGITIZING COMPANY
~Other -----------------------------------------------------
~ASCII -----------------------------------------------------
# ...
 6100.00000   47.61900   12.75390   14.32620   11.84410  -81.70570    -999.25 3152.34810    -999.25    -999.25    -999.25    -999.25  -14.77420   47.61900    -999.25    -999.25   11.84410   12.75390   14.32620   84.43020    -999.25    -999.25    -999.25    -999.25
 6150.00000   57.33670    9.87050   12.51890    7.48440  -72.68270    -999.25 3067.90550    -999.25    -999.25    -999.25    -999.25   -9.23460   57.33670    -999.25    -999.25    7.48440    9.87050   12.51890  133.61130    -999.25    -999.25    -999.25    -999.25
 6200.00000   69.84170    3.07730    3.21130    2.76480  -63.32600    -999.25 3132.31030    -999.25    -999.25    -999.25    -999.25   -0.29840   69.84170    -999.25    -999.25    2.76480    3.07730    3.21130  361.68980    -999.25    -999.25    -999.25    -999.25
 6250.00000   56.44830    9.79420   11.51910    9.27210  -66.49710    -999.25 3204.84990    -999.25    -999.25    -999.25    -999.25   -4.00670   56.44830    -999.25    -999.25    9.27210    9.79420   11.51910  107.85040    -999.25    -999.25    -999.25    -999.25
 6300.00000   66.86290    1.90870    1.89670    1.69350  -63.60600    -999.25 3207.86010    -999.25    -999.25    -999.25    -999.25   -1.20840   66.86290    -999.25    -999.25    1.69350    1.90870    1.89670  590.49300    -999.25    -999.25    -999.25    -999.25
 6350.00000   75.16540    1.94160    2.19230    1.71470  -65.12240    -999.25 3417.09420    -999.25    -999.25    -999.25    -999.25   -2.42670   75.16540    -999.25    -999.25    1.71470    1.94160    2.19230  583.19240    -999.25    -999.25    -999.25    -999.25
 6400.00000   40.31720    7.91580   11.75810    6.16730  -62.30290    -999.25 3284.74730    -999.25    -999.25    -999.25    -999.25   -2.41620   40.31720    -999.25    -999.25    6.16730    7.91580   11.75810  162.14550    -999.25    -999.25    -999.25    -999.25
 6450.00000   33.47520    5.94390    8.11880    5.07500  -62.82520    -999.25 3220.71800    -999.25    -999.25    -999.25    -999.25   -2.99020   33.47520    -999.25    -999.25    5.07500    5.94390    8.11880  197.04430    -999.25    -999.25    -999.25    -999.25
 6500.00000   59.49430    1.22070    1.65580    1.10100  -68.04850    -999.25 3325.48900    -999.25    -999.25    -999.25    -999.25   -8.26530   59.49430    -999.25    -999.25    1.10100    1.22070    1.65580  908.26530    -999.25    -999.25    -999.25    -999.25
 6550.00000   58.14710    1.22330    1.77230    1.12850  -65.08160    -999.25 3203.22290    -999.25    -999.25    -999.25    -999.25   -5.35020   58.14710    -999.25    -999.25    1.12850    1.22330    1.77230  886.13200    -999.25    -999.25    -999.25    -999.25
 6600.00000   49.09870    1.97680    2.31550    1.74370  -65.53240    -999.25 3269.03910    -999.25    -999.25    -999.25    -999.25   -5.85270   49.09870    -999.25    -999.25    1.74370    1.97680    2.31550  573.49320    -999.25    -999.25    -999.25    -999.25
 6650.00000   53.16290    2.92760    4.31390    2.77810  -61.49580    -999.25 3263.83840    -999.25    -999.25    -999.25    -999.25   -1.70900   53.16290    -999.25    -999.25    2.77810    2.92760    4.31390  359.95830    -999.25    -999.25    -999.25    -999.25
 6700.00000   28.23110   14.51670   17.90100   12.59430  -63.02180    -999.25 3331.63110    -999.25    -999.25    -999.25    -999.25   -2.75720   28.23110    -999.25    -999.25   12.59430   14.51670   17.90100   79.40100    -999.25    -999.25    -999.25    -999.25
 6750.00000   33.05360    7.11680    8.39320    6.30460  -61.83630    -999.25 3366.32760    -999.25    -999.25    -999.25    -999.25   -1.09390   33.05360    -999.25    -999.25    6.30460    7.11680    8.39320  158.61430    -999.25    -999.25    -999.25    -999.25
 6800.00000   36.26770    5.37200    6.39360    4.81380  -65.00800    -999.25 3447.31690    -999.25    -999.25    -999.25    -999.25   -3.78780   36.26770    -999.25    -999.25    4.81380    5.37200    6.39360  207.73610    -999.25    -999.25    -999.25    -999.25
 6850.00000   70.49160    4.14950    3.74740    2.98170  -63.86510    -999.25 3343.46530    -999.25    -999.25    -999.25    -999.25   -2.16710   70.49160    -999.25    -999.25    2.98170    4.14950    3.74740  335.37920    -999.25    -999.25    -999.25    -999.25
 6900.00000   49.89940    3.37100    3.65530    2.23340  -64.63700    -999.25 3407.54270    -999.25    -999.25    -999.25    -999.25   -2.46120   49.89940    -999.25    -999.25    2.23340    3.37100    3.65530  447.74780    -999.25    -999.25    -999.25    -999.25
 6950.00000   70.91230    2.37850    3.88260    2.23760  -64.12370    -999.25 3466.79590    -999.25    -999.25    -999.25    -999.25   -2.28780   70.91230    -999.25    -999.25    2.23760    2.37850    3.88260  446.90740    -999.25    -999.25    -999.25    -999.25
 7000.00000   44.27750   11.36520   16.89250   10.25450  -61.58040    1.84060 3403.66890    5.05430    0.01690    0.02500    0.06220   -1.15900   44.27750    9.71560    0.01690   10.25450   11.36520   16.89250   97.51820    5.05430    2.66720    0.02500    0.06220
 7050.00000   44.87110   28.35780   74.32030   19.83830  -62.67600    1.41820 3453.45040    5.19620    0.01250    0.00470    0.01730   -2.25460   44.87110    9.29320    0.01250   19.83830   28.35780   74.32030   50.40750    5.19620    2.70200    0.00470    0.01730
 7100.00000   54.45930    4.85140    7.26670    4.58160  -60.52370    2.00460 3494.91430    4.78060    0.00120    0.02970    0.12930   -0.10230   54.45930    9.87960    0.00120    4.58160    4.85140    7.26670  218.26440    4.78060    2.65920    0.02970    0.12930
 7150.00000   60.12540   16.46580   27.64870   13.35620  -63.53650    1.85510 3517.77000    5.06850    0.01770    0.00960    0.04080   -3.11510   60.12540    9.73010    0.01770   13.35620   16.46580   27.64870   74.87160    5.06850    2.69360    0.00960    0.04080
 7200.00000   50.07460    7.22530    8.55410    6.62890  -61.82640    1.59580 3639.09400    4.91580    0.01280    0.01720    0.08970   -1.40500   50.07460    9.47080    0.01280    6.62890    7.22530    8.55410  150.85460    4.91580    2.68060    0.01720    0.08970
 7250.00000   47.22690   20.57260   28.01190   21.27000  -63.73130    1.35910 3563.33200    5.24360    0.01740    0.01670    0.02340   -3.30990   47.22690    9.23410    0.01740   21.27000   20.57260   28.01190   47.01460    5.24360    2.68140    0.01670    0.02340
 7300.00000   34.72890   14.95880   23.77070    8.86380  -67.78350    1.44410 3545.84230    4.80310    0.05990    0.06630    0.10670   -7.54720   34.72890    9.31910    0.05990    8.86380   14.95880   23.77070  112.81840    4.80310    2.59660    0.06630    0.10670
 7350.00000   23.44610   26.26320  101.55260   25.77750  -62.29310    1.11340 3565.96310    5.23530    0.01070    0.00600    0.02050   -2.41980   23.44610    8.98840    0.01070   25.77750   26.26320  101.55260   38.79350    5.23530    2.69970    0.00600    0.02050
 7400.00000   49.75650   11.57170   14.55840   10.33050  -60.08180    1.10980 3561.65970    5.03040    0.00700    0.01240    0.06810   -0.57140   49.75650    8.98480    0.00700   10.33050   11.57170   14.55840   96.80070    5.03040    2.68880    0.01240    0.06810
 7450.00000   53.30320   13.38010   14.26260    8.54700  -62.37080    1.64390 3576.09890    4.98910    0.02000    0.00730    0.09060   -3.22340   53.30320    9.51890    0.02000    8.54700   13.38010   14.26260  117.00010    4.98910    2.69750    0.00730    0.09060
 7500.00000   49.54130    9.07900   16.15980    7.96730  -63.51140    1.72060 3601.57840    4.86020    0.04140    0.05850    0.12570   -4.72700   49.54130    9.59560    0.04140    7.96730    9.07900   16.15980  125.51300    4.86020    2.61000    0.05850    0.12570
 7550.00000   40.66800   12.09980   16.60700   10.34920  -60.74950    0.98400 3619.49680    5.22660    0.03540    0.00600    0.05160   -2.32810   40.66800    8.85900    0.03540   10.34920   12.09980   16.60700   96.62580    5.22660    2.69970    0.00600    0.05160
 7600.00000   37.32670    7.12120    7.82250    5.14090  -62.76670    1.34990 3647.17380    4.94330    0.03270    0.07750    0.10040   -4.19510   37.32670    9.22490    0.03270    5.14090    7.12120    7.82250  194.51850    4.94330    2.57750    0.07750    0.10040
