~Version ---------------------------------------------------
VERS. 2.0 : CWLS log ASCII Standard -VERSION 2.0
WRAP.  NO : ONE LINE PER DEPTH STEP
~Well ------------------------------------------------------
STRT.F                        1950.0 : START DEPTH
STOP.F                       10600.0 : STOP DEPTH
STEP.F                      50.00000 : STEP LENGTH
NULL.                        -999.25 : NULL VALUE
COMP. QUINTANA PETROLEUM CORPORATION : COMPANY
WELL.                      STOREY #1 : WELL
FLD .                  WHITE KITCHEN : FIELD
LOC .                                : LOCATION
CNTY.                       LA SALLE : COUNTY
STAT.                          TEXAS : STATE
CTRY.       UNITED STATES OF AMERICA : COUNTRY
SRVC.                   Schlumberger : SERVICE COMPANY
DATE.                    11-Nov-1991 : LOGDATE
API .                 42283314670000 : API NUMBER
UWI .                 42283314670000 : UNIQUE WELL ID
SLAT.WGS84             28.3526641266 : SURFACE LATITUDE
SLON.WGS84            -98.9860139829 : SURFACE LONGITUDE
~Curve Information -----------------------------------------
DEPT.F                 : 
SPR .MV   07 010 01 00 : SPONTANEOUS POTENTIAL FROM RES.
GRR .GAPI 07 310 01 00 : GAMMA RAY FROM RES. LOG.
CILD.MMHO 07 110 46 00 : CONDUCTIVITY INDUCTION LOG DEEP
ASFL.OHMM 07 221 06 00 : AMPLIFIED SHALLOW FOCUSED LOG RESISTIVITY
ILD .OHMM 07 120 46 00 : INDUCTION LOG DEEP
CALD.IN   45 280 60 00 : CALIPER FDC LOG
DRHO.G/C3 45 356 01 00 : DENSITY CORRECTION
PEF .B/E  45 358 01 00 : PHOTOELECTRIC FACTOR
DPHI.DEC  45 890 10 00 : DENSITY POROSITY LIMESTONE
NPHI.DEC  42 890 01 00 : NEUTRON POROSITY LIMESTONE
~Params ----------------------------------------------------
PD  .                     GL : PERMANENT DATUM
EPD .F                 448.4 : ELEVATION PERMANENT DATUM
LMF .                     KB : LOG MEASURED FROM
DAPD.F                  17.0 : FEET ABOVE PERMANENT DATUM
DMF .                     KB : DRILLING MEASURED FROM
EKB .F                 465.4 : KELLING BUSHING
EDF .F                 464.4 : DRILLING FLOOR
EGL .F                 448.4 : GROUND LEVEL
DATE.             11-11-1991 : RUN DATE
RUN .                      1 : RUN NUMBER
DD  .F                 10625 : DEPTH DRILLER
DL  .F                 10606 : DEPTH LOGGER
BLI .F                 10600 : BOTTOM LOG INTERVAL
TLI .F                  2024 : TOP LOG INTERVAL
CS  .IN                9.625 : CASING SIZE
CBD .F                  2025 : CASING BOTTOM DRILLER
CBL .F                  2024 : CASING BOTTOM LOGGER
BS  .IN                 8.75 : BIT SIZE
BSD .F                 10625 : BIT SIZE AT DEPTH
DFT .                  LIGNO : DRILLING FLUID TYPE
MSS .               FLOWLINE : MUD SAMPLE SOURCE
RMS .OHMM               1.53 : RESISTIVITY MUD SAMPLE
MST .F                    96 : MUD SAMPLE TEMPERATURE
RMF .OHMM               1.48 : RESISTIVITY MUD FILTRATE SAMPLE
MFST.F                    77 : MUD FILTRATE SAMPLE TEMPERATURE
RMC .OHMM                2.3 : RESISTIVITY MUD CAKE
MCST.F                    96 : MUD CAKE SAMPLE TEMPERATURE
MFSS.                   MEAS : MUD FILTRATE SAMPLE SOURCE
MCSS.                   CALC : MUD CAKE SAMPLE SOURCE
RMB .OHMM              0.676 : RESISTIVITY MUD AT BHT
TCS .HRS                 900 : TIME CURCULATED STOPPED
TLAB.HRS                1915 : TIME LOGGER AT BOTTOM
LUN .                   2024 : LOGGING UNIT NUMBER
LUL .                 LAREDO : LOGGING UNIT LOCATION
ENGI.                  WELLS : RECORDING ENGINEER
WITN.           WARREN EVANS : WITNESSED BY
CLNT.                A2DTECH : CLIENT CODE
ORIG.               1" PRINT : ORIGIN OF DATA
UWI .         42283314670000 : UNIQUE WELL ID
DICO. A2D Technologies, Inc. : DIGITIZING COMPANY
~Other -----------------------------------------------------
~ASCII -----------------------------------------------------
# ...
 5250.00000   -7.01610   87.39920  277.07710    3.82980    3.40910    9.69610    0.06880    3.05360    0.10240    0.26770
 5300.00000   -2.36370   91.25530  243.44190    4.01400    4.00310   10.39450    0.01100    3.15290    0.07670    0.23280
 5350.00000  -22.03630   76.23130  210.21020    7.66770    4.75140    9.35680    0.00220    2.73230    0.13350    0.22070
 5400.00000   -0.06990   99.41500  402.40240    2.67920    2.44260   10.59890    -999.25    3.95300    0.18680    0.33040
 5450.00000   -8.61460   74.24390  266.26630    4.06410    3.73370    8.84550   -0.00460    2.71010    0.14480    0.25120
 5500.00000   -0.26570  103.57860  683.57700    1.50150    1.81000    9.28280    0.01040    3.11700    0.25040    0.38410
 5550.00000  -77.50500   32.01320  335.42630   12.86140    3.06310    8.43660   -0.00130    2.69070    0.18960    0.19890
 5600.00000  -15.91650   61.04750  375.86170    3.28040    2.71350    9.31650   -0.00050    3.01500    0.13750    0.24330
 5650.00000   -1.27020   94.50610  422.99440    1.96600    2.27830   10.33670    0.10100    3.38240    0.22370    0.36790
 5700.00000  -47.32280   53.23000  278.33850   10.87090    3.48300    8.54500   -0.00580    2.72180    0.20870    0.22950
 5750.00000    0.84680  103.27620  311.81180    4.10410    3.22070    9.59010    0.08330    3.13210    0.09750    0.28730
 5800.00000    0.14980   95.87400  458.45850    2.56660    2.13630   10.67890    -999.25    3.54630    0.22980    0.35860
 5850.00000    0.21670   93.49800  293.84940    3.74370    3.42340   10.06760    -999.25    3.46780    0.14480    0.26820
 5900.00000    0.44350   87.24800  306.30630    3.21520    3.26330    9.37700    -999.25    3.67240    0.09460    0.27950
 5950.00000    0.24190   92.08670  322.32230    3.31930    3.05940    9.30590    -999.25    3.42790    0.08240    0.29070
 6000.00000    0.74600   86.59910  298.29830    3.74740    3.42340    8.96210    0.02040    2.75170    0.08440    0.24180
 6050.00000    1.01480   95.56450  470.47050    2.36640    2.28630   10.76540    0.00310    3.03200    0.07960    0.30140
 6100.00000    0.64630   96.52010  523.65280    1.98570    1.79040   11.60420    0.01670    3.02710    0.08810    0.30960
 6150.00000    2.76210   91.28020  570.57060    1.84990    1.82180   11.25960    0.01610    3.17460    0.09820    0.31010
 6200.00000    0.97330   84.91700  452.86300    2.54390    2.82280    9.93350   -0.00610    3.47380    0.07330    0.26210
 6250.00000    1.55240   80.29230  384.88490    2.92380    2.62260    9.49080    0.00560    3.15480    0.06380    0.24830
 6300.00000    3.10490   73.33630  324.16770    3.30060    3.18320    8.92840    0.00510    3.32260    0.08510    0.22810
 6350.00000    3.39210   81.80440  422.42240    2.55450    2.35950    9.73190    0.04490    3.03690    0.12890    0.25850
 6400.00000   -3.30940   70.18110  520.01750    2.26360    2.05150   10.26820    0.06000    3.01210    0.10860    0.22560
 6450.00000   -2.78230   73.10990  451.11780    2.36640    2.17070   11.45360    0.01620    3.43320    0.06990    0.23940
 6500.00000   -2.11070   77.44180  579.32380    1.96330    1.81350   11.79640    0.03500    3.30170    0.10240    0.25530
 6550.00000   -4.84160   63.35680  342.34230    3.44740    2.74270   10.63800   -0.00210    3.17410    0.05770    0.18710
 6600.00000   -2.68140   60.08690  432.52300    2.87090    2.22220   10.00200    0.06570    3.25750    0.09500    0.23290
 6650.00000   -3.65590   73.03430  573.90720    2.07710    2.22580   10.98440    0.07380    3.17280    0.11790    0.25540
 6700.00000   -3.70920   73.07720  600.88660    1.94090    2.45340   11.28470    0.05060    3.06220    0.12470    0.28910
 6750.00000   -1.45160   69.36200  332.61830    3.65700    2.95040   10.24730    0.01230    3.49770    0.03930    0.15220
 6800.00000   -2.17460   80.33210  568.75880    1.89160    2.04390   12.08340    0.03970    3.29620    0.11110    0.28020
 6850.00000   -3.15190   76.90520  454.45440    2.20750    2.37270   12.18350    -999.25    -999.25    -999.25    -999.25
 6900.00000   -0.44070   74.54640  472.47250    2.16210    2.28360   12.07870    -999.25    -999.25    -999.25    -999.25
 6950.00000    0.84680   82.30130  597.79780    1.99110    1.62830   11.55440    -999.25    -999.25    -999.25    -999.25
 7000.00000  -13.06840   75.09660  407.39420    3.10110    2.25170   11.15630    -999.25    -999.25    -999.25    -999.25
 7050.00000  -14.85380   74.84880  534.53450    1.99000    1.84180   11.04280    -999.25    -999.25    -999.25    -999.25
 7100.00000  -13.56930   75.49600  514.51450    2.22850    2.30230   11.13370    -999.25    -999.25    -999.25    -999.25
 7150.00000  -14.77820   75.30240  496.21050    2.27030    2.27290   10.93880    -999.25    -999.25    -999.25    -999.25
 7200.00000  -10.74600   80.66540  555.55550    2.13660    1.79510    9.79270    -999.25    -999.25    -999.25    -999.25
 7250.00000  -12.11410   75.49140  448.44850    2.53050    2.21650    9.04380    -999.25    -999.25    -999.25    -999.25
 7300.00000   -9.15830   77.94860  418.01420    2.74680    2.42240    9.76880    -999.25    -999.25    -999.25    -999.25
 7350.00000   -8.67940   77.52020  522.52250    2.24410    1.86990    9.63910    -999.25    -999.25    -999.25    -999.25
 7400.00000   -8.21570   79.64630  537.20390    2.17530    1.80500   10.47160    -999.25    -999.25    -999.25    -999.25
 7450.00000   -8.29780   77.26820  418.41840    2.87430    2.26230    9.65990    -999.25    -999.25    -999.25    -999.25
 7500.00000   -7.66540   73.03430  354.71400    3.22840    2.78280    8.82920    -999.25    -999.25    -999.25    -999.25
 7550.00000   -7.55380   74.05490  383.27220    3.26330    2.66270    8.78440    -999.25    -999.25    -999.25    -999.25
 7600.00000   -6.44820   74.54640  376.90740    3.19200    2.66270    9.00510    -999.25    -999.25    -999.25    -999.25
 7650.00000   -6.52470   67.13710  339.33930    3.42640    2.94290    9.03770    -999.25    -999.25    -999.25    -999.25
 7700.00000   -6.21180   71.82460  346.81960    3.27450    2.97210    9.13830    -999.25    -999.25    -999.25    -999.25
 7750.00000   -4.42040   67.40930  301.73030    4.16420    3.45620    9.53240    -999.25    -999.25    -999.25    -999.25
 7800.00000   -3.08470   67.44570  297.86940    4.02400    3.33650    9.11490    -999.25    -999.25    -999.25    -999.25
 7850.00000   -3.37790   67.59070  315.31530    3.32730    3.41200    8.90510    0.00630    3.61260    0.03750    0.23460
 7900.00000   -8.48880   80.59480  426.39310    2.91090    2.92110    9.83510    0.03010    3.23470    0.08060    0.25860
 7950.00000   -6.51210   74.11430  372.37240    3.03500    2.77130   10.12300    0.07960    2.98280    0.08020    0.21860
 8000.00000   -7.72180   74.15710  350.49710    3.07610    2.81430   10.32550   -0.00020    2.86230    0.07300    0.16820
 8050.00000   -4.25120   79.08270  353.95390    2.98100    2.92690   10.09500    0.07080    3.21350    0.11630    0.20210
 8100.00000   -2.80750   88.45770  383.81240    2.84680    2.48400   10.17340    -999.25    -999.25    0.10390    0.23190
 8150.00000   -3.59880   79.91430  395.82440    3.15460    2.79280    8.84910    -999.25    -999.25    -999.25    -999.25
 8200.00000   -1.70180   93.45180  458.45850    2.49950    2.23230    9.86800    -999.25    -999.25    -999.25    -999.25
 8250.00000   -2.50860  101.46170  451.45140    2.56920    2.28450   11.39320    -999.25    -999.25    -999.25    -999.25
 8300.00000   -1.19160   93.58590  449.50270    2.50520    2.21180   12.49790    -999.25    -999.25    -999.25    -999.25
 8350.00000   -0.72030   79.46070  396.61880    2.79080    2.53400   12.23550    -999.25    -999.25    -999.25    -999.25
 8400.00000   -1.57390   84.11030  432.76610    2.52650    2.37960   11.74850    -999.25    -999.25    -999.25    -999.25
 8450.00000   -0.26210   83.92140  370.37040    2.83880    2.74270   11.53590    -999.25    -999.25    -999.25    -999.25
 8500.00000   -0.41330   84.07260  445.16190    2.39040    2.12580   13.02190    0.03490    3.11720    0.08290    0.29840
