~Version ---------------------------------------------------
VERS. 2.0 : CWLS log ASCII Standard -VERSION 2.0
WRAP. YES : MULTIPLE LINES PER DEPTH STEP
~Well ------------------------------------------------------
STRT.FT                      300.0 : START DEPTH
STOP.FT                     7950.0 : STOP DEPTH
STEP.FT                   50.00000 : STEP LENGTH
NULL.                      -999.25 : NULL VALUE
COMP. AMOCO PRODUCTION COMPANY USA : COMPANY
WELL.              JOHN JARROTT #1 : WELL
FLD .                     WHEELOCK : FIELD
LOC .                              : LOCATION
CNTY.                    ROBERTSON : COUNTY
STAT.                        TEXAS : STATE
CTRY.     UNITED STATES OF AMERICA : COUNTRY
SRVC.                 Schlumberger : SERVICE COMPANY
DATE.                  12-Jan-1984 : LOGDATE
API .               42395302890000 : API NUMBER
UWI .               42395302890000 : UNIQUE WELL ID
SLAT.WGS84           30.9033199456 : SURFACE LATITUDE
SLON.WGS84          -96.3760313841 : SURFACE LONGITUDE
~Curve Information -----------------------------------------
DEPT    .FT    : DEPTH FEET
CALDED  .IN    : CALIPER FROM DENSITY LOG [DEP ADJ TO GRRED]
CALRED  .IN    : CALIPER FROM RESISTIVITY LOG
CALSED  .IN    : CALIPER FROM SONIC LOG [DEP ADJ TO GRRED]
CALWS   .IN    : CALIPER [97 CALDED 7738.5 CALSED]
CONDWS  .MMHO  : CONDUCTIVITY [1000/DRESWS]
DCORWS  .G/C3  : DENSITY CORRECTION [DRHOED]
DENWS   .G/C3  : BULK DENSITY [M=2.71 F=1.0] [RHOBED]
DPHILSED.V/V   : DENSITY POROSITY [M=2.71 F=1.0] FROM DENSITY LOG [DEP ADJ TO GRRED]
DPOWS   .V/V   : DENSITY POROSITY [M=2.71 F=1.0] [CAL FR DENWS]
DRESWS  .OHMM  : DEEP RESISTIVITY [ILDED]
DRHOED  .G/C3  : DENSITY CORRECTION FROM DENSITY LOG [DEP ADJ TO GRRED]
DTED    .US/F  : DELTA TIME FROM SONIC LOG [DEP ADJ TO GRRED]
DTWS    .US/F  : DELTA TIME [DTED]
GRDED   .GAPI  : GAMMA RAY FROM DENSITY LOG [DEP ADJ TO GRRED]
GRRED   .GAPI  : GAMMA RAY FROM RESISTIVITY LOG
GRSED   .GAPI  : GAMMA RAY FROM SONIC LOG [DEP ADJ TO GRRED]
GRWS    .GAPI  : GAMMA RAY [GRDED]
ILDED   .OHMM  : INDUCTION LOG DEEP RESISTIVITY
ILMED   .OHMM  : INDUCTION LOG MEDIUM RESISTIVITY
MRESWS  .OHMM  : MEDIUM RESISTIVITY [ILMED]
NPHILSED.V/V   : NEUTRON POROSITY LIMESTONE FROM DENSITY LOG [DEP ADJ TO GRRED]
NPOWS   .V/V   : NEUTRON POROSITY LIMESTONE [NPHILSED]
PEFED   .B/E   : PHOTOELECTRIC FACTOR FROM DENSITY LOG [DEP ADJ TO GRRED]
PEFWS   .B/E   : PHOTOELECTRIC FACTOR [PEFED]
RHOBED  .G/C3  : BULK DENSITY FROM DENSITY LOG  [DEP ADJ TO GRRED]
SFLUED  .OHMM  : SPHERICALLY FOCUSED LOG RESISTIVITY
SPHILSED.V/V   : SONIC POROSITY FROM SONIC LOG [DEP ADJ TO GRRED] [M=47.6 F=189]
SPOWS   .V/V   : SONIC POROSITY [CAL FR DTWS] [M=47.6 F=189]
SPRED   .MV    : SPONTANEOUS POTENTIAL FROM RESISTIVITY LOG [SHIFT IS REMOVED]
SPWS    .MV    : SPONTANEOUS POTENTIAL [BASELINE 0 MV] [SPRED]
SRESWS  .OHMM  : SHALLOW RESISTIVITY [SFLUED]
TENDED  .LBF   : TENSION FROM DENSITY LOG [DEP ADJ TO GRRED]
~Params ----------------------------------------------------
PD  .                     GL : PERMANENT DATUM
EPD .FT                404.8 : ELEVATION PERMANENT DATUM
LMF .                     KB : LOG MEASURED FROM
DAPD.FT                 16.6 : FEET ABOVE PERMANENT DATUM
DMF .                     KB : DRILLING MEASURED FROM
EKB .FT                421.4 : KELLY BUSHING
EDF .FT                420.4 : DRILLING FLOOR
EGL .FT                404.8 : GROUND LEVEL
DATE.               01/12/84 : RUN DATE
RUN .                      1 : RUN NUMBER
DD  .FT                 7050 : DEPTH DRILLER
DL  .FT                 7964 : DEPTH LOGGER
BLI .FT                 7958 : BOTTOM LOG INTERVAL
TLI .FT                 3102 : TOP LOG INTERVAL
CS  .IN                9.625 : CASING SIZE
CBD .FT                 3100 : CASING BOTTOM DRILLER
CBL .FT                 3102 : CASING BOTTOM LOGGER
BS  .IN                 8.75 : BIT SIZE
BSD .FT                 7050 : BIT SIZE AT DEPTH
DFT .                    LPH : DRILLING FLUID TYPE
DFD .                    9.6 : DRILLING FLUID DENSITY
DFV .                     38 : DRILLING FLUID VISCOSITY
DFPH.                    9.4 : DRILLING FLUID PH
DFL .                    8.6 : DRILLING FLUID LOSS
MSS .                   TANK : MUD SAMPLE SOURCE
RMS .OHMM               6.45 : RESISTIVITY MUD SAMPLE
MST .DEGF                 74 : MUD SAMPLE TEMPERATURE
RMF .OHMM               5.91 : RESISTIVITY MUD FILTRATE SAMPLE
MFST.DEGF                 74 : MUD FILTRATE SAMPLE TEMPERATURE
RMC .OHMM               7.02 : RESISTIVITY MUD CAKE
MCST.DEGF                 74 : MUD CAKE SAMPLE TEMPERATURE
MFSS.                   MEAS : MUD FILTRATE SAMPLE SOURCE
RMB .OHMM              2.625 : RESISTIVITY MUD AT BHT
TCS .HRS                1000 : TIME CIRCULATED STOPPED
TLAB.HRS                1800 : TIME LOGGER AT BOTTOM
LUN .                   8143 : LOGGING UNIT NUMBER
LUL .                  CARTH : LOGGING UNIT LOCATION
ENGI.             GRANT HIGH : RECORDING ENGINEER
WITN.       ARTIGAS NORVILLE : WITNESSED BY
CLNT.                A2DTECH : CLIENT CODE
ORIG.            2" 5" PRINT : ORIGIN OF DATA
UWI .         42395302890000 : UNIQUE WELL ID
DICO. A2D Technologies, Inc. : DIGITIZING COMPANY
~Other -----------------------------------------------------
~ASCII -----------------------------------------------------
# ...
 5800.00000    9.50530    9.63230    9.43320    9.50530  725.42620    0.05480    2.43250    0.16020    0.16230    1.37850    0.05480   99.35910   99.35910   86.76740   83.31460   80.22430   86.76740    1.37850    1.46010    1.46010    0.30050    0.30050    3.69090    3.69090    2.43250    1.31950    -999.25    0.36600  -21.90020   -3.72040    1.31950 2884.92770
 5850.00000    9.65060    9.50540    9.60200    9.65060  762.42760    0.06630    2.41860    0.16910    0.17040    1.31160    0.06630  101.04280  101.04280   95.11460   93.18280   91.66740   95.11460    1.31160    1.35070    1.35070    0.28590    0.28590    2.93860    2.93860    2.41860    1.25270    -999.25    0.37800  -22.01080   -4.34020    1.25270 2884.19820
 5900.00000    9.81040    9.55430    9.50910    9.81040  612.97050    0.05960    2.42960    0.16190    0.16400    1.63140    0.05960   98.08150   98.08150   91.34310   84.60530   90.36100   91.34310    1.63140    1.68080    1.68080    0.28240    0.28240    3.59450    3.59450    2.42960    1.41130    -999.25    0.35700  -23.88950   -6.72800    1.41130 2919.40620
 5950.00000    9.42560    9.24640    9.13830    9.42560  700.08400    0.09960    2.46820    0.13910    0.14140    1.42840    0.09960   96.80780   96.80780   85.51150   85.85210   85.09470   85.51150    1.42840    1.51380    1.51380    0.25600    0.25600    3.63680    3.63680    2.46820    1.39730    -999.25    0.34800  -24.60470   -7.95230    1.39730 2910.31840
 6000.00000    9.57580    9.35240    9.37980    9.57580  856.09110    0.03000    2.40310    0.17720    0.17950    1.16810    0.03000  104.33170  104.33170   85.90850   89.71460   89.59420   85.90850    1.16810    1.23240    1.23240    0.30200    0.30200    3.04180    3.04180    2.40310    1.11480    -999.25    0.40120  -22.41730   -6.27400    1.11480 2974.37010
 6050.00000    9.80130    9.30640    9.12010    9.80130  640.12290    0.05210    2.47300    0.13650    0.13860    1.56220    0.05210   97.85070   97.85070   82.01340   75.57320   74.07710   82.01340    1.56220    1.61470    1.61470    0.24340    0.24340    3.40970    3.40970    2.47300    1.45450    -999.25    0.35540  -21.31670   -5.68250    1.45450 2954.85940
 6100.00000    9.69530    9.59520    9.49850    9.69530  710.02550    0.15650    2.41440    0.16990    0.17290    1.40840    0.15650  102.06880  102.06880   81.46630   77.93480   72.75970   81.46630    1.40840    1.46670    1.46670    0.28550    0.28550    4.12020    4.12020    2.41440    1.33760    -999.25    0.38520  -22.92010   -7.79500    1.33760 2982.31150
 6150.00000    9.40780    9.35620    9.33790    9.40780  598.01460    0.05410    2.45200    0.15020    0.15090    1.67220    0.05410   98.51880   98.51880  106.67140  106.78750   97.34820  106.67140    1.67220    1.74790    1.74790    0.25300    0.25300    3.47890    3.47890    2.45200    1.64790    -999.25    0.36010  -18.76410   -4.14810    1.64790 2982.04590
 6200.00000    9.23720    9.20980    9.21700    9.23720  548.87760    0.02330    2.51570    0.11260    0.11360    1.82190    0.02330   94.85780   94.85780   68.20310   63.78650   67.44400   68.20310    1.82190    1.87470    1.87470    0.23820    0.23820    3.74810    3.74810    2.51570    1.76970    -999.25    0.33420  -18.33480   -4.11670    1.76970 3017.11820
 6250.00000    8.80640    8.86910    8.78710    8.80640  181.73890   -0.02050    2.57180    0.07730    0.08080    5.50240   -0.02050   75.06600   75.06600   40.01310   41.96000   43.68350   40.01310    5.50240    5.67760    5.67760    0.12230    0.12230    4.24360    4.24360    2.57180    6.01170    -999.25    0.19420  -18.04860   -4.12580    6.01170 3044.13770
 6300.00000   10.08410   10.03060    9.98980   10.08410  713.92880    0.12000    2.43510    0.15880    0.16080    1.40070    0.12000   98.65140   98.65140   85.17200   84.50220   83.85940   85.17200    1.40070    1.44130    1.44130    0.28520    0.28520    3.91140    3.91140    2.43510    1.36330    -999.25    0.36100  -19.08320   -5.45560    1.36330 3118.09280
 6350.00000    9.54760    9.50070    9.48750    9.54760  532.45300    0.08160    2.50210    0.11950    0.12160    1.87810    0.08160   94.05110   94.05110   83.31280   77.26440   77.41330   83.31280    1.87810    1.93250    1.93250    0.25450    0.25450    3.52460    3.52460    2.50210    1.82300    -999.25    0.32850  -16.72110   -3.38870    1.82300 3155.19630
 6400.00000   10.21140    9.93390    9.95390   10.21140  630.55680    0.06540    2.45900    0.14520    0.14680    1.58590    0.06540   97.30000   97.30000   83.26140   84.27900   83.43070   83.26140    1.58590    1.63190    1.63190    0.27520    0.27520    3.60630    3.60630    2.45900    1.53320    -999.25    0.35150  -16.56340   -3.52630    1.53320 3172.72360
 6450.00000   10.20160    9.60180    9.73470   10.20160  526.31580    0.02780    2.50810    0.11600    0.11810    1.90000    0.02780   92.26420   92.26420   93.76670   78.81870   89.80140   93.76670    1.90000    1.97030    1.97030    0.21790    0.21790    3.23390    3.23390    2.50810    2.01040    -999.25    0.31590  -15.30920   -2.56730    2.01040 3186.04200
 6500.00000   11.32700   10.23910   10.42360   11.32700  684.04130    0.08250    2.49190    0.12610    0.12750    1.46190    0.08250   97.52800   97.52800   83.99040   78.53890   78.56180   83.99040    1.46190    1.52620    1.52620    0.26360    0.26360    3.55990    3.55990    2.49190    1.50610    -999.25    0.35310  -16.46280   -4.01610    1.50610 3161.66410
 6550.00000   10.60070   10.06480   10.17910   10.60070  623.83030    0.06270    2.45640    0.14480    0.14830    1.60300    0.06270   95.75980   95.75980   85.64590   80.20180   86.69210   85.64590    1.60300    1.68600    1.68600    0.26140    0.26140    3.70320    3.70320    2.45640    1.70680    -999.25    0.34060  -14.10890   -1.95750    1.70680 3158.46780
 6600.00000   11.60420   10.68660   10.92070   11.60420  781.37210    0.05910    2.44110    0.15220    0.15730    1.27980    0.05910   99.42480   99.42480   86.01980   82.55270   82.06860   86.01980    1.27980    1.33590    1.33590    0.26300    0.26300    3.76520    3.76520    2.44110    1.39750    -999.25    0.36650  -14.64740   -2.79120    1.39750 3178.97560
 6650.00000   11.53490   10.52740   10.70230   11.53490  710.83310    0.08380    2.44950    0.15030    0.15230    1.40680    0.08380   97.85330   97.85330   87.67240   78.65750   75.03860   87.67240    1.40680    1.46870    1.46870    0.27650    0.27650    4.03280    4.03280    2.44950    1.55020    -999.25    0.35540  -14.18250   -2.62150    1.55020 3186.48540
 6700.00000   10.53750   10.04830    9.86120   10.53750  618.23800    0.09490    2.51250    0.11320    0.11550    1.61750    0.09490   94.09720   94.09720   81.43740   73.52300   78.88000   81.43740    1.61750    1.66290    1.66290    0.25320    0.25320    3.95130    3.95130    2.51250    1.71800    0.32780    0.32880  -28.44430  -16.87280    1.71800 3206.42090
 6750.00000    9.36290    9.36420    9.11420    9.36290  442.24310    0.11510    2.56190    0.08520    0.08660    2.26120    0.11510   87.52920   87.52920   77.65950   70.89990   75.04720   77.65950    2.26120    2.36550    2.36550    0.23310    0.23310    4.69990    4.69990    2.56190    2.49510    0.28570    0.28240  -35.56360  -23.38790    2.49510 3215.60940
 6800.00000    9.75720    9.95150    9.87070    9.75720  526.37120    0.11200    2.50990    0.11270    0.11700    1.89980    0.11200   88.08610   88.08610   77.01070   71.26690   72.36880   77.01070    1.89980    2.00100    2.00100    0.24580    0.24580    4.78400    4.78400    2.50990    2.20300    0.27910    0.28630  -35.83190  -23.05200    2.20300 3325.94630
 6850.00000    8.86510    9.00390    9.10270    8.86510  330.60040    0.00400    2.60630    0.05750    0.06060    3.02480    0.00400   81.23050   81.23050   63.06620   51.29720   52.29920   63.06620    3.02480    3.15760    3.15760    0.17690    0.17690    4.18320    4.18320    2.60630    3.51460    0.23590    0.23780  -31.98840  -18.60430    3.51460 3316.06640
