~Version ---------------------------------------------------
VERS. 2.0 : CWLS log ASCII Standard -VERSION 2.0
WRAP. YES : MULTIPLE LINES PER DEPTH STEP
~Well ------------------------------------------------------
STRT.FT                        2500.0 : START DEPTH
STOP.FT                       11350.0 : STOP DEPTH
STEP.FT                      50.00000 : STEP LENGTH
NULL.                         -999.25 : NULL VALUE
COMP. UNION PACIFIC RESOURCES COMPANY : COMPANY
WELL.             BOZKA-BOZKA UNIT #1 : WELL
FLD .                     PEACH CREEK : FIELD
LOC .                                 : LOCATION
CNTY.                        GONZALES : COUNTY
STAT.                           TEXAS : STATE
CTRY.        UNITED STATES OF AMERICA : COUNTRY
SRVC.                    Schlumberger : SERVICE COMPANY
DATE.                     08-Oct-1991 : LOGDATE
API .                  42177319460000 : API NUMBER
UWI .                  42177319460000 : UNIQUE WELL ID
SLAT.WGS84              29.4649895079 : SURFACE LATITUDE
SLON.WGS84             -97.2961371962 : SURFACE LONGITUDE
~Curve Information -----------------------------------------
DEPT    .FT    : DEPTH FEET
C1ED    .IN    : CALIPER 1 FROM CALIPER LOG
C2ED    .IN    : CALIPER 2 FROM CALIPER LOG
CALRED  .IN    : CALIPER FROM RESISTIVITY LOG
CALWS   .IN    : CALIPER [CALRED]
CONDWS  .MMHO  : CONDUCTIVITY [1000/DRESWS]
DCORWS  .G/C3  : DENSITY CORRECTION [DRHOED]
DENWS   .G/C3  : BULK DENSITY [M=2.65 F=1.0] [CALCULATED FROM DPOWS]
DPHISSED.V/V   : DENSITY POROSITY SANDSTONE [M=2.65 F=1.0] FROM DENSITY LOG, DEPTH ADJUSTED WITH [GRRED]
DPOWS   .V/V   : DENSITY POROSITY [DPHISSED]
DRESWS  .OHMM  : DEEP RESISTIVITY [ILDED]
DRHOED  .G/C3  : DENSITY CORRECTION FROM DENSITY LOG, DEPTH ADJUSTED WITH [GRRED]
GRDED   .GAPI  : GAMMA RAY FROM DENSITY LOG, DEPTH ADJUSTED WITH [GRRED]
GRRED   .GAPI  : GAMMA RAY FROM RESISTIVITY LOG
GRWS    .GAPI  : GAMMA RAY [GRRED]
ILDED   .OHMM  : INDUCTION LOG DEEP RESISTIVITY
ILMED   .OHMM  : INDUCTION LOG MEDIUM RESISTIVITY
MRESWS  .OHMM  : MEDIUM RESISTIVITY [ILMED]
NPHISSED.V/V   : NEUTRON POROSITY SANDSTONE FROM DENSITY LOG, DEPTH ADJUSTED WITH [GRRED]
NPOWS   .V/V   : NEUTRON POROSITY SANDSTONE [NPHISSED]
PEFED   .B/E   : PHOTOELECTRIC FACTOR FROM DENSITY LOG, DEPTH ADJUSTED WITH [GRRED]
PEFWS   .B/E   : PHOTOELECTRIC FACTOR [PEFED]
SFLUED  .OHMM  : SPHERICALLY FOCUSED LOG RESISTIVITY
SPRED   .MV    : SPONTANEOUS POTENTIAL FROM RESISTIVITY LOG
SPWS    .MV    : SPONTANEOUS POTENTIAL [BASELINE 0 MV] [SPRED]
SRESWS  .OHMM  : SHALLOW RESISTIVITY [SFLUED]
TENDED  .LBF   : TENSION FROM DENSITY LOG, DEPTH ADJUSTED WITH [GRRED]
TENRED  .LBF   : TENSION FROM RESISTIVITY LOG
~Params ----------------------------------------------------
PD  .                     GL : PERMANENT DATUM
EPD .FT                  312 : ELEVATION PERMANENT DATUM
LMF .                    RKB : LOG MEASURED FROM
DAPD.FT                   24 : FEET ABOVE PERMANENT DATUM
DMF .                    RKB : DRILLING MEASURED FROM
EKB .FT                  336 : KELLY BUSHING
EDF .FT                  335 : DRILLING FLOOR
EGL .FT                  312 : GROUND LEVEL
DATE.               10/09/91 : RUN DATE
RUN .                      1 : RUN NUMBER
DD  .FT                11400 : DEPTH DRILLER
DL  .FT                11376 : DEPTH LOGGER
BLI .FT                11370 : BOTTOM LOG INTERVAL
TLI .FT                 2518 : TOP LOG INTERVAL
CS  .IN                10.75 : CASING SIZE
CBD .FT                 2520 : CASING BOTTOM DRILLER
CBL .FT                 2518 : CASING BOTTOM LOGGER
BS  .IN                9.875 : BIT SIZE
BSD .FT                11400 : BIT SIZE AT DEPTH
DFT .          NEW DRILL GEL : DRILLING FLUID TYPE
DFD .                    9.6 : DRILLING FLUID DENSITY
MSS .              CIRC TANK : MUD SAMPLE SOURCE
MST .DEGF                 75 : MUD SAMPLE TEMPERATURE
RMF .OHMM               2.01 : RESISTIVITY MUD FILTRATE SAMPLE
MFST.DEGF                 75 : MUD FILTRATE SAMPLE TEMPERATURE
RMC .OHMM               4.02 : RESISTIVITY MUD CAKE
MCST.DEGF                 75 : MUD CAKE SAMPLE TEMPERATURE
MFSS.                   MEAS : MUD FILTRATE SAMPLE SOURCE
MCSS.                   CALC : MUD CAKE SAMPLE SOURCE
TCS .HRS                2200 : TIME CIRCULATED STOPPED
TLAB.HRS                2020 : TIME LOGGER AT BOTTOM
LUL .               ALICE TX : LOGGING UNIT LOCATION
ENGI.             ROTAN CAMP : RECORDING ENGINEER
WITN.                   SVOR : WITNESSED BY
CLNT.                A2DTECH : CLIENT CODE
ORIG.         1" 2" 5" PRINT : ORIGIN OF DATA
UWI .         42177319460000 : UNIQUE WELL ID
DICO. A2D Technologies, Inc. : DIGITIZING COMPANY
~Other -----------------------------------------------------
~ASCII -----------------------------------------------------
# ...
 6400.00000    -999.25    -999.25    -999.25    -999.25  792.26750    -999.25    -999.25    -999.25    -999.25    1.26220    -999.25   71.08760   70.27220   70.27220    1.26220    1.65180    1.65180    0.32070    0.32070    -999.25    -999.25    5.21570  -51.99260  -52.84310    5.21570 3169.30640 1399.92980
 6450.00000    -999.25    -999.25    -999.25    -999.25  817.39420    -999.25    -999.25    -999.25    -999.25    1.22340    -999.25   48.50590   46.47030   46.47030    1.22340    1.75140    1.75140    0.26270    0.26270    -999.25    -999.25    6.50880  -96.50170  -96.85770    6.50880 3176.09180 1401.52690
 6500.00000    -999.25    -999.25    -999.25    -999.25 1318.21780    -999.25    -999.25    -999.25    -999.25    0.75860    -999.25   53.66020   53.16810   53.16810    0.75860    1.12820    1.12820    0.26010    0.26010    -999.25    -999.25    4.52730 -114.56640 -114.42780    4.52730 3237.62080 1404.18770
 6550.00000    -999.25    -999.25    -999.25    -999.25  424.70060    -999.25    -999.25    -999.25    -999.25    2.35460    -999.25   66.18870   66.33410   66.33410    2.35460    2.92920    2.92920    0.24430    0.24430    -999.25    -999.25    5.30880  -32.98080  -32.34770    5.30880 3331.72490 1418.01770
 6600.00000    -999.25    -999.25    -999.25    -999.25  563.66610    -999.25    -999.25    -999.25    -999.25    1.77410    -999.25   78.50950   72.88080   72.88080    1.77410    2.45800    2.45800    0.32760    0.32760    -999.25    -999.25    4.07710  -46.06100  -44.93330    4.07710 3300.90190 1430.83350
 6650.00000    -999.25    -999.25    -999.25    -999.25  511.98030    -999.25    -999.25    -999.25    -999.25    1.95320    -999.25   90.69020   91.53660   91.53660    1.95320    2.04700    2.04700    0.28550    0.28550    -999.25    -999.25    2.34970  -17.33840  -15.71610    2.34970 3231.96850 1398.64690
 6700.00000    -999.25    -999.25    -999.25    -999.25  502.10890    -999.25    -999.25    -999.25    -999.25    1.99160    -999.25   86.67700   88.50850   88.50850    1.99160    2.06970    2.06970    0.32750    0.32750    -999.25    -999.25    2.63630  -16.58180  -14.46500    2.63630 3286.70340 1413.61300
 6750.00000    -999.25    -999.25    -999.25    -999.25  448.24960    -999.25    -999.25    -999.25    -999.25    2.23090    -999.25   76.47450   77.04610   77.04610    2.23090    2.52880    2.52880    0.34140    0.34140    -999.25    -999.25    2.30640  -18.50530  -15.89390    2.30640 3271.00440 1413.81560
 6800.00000    -999.25    -999.25    -999.25    -999.25  538.85110    -999.25    -999.25    -999.25    -999.25    1.85580    -999.25   50.30170   50.72110   50.72110    1.85580    3.05940    3.05940    0.22040    0.22040    -999.25    -999.25    9.77780  -93.10120  -89.99530    9.77780 3272.55660 1419.14070
 6850.00000    -999.25    -999.25    -999.25    -999.25  701.06570    -999.25    -999.25    -999.25    -999.25    1.42640    -999.25  102.65130  102.23970  102.23970    1.42640    1.46280    1.46280    0.43240    0.43240    -999.25    -999.25    1.80560   -3.81380   -0.21330    1.80560 3334.34280 1426.29270
 6900.00000    -999.25    -999.25    -999.25    -999.25  382.11690    -999.25    -999.25    -999.25    -999.25    2.61700    -999.25   90.17170   90.08810   90.08810    2.61700    2.68530    2.68530    0.27380    0.27380    -999.25    -999.25    3.79640  -15.42330  -11.32820    3.79640 3308.63650 1430.34420
 6950.00000    -999.25    -999.25    -999.25    -999.25  443.12490    -999.25    -999.25    -999.25    -999.25    2.25670    -999.25   91.57190   92.99680   92.99680    2.25670    2.34420    2.34420    0.32370    0.32370    -999.25    -999.25    3.01970   -7.98460   -3.39500    3.01970 3339.23340 1429.66520
 7000.00000    -999.25    -999.25    -999.25    -999.25  539.81110    -999.25    -999.25    -999.25    -999.25    1.85250    -999.25   66.42240   66.26870   66.26870    1.85250    2.68430    2.68430    0.21720    0.21720    -999.25    -999.25    8.58990  -78.95270  -74.15900    8.58990 3395.64310 1435.20750
 7050.00000    -999.25    -999.25    -999.25    -999.25  386.68260    -999.25    -999.25    -999.25    -999.25    2.58610    -999.25   93.45170   94.07940   94.07940    2.58610    2.71960    2.71960    0.25650    0.25650    -999.25    -999.25    3.17440  -18.45640  -13.57720    3.17440 3379.25730 1416.21130
 7100.00000    -999.25    -999.25    -999.25    -999.25  481.62600    -999.25    -999.25    -999.25    -999.25    2.07630    -999.25   82.99750   86.56220   86.56220    2.07630    2.43600    2.43600    0.27580    0.27580    -999.25    -999.25    3.50100  -47.48040  -42.51570    3.50100 3405.87790 1441.14250
 7150.00000    -999.25    -999.25    -999.25    -999.25  364.13950    -999.25    -999.25    -999.25    -999.25    2.74620    -999.25   94.23940   93.44370   93.44370    2.74620    2.82290    2.82290    0.29630    0.29630    -999.25    -999.25    3.47150  -13.25440   -8.20420    3.47150 3371.22460 1442.28050
 7200.00000    -999.25    -999.25    -999.25    -999.25  386.77240    -999.25    -999.25    -999.25    -999.25    2.58550    -999.25   85.14280   84.84170   84.84170    2.58550    2.70230    2.70230    0.26800    0.26800    -999.25    -999.25    3.21430  -14.83350   -9.69780    3.21430 3407.97900 1447.46020
 7250.00000    -999.25    -999.25    -999.25    -999.25  419.37510    -999.25    -999.25    -999.25    -999.25    2.38450    -999.25   86.87060   85.61110   85.61110    2.38450    2.46830    2.46830    0.28130    0.28130    -999.25    -999.25    2.95060  -12.72610   -7.50490    2.95060 3488.09470 1459.04030
 7300.00000    -999.25    -999.25    -999.25    -999.25  392.85010    -999.25    -999.25    -999.25    -999.25    2.54550    -999.25   94.90750   95.76480   95.76480    2.54550    2.63730    2.63730    0.26670    0.26670    -999.25    -999.25    3.08250  -11.34910   -6.04240    3.08250 3473.06030 1463.53100
 7350.00000    -999.25    -999.25    -999.25    -999.25  420.18570    -999.25    -999.25    -999.25    -999.25    2.37990    -999.25   95.72730   95.01010   95.01010    2.37990    2.46390    2.46390    0.26910    0.26910    -999.25    -999.25    2.93020   -9.79610   -4.40400    2.93020 3486.23360 1464.09440
 7400.00000    -999.25    -999.25    -999.25    -999.25  515.22490    -999.25    -999.25    -999.25    -999.25    1.94090    -999.25   97.34320   95.57750   95.57750    1.94090    2.01500    2.01500    0.30410    0.30410    -999.25    -999.25    2.41440   -8.29820   -2.82060    2.41440 3551.27490 1476.25960
 7450.00000    -999.25    -999.25    -999.25    -999.25  449.43820    -999.25    -999.25    -999.25    -999.25    2.22500    -999.25   93.70350   94.75900   94.75900    2.22500    2.30330    2.30330    0.29410    0.29410    -999.25    -999.25    2.68050   -8.71860   -3.15550    2.68050 3623.29420 1486.53340
 7500.00000    -999.25    -999.25    -999.25    -999.25  506.66260    -999.25    -999.25    -999.25    -999.25    1.97370    -999.25   94.65920   95.02650   95.02650    1.97370    2.04390    2.04390    0.28950    0.28950    -999.25    -999.25    2.43880   -9.15280   -3.50420    2.43880 3534.05640 1468.85390
 7550.00000    -999.25    -999.25    -999.25    -999.25  535.04550    -999.25    -999.25    -999.25    -999.25    1.86900    -999.25   91.44590   91.57090   91.57090    1.86900    1.93470    1.93470    0.31140    0.31140    -999.25    -999.25    2.49350   -8.74820   -3.01410    2.49350 3495.86840 1469.14750
 7600.00000    -999.25    -999.25    -999.25    -999.25  491.15910    -999.25    -999.25    -999.25    -999.25    2.03600    -999.25   96.27760   96.58080   96.58080    2.03600    2.10690    2.10690    0.29850    0.29850    -999.25    -999.25    2.50400   -9.61430   -3.79470    2.50400 3581.69600 1465.96670
 7650.00000    -999.25    -999.25    -999.25    -999.25  435.86280    -999.25    -999.25    -999.25    -999.25    2.29430    -999.25   88.62340   89.58950   89.58950    2.29430    2.37580    2.37580    0.30480    0.30480    -999.25    -999.25    3.01710  -11.43800   -5.53290    3.01710 3511.77250 1483.77110
