~Version ---------------------------------------------------
VERS. 2.0 : CWLS log ASCII Standard -VERSION 2.0
WRAP. YES : MULTIPLE LINES PER DEPTH STEP
~Well ------------------------------------------------------
STRT.FT                   500.0 : START DEPTH
STOP.FT                  4650.0 : STOP DEPTH
STEP.FT                50.00000 : STEP LENGTH
NULL.                   -999.25 : NULL VALUE
COMP. PRAIRIE PRODUCING COMPANY : COMPANY
WELL.       HENSLEY T. HURTS #1 : WELL
FLD .                        WC : FIELD
LOC .                           : LOCATION
CNTY.                  GONZALES : COUNTY
STAT.                     TEXAS : STATE
CTRY.  UNITED STATES OF AMERICA : COUNTRY
SRVC.              Schlumberger : SERVICE COMPANY
DATE.               20-Aug-1976 : LOGDATE
API .            42177301620000 : API NUMBER
UWI .            42177301620000 : UNIQUE WELL ID
SLAT.WGS84           29.3870974 : SURFACE LATITUDE
SLON.WGS84          -97.8021181 : SURFACE LONGITUDE
~Curve Information -----------------------------------------
DEPT    .FT    : DEPTH FEET
CALDED  .IN    : CALIPER FROM DENSITY LOG [ADJ TO ILDED]
CALWS   .IN    : CALIPER [CALDED]
CONDWS  .MMHO  : CONDUCTIVITY [1000/DRESWS]
CORRED  .G/C3  : DENSITY CORRECTION FROM DENSITY LOG [ADJ TO ILDED]
DCORWS  .G/C3  : DENSITY CORRECTION [CORRED]
DENWS   .G/C3  : BULK DENSITY [RHOBED]
DPHILSED.V/V   : DENSITY POROSITY [M=2.71 F=1.0] FROM DENSITY LOG [ADJ TO ILDED]
DPHISSED.V/V   : DENSITY POROSITY [M=2.65 F=1.0] FROM DENSITY LOG [ADJ TO ILDED]
DPOWS   .V/V   : DENSITY POROSITY [M=2.71 F=1.0] [CALCULATED FROM DENWS]
DRESWS  .OHMM  : DEEP RESISTIVITY [ILDED]
GRDED   .GAPI  : GAMMA RAY FROM DENSITY LOG [ADJ TO ILDED]
GRWS    .GAPI  : GAMMA RAY [GRDED, CSG ABOVE 526F]
ILDED   .OHMM  : INDUCTION LOG DEEP RESISTIVITY
ILMED   .OHMM  : INDUCTION LOG MEDIUM RESISTIVITY
LL8ED   .OHMM  : 8 INCH LATEROLOG RESISTIVITY
MRESWS  .OHMM  : MEDIUM RESISTIVITY [ILMED]
NPHILSED.V/V   : NEUTRON POROSITY LIMESTONE FROM DENSITY LOG [ADJ TO ILDED]
NPHISSED.V/V   : NEUTRON POROSITY SANDSTONE FROM DENSITY LOG [ADJ TO ILDED]
NPOWS   .V/V   : NEUTRON POROSITY LIMESTONE [CONVERTED DPHISSED TO LIMESTONE AND SPL WITH NPHILSED @4382F]
RHOBED  .G/C3  : BULK DENSITY FROM DENSITY LOG [ADJ TO ILDED]
SPRED   .MV    : SPONTANEOUS POTENTIAL FROM RESISTIVITY LOG
SPWS    .MV    : SPONTANEOUS POTENTIAL [BASELINE 0 MV] [SPRED]
SRESWS  .OHMM  : SHALLOW RESISTIVITY [LL8ED]
~Params ----------------------------------------------------
PD  .                     GL : PERMANENT DATUM
EPD .FT                  448 : ELEVATION PERMANENT DATUM
LMF .                     KB : LOG MEASURED FROM
DAPD.FT                   12 : FEET ABOVE PERMANENT DATUM
DMF .                     KB : DRILLING MEASURED FROM
EKB .FT                  460 : KELLY BUSHING
EDF .FT                  458 : DRILLING FLOOR
EGL .FT                  448 : GROUND LEVEL
DATE.               08/20/76 : RUN DATE
RUN .                      1 : RUN NUMBER
DD  .FT                 4690 : DEPTH DRILLER
DL  .FT                 4692 : DEPTH LOGGER
BLI .FT                 4686 : BOTTOM LOG INTERVAL
TLI .FT                  526 : TOP LOG INTERVAL
CS  .IN                8.625 : CASING SIZE
CBD .FT                  518 : CASING BOTTOM DRILLER
CBL .FT                  526 : CASING BOTTOM LOGGER
BS  .IN                7.875 : BIT SIZE
BSD .FT                 4690 : BIT SIZE AT DEPTH
DFT .                  LO PH : DRILLING FLUID TYPE
DFD .                    9.6 : DRILLING FLUID DENSITY
DFV .                     40 : DRILLING FLUID VISCOSITY
DFPH.                     10 : DRILLING FLUID PH
DFL .                    5.4 : DRILLING FLUID LOSS
MSS .               FLOWLINE : MUD SAMPLE SOURCE
RMS .OHMM               1.07 : RESISTIVITY MUD SAMPLE
MST .DEGF                 86 : MUD SAMPLE TEMPERATURE
RMF .OHMM               1.11 : RESISTIVITY MUD FILTRATE SAMPLE
MFST.DEGF                 74 : MUD FILTRATE SAMPLE TEMPERATURE
RMC .OHMM               0.95 : RESISTIVITY MUD CAKE
MCST.DEGF                 86 : MUD CAKE SAMPLE TEMPERATURE
MFSS.                   MEAS : MUD FILTRATE SAMPLE SOURCE
MCSS.                  CHART : MUD CAKE SAMPLE SOURCE
RMB .OHMM               0.68 : RESISTIVITY MUD AT BHT
TCS .HRS                   4 : TIME CIRCULATED STOPPED
LUN .                   7694 : LOGGING UNIT NUMBER
LUL .                  PLEAS : LOGGING UNIT LOCATION
ENGI.               BREVETTI : RECORDING ENGINEER
WITN.       SMITH ALLBRITTON : WITNESSED BY
CLNT.                A2DTECH : CLIENT CODE
ORIG.        2" 5" 25" PRINT : ORIGIN OF DATA
UWI .         42177301620000 : UNIQUE WELL ID
DICO. A2D Technologies, Inc. : DIGITIZING COMPANY
~Other -----------------------------------------------------
~ASCII -----------------------------------------------------
# ...
 2050.00000    7.96530    7.96530  100.29690    0.05720    0.05720    2.09020    -999.25    0.33570    0.36250    9.97040   61.20020   61.20020    9.97040   12.77600   13.76120   12.77600    -999.25    0.41010    0.36740    2.09020  -23.65320   -5.15800   13.76120
 2100.00000    8.26400    8.26400  137.79040    0.06010    0.06010    2.17290    -999.25    0.28080    0.31410    7.25740   56.98070   56.98070    7.25740    7.37690    7.91650    7.37690    -999.25    0.40890    0.36620    2.17290  -27.52770   -8.99460    7.91650
 2150.00000    7.96090    7.96090   78.26500    0.02540    0.02540    2.09860    -999.25    0.33810    0.35750   12.77710   60.32380   60.32380   12.77710   13.29270   13.79710   13.29270    -999.25    0.44580    0.40400    2.09860  -25.24060   -6.66960   13.79710
 2200.00000    7.94090    7.94090  105.83020    0.07230    0.07230    2.14970    -999.25    0.30250    0.32770    9.44910   70.66430   70.66430    9.44910    9.79990   10.81400    9.79990    -999.25    0.43290    0.39080    2.14970  -28.27960   -9.67070   10.81400
 2250.00000    7.94200    7.94200  280.85940    0.11640    0.11640    2.24090    -999.25    0.24810    0.27430    3.56050  102.46580  102.46580    3.56050    3.70150    4.68390    3.70150    -999.25    0.44170    0.39980    2.24090  -25.46600   -6.81930    4.68390
 2300.00000    8.75900    8.75900  300.31840    0.11820    0.11820    2.25720    -999.25    0.23760    0.26480    3.32980  103.26130  103.26130    3.32980    3.46940    4.13340    3.46940    -999.25    0.43770    0.39570    2.25720  -20.70250   -2.01790    4.13340
 2350.00000    8.01140    8.01140  307.54090    0.10010    0.10010    2.29790    -999.25    0.21200    0.24100    3.25160   99.90230   99.90230    3.25160    3.35400    3.97700    3.35400    -999.25    0.41560    0.37310    2.29790  -19.86320   -1.14070    3.97700
 2400.00000    7.91620    7.91620  313.28320    0.07170    0.07170    2.26220    -999.25    0.23560    0.26190    3.19200  101.94200  101.94200    3.19200    3.31960    5.26350    3.31960    -999.25    0.41880    0.37630    2.26220  -26.73410   -7.97370    5.26350
 2450.00000    7.92310    7.92310  341.27360    0.15250    0.15250    2.23480    -999.25    0.24810    0.27790    2.93020   94.45270   94.45270    2.93020    3.01700    3.76000    3.01700    -999.25    0.40410    0.36130    2.23480  -20.65210   -1.91440    3.76000
 2500.00000    8.24810    8.24810  350.80330    0.06850    0.06850    2.26990    -999.25    0.23140    0.25740    2.85060   80.69780   80.69780    2.85060    2.94680    4.09950    2.94680    -999.25    0.39840    0.35550    2.26990  -26.59240   -8.05910    4.09950
 2550.00000    8.53360    8.53360  396.44780    0.16750    0.16750    2.32570    -999.25    0.18600    0.22470    2.52240   90.77280   90.77280    2.52240    2.59660    3.44050    2.59660    -999.25    0.43180    0.38960    2.32570  -22.93670   -4.60770    3.44050
 2600.00000    9.56410    9.56410  450.65340    0.11580    0.11580    2.37300    -999.25    0.17330    0.19710    2.21900   94.01150   94.01150    2.21900    2.31310    2.84930    2.31310    -999.25    0.39220    0.34920    2.37300  -20.74440   -2.61970    2.84930
 2650.00000    -999.25    -999.25  513.29430    -999.25    -999.25    -999.25    -999.25    -999.25    -999.25    1.94820    -999.25    -999.25    1.94820    2.00470    2.66510    2.00470    -999.25    -999.25    -999.25    -999.25  -20.75160   -2.83130    2.66510
 2700.00000    -999.25    -999.25  608.23550    -999.25    -999.25    -999.25    -999.25    -999.25    -999.25    1.64410    -999.25    -999.25    1.64410    1.69140    2.38290    1.69140    -999.25    -999.25    -999.25    -999.25  -21.66310   -3.94710    2.38290
 2750.00000    -999.25    -999.25  612.59490    -999.25    -999.25    -999.25    -999.25    -999.25    -999.25    1.63240    -999.25    -999.25    1.63240    1.67980    2.38540    1.67980    -999.25    -999.25    -999.25    -999.25  -20.36590   -2.85430    2.38540
 2800.00000    -999.25    -999.25  688.13650    -999.25    -999.25    -999.25    -999.25    -999.25    -999.25    1.45320    -999.25    -999.25    1.45320    1.49510    2.15600    1.49510    -999.25    -999.25    -999.25    -999.25  -21.68360   -4.37630    2.15600
 2850.00000    -999.25    -999.25  541.47720    -999.25    -999.25    -999.25    -999.25    -999.25    -999.25    1.84680    -999.25    -999.25    1.84680    1.90590    2.68040    1.90590    -999.25    -999.25    -999.25    -999.25  -22.20740   -5.10450    2.68040
 2900.00000    -999.25    -999.25  771.96230    -999.25    -999.25    -999.25    -999.25    -999.25    -999.25    1.29540    -999.25    -999.25    1.29540    1.33480    1.94050    1.33480    -999.25    -999.25    -999.25    -999.25  -22.48160   -5.58300    1.94050
 2950.00000    8.38400    8.38400 1043.84130    0.08600    0.08600    2.22870    -999.25    0.25250    0.28150    0.95800   96.09680   96.09680    0.95800    0.98560    1.52960    0.98560    -999.25    0.48330    0.44160    2.22870  -18.30130   -1.67810    1.52960
 3000.00000    8.13730    8.13730  344.34080    0.05080    0.05080    2.39200    -999.25    0.15720    0.18600    2.90410   82.09950   82.09950    2.90410    2.98780    3.61260    2.98780    -999.25    0.33560    0.29180    2.39200  -21.18810   -5.31600    3.61260
 3050.00000    8.46810    8.46810  411.74290    0.04410    0.04410    2.35400    -999.25    0.17870    0.20820    2.42870   79.31010   79.31010    2.42870    2.53440    3.23650    2.53440    -999.25    0.36540    0.32190    2.35400  -17.44050   -2.31950    3.23650
 3100.00000    8.14720    8.14720  473.73160    0.20090    0.20090    2.37740    -999.25    0.16370    0.19450    2.11090   76.73550   76.73550    2.11090    2.18430    3.04470    2.18430    -999.25    0.39730    0.35440    2.37740  -24.65680   -9.25850    3.04470
 3150.00000    8.90520    8.90520  465.72280    0.17470    0.17470    2.30700    -999.25    0.21100    0.23570    2.14720   64.54970   64.54970    2.14720    2.29790    3.12650    2.29790    -999.25    0.36190    0.31840    2.30700  -19.84350   -3.86070    3.12650
 3200.00000    9.29410    9.29410  501.07730    0.13860    0.13860    2.35670    -999.25    0.18150    0.20660    1.99570   81.31190   81.31190    1.99570    2.05510    2.79180    2.05510    -999.25    0.40590    0.36310    2.35670  -22.89560   -6.32830    2.79180
 3250.00000    9.11830    9.11830  604.15660    0.13980    0.13980    2.34630    -999.25    0.18630    0.21270    1.65520   88.13390   88.13390    1.65520    1.70970    2.29310    1.70970    -999.25    0.42930    0.38710    2.34630  -20.33320   -3.18150    2.29310
 3300.00000    9.20490    9.20490  592.24160    0.17390    0.17390    2.42220    -999.25    0.14090    0.16830    1.68850   88.19550   88.19550    1.68850    1.73750    2.51510    1.73750    -999.25    0.41330    0.37070    2.42220  -19.20420   -1.46800    2.51510
 3350.00000   10.18390   10.18390  587.82040    0.12730    0.12730    2.36070    -999.25    0.17420    0.20430    1.70120   82.83830   82.83830    1.70120    1.75070    2.38550    1.75070    -999.25    0.42850    0.38630    2.36070  -20.66740   -2.34670    2.38550
 3400.00000   10.04140   10.04140  894.29440    0.16370    0.16370    2.28610    -999.25    0.22330    0.24790    1.11820   92.47720   92.47720    1.11820    1.15050    1.76060    1.15050    -999.25    0.46210    0.42040    2.28610  -24.41120   -5.50610    1.76060
 3450.00000    9.31940    9.31940  588.40840    0.13430    0.13430    2.36140    -999.25    0.16920    0.20390    1.69950   75.15990   75.15990    1.69950    1.77830    2.79960    1.77830    -999.25    0.41610    0.37360    2.36140  -35.30200  -15.81240    2.79960
 3500.00000    8.95630    8.95630  568.27870    0.12600    0.12600    2.40860    -999.25    0.14360    0.17630    1.75970   89.83810   89.83810    1.75970    1.81040    2.51930    1.81040    -999.25    0.42110    0.37870    2.40860  -31.88720  -11.81310    2.51930
 3550.00000    8.52910    8.52910  405.44920    0.09220    0.09220    2.48440    -999.25    0.09530    0.13190    2.46640   66.46380   66.46380    2.46640    2.54790    4.37460    2.54790    -999.25    0.34580    0.30210    2.48440  -30.35350   -9.69500    4.37460
