~Version ---------------------------------------------------
VERS.      2.0 : CWLS log ASCII Standard -VERSION 2.0
WRAP.      YES : Multiple lines per depth step
CREA. 06/26/18 : LAS Creation Date
~Well ------------------------------------------------------
STRT.FT                 1950.0 : START DEPTH
STOP.FT                10950.0 : STOP DEPTH
STEP.FT               50.00000 : STEP LENGTH
NULL.                  -999.25 : NULL VALUE
COMP.            DIRNETT, INC. : COMPANY
WELL.     ESCHENBURG POLLOK #1 : WELL
FLD .                  FASHING : FIELD
LOC .                          : LOCATION
CNTY.                 ATASCOSA : COUNTY
STAT.                    TEXAS : STATE
CTRY. UNITED STATES OF AMERICA : COUNTRY
SRVC.             Schlumberger : SERVICE COMPANY
DATE.              23-Aug-1996 : LOGDATE
API .           42013340590000 : API NUMBER
UWI .           42013340590000 : UNIQUE WELL ID
SLAT.WGS84       28.7834983741 : SURFACE LATITUDE
SLON.WGS84      -98.2167863068 : SURFACE LONGITUDE
~Curve Information -----------------------------------------
DEPT    .FT    : DEPTH FEET
CALWS   .IN    : CALIPER [DCALED+BIT]
CONDWS  .MMHO  : DEEP CONDUCTIVITY [1000/DRESWS]
DCALED  .IN    : DIFFERENTIAL CALIPER FROM PHI/LDT/CNL LOG
DCORWS  .G/C3  : DENSITY CORRECTION [DRHOED]
DENWS   .G/C3  : BULK DENSITY [CALC. TOP DPHISSED 9493.5' DPHILSED]
DPHILSED.V/V   : DENSITY POROSITY (LS) [M=2.71 F=1.0] FROM PHI/LDT/CNL LOG
DPHISSED.V/V   : DENSITY POROSITY (SS) [M=2.65 F=1.0] FROM PHI/LDT/CNL LOG
DPOLSWS .V/V   : DENSITY POROSITY LIMESTONE [M=2.71 F=1.0] [CALC. FROM DENWS]
DRESWS  .OHMM  : DEEP RESISTIVITY [IDPHED]
DRHOED  .G/C3  : DENSITY CORRECTION FROM DENSITY LOG
GRRED   .GAPI  : GAMMA RAY FROM RESISTIVITY LOG
GRWS    .GAPI  : GAMMA RAY [GRRED]
IDPHED  .OHMM  : INDUCTION DEEP PHASE RESISTIVITY
IMPHED  .OHMM  : INDUCTION MEDIUM PHASE RESISTIVITY
MRESWS  .OHMM  : MEDIUM RESISTIVITY [IMPHED]
NPHILSED.V/V   : NEUTRON POROSITY LIMESTONE FROM PHI/LDT/CNL LOG
NPHISSED.V/V   : NEUTRON POROSITY SANDSTONE FROM PHI/LDT/CNL LOG
NPOLSWS .V/V   : NEUTRON POROSITY LIMESTONE [TOP CONVERSE NPHISSED TO LIME FROM POWER LOG 9494' NPHILSED]
SFLUED  .OHMM  : SPHERICALLY FOCUSED LOG RESISTIVITY
SPRED   .MV    : SPONTANEOUS POTENTIAL FROM PHI/LDT/CNL LOG
SPWS    .MV    : SPONTANEOUS POTENTIAL [BASELINE 0 MV] [SPRED]
SRESWS  .OHMM  : SHALLOW RESISTIVITY [SFLUED]
~Params ----------------------------------------------------
PD  .                     GL : PERMANENT DATUM
EPD .FT                411.5 : ELEVATION PERMANENT DATUM
LMF .                     KB : LOG MEASURED FROM
DAPD.FT                 19.5 : FEET ABOVE PERMANENT DATUM
DMF .                     KB : DRILLING MEASURED FROM
EKB .FT                  431 : KELLY BUSHING
EDF .FT                  430 : DRILLING FLOOR
EGL .FT                411.5 : GROUND LEVEL
DATE.               08/23/96 : RUN DATE
RUN .                      1 : RUN NUMBER
DD  .FT                11000 : DEPTH DRILLER
DL  .FT                10988 : DEPTH LOGGER
BLI .FT                10970 : BOTTOM LOG INTERVAL
TLI .FT                 2006 : TOP LOG INTERVAL
CS  .IN                8.625 : CASING SIZE
CBD .FT                 2016 : CASING BOTTOM DRILLER
CBL .FT                 2008 : CASING BOTTOM LOGGER
BS  .IN                7.875 : BIT SIZE
BSD .FT                11000 : BIT SIZE AT DEPTH
DFT .                    LIG : DRILLING FLUID TYPE
DFD .                   10.2 : DRILLING FLUID DENSITY
DFV .                     48 : DRILLING FLUID VISCOSITY
DFPH.                   11.3 : DRILLING FLUID PH
DFL .                    5.8 : DRILLING FLUID LOSS
MSS .               MUD TANK : MUD SAMPLE SOURCE
RMS .OHMM               1.83 : RESISTIVITY MUD SAMPLE
MST .FT                   75 : MUD SAMPLE TEMPERATURE
RMF .OHMM               1.48 : RESISTIVITY MUD FILTRATE SAMPLE
MFST.FT                   75 : MUD FILTRATE SAMPLE TEMPERATURE
RMC .OHMM               2.45 : RESISTIVITY MUD CAKE
MCST.FT                   75 : MUD CAKE SAMPLE TEMPERATURE
MFSS.                   MEAS : MUD FILTRATE SAMPLE SOURCE
MCSS.                   CALC : MUD CAKE SAMPLE SOURCE
RMB .OHMM              0.473 : RESISTIVITY MUD AT BHT
TCS .HRS                1200 : TIME CURCULATED STOPPED
TLAB.HRS                2000 : TIME LOGGER AT BOTTOM
LUN .                   2017 : LOGGING UNIT NUMBER
LUL .               VICTORIA : LOGGING UNIT LOCATION
ENGI.            JOHN GAMBLE : RECORDING ENGINEER
WITN.  J FISHER J JOHNSON JR : WITNESSED BY
CLNT.                A2DTECH : CLIENT CODE
ORIG.               5" PRINT : ORIGIN OF DATA
UWI .         42013340590000 : UNIQUE WELL ID
DICO. A2D Technologies, Inc. : DIGITIZING COMPANY
~Other -----------------------------------------------------
REMOVED ALL RESISTIVITY FROM 3804' - 3814' DUE TO INVALID DATA.
~ASCII -----------------------------------------------------
# ...
 3550.00000    9.98260  864.22950    2.10760    0.02050    2.03440    -999.25    0.37310    0.39510    1.15710    0.02050   90.71820   90.71820    1.15710    1.07270    1.07270    -999.25    0.48050    0.43990    1.16200   -3.45550   -4.28020    1.16200
 3600.00000    8.23370   85.53660    0.35870   -0.00350    2.17940    -999.25    0.28520    0.31030   11.69090   -0.00350   40.41920   40.41920   11.69090   10.76390   10.76390    -999.25    0.31710    0.27320   11.15060  -14.24300  -15.54140   11.15060
 3650.00000    9.77330  175.00570    1.89830    0.02650    2.38670    -999.25    0.15960    0.18910    5.71410    0.02650   83.75750   83.75750    5.71410    5.08290    5.08290    -999.25    0.27310    0.22910    4.20160  -11.16570  -12.93790    4.20160
 3700.00000    8.08420   95.49640    0.20920    0.01000    2.12320    -999.25    0.31930    0.34320   10.47160    0.01000   83.30840   83.30840   10.47160   10.32860   10.32860    -999.25    0.33860    0.29480    9.19850  -12.83100  -15.07700    9.19850
 3750.00000   10.22170  131.07020    2.34670    0.10000    2.24910    -999.25    0.24300    0.26960    7.62950    0.10000   82.85930   82.85930    7.62950    7.07310    7.07310    -999.25    0.35930    0.31580    7.43330   -6.00330   -8.72310    7.43330
 3800.00000    8.44300   31.09580    0.56800   -0.00190    2.13500    -999.25    0.31210    0.33620   32.15870   -0.00190   40.19460   40.19460   32.15870   19.59080   19.59080    -999.25    0.30360    0.25960   14.88230   -0.65850   -3.85200   14.88230
 3850.00000   10.65520  153.55560    2.78020    0.04600    2.35630    -999.25    0.17800    0.20680    6.51230    0.04600   83.75750   83.75750    6.51230    6.42310    6.42310    -999.25    0.31530    0.27140    5.69240   -3.24800   -6.91530    5.69240
 3900.00000    8.41300   58.98210    0.53800    0.02350    2.25570    -999.25    0.23900    0.26570   16.95430    0.02350   52.76950   52.76950   16.95430   13.60240   13.60240    -999.25    0.35120    0.30760   11.94390   -9.04210  -13.18320   11.94390
 3950.00000    8.71200   35.44040    0.83700    0.01000    2.18980    -999.25    0.27890    0.30420   28.21640    0.01000   52.94760   52.94760   28.21640   20.34750   20.34750    -999.25    0.34090    0.29720   15.40250   -6.84470  -11.45960   15.40250
 4000.00000    9.10070   40.11520    1.22570    0.01750    2.12020    -999.25    0.32110    0.34490   24.92820    0.01750   31.88590   31.88590   24.92820   19.32330   19.32330    -999.25    0.30000    0.25600   19.59200   -0.05990   -5.14850   19.59200
 4050.00000    9.86300   26.54320    1.98800    0.00850    2.11280    -999.25    0.32560    0.34930   37.67450    0.00850   26.27250   26.27250   37.67450   22.79330   22.79330    -999.25    0.32070    0.27680   17.73300   -1.92750   -7.48990   17.73300
 4100.00000    9.63880   56.59530    1.76380    0.08050    2.29920    -999.25    0.21260    0.24020   17.66930    0.08050   53.66620   53.66620   17.66930   14.87550   14.87550    -999.25    0.28020    0.23620   13.70380   -7.42280  -13.45900   13.70380
 4150.00000    9.98250   22.65560    2.10750   -0.00490    2.16900    -999.25    0.29150    0.31640   44.13920   -0.00490   33.68260   33.68260   44.13920   24.75770   24.75770    -999.25    0.28830    0.24430   18.41600    2.73450   -3.77550   18.41600
 4200.00000    8.41320   51.04570    0.53820    0.01600    2.21930    -999.25    0.26100    0.28690   19.59030    0.01600   65.11790   65.11790   19.59030   15.82650   15.82650    -999.25    0.31890    0.27500   13.51700   -7.75670  -14.52060   13.51700
 4250.00000    8.80180   36.93430    0.92680    0.04150    2.18980    -999.25    0.27890    0.30420   27.07510    0.04150   56.36150   56.36150   27.07510   21.64690   21.64690    -999.25    0.32250    0.27860   16.55580  -11.43600  -18.24270   16.55580
 4300.00000    9.61650   56.98850    1.74150    0.03700    2.24230    -999.25    0.24710    0.27350   17.54740    0.03700   73.87610   73.87610   17.54740   13.32470   13.32470    -999.25    0.28650    0.24250   10.48140  -12.28670  -19.13610   10.48140
 4350.00000    9.57900   32.18360    1.70400    0.01600    2.24010    -999.25    0.24840    0.27480   31.07170    0.01600   71.85610   71.85610   31.07170   20.84330   20.84330    -999.25    0.32430    0.28040   16.72700  -12.53380  -19.42600   16.72700
 4400.00000    8.11450   44.78740    0.23950    0.00400    2.25190    -999.25    0.24130    0.26790   22.32770    0.00400   72.75320   72.75320   22.32770   17.54740   17.54740    -999.25    0.29910    0.25510   14.18410  -12.83640  -19.77130   14.18410
 4450.00000    8.20370  131.96960    0.32870    -999.25    -999.25    -999.25    -999.25    -999.25    7.57750    -999.25   91.16640   91.16640    7.57750    7.17120    7.17120    -999.25    -999.25    -999.25    6.08300  -11.03640  -18.01410    6.08300
 4500.00000    8.86100  105.15800    0.98600    0.03250    2.32890    -999.25    0.19460    0.22290    9.50950    0.03250  105.76200  105.76200    9.50950    9.25110    9.25110    -999.25    0.35570    0.31210    8.82690  -13.91240  -20.93280    8.82690
 4550.00000    8.71160   84.36400    0.83660    0.06250    2.26220    -999.25    0.23500    0.26180   11.85340    0.06250   59.50490   59.50490   11.85340   11.61040   11.61040    -999.25    0.26850    0.22450   11.50090  -14.73040  -21.79360   11.50090
 4600.00000    9.93770   79.13960    2.06270    0.08350    2.16690    -999.25    0.29280    0.31760   12.63590    0.08350   57.93410   57.93410   12.63590   12.18330   12.18330    -999.25    0.32070    0.27680    8.88770  -13.43620  -20.54210    8.88770
 4650.00000    8.81670  259.09420    0.94170    0.03100    2.32890    -999.25    0.19460    0.22290    3.85960    0.03100  108.68390  108.68390    3.85960    3.67790    3.67790    -999.25    0.35750    0.31400    4.00430   -5.31250  -12.46120    4.00430
 4700.00000    8.77190  264.50830    0.89690    0.08950    2.36140    -999.25    0.17490    0.20390    3.78060    0.08950  104.86530  104.86530    3.78060    3.99440    3.99440    -999.25    0.30900    0.26510    4.31860   -5.41150  -12.60290    4.31860
 4750.00000    7.88990  160.01790    0.01490   -0.00640    2.24160    -999.25    0.24750    0.27390    6.24930   -0.00640   63.54790   63.54790    6.24930    7.52500    7.52500    -999.25    0.30090    0.25690    8.35440  -24.29330  -31.52750    8.35440
 4800.00000    9.13060  932.22710    1.25560    0.00460    1.71630    -999.25    0.56590    0.58110    1.07270    0.00460   81.73630   81.73630    1.07270    1.07270    1.07270    -999.25    0.56140    0.52490    1.19440    0.29890   -6.97800    1.19440
 4850.00000    8.12930  353.18220    0.25430    0.01750    2.22970    -999.25    0.25470    0.28090    2.83140    0.01750   91.84060   91.84060    2.83140    2.67980    2.67980    -999.25    0.32510    0.28120    2.89880  -15.72990  -23.04960    2.89880
 4900.00000    7.99440  386.24950    0.11940    0.03550    2.40580    -999.25    0.14800    0.17790    2.58900    0.03550  111.15270  111.15270    2.58900    2.58890    2.58890    -999.25    0.32250    0.27860    3.34910   -3.39320  -10.75560    3.34910
 4950.00000    7.51630  286.29510   -0.35870    0.00550    2.23870    -999.25    0.24930    0.27560    3.49290    0.00550   76.79640   76.79640    3.49290    3.92200    3.92200    -999.25    0.32160    0.27770    5.09330  -39.07910  -46.48430    5.09330
 5000.00000    7.87490  312.47070   -0.00010    0.01600    2.43550    -999.25    0.13000    0.16050    3.20030    0.01600   98.72560   98.72560    3.20030    3.38080    3.38080    -999.25    0.28880    0.24480    3.87820  -10.15740  -17.60540    3.87820
 5050.00000    8.26410  287.04290    0.38910    0.00420    2.37460    -999.25    0.16690    0.19610    3.48380    0.00420   94.22710   94.22710    3.48380    3.50440    3.50440    -999.25    0.29870    0.25470    4.15390  -11.42880  -18.91950    4.15390
 5100.00000    7.99470  336.97260    0.11970    0.09400    2.43020    -999.25    0.13320    0.16360    2.96760    0.09400  117.39130  117.39130    2.96760    2.97980    2.97980    -999.25    0.35960    0.31610    3.28710   -6.44670  -13.98020    3.28710
