~Version ---------------------------------------------------
VERS.      2.0 : CWLS log ASCII Standard -VERSION 2.0
WRAP.      YES : Multiple lines per depth step
CREA. 05/20/13 : LAS Creation Date
~Well ------------------------------------------------------
STRT.FT                    1750.0 : START DEPTH
STOP.FT                   15250.0 : STOP DEPTH
STEP.FT                  50.00000 : STEP LENGTH
NULL.                     -999.25 : NULL VALUE
COMP. TEXAS OIL & GAS CORPORATION : COMPANY
WELL.                   REED E #1 : WELL
FLD .                  BEAR GRASS : FIELD
LOC .                             : LOCATION
CNTY.                   FREESTONE : COUNTY
STAT.                       TEXAS : STATE
CTRY.    UNITED STATES OF AMERICA : COUNTRY
SRVC.               Dresser Atlas : SERVICE COMPANY
DATE.                 20-Dec-1978 : LOGDATE
API .              42161304400000 : API NUMBER
UWI .              42161304400000 : UNIQUE WELL ID
SLAT.WGS84           31.421505692 : SURFACE LATITUDE
SLON.WGS84         -96.2242059669 : SURFACE LONGITUDE
~Curve Information -----------------------------------------
DEPT    .FT    : DEPTH FEET
CALDED  .IN    : CALIPER FROM DENSITY LOG
CALWS   .IN    : CALIPER [CALDED]
CONDWS  .MMHO  : CONDUCTIVITY [1000/DRESWS]
CORRED  .G/C3  : DENSITY CORRECTION FROM DENSITY LOG
DCORWS  .G/C3  : DENSITY CORRECTION [CORRED]
DENWS   .G/C3  : FORMATION BULK DENSITY [RHOBED]
DPHILSED.V/V   : DENSITY POROSITY LIMESTONE [M=2.71, F=1.0] FROM DENSITY LOG [ADJ. TO RHOBED]
DPOWS   .V/V   : DENSITY POROSITY LIMESTONE [DPHILSED]
DRESWS  .OHMM  : DEEP RESISTIVITY [ILDED]
GRDED   .GAPI  : GAMMA RAY FROM DENSITY LOG
GRWS    .GAPI  : GAMMA RAY [GRDED]
ILDED   .OHMM  : DEEP INDUCTION RESISTIVITY FROM RESISTIVITY LOG
ILMED   .OHMM  : MEDIUM INDUCTION RESISTIVITY FROM RESISTIVITY LOG
MRESWS  .OHMM  : MEDIUM RESISTIVITY [ILMED]
NPHILSED.V/V   : NEUTRON POROSITY LIMESTONE FROM DENSITY LOG
NPOWS   .V/V   : NEUTRON POROSITY LIMESTONE [NPHILSED]
RHOBED  .G/C3  : BULK DENSITY FROM DENSITY LOG
SFLED   .OHMM  : SPHERICALLY FOCUSED FROM RESISTIVITY LOG
SPRED   .MV    : SPONTANEOUS POTENTIAL FROM RESISTIVITY LOG
SPWS    .MV    : SPONTANEOUS POTENTIAL [BASELINE 0 MV, SPRED]
SRESWS  .OHMM  : SHALLOW RESISTIVITY [SFLED]
TENDED  .LBF   : TENSION FROM DENSITY LOG
~Params ----------------------------------------------------
PD  .                     GL : PERMANENT DATUM
EPD .FT                  452 : ELEVATION PERMANENT DATUM
LMF .                     KB : LOG MEASURED FROM
DAPD.FT                   21 : FEET ABOVE PERMANENT DATUM
DMF .                     KB : DRILLING MEASURED FROM
EKB .FT                  473 : KELLY BUSHING
EDF .FT                  472 : DRILLING FLOOR
EGL .FT                  452 : GROUND LEVEL
DATE.               12/20/78 : RUN DATE
RUN .                      4 : RUN NUMBER
DD  .FT                15297 : DEPTH DRILLER
DL  .FT                15240 : DEPTH LOGGER
BLI .FT                15238 : BOTTOM LOG INTERVAL
TLI .FT                14903 : TOP LOG INTERVAL
CS  .IN                    7 : CASING SIZE
CBD .FT                12937 : CASING BOTTOM DRILLER
CBL .FT                12936 : CASING BOTTOM LOGGER
BS  .IN                    6 : BIT SIZE
BSD .FT                15297 : BIT SIZE AT DEPTH
DFT .               CHEM GEL : DRILLING FLUID TYPE
DFD .                   16.5 : DRILLING FLUID DENSITY
DFV .                     60 : DRILLING FLUID VISCOSITY
DFPH.                   10.8 : DRILLING FLUID PH
DFL .                      8 : DRILLING FLUID LOSS
TCS .HRS                   8 : TIME CIRCULATED STOPPED
LUN .                   6104 : LOGGING UNIT NUMBER
LUL .                  TYLER : LOGGING UNIT LOCATION
ENGI.                 DELLVA : RECORDING ENGINEER
WITN.                  GRACE : WITNESSED BY
CLNT.                A2DTECH : CLIENT CODE
ORIG.               5" PRINT : ORIGIN OF DATA
UWI .         42161304400000 : UNIQUE WELL ID
DICO. A2D Technologies, Inc. : DIGITIZING COMPANY
~Other -----------------------------------------------------
CDL-CNL-DIL LOG RAN
RUN 2: CDL & CNL VALUES FROM 12935'TO 13250'NOT VALID DUE TO INTERMITTANT,
TOOL FAILURE CAUSED BY CONSTANT STICKING OF TOOL.
RUN 3:TOOL RUN WITHOUT 1.5" S.O. BECAUSE OF SMALL BOREHOLE SET DOWN AT 15033' & LOGGED UP.
~ASCII -----------------------------------------------------
# ...
 11350.00000    7.57000    7.57000   32.10120   -0.00760   -0.00760    2.49150    0.12480    0.12780   31.15150   50.46270   50.46270   31.15150   48.98080   48.98080    0.02510    0.02510    2.49150   81.01540  -91.89630  -67.47470   81.01540   67.84500
 11400.00000    7.70520    7.70520   43.33190    0.02280    0.02280    2.54440    0.09790    0.09680   23.07770   66.37070   66.37070   23.07770   28.18180   28.18180    0.02790    0.02790    2.54440   54.25020  -73.37570  -49.10230   54.25020   79.53330
 11450.00000    8.16000    8.16000   75.45800    0.05250    0.05250    2.64340    0.03660    0.03890   13.25240  100.05820  100.05820   13.25240   12.46550   12.46550    0.09460    0.09460    2.64340   18.69480  -37.76420  -13.63900   18.69480   96.58160
 11500.00000    8.34470    8.34470   98.20870    0.10360    0.10360    2.43680    0.15420    0.15980   10.18240  101.33790  101.33790   10.18240   14.31590   14.31590    0.10150    0.10150    2.43680   16.73790  -51.83550  -27.85850   16.73790  114.59630
 11550.00000    8.18950    8.18950   42.58850    0.00910    0.00910    2.50350    0.12550    0.12080   23.48050   74.89400   74.89400   23.48050   30.00070   30.00070    0.03430    0.03430    2.50350   60.36000  -70.08470  -46.25590   60.36000   57.65590
 11600.00000   11.16270   11.16270   63.85780    0.07390    0.07390    2.15150    0.33970    0.32660   15.65980  145.49200  145.49200   15.65980   16.79390   16.79390    0.22210    0.22210    2.15150   36.40940  -34.28330  -10.60260   36.40940  106.21030
 11650.00000    8.45610    8.45610  137.12340    0.01290    0.01290    2.51070    0.13250    0.11650    7.29270   66.03090   66.03090    7.29270   10.93930   10.93930    0.09900    0.09900    2.51070   13.46790  -73.17880  -49.64630   13.46790  104.95690
 11700.00000    8.37800    8.37800   35.95870   -0.00750   -0.00750    2.55130    0.09600    0.09280   27.80970   57.38950   57.38950   27.80970   42.85980   42.85980    0.07620    0.07620    2.55130   40.16860  -65.33490  -41.95060   40.16860   11.00560
 11750.00000   10.93560   10.93560   94.33430    0.03310    0.03310    2.37990    0.18170    0.19300   10.60060  131.30690  131.30690   10.60060   15.66970   15.66970    0.19800    0.19800    2.37990   11.80020  -28.14470   -4.92990   11.80020   96.81390
 11800.00000    8.43920    8.43920  120.42390   -0.01310   -0.01310    2.43530    0.15170    0.16060    8.30400   56.15810   56.15810    8.30400    9.20610    9.20610    0.07280    0.07280    2.43530   17.89280  -82.18770  -59.19730   17.89280    -999.25
 11850.00000    8.44490    8.44490   44.81590    0.00060    0.00060    2.54310    0.09590    0.09760   22.31350   75.04760   75.04760   22.31350   32.36790   32.36790    0.02490    0.02490    2.54310   59.70840  -48.72980  -25.96380   59.70840   62.61630
 11900.00000    8.89470    8.89470   97.44780   -0.05730   -0.05730    2.20080    0.28180    0.29780   10.26190   88.30880   88.30880   10.26190   11.06580   11.06580    0.03050    0.03050    2.20080   11.27130  -51.84640  -29.30480   11.27130  108.74670
 11950.00000   11.59260   11.59260   57.73470    0.02130    0.02130    2.16200    0.34290    0.32050   17.32060  103.19590  103.19590   17.32060   20.54840   20.54840    0.05590    0.05590    2.16200   29.41510  -47.51280  -25.19560   29.41510   53.02480
 12000.00000    9.97140    9.97140   25.38260    0.01750    0.01750    2.29440    0.24000    0.24300   39.39700   46.32250   46.32250   39.39700   54.67900   54.67900    0.02140    0.02140    2.29440   56.68940  -89.31910  -67.22630   56.68940   96.57570
 12050.00000    8.68700    8.68700   41.65940   -0.01720   -0.01720    2.54580    0.09780    0.09600   24.00420   91.37700   91.37700   24.00420   28.17370   28.17370    0.02460    0.02460    2.54580   31.78380  -44.26640  -22.39800   31.78380   18.58470
 12100.00000    8.61000    8.61000   38.72160    0.01440    0.01440    2.46810    0.14010    0.14150   25.82540   69.71710   69.71710   25.82540   31.91970   31.91970    0.03650    0.03650    2.46810   46.55300  -93.78930  -72.14540   46.55300   87.09610
 12150.00000    8.71170    8.71170   67.82560   -0.03520   -0.03520    2.47730    0.14150    0.13610   14.74370   57.78800   57.78800   14.74370   16.08940   16.08940    0.02150    0.02150    2.47730   22.39880  -76.90810  -55.48860   22.39880   76.82610
 12200.00000    8.82920    8.82920   37.37810   -0.02730   -0.02730    2.49850    0.12560    0.12370   26.75360   50.94590   50.94590   26.75360   31.32160   31.32160    0.00540    0.00540    2.49850   36.30170  -86.33570  -65.14060   36.30170   57.50180
 12250.00000    9.07570    9.07570   55.60410    0.00160    0.00160    2.46660    0.13560    0.14230   17.98430   68.00240   68.00240   17.98430   20.54760   20.54760    0.01510    0.01510    2.46660   17.25050  -82.24540  -61.27470   17.25050   57.67410
 12300.00000    8.70790    8.70790   29.46410    0.00910    0.00910    2.51350    0.11390    0.11490   33.93960   44.39510   44.39510   33.93960   48.71990   48.71990   -0.00320   -0.00320    2.51350   55.65510  -93.23060  -72.48430   55.65510   59.70170
 12350.00000    8.83690    8.83690   44.06740   -0.02500   -0.02500    2.54490    0.10050    0.09650   22.69250   77.42800   77.42800   22.69250   26.44210   26.44210    0.03750    0.03750    2.54490   36.86670  -62.78550  -42.26360   36.86670   78.78570
 12400.00000    9.68400    9.68400  116.38870   -0.10680   -0.10680    2.00100    0.37710    0.41460    8.59190  124.86810  124.86810    8.59190    8.96640    8.96640    0.08810    0.08810    2.00100    9.97480  -37.12350  -16.82600    9.97480  131.36320
 12450.00000    9.71690    9.71690  127.14230    0.01770    0.01770    2.14670    0.32170    0.32940    7.86520  132.57810  132.57810    7.86520    8.83980    8.83980    0.11300    0.11300    2.14670   10.64690  -47.70310  -27.63000   10.64690    -999.25
 12500.00000    8.96060    8.96060   26.42120   -0.02490   -0.02490    2.46610    0.14050    0.14260   37.84840   48.18040   48.18040   37.84840   50.14790   50.14790   -0.00110   -0.00110    2.46610   86.95160  -68.54520  -48.69650   86.95160   73.46420
 12550.00000   10.64210   10.64210   23.89140    0.04620    0.04620    2.24150    0.29300    0.27400   41.85610   41.74730   41.74730   41.85610  117.52020  117.52020   -0.00070   -0.00070    2.24150   84.08710  -87.86100  -68.23670   84.08710   82.19570
 12600.00000    8.77160    8.77160   27.13490   -0.06720   -0.06720    2.52160    0.10080    0.11020   36.85290   47.15790   47.15790   36.85290  259.93720  259.93720    0.00110    0.00110    2.52160   94.53450  -57.84470  -38.44480   94.53450    8.96590
 12650.00000    9.22530    9.22530  136.90000    0.05860    0.05860    2.50630    0.12070    0.11910    7.30460  137.39700  137.39700    7.30460    9.07830    9.07830    0.09660    0.09660    2.50630   14.67000  -35.82080  -16.64530   14.67000   81.10070
 12700.00000    8.91080    8.91080   77.62890    0.04450    0.04450    2.53480    0.10440    0.10250   12.88180  107.33600  107.33600   12.88180   18.93290   18.93290    0.09040    0.09040    2.53480   19.14710  -33.23330  -14.28220   19.14710    9.77220
 12750.00000    8.63150    8.63150   20.65450   -0.01440   -0.01440    2.49420    0.12720    0.12620   48.41560   35.12750   35.12750   48.41560   93.52270   93.52270   -0.01070   -0.01070    2.49420  165.74960  -49.44630  -30.71960  165.74960   59.98150
 12800.00000    8.75050    8.75050   89.06540   -0.01470   -0.01470    2.58370    0.07190    0.07390   11.22770  111.27200  111.27200   11.22770   15.63740   15.63740    0.08640    0.08640    2.58370   16.97850  -34.68160  -16.17930   16.97850   77.89130
 12850.00000    8.81720    8.81720  154.63120    0.01960    0.01960    2.59590    0.06760    0.06670    6.46700  137.79720  137.79720    6.46700    7.67660    7.67660    0.11150    0.11150    2.59590   10.47680  -24.54060   -6.38900   10.47680   55.11440
 12900.00000    8.95870    8.95870  117.69410   -0.01380   -0.01380    2.57290    0.08700    0.08020    8.49660  129.73010  129.73010    8.49660   10.27100   10.27100    0.10580    0.10580    2.57290   11.60650  -25.19820   -7.51400   11.60650  373.92710
