~Version ---------------------------------------------------
VERS.      2.0 : CWLS log ASCII Standard -VERSION 2.0
WRAP.      YES : Multiple lines per depth step
CREA. 02/26/13 : LAS Creation Date
~Well ------------------------------------------------------
STRT.FT                 2300.0 : START DEPTH
STOP.FT                 9950.0 : STOP DEPTH
STEP.FT               50.00000 : STEP LENGTH
NULL.                  -999.25 : NULL VALUE
COMP.       APACHE CORPORATION : COMPANY
WELL.             C. BARRON #3 : WELL
FLD .                   JEWETT : FIELD
LOC .                          : LOCATION
CNTY.                     LEON : COUNTY
STAT.                    TEXAS : STATE
CTRY. UNITED STATES OF AMERICA : COUNTRY
SRVC.             Schlumberger : SERVICE COMPANY
DATE.              10-Jan-1991 : LOGDATE
API .           42289310950000 : API NUMBER
UWI .           42289310950000 : UNIQUE WELL ID
SLAT.WGS84       31.3592876733 : SURFACE LATITUDE
SLON.WGS84      -96.1250620138 : SURFACE LONGITUDE
~Curve Information -----------------------------------------
DEPT    .FT    : DEPTH FEET
CALDED  .IN    : CALIPER FROM DENSITY LOG
CALWS   .IN    : CALIPER [CALDED]
CONDWS  .MMHO  : CONDUCTIVITY [1000/DRESWS]
DCALED  .IN    : DIFFERENTIAL CALIPER FROM RESISTIVITY LOG
DCORWS  .G/C3  : DENSITY CORRECTION [DRHOED]
DENWS   .G/C3  : FORMATION BULK DENSITY [RHOBED]
DPHILSED.V/V   : DENSITY POROSITY LIME [M=2.71, F=1.0] FROM DENSITY LOG
DPOWS   .V/V   : DENSITY POROSITY LIME [DPHILSED]
DRESWS  .OHMM  : DEEP RESISTIVITY [ILDED]
DRHOED  .G/C3  : BULK DENSITY CORRECTION FROM DENSITY LOG
GRDED   .GAPI  : GAMMA RAY FROM DENSITY LOG
GRWS    .GAPI  : GAMMA RAY [GRDED]
ILDED   .OHMM  : DEEP INDUCTION FROM RESISTIVITY LOG
ILMED   .OHMM  : MEDIUM INDUCTION FROM RESISTIVITY LOG
MRESWS  .OHMM  : MEDIUM RESISTIVITY [ILMED]
NPHILSED.V/V   : NEUTRON POROSITY LIME FROM DENSITY LOG
NPOWS   .V/V   : NEUTRON POROSITY LIME [NPHILSED]
PEFED   .B/E   : PHOTOELECTRIC FACTOR FROM DENSITY LOG
PEFWS   .B/E   : PHOTOELECTRIC FACTOR [PEFED]
RHOBED  .G/C3  : BULK DENSITY FROM DENSITY LOG
SFLUED  .OHMM  : SHALLOW FOCUSED RESISTIVITY (UNAVERAGED) FROM RESISTIVITY LOG
SPRED   .MV    : SPONTANEOUS POTENTIAL FROM RESISTIVITY LOG
SPWS    .MV    : SPONTANEOUS POTENTIAL [BASELINE 0 MV, SPRED]
SRESWS  .OHMM  : SHALLOW RESISTIVITY [SFLUED]
TENDED  .LBF   : TENSION FROM DENSITY LOG
~Params ----------------------------------------------------
PD  .                     GL : PERMANENT DATUM
EPD .FT                  485 : ELEVATION PERMANENT DATUM
LMF .                     KB : LOG MEASURED FROM
DAPD.FT                   12 : FEET ABOVE PERMANENT DATUM
DMF .                     KB : DRILLING MEASURED FROM
EKB .FT                  497 : KELLY BUSHING
EDF .FT                  498 : DRILLING FLOOR
EGL .FT                  485 : GROUND LEVEL
DATE.               01/10/91 : RUN DATE
RUN .                      1 : RUN NUMBER
DD  .FT                 9950 : DEPTH DRILLER
DL  .FT                 9957 : DEPTH LOGGER
BLI .FT                 9946 : BOTTOM LOG INTERVAL
TLI .FT                 2234 : TOP LOG INTERVAL
CS  .IN                9.625 : CASING SIZE
CBD .FT                 2298 : CASING BOTTOM DRILLER
CBL .FT                 2294 : CASING BOTTOM LOGGER
BS  .IN                 6.75 : BIT SIZE
BSD .FT                 9950 : BIT SIZE AT DEPTH
DFT .           LIGHTLY DISP : DRILLING FLUID TYPE
DFD .                   10.3 : DRILLING FLUID DENSITY
DFV .                     60 : DRILLING FLUID VISCOSITY
DFPH.                    9.5 : DRILLING FLUID PH
DFL .                     74 : DRILLING FLUID LOSS
MSS .               FLOWLINE : MUD SAMPLE SOURCE
RMS .OHMM               2.45 : RESISTIVITY MUD SAMPLE
MST .DEGF                 75 : MUD SAMPLE TEMPERATURE
MFST.DEGF                 75 : MUD FILTRATE SAMPLE TEMPERATURE
RMC .OHMM               2.75 : RESISTIVITY MUD CAKE
MCST.DEGF                 75 : MUD CAKE SAMPLE TEMPERATURE
MFSS.                   MEAS : MUD FILTRATE SAMPLE SOURCE
MCSS.                   CALC : MUD CAKE SAMPLE SOURCE
RMB .OHMM                885 : RESISTIVITY MUD AT BHT
TCS .HRS                1700 : TIME CIRCULATED STOPPED
LUN .                   8407 : LOGGING UNIT NUMBER
LUL .                  TYLER : LOGGING UNIT LOCATION
CLNT.                A2DTECH : CLIENT CODE
ORIG.          1" 2.5" PRINT : ORIGIN OF DATA
UWI .         42289310950000 : UNIQUE WELL ID
DICO. A2D Technologies, Inc. : DIGITIZING COMPANY
~Other -----------------------------------------------------
TOOL RUN:DISFL-CN-LDT LOG
~ASCII -----------------------------------------------------
# ...
 9300.00000    9.32450    9.32450   38.29260    0.59100   -0.00630    2.67500    0.02460    0.02460   26.11470   -0.00630   33.27180   33.27180   26.11470   33.46030   33.46030    0.01600    0.01600    4.70010    4.70010    2.67500   53.99920  -18.37840   -7.10710   53.99920 4023.13920
 9350.00000   10.16590   10.16590   88.73820    1.44460    0.00530    2.67570    0.01950    0.01950   11.26910    0.00530   42.27870   42.27870   11.26910   13.07450   13.07450    0.05790    0.05790    4.20860    4.20860    2.67570   17.52810  -13.75420   -3.27640   17.52810 4121.10250
 9400.00000   11.78520   11.78520  257.20160    2.99300    0.04510    2.51720    0.12150    0.12150    3.88800    0.04510   87.71860   87.71860    3.88800    4.31050    4.31050    0.21930    0.21930    2.97010    2.97010    2.51720    5.41430  -21.05320  -10.81360    5.41430 4124.30910
 9450.00000    9.88150    9.88150   31.54590    1.14240    0.02490    2.68110    0.01760    0.01760   31.69980    0.02490   71.79620   71.79620   31.69980   36.06200   36.06200    0.01240    0.01240    4.36510    4.36510    2.68110   31.92110  -33.79380  -23.11360   31.92110 4161.08400
 9500.00000   10.39610   10.39610   30.17550    1.61830    0.10730    2.57810    0.08010    0.08010   33.13950    0.10730   35.09410   35.09410   33.13950   35.08270   35.08270    0.00760    0.00760    4.83290    4.83290    2.57810   35.99870  -89.04250  -77.92170   35.99870 4203.82230
 9550.00000    9.75450    9.75450   82.62550    1.05410    0.00310    2.69320    0.03880    0.03880   12.10280    0.00310   65.93430   65.93430   12.10280   13.11990   13.11990    0.00910    0.00910    4.34810    4.34810    2.69320   13.96680  -46.83260  -35.27110   13.96680 4063.60670
 9600.00000    9.75560    9.75560   42.56280    1.02850    0.03000    2.68240    0.01220    0.01220   23.49470    0.03000   42.26780   42.26780   23.49470   25.57250   25.57250    0.00700    0.00700    4.27780    4.27780    2.68240   24.42820  -62.60000  -50.59790   24.42820 4173.49070
 9650.00000    9.32790    9.32790   63.29550    0.65270    0.01020    2.70300    0.00360    0.00360   15.79890    0.01020   51.93250   51.93250   15.79890   16.64430   16.64430    0.04310    0.04310    4.43240    4.43240    2.70300   22.24650  -16.24740   -3.98380   22.24650 4140.58350
 9700.00000    9.72440    9.72440  294.41210    1.05830    0.06040    2.53690    0.10040    0.10040    3.39660    0.06040   88.93800   88.93800    3.39660    3.19080    3.19080    0.18950    0.18950    2.94800    2.94800    2.53690    3.39440  -26.51980  -15.75350    3.39440 4221.85300
 9750.00000    9.42660    9.42660   68.71580    0.69410    0.01760    2.70470    0.00120    0.00120   14.55270    0.01760   54.53830   54.53830   14.55270   17.70830   17.70830    0.02550    0.02550    4.08020    4.08020    2.70470   31.86270  -26.77690  -17.50800   31.86270 4360.93750
 9800.00000    9.02490    9.02490  261.35590    0.29150    0.00280    2.62450    0.04880    0.04880    3.82620    0.00280   78.67010   78.67010    3.82620    4.00030    4.00030    0.13200    0.13200    3.21190    3.21190    2.62450    4.93180  -35.29230  -27.52070    4.93180 4355.86770
 9850.00000    9.00700    9.00700  349.23520    0.27260   -0.00310    2.49950    0.12080    0.12080    2.86340   -0.00310   47.11710   47.11710    2.86340    3.02210    3.02210    0.06910    0.06910    2.39350    2.39350    2.49950    3.39370  -64.97620  -58.32180    3.39370 4344.89400
 9900.00000    8.89700    8.89700  303.32440    0.12110    0.00570    2.52020    0.10970    0.10970    3.29680    0.00570    -999.25    -999.25    3.29680    3.50210    3.50210    0.07180    0.07180    2.45100    2.45100    2.52020    3.82620  -31.22210  -25.57130    3.82620 4382.76370
 9950.00000    -999.25    -999.25    -999.25    -999.25    -999.25    -999.25    -999.25    -999.25    -999.25    -999.25    -999.25    -999.25    -999.25    -999.25    -999.25    -999.25    -999.25    -999.25    -999.25    -999.25    -999.25    -999.25    -999.25    -999.25 4339.25780
