~Version ---------------------------------------------------
VERS. 2.0 : CWLS log ASCII Standard -VERSION 2.0
WRAP. YES : Multiple lines per depth step
~Well ------------------------------------------------------
STRT.FT                 3500.0 : START DEPTH
STOP.FT                 8350.0 : STOP DEPTH
STEP.FT               50.00000 : STEP LENGTH
NULL.                  -999.25 : NULL VALUE
COMP.      SAGE ENERGY COMPANY : COMPANY
WELL.                  GOLD #1 : WELL
FLD .                 GIDDINGS : FIELD
LOC .                          : LOCATION
CNTY.                 BURLESON : COUNTY
STAT.                    TEXAS : STATE
CTRY. UNITED STATES OF AMERICA : COUNTRY
SRVC.            Dresser Atlas : SERVICE COMPANY
DATE.              03-Dec-1983 : LOGDATE
API .           42051326000000 : API NUMBER
UWI .           42051326000000 : UNIQUE WELL ID
SLAT.WGS84       30.5213843598 : SURFACE LATITUDE
SLON.WGS84      -96.6289898193 : SURFACE LONGITUDE
~Curve Information -----------------------------------------
DEPT    .FT                                                                : Depth Feet
CALRED  .IN                                                                : CALIPER FROM DIFL-CDL-CNL-GR LOG
CALWS   .IN                                                                : CALIPER [CALRED]
CNLSED  .V/V         :   COMPENSATED NEUTRON POROSITY LIMESTONE [M:2.71, F : 1.0] FROM DIFL-CDL-CNL-GR LOG
CNSSED  .V/V         :   COMPENSATED NEUTRON POROSITY SANDSTONE [M:2.65, F : 1.0] FROM DIFL-CDL-CNL-GR LOG
CONDWS  .MMHO                                                              : CONDUCTIVITY [1000/DRESWS]
CORRED  .G/C3                                                              : DENSITY CORRECTION FROM DIFL-CDL-CNL-GR LOG
DCORWS  .G/C3                                                              : DENSITY CORRECTION [CORRED]
DENWS   .G/C3 :   FORMATION BULK DENSITY [CALCULATED FROM DPOWS (M:2.71, F : 1.0)]
DPOWS   .V/V                                                               : DENSITY POROSITY LIMESTONE [PORDSSED CONVERTED TO LIMESTONE (M=2.71, F=1.0) & SPL. TO PORDLSED @ 5854']
DRESWS  .OHMM                                                              : DEEP RESISTIVITY [RILDED]
GRNED   .                                                                  : GAMMA FROM GAMMA-NEUTRON LOG [ADJ. TO GRRED]
GRRED   .GAPI                                                              : GAMMA RAY FROM DIFL-CDL-CNL-GR LOG
GRWS    .GAPI                                                              : GAMMA RAY [GRRED SPL. TO GRNED @ 8320.5']
MRESWS  .OHMM                                                              : MEDIUM RESISTIVITY [RILMED]
NEUTED  .NAPI                                                              : NEUTRON FROM GAMMA-NEUTRON LOG [ADJ. TO GRRED]
NEUTWS  .NAPI                                                              : NEUTRON [NEUTED]
NPOWS   .V/V                                                               : NEUTRON POROSITY LIMESTONE [CNSSED MATRIX CONVERTED TO LIMESTONE & SPL. TO CNLSED @ 5858.5']
PORDLSED.V/V                     :   DENSITY POROSITY LIMESTONE [M:2.71, F : 1.0] FROM DIFL-CDL-CNL-GR LOG
PORDSSED.V/V                     :   DENSITY POROSITY SANDSTONE [M:2.65, F : 1.0]  FROM DIFL-CDL-CNL-GR LOG
RFOCED  .OHMM                                                              : SHALLOW FOCUSED RESISTIVITY FROM DIFL-CDL-CNL-GR LOG
RILDED  .OHMM                                                              : DEEP INDUCTION RESISTIVITY FROM DIFL-CDL-CNL-GR LOG
RILMED  .OHMM                                                              : SPONTANEOUS POTENTIAL FROM RESISTIVITY FROM DIFL-CDL-CNL-GR LOG
SPRED   .MV                                                                : SPONTANEOUS POTENTIAL FROM DIFL-CDL-CNL-GR LOG
SPWS    .MV                                                                : SPONTANEOUS POTENTIAL [BASELINE 0 MV,SPRED]
SRESWS  .OHMM                                                              : SHALLOW RESISTIVITY [RFOCED]
TENRED  .LBF                                                               : TENSION FROM DIFL-CDL-CNL-GR LOG
~Params ----------------------------------------------------
PD  .                     GL : PERMANENT DATUM
EPD .FT                  402 : ELEVATION PERMANENT DATUM
LMF .                     KB : LOG MEASURED FROM
DAPD.FT                   16 : FEET ABOVE PERMANENT DATUM
DMF .                     KB : DRILLING MEASURED FROM
EKB .FT                  418 : KELLY BUSHING
EDF .FT                  417 : DRILLING FLOOR
EGL .FT                  402 : GROUND LEVEL
DATE.               12/03/83 : RUN DATE
RUN .                      1 : RUN NUMBER
DD  .FT                 8442 : DEPTH DRILLER
DL  .FT                 8380 : DEPTH LOGGER
BLI .FT                 8378 : BOTTOM LOG INTERVAL
TLI .FT                 3510 : TOP LOG INTERVAL
CS  .IN                8.625 : CASING SIZE
CBD .FT                 3515 : CASING BOTTOM DRILLER
CBL .FT                 3510 : CASING BOTTOM LOGGER
BS  .IN                7.875 : BIT SIZE
BSD .FT                 8442 : BIT SIZE AT DEPTH
DFT .                  LINGO : DRILLING FLUID TYPE
DFD .                    9.2 : DRILLING FLUID DENSITY
DFV .                     44 : DRILLING FLUID VISCOSITY
DFPH.                      9 : DRILLING FLUID PH
DFL .                      7 : DRILLING FLUID LOSS
MSS .                   FLOW : MUD SAMPLE SOURCE
RMS .OHMM               3.62 : RESISTIVITY MUD SAMPLE
MST .DEGF                 75 : MUD SAMPLE TEMPERATURE
RMF .OHMM               2.71 : RESISTIVITY MUD FILTRATE SAMPLE
MFST.DEGF                 75 : MUD FILTRATE SAMPLE TEMPERATURE
RMC .OHMM               4.52 : RESISTIVITY MUD CAKE
MCST.DEGF                 75 : MUD CAKE SAMPLE TEMPERATURE
MFSS.                      C : MUD FILTRATE SAMPLE SOURCE
MCSS.                      C : MUD CAKE SAMPLE SOURCE
RMB .OHMM              0.917 : RESISTIVITY MUD AT BHT
TCS .HRS                 4.5 : TIME CIRCULATED STOPPED
LUN .                HL 6304 : LOGGING UNIT NUMBER
LUL .                  BRYAN : LOGGING UNIT LOCATION
ENGI.                 POWELL : RECORDING ENGINEER
WITN.                  BOTTO : WITNESSED BY
CLNT.                A2DTECH : CLIENT CODE
ORIG.            2" 5" PRINT : ORIGIN OF DATA
UWI .         42051326000000 : UNIQUE WELL ID
DICO. A2D Technologies, Inc. : DIGITIZING COMPANY
~Other -----------------------------------------------------
~ASCII -----------------------------------------------------
# ...
 6200.00000   10.65490   10.65490    -999.25    -999.25  779.60550    -999.25    -999.25    -999.25    -999.25    1.28270   54.61950   86.29100   86.29100    1.32360  116.84590  116.84590    -999.25    -999.25    -999.25    1.90370    1.28270    1.32360  -45.45930   -6.96740    1.90370    6.62680
 6250.00000   10.51130   10.51130    -999.25    -999.25  722.07380    -999.25    -999.25    -999.25    -999.25    1.38490   75.02690  106.06040  106.06040    1.45800  158.25460  158.25460    -999.25    -999.25    -999.25    2.01940    1.38490    1.45800  -46.24370   -7.91810    2.01940   10.83730
 6300.00000   10.89120   10.89120    -999.25    -999.25  604.41220    -999.25    -999.25    -999.25    -999.25    1.65450   49.05290   97.66090   97.66090    1.71160  123.01290  123.01290    -999.25    -999.25    -999.25    2.05120    1.65450    1.71160  -46.76150   -8.60210    2.05120   10.78120
 6350.00000   11.53630   11.53630    -999.25    -999.25  868.80970    -999.25    -999.25    -999.25    -999.25    1.15100   66.80690  104.72050  104.72050    1.24130   97.58940   97.58940    -999.25    -999.25    -999.25    1.83260    1.15100    1.24130  -48.10810  -10.11500    1.83260    9.49990
 6400.00000   10.16280   10.16280    -999.25    -999.25  612.18240    -999.25    -999.25    -999.25    -999.25    1.63350   45.24810   87.37070   87.37070    1.68650  132.89350  132.89350    -999.25    -999.25    -999.25    2.15820    1.63350    1.68650  -44.68500   -6.85820    2.15820    1.99120
 6450.00000   10.60350   10.60350    -999.25    -999.25  745.48980    -999.25    -999.25    -999.25    -999.25    1.34140   49.96730   91.90200   91.90200    1.44090   94.94410   94.94410    -999.25    -999.25    -999.25    2.02900    1.34140    1.44090  -46.92040   -9.25980    2.02900    9.16620
 6500.00000    8.37940    8.37940    -999.25    -999.25  354.93720    -999.25    -999.25    -999.25    -999.25    2.81740   28.87870   63.56290   63.56290    2.89240  307.68430  307.68430    -999.25    -999.25    -999.25    3.41880    2.81740    2.89240  -43.31370   -5.81940    3.41880    1.58770
 6550.00000    8.28880    8.28880    -999.25    -999.25  345.99680    -999.25    -999.25    -999.25    -999.25    2.89020   34.47330   49.19220   49.19220    3.00060  342.87930  342.87930    -999.25    -999.25    -999.25    3.57280    2.89020    3.00060  -42.13460   -4.80650    3.57280    9.18730
 6600.00000    6.11780    6.11780    -999.25    -999.25  248.45340    -999.25    -999.25    -999.25    -999.25    4.02490   25.02090   45.00970   45.00970    4.22510  574.64560  574.64560    -999.25    -999.25    -999.25    5.02870    4.02490    4.22510  -44.63730   -7.47550    5.02870   10.79280
 6650.00000    8.23910    8.23910    -999.25    -999.25  177.93910    -999.25    -999.25    -999.25    -999.25    5.61990   25.14220   43.78930   43.78930    5.72120  376.67280  376.67280    -999.25    -999.25    -999.25    6.69840    5.61990    5.72120  -48.75970  -11.76410    6.69840    9.39520
 6700.00000    5.83740    5.83740    -999.25    -999.25  329.12060    -999.25    -999.25    -999.25    -999.25    3.03840   51.08340   68.78720   68.78720    3.20140  513.55020  513.55020    -999.25    -999.25    -999.25    3.93090    3.03840    3.20140  -39.53840   -2.70910    3.93090   14.40610
 6750.00000    8.67830    8.67830    -999.25    -999.25  519.53450    -999.25    -999.25    -999.25    -999.25    1.92480   53.85440   79.44020   79.44020    2.07840  299.07440  299.07440    -999.25    -999.25    -999.25    2.61770    1.92480    2.07840  -45.76080   -9.09780    2.61770    5.08260
 6800.00000    8.69070    8.69070    -999.25    -999.25  405.35060    -999.25    -999.25    -999.25    -999.25    2.46700   47.00600   83.46280   83.46280    2.64700  496.50240  496.50240    -999.25    -999.25    -999.25    3.20960    2.46700    2.64700  -39.09020   -2.59340    3.20960   10.63290
 6850.00000    8.65820    8.65820    -999.25    -999.25  520.83330    -999.25    -999.25    -999.25    -999.25    1.92000   57.47900   89.69220   89.69220    2.03400  346.03900  346.03900    -999.25    -999.25    -999.25    2.64330    1.92000    2.03400  -40.96800   -4.63750    2.64330    2.20920
 6900.00000    8.42960    8.42960    -999.25    -999.25  352.43530    -999.25    -999.25    -999.25    -999.25    2.83740   52.81800   66.78960   66.78960    2.96810  411.61240  411.61240    -999.25    -999.25    -999.25    3.66880    2.83740    2.96810  -36.42170   -0.25740    3.66880   11.77810
 6950.00000    7.98660    7.98660    -999.25    -999.25  560.03580    -999.25    -999.25    -999.25    -999.25    1.78560   53.52720   91.56840   91.56840    1.89990  222.45560  222.45560    -999.25    -999.25    -999.25    2.52140    1.78560    1.89990  -35.96330    0.03470    2.52140    6.41380
 7000.00000    8.37680    8.37680    -999.25    -999.25  726.69140    -999.25    -999.25    -999.25    -999.25    1.37610   60.72030  102.16580  102.16580    1.44400  156.26410  156.26410    -999.25    -999.25    -999.25    2.09150    1.37610    1.44400  -41.05790   -5.22620    2.09150   16.84980
 7050.00000    8.72310    8.72310    -999.25    -999.25  604.08360    -999.25    -999.25    -999.25    -999.25    1.65540   55.60220   96.53430   96.53430    1.74860  219.06390  219.06390    -999.25    -999.25    -999.25    2.37360    1.65540    1.74860  -39.14110   -3.47560    2.37360   13.27430
 7100.00000    9.07480    9.07480    -999.25    -999.25  720.51300    -999.25    -999.25    -999.25    -999.25    1.38790   54.22760   99.65760   99.65760    1.48710  161.35220  161.35220    -999.25    -999.25    -999.25    2.17960    1.38790    1.48710  -40.35620   -4.85700    2.17960   16.54990
 7150.00000    9.08010    9.08010    -999.25    -999.25  671.23100    -999.25    -999.25    -999.25    -999.25    1.48980   71.35020   94.85210   94.85210    1.57720  161.67820  161.67820    -999.25    -999.25    -999.25    2.28780    1.48980    1.57720  -36.80290   -1.46990    2.28780    7.76070
 7200.00000    9.10500    9.10500    -999.25    -999.25  677.23150    -999.25    -999.25    -999.25    -999.25    1.47660   57.85010   95.54290   95.54290    1.56550  162.42960  162.42960    -999.25    -999.25    -999.25    2.21400    1.47660    1.56550  -41.63970   -6.47300    2.21400    7.71780
 7250.00000    9.22700    9.22700    -999.25    -999.25  666.97790    -999.25    -999.25    -999.25    -999.25    1.49930   65.18680   95.82500   95.82500    1.57160  172.01560  172.01560    -999.25    -999.25    -999.25    2.32940    1.49930    1.57160  -40.72230   -5.72180    2.32940   16.00610
 7300.00000    9.17230    9.17230    -999.25    -999.25  767.57750    -999.25    -999.25    -999.25    -999.25    1.30280   61.53570   93.27010   93.27010    1.37120  162.63500  162.63500    -999.25    -999.25    -999.25    2.09050    1.30280    1.37120  -42.68700   -7.85280    2.09050    6.70950
 7350.00000    5.83440    5.83440    -999.25    -999.25  624.14180    -999.25    -999.25    -999.25    -999.25    1.60220   53.58320   86.51500   86.51500    1.71520  193.07750  193.07750    -999.25    -999.25    -999.25    2.39410    1.60220    1.71520  -43.29750   -8.62960    2.39410    2.49430
 7400.00000    8.27180    8.27180    -999.25    -999.25  611.88280    -999.25    -999.25    -999.25    -999.25    1.63430   73.04700   91.30780   91.30780    1.73920  186.07760  186.07760    -999.25    -999.25    -999.25    2.44540    1.63430    1.73920  -41.42260   -6.92090    2.44540    6.15980
 7450.00000    8.43240    8.43240    -999.25    -999.25  610.64970    -999.25    -999.25    -999.25    -999.25    1.63760   64.46400   87.47040   87.47040    1.73480  222.96910  222.96910    -999.25    -999.25    -999.25    2.48260    1.63760    1.73480  -38.48740   -8.13360    2.48260   11.58700
 7500.00000    8.16660    8.16660    -999.25    -999.25  652.06050    -999.25    -999.25    -999.25    -999.25    1.53360   67.77110   89.73020   89.73020    1.61920  193.94400  193.94400    -999.25    -999.25    -999.25    2.31500    1.53360    1.61920  -37.53450   -9.74120    2.31500   20.41060
