~Version ---------------------------------------------------
VERS. 2.0 : CWLS log ASCII Standard -VERSION 2.0
WRAP. YES : MULTIPLE LINES PER DEPTH STEP
~Well ------------------------------------------------------
STRT.FT                  1500.0 : START DEPTH
STOP.FT                  8000.0 : STOP DEPTH
STEP.FT                50.00000 : STEP LENGTH
NULL.                   -999.25 : NULL VALUE
COMP.  AMOCO PRODUCTION COMPANY : COMPANY
WELL.            LEON F CASH #1 : WELL
FLD . CALDWELL, N.E. GEORGETOWN : FIELD
LOC .                           : LOCATION
CNTY.                    BRAZOS : COUNTY
STAT.                     TEXAS : STATE
CTRY.  UNITED STATES OF AMERICA : COUNTRY
SRVC.             Dresser Atlas : SERVICE COMPANY
DATE.               17-Jul-1984 : LOGDATE
API .            42041311700000 : API NUMBER
UWI .            42041311700000 : UNIQUE WELL ID
SLAT.WGS84        30.6324896391 : SURFACE LATITUDE
SLON.WGS84       -96.5352157138 : SURFACE LONGITUDE
~Curve Information -----------------------------------------
DEPT    .FT        : DEPTH FEET
CALDED  .IN        : CALIPER FROM DENSITY LOG [ADJ TO GRRED]
CALWS   .IN        : CALIPER [CALDED]
CNCED   .V/V       : NEUTRON POROSITY SANDSTONE FROM DENSITY LOG [ADJ TO GRRED]
CNCLSED .V/V       : NEUTRON POROSITY LIMESTONE FROM DENSITY LOG [ADJ TO GRRED]
CONDWS  .MMHO      : CONDUCTIVITY [1000/DRESWS]
CORRED  .G/C3      : DENSITY CORRECTION FROM DENSITY LOG [ADJ TO GRRED]
DCORWS  .G/C3      : DENSITY CORRECTION [CORRED]
DENED   .G/C3      : BULK DENSITY FROM DENSITY LOG [ADJ TO GRRED]
DENWS   .G/C3      : BULK DENSITY [M=2.65 F=1.0] [DENED]
DPOWS   .V/V       : DENSITY POROSITY [M=2.65 F=1.0] [SPL PORDED <7162.5F> PORDLSED]
DRESWS  .OHMM      : DEEP RESISTIVITY [RILDED]
GRDED   .GAPI      : GAMMA RAY FROM DENSITY LOG [ADJ TO GRRED]
GRRED   .GAPI      : GAMMA RAY FROM RESISTIVITY LOG
GRTED   .GAPI      : GAMMA RAY FROM TDT LOG [ADJ TO GRRED]
GRWS    .GAPI      : GAMMA RAY [GRRED, CSG ABOVE 1500F]
MRESWS  .OHMM      : MEDIUM RESISTIVITY [RILMED]
NPOWS   .V/V       : NEUTRON POROSITY [SPL CNCED <7155F> CNCLSED, CSG ABOVE 1500F]
PORDED  .V/V       : DENSITY POROSITY [M=2.65 F=1.0] FROM DENSITY LOG [ADJ TO GRRED]
PORDLSED.V/        : DENSITY POROSITY [M=2.71 F=1.0] FROM DENSITY LOG [ADJ TO GRRED]
RATIOED .UNITLESS  : RATIO FROM TDT LOG [ADJ TO GRRED]
RFOCED  .OHMM      : FOCUSED RESISTIVITY
RILDED  .OHMM      : INDUCTION LOG DEEP RESISTIVITY
RILMED  .OHMM      : INDUCTION LOG MEDIUM RESISTIVITY
SIGMED  .CU        : NEUTRON CAPTURE CROSS SECTION FROM TDT LOG [ADJ TO GRRED]
SPRED   .MV        : SPONTANEOUS POTENTIAL FROM RESISTIVITY LOG
SPWS    .MV        : SPONTANEOUS POTENTIAL [BASELINE 0 MV] [SPRED]
SRESWS  .OHMM      : SHALLOW RESISTIVITY [RFOCED]
TENDED  .LBF       : TENSION FROM DENSITY LOG [ADJ TO GRRED]
TENRED  .LBF       : TENSION FROM RESISTIVITY LOG
TENTED  .LBF       : TENSION FROM TDT LOG [ADJ TO GRRED]
~Params ----------------------------------------------------
PD  .                     GL : PERMANENT DATUM
EPD .FT                244.7 : ELEVATION PERMANENT DATUM
LMF .                     KB : LOG MEASURED FROM
DAPD.FT                23.58 : FEET ABOVE PERMANENT DATUM
DMF .                     KB : DRILLING MEASURED FROM
EKB .FT               268.29 : KELLY BUSHING
EDF .FT               267.28 : DRILLING FLOOR
EGL .FT                244.7 : GROUND LEVEL
DATE.               07/17/84 : RUN DATE
RUN .                      1 : RUN NUMBER
DD  .FT                 8835 : DEPTH DRILLER
DL  .FT                 8824 : DEPTH LOGGER
BLI .FT                 8822 : BOTTOM LOG INTERVAL
TLI .FT                 1500 : TOP LOG INTERVAL
CS  .IN                8.625 : CASING SIZE
CBD .FT                 1500 : CASING BOTTOM DRILLER
CBL .FT                 1500 : CASING BOTTOM LOGGER
BS  .IN                7.875 : BIT SIZE
BSD .FT                 8825 : BIT SIZE AT DEPTH
DFT .                 LO SOL : DRILLING FLUID TYPE
DFD .                    9.2 : DRILLING FLUID DENSITY
DFV .                     47 : DRILLING FLUID VISCOSITY
DFPH.                    8.9 : DRILLING FLUID PH
DFL .                    9.2 : DRILLING FLUID LOSS
MSS .               FLOWLINE : MUD SAMPLE SOURCE
RMS .OHMM               3.38 : RESISTIVITY MUD SAMPLE
MST .DEGF                 75 : MUD SAMPLE TEMPERATURE
RMF .OHMM               2.74 : RESISTIVITY MUD FILTRATE SAMPLE
MFST.DEGF                 75 : MUD FILTRATE SAMPLE TEMPERATURE
RMC .OHMM               4.23 : RESISTIVITY MUD CAKE
MCST.DEGF                 75 : MUD CAKE SAMPLE TEMPERATURE
MFSS.               MEASURED : MUD FILTRATE SAMPLE SOURCE
MCSS.             CALCULATED : MUD CAKE SAMPLE SOURCE
RMB .OHMM               1.33 : RESISTIVITY MUD AT BHT
TCS .HRS                   5 : TIME CIRCULATED STOPPED
LUN .                HL 6300 : LOGGING UNIT NUMBER
LUL .                  BRYAN : LOGGING UNIT LOCATION
ENGI.                 WRIGHT : RECORDING ENGINEER
WITN.               DEPAOLIS : WITNESSED BY
CLNT.                A2DTECH : CLIENT CODE
ORIG.            2" 5" PRINT : ORIGIN OF DATA
UWI .         42041311700000 : UNIQUE WELL ID
DICO. A2D Technologies, Inc. : DIGITIZING COMPANY
~Other -----------------------------------------------------
~ASCII -----------------------------------------------------
# ...
 6300.00000    9.13970    9.13970    0.18830    -999.25  363.43810   -0.00240   -0.00240    2.47980    2.47510    0.10600    2.75150   79.13320   80.00100    -999.25   80.00100    2.99280    0.18830    0.10600    -999.25    -999.25    3.24050    2.75150    2.99280    -999.25  -64.95580   -6.88880    3.24050    0.00000   12.71050    -999.25
 6350.00000    9.05160    9.05160    0.22620    -999.25  458.37920   -0.00320   -0.00320    2.44960    2.44990    0.12130    2.18160   84.52180   86.04660    -999.25   86.04660    2.34860    0.22620    0.12130    -999.25    -999.25    2.83710    2.18160    2.34860    -999.25  -64.17970   -6.64810    2.83710    5.85110    6.60030    -999.25
 6400.00000    9.04810    9.04810    0.22270    -999.25  444.52350   -0.01260   -0.01260    2.47660    2.47440    0.10640    2.24960   79.78730   88.61410    -999.25   88.61410    2.41380    0.22270    0.10640    -999.25    -999.25    2.98690    2.24960    2.41380    -999.25  -61.91340   -4.91730    2.98690   12.24020   11.29700    -999.25
 6450.00000    9.07040    9.07040    0.25460    -999.25  504.21020    0.00310    0.00310    2.51220    2.50990    0.08490    1.98330   84.23080   88.02530    -999.25   88.02530    2.12350    0.25460    0.08490    -999.25    -999.25    2.84210    1.98330    2.12350    -999.25  -58.44830   -1.98760    2.84210    0.00000   16.59210    -999.25
 6500.00000    9.14580    9.14580    0.26730    -999.25  656.29720    0.09550    0.09550    2.44170    2.44840    0.12220    1.52370   94.14110   95.91810    -999.25   95.91810    1.72150    0.26730    0.12220    -999.25    -999.25    2.43670    1.52370    1.72150    -999.25  -58.34470   -2.41940    2.43670    3.03410    9.21310    -999.25
 6550.00000    9.39160    9.39160    0.31110    -999.25  715.87080    0.10870    0.10870    2.46550    2.46830    0.11010    1.39690  101.04550  114.22320    -999.25  114.22320    1.50630    0.31110    0.11010    -999.25    -999.25    2.17230    1.39690    1.50630    -999.25  -60.33580   -4.94600    2.17230    0.00000   12.45550    -999.25
 6600.00000    9.50790    9.50790    0.29570    -999.25  716.94870    0.07470    0.07470    2.44690    2.44540    0.12400    1.39480  106.78840  104.73980    -999.25  104.73980    1.49560    0.29570    0.12400    -999.25    -999.25    2.18080    1.39480    1.49560    -999.25  -60.38560   -5.53120    2.18080    0.00000    5.25170    -999.25
 6650.00000    9.44700    9.44700    0.29090    -999.25  649.73030    0.05520    0.05520    2.47570    2.46770    0.11050    1.53910   98.96880   98.97020    -999.25   98.97020    1.65040    0.29090    0.11050    -999.25    -999.25    2.31800    1.53910    1.65040    -999.25  -58.10620   -3.78730    2.31800   18.59160   10.42920    -999.25
 6700.00000    9.36400    9.36400    0.29070    -999.25  642.67350    0.07040    0.07040    2.45520    2.45330    0.11920    1.55600   95.44390   99.09070    -999.25   99.09070    1.72550    0.29070    0.11920    -999.25    -999.25    2.37140    1.55600    1.72550    -999.25  -59.67570   -5.89220    2.37140    0.00000    8.51830    -999.25
 6750.00000    9.41710    9.41710    0.27530    -999.25  619.84750    0.06680    0.06680    2.50230    2.49750    0.09240    1.61330   97.16350   95.08900    -999.25   95.08900    1.72200    0.27530    0.09240    -999.25    -999.25    2.34310    1.61330    1.72200    -999.25  -58.32480   -5.07680    2.34310    0.00000    4.00360    -999.25
 6800.00000    9.36960    9.36960    0.28510    -999.25  634.07520    0.06210    0.06210    2.45980    2.45630    0.11740    1.57710  100.26700  102.42980    -999.25  102.42980    1.68950    0.28510    0.11740    -999.25    -999.25    2.33690    1.57710    1.68950    -999.25  -55.84090   -3.12830    2.33690    0.00000   16.48870    -999.25
 6850.00000    9.57870    9.57870    0.28500    -999.25  680.50360    0.07830    0.07830    2.48380    2.48150    0.10210    1.46950   89.28890   96.68010    -999.25   96.68010    1.56400    0.28500    0.10210    -999.25    -999.25    2.30680    1.46950    1.56400    -999.25  -57.66550   -5.48840    2.30680    0.00000    9.24420    -999.25
 6900.00000    9.58620    9.58620    0.29470    -999.25  650.78750    0.09560    0.09560    2.50010    2.49800    0.09210    1.53660   92.99350   97.78540    -999.25   97.78540    1.63010    0.29470    0.09210    -999.25    -999.25    2.28090    1.53660    1.63010    -999.25  -56.12790   -4.48620    2.28090    8.11210   15.88750    -999.25
 6950.00000    9.53420    9.53420    0.28100    -999.25  642.46710    0.04920    0.04920    2.48810    2.48500    0.10000    1.55650   89.77300   92.38560    -999.25   92.38560    1.63900    0.28100    0.10000    -999.25    -999.25    2.36040    1.55650    1.63900    -999.25  -55.77150   -4.66530    2.36040    0.00000   12.90550    -999.25
 7000.00000    9.51640    9.51640    0.28110    -999.25  650.44880    0.08650    0.08650    2.49710    2.49440    0.09430    1.53740   96.97660   95.25110    -999.25   95.25110    1.62980    0.28110    0.09430    -999.25    -999.25    2.32440    1.53740    1.62980    -999.25  -55.05610   -4.48530    2.32440    0.00000    7.75870    -999.25
 7050.00000    9.59570    9.59570    0.31480    -999.25  700.32920    0.07050    0.07050    2.49560    2.49140    0.09610    1.42790   97.56170   95.59280    -999.25   95.59280    1.54070    0.31480    0.09610    -999.25    -999.25    2.24520    1.42790    1.54070    -999.25  -56.14070   -6.10540    2.24520    8.81460    6.80130    -999.25
 7100.00000    9.47580    9.47580    0.28250    -999.25  674.08150    0.08890    0.08890    2.48610    2.48270    0.10140    1.48350   93.07180   94.81470   96.56840   94.81470    1.59120    0.28250    0.10140    -999.25    6.27900    2.33650    1.48350    1.59120   26.71980  -55.27480   -5.77490    2.33650    9.57490   13.80550    3.27590
 7150.00000    9.05690    9.05690    0.29060    -999.25  585.82310    0.07730    0.07730    2.49010    2.49260    0.09540    1.70700   91.77810   92.69720   96.58420   92.69720    1.82330    0.29060    0.09540    -999.25    5.81950    2.59420    1.70700    1.82330   23.91590  -53.14380   -4.17940    2.59420    2.36470    4.95990    3.06730
 7200.00000    8.88790    8.88790    -999.25    0.22330  558.22270    0.04110    0.04110    2.53620    2.53510    0.10230    1.79140   89.91150   87.54890   93.08020   87.54890    1.91340    0.22330    -999.25    0.10230    5.28050    2.67310    1.79140    1.91340   24.84280  -49.92580   -1.69700    2.67310   10.43800   19.09080    2.77640
 7250.00000    8.44540    8.44540    -999.25    0.11540  231.10170   -0.04500   -0.04500    2.54120    2.54040    0.09920    4.32710   39.87850   51.98760   48.79920   51.98760    4.60470    0.11540    -999.25    0.09920    3.61120    4.84830    4.32710    4.60470   16.53780  -53.22140   -5.97290    4.84830    0.00000   11.28360    1.41320
 7300.00000    8.54200    8.54200    -999.25    0.10130   97.81200    0.01010    0.01010    2.48780    2.48630    0.13080   10.22370   26.06770   33.98130   34.74520   33.98130    9.64580    0.10130    -999.25    0.13080    3.00140   10.98110   10.22370    9.64580   14.53530  -80.21740  -33.94920   10.98110    0.00000   15.42210    3.53310
 7350.00000    8.49320    8.49320    -999.25    0.11600  121.48310   -0.01210   -0.01210    2.50000    2.50620    0.11920    8.23160   38.46780   54.15790   60.17160   54.15790   11.33100    0.11600    -999.25    0.11920    3.71700   29.07460    8.23160   11.33100   15.54840  -74.42320  -29.13540   29.07460    5.58150   18.62020    4.43650
 7400.00000    9.57650    9.57650    -999.25    0.31000  841.25520    0.10880    0.10880    2.45200    2.44970    0.15220    1.18870  112.00080  111.53760  115.39520  111.53760    1.26270    0.31000    -999.25    0.15220    7.31090    2.55950    1.18870    1.26270   31.86390  -56.22220  -11.94950    2.55950    0.71670   20.55120    2.84020
 7450.00000    9.57850    9.57850    -999.25    0.31470  868.73430    0.14920    0.14920    2.33100    2.32920    0.22270    1.15110  114.76860  112.53670  108.90980  112.53670    1.23300    0.31470    -999.25    0.22270    7.62540    2.04150    1.15110    1.23300   25.59250  -48.48270   -5.27130    2.04150    0.00000   15.09080    1.72030
