~Version ---------------------------------------------------
VERS. 2.0 : CWLS log ASCII Standard -VERSION 2.0
WRAP. YES : MULTIPLE LINES PER DEPTH STEP
~Well ------------------------------------------------------
STRT.FT                      1000.0 : START DEPTH
STOP.FT                      8050.0 : STOP DEPTH
STEP.FT                    50.00000 : STEP LENGTH
NULL.                       -999.25 : NULL VALUE
COMP. MACHII ROSS PETROLEUM COMPANY : COMPANY
WELL.                    KINCAID #1 : WELL
FLD .                   LOS CUATROS : FIELD
LOC .                               : LOCATION
CNTY.                      MAVERICK : COUNTY
STAT.                         TEXAS : STATE
CTRY.      UNITED STATES OF AMERICA : COUNTRY
SRVC.                 Dresser Atlas : SERVICE COMPANY
DATE.                   19-Sep-1978 : LOGDATE
API .                42323312560000 : API NUMBER
UWI .                42323312560000 : UNIQUE WELL ID
SLAT.WGS84             28.770602727 : SURFACE LATITUDE
SLON.WGS84          -100.4374528413 : SURFACE LONGITUDE
~Curve Information -----------------------------------------
DEPT  .FT    : DEPTH FEET
CALDED.IN    : CALIPER FROM DENSITY LOG [DEP AD TO GRRED]
CALRED.IN    : CALIPER FROM RESISTIVITY LOG
CALWS .IN    : CALIPER [976 CALRED 1886.5 CALDED]
CONDWS.MMHO  : CONDUCTIVITY [1000/DRESWS]
CORRED.G/C3  : DENSITY CORRECTION FROM DENSITY LOG [DEP AD TO GRRED]
DCORWS.G/C3  : DENSITY CORRECTION [CORRED]
DENWS .G/C3  : BULK DENSITY [M=2.71 F=1.0] [CALCULATED FROM DPOWS]
DPHIED.V/V   : DENSITY POROSITY [M=2.71 F=1.0] FROM DENSITY LOG [DEP AD TO GRRED]
DPOWS .V/V   : DENSITY POROSITY [M=2.71 F=1.0] [DPHIED]
DRESWS.OHMM  : DEEP RESISTIVITY [ILDED]
DTED  .US/F  : DELTA TIME FROM SONIC LOG
DTWS  .US/F  : DELTA TIME [DTED]
GRDED .GAPI  : GAMMA RAY FROM DENSITY LOG [DEP AD TO GRRED]
GRRED .GAPI  : GAMMA RAY FROM RESISTIVITY LOG
GRWS  .GAPI  : GAMMA RAY [976 GRRED 1805.5 GRDED 7558.5 GRRED 7718.5 GRDED]
ILDED .OHMM  : INDUCTION LOG DEEP RESISTIVITY
ILMED .OHMM  : INDUCTION LOG MEDIUM RESISTIVITY
MRESWS.OHMM  : MEDIUM RESISTIVITY [ILMED]
NPHIED.V/V   : NEUTRON POROSITY SANDSTONE FROM DENSITY LOG [DEP AD TO GRRED]
NPOWS .V/V   : NEUTRON POROSITY SANDSTONE [NPHIED]
SFLUED.OHMM  : SPHERICALLY FOCUSED LOG RESISTIVITY
SPRED .MV    : SPONTANEOUS POTENTIAL FROM RESISTIVITY LOG
SPWS  .MV    : SPONTANEOUS POTENTIAL [BASELINE 0 MV] [SPRED]
SRESWS.OHMM  : SHALLOW RESISTIVITY [SFLUED]
TENDED.LBF   : TENSION FROM DENSITY LOG [DEP AD TO GRRED]
~Params ----------------------------------------------------
PD  .                     GL : PERMANENT DATUM
EPD .FT                  884 : ELEVATION PERMANENT DATUM
LMF .                     KB : LOG MEASURED FROM
DAPD.FT                   21 : FEET ABOVE PERMANENT DATUM
DMF .                     KB : DRILLING MEASURED FROM
EKB .FT                  905 : KELLY BUSHING
EDF .FT                  904 : DRILLING FLOOR
EGL .FT                  884 : GROUND LEVEL
DATE.              9-19-1978 : RUN DATE
RUN .                      2 : RUN NUMBER
DD  .FT                 8050 : DEPTH DRILLER
DL  .FT                 8050 : DEPTH LOGGER
BLI .FT                 8048 : BOTTOM LOG INTERVAL
TLI .FT                 6461 : TOP LOG INTERVAL
CS  .IN                9.625 : CASING SIZE
CBD .FT                 6473 : CASING BOTTOM DRILLER
CBL .FT                 6456 : CASING BOTTOM LOGGER
BS  .IN                7.875 : BIT SIZE
BSD .FT                 8050 : BIT SIZE AT DEPTH
DFT .                  LIGNO : DRILLING FLUID TYPE
DFD .                   14.6 : DRILLING FLUID DENSITY
DFV .                     48 : DRILLING FLUID VISCOSITY
DFPH.                     11 : DRILLING FLUID PH
DFL .                    7.2 : DRILLING FLUID LOSS
MSS .                    PIT : MUD SAMPLE SOURCE
RMS .OHMM                1.4 : RESISTIVITY MUD SAMPLE
MST .DEGF                 75 : MUD SAMPLE TEMPERATURE
RMF .OHMM               1.07 : RESISTIVITY MUD FILTRATE SAMPLE
MFST.DEGF                 75 : MUD FILTRATE SAMPLE TEMPERATURE
RMC .OHMM               1.75 : RESISTIVITY MUD CAKE
MCST.DEGF                 75 : MUD CAKE SAMPLE TEMPERATURE
MFSS.                   MEAS : MUD FILTRATE SAMPLE SOURCE
MCSS.                   CALC : MUD CAKE SAMPLE SOURCE
RMB .OHMM               0.61 : RESISTIVITY MUD AT BHT
TCS .HRS                   6 : TIME CIRCULATED STOPPED
LUN .                   6160 : LOGGING UNIT NUMBER
LUL .                  ALICE : LOGGING UNIT LOCATION
ENGI.                 BOYKIN : RECORDING ENGINEER
WITN.                 WALKER : WITNESSED BY
CLNT.                A2DTECH : CLIENT CODE
ORIG.          1" 2.5" PRINT : ORIGIN OF DATA
UWI .         42323312560000 : UNIQUE WELL ID
DICO. A2D Technologies, Inc. : DIGITIZING COMPANY
~Other -----------------------------------------------------
~ASCII -----------------------------------------------------
 1000.00000    -999.25   15.50200   15.50200  500.00000    -999.25    -999.25    -999.25    -999.25    -999.25    2.00000  128.91290  128.91290    -999.25   75.58120   75.58120    2.00000    2.02280    2.02280    -999.25    -999.25    2.01840  -42.75720  -16.67400    2.01840    -999.25
 1050.00000    -999.25   14.43530   14.43530  325.43610    -999.25    -999.25    -999.25    -999.25    -999.25    3.07280  101.64400  101.64400    -999.25   69.25630   69.25630    3.07280    3.07280    3.07280    -999.25    -999.25    3.06790  -34.37920   -7.31370    3.06790    -999.25
 1100.00000    -999.25   13.05190   13.05190  250.54490    -999.25    -999.25    -999.25    -999.25    -999.25    3.99130   93.47120   93.47120    -999.25   66.03590   66.03590    3.99130    3.89680    3.89680    -999.25    -999.25    3.75230  -34.01320   -5.73490    3.75230    -999.25
 1150.00000    -999.25   14.36940   14.36940  486.47600    -999.25    -999.25    -999.25    -999.25    -999.25    2.05560  112.05510  112.05510    -999.25   75.86140   75.86140    2.05560    2.17850    2.17850    -999.25    -999.25    2.50030  -33.43110   -4.56140    2.50030    -999.25
 1200.00000    -999.25   15.05640   15.05640  498.28090    -999.25    -999.25    -999.25    -999.25    -999.25    2.00690  120.45720  120.45720    -999.25   74.02380   74.02380    2.00690    2.00690    2.00690    -999.25    -999.25    2.14940  -32.37730   -3.97400    2.14940    -999.25
 1250.00000    -999.25   14.63130   14.63130  368.88120    -999.25    -999.25    -999.25    -999.25    -999.25    2.71090  110.20400  110.20400    -999.25   72.47170   72.47170    2.71090    2.66550    2.66550    -999.25    -999.25    2.37920  -32.53100   -4.59410    2.37920    -999.25
 1300.00000    -999.25   14.25940   14.25940  220.80900    -999.25    -999.25    -999.25    -999.25    -999.25    4.52880   93.34650   93.34650    -999.25   61.01810   61.01810    4.52880    4.32160    4.32160    -999.25    -999.25    4.00420  -35.32390   -7.85340    4.00420    -999.25
 1350.00000    -999.25   14.34070   14.34070  392.68040    -999.25    -999.25    -999.25    -999.25    -999.25    2.54660  105.76830  105.76830    -999.25   73.23910   73.23910    2.54660    2.71580    2.71580    -999.25    -999.25    3.08680  -29.75470   -2.75070    3.08680    -999.25
 1400.00000    -999.25   14.46330   14.46330  481.39410    -999.25    -999.25    -999.25    -999.25    -999.25    2.07730  113.34780  113.34780    -999.25   65.31280   65.31280    2.07730    2.13210    2.13210    -999.25    -999.25    2.38850  -28.13020   -1.59260    2.38850    -999.25
 1450.00000    -999.25   14.46210   14.46210  280.47340    -999.25    -999.25    -999.25    -999.25    -999.25    3.56540  100.11550  100.11550    -999.25   61.25500   61.25500    3.56540    3.47620    3.47620    -999.25    -999.25    3.36660  -28.21610   -1.57480    3.36660    -999.25
 1500.00000    -999.25   14.46610   14.46610  372.35630    -999.25    -999.25    -999.25    -999.25    -999.25    2.68560  107.49020  107.49020    -999.25   60.05980   60.05980    2.68560    3.01720    3.01720    -999.25    -999.25    3.15820  -31.29350   -4.22780    3.15820    -999.25
 1550.00000    -999.25   14.09650   14.09650  134.54420    -999.25    -999.25    -999.25    -999.25    -999.25    7.43250   81.25980   81.25980    -999.25   45.71710   45.71710    7.43250    6.90780    6.90780    -999.25    -999.25    6.53370  -36.18850   -8.69850    6.53370    -999.25
 1600.00000    -999.25   14.07870   14.07870  198.60970    -999.25    -999.25    -999.25    -999.25    -999.25    5.03500   90.19690   90.19690    -999.25   51.10530   51.10530    5.03500    5.15050    5.15050    -999.25    -999.25    5.30490  -36.93640   -9.02200    5.30490    -999.25
 1650.00000    -999.25   14.06100   14.06100  254.22010    -999.25    -999.25    -999.25    -999.25    -999.25    3.93360   94.74120   94.74120    -999.25   55.87650   55.87650    3.93360    3.89680    3.89680    -999.25    -999.25    4.33300  -34.66140   -6.32260    4.33300    -999.25
 1700.00000    -999.25   14.01000   14.01000  134.06080    -999.25    -999.25    -999.25    -999.25    -999.25    7.45930   79.56690   79.56690    -999.25   37.18780   37.18780    7.45930    7.46980    7.46980    -999.25    -999.25    6.43930  -35.45820   -6.69510    6.43930    -999.25
 1750.00000    -999.25   14.10760   14.10760  143.59980    -999.25    -999.25    -999.25    -999.25    -999.25    6.96380   77.99210   77.99210    -999.25   34.63420   34.63420    6.96380    7.17140    7.17140    -999.25    -999.25   14.26280  -36.25500   -7.06750   14.26280    -999.25
 1800.00000    -999.25   13.89770   13.89770  103.49180    -999.25    -999.25    -999.25    -999.25    -999.25    9.66260   73.80910   73.80910   31.21100   28.58700   28.58700    9.66260    8.31910    8.31910    0.10100    -999.25   11.88060  -41.83270  -12.22080   11.88060    -999.25
 1850.00000   14.41900   13.84080   13.84080  137.56290    0.11200    0.11200    2.45690    0.14800    0.14800    7.26940   78.36940   78.36940   40.82600   42.72910   40.82600    7.26940    8.38970    8.38970    0.13500    0.13500   13.25740  -47.68330  -17.64710   13.25740  959.50300
 1900.00000   14.51900   13.86850   14.51900  112.73320    0.09300    0.09300    2.50140    0.12200    0.12200    8.87050   64.91930   64.91930   28.55500   28.52780   28.55500    8.87050   14.26280   14.26280    0.07600    0.07600   11.45550  -46.06200  -15.60140   11.45550  994.25200
 1950.00000   14.64500   14.20520   14.64500  210.42880    0.13700    0.13700    2.20210    0.29700    0.29700    4.75220   66.10490   66.10490   40.52400   37.92050   40.52400    4.75220    5.76750    5.76750    0.11300    0.11300   12.78160  -43.93370  -13.04870   12.78160  983.13600
 2000.00000   14.63600   13.98800   14.63600  211.17090    0.21900    0.21900    2.27570    0.25400    0.25400    4.73550  113.62200  113.62200   38.68700   44.62640   38.68700    4.73550    5.05310    5.05310    0.11300    0.11300    6.09140  -34.73360   -3.42430    6.09140 1005.33300
 2050.00000   14.63000   14.38950   14.63000   97.42130    0.13400    0.13400    2.48770    0.13000    0.13000   10.26470   65.29170   65.29170   27.84700   29.38180   27.84700   10.26470   13.01730   13.01730    0.08200    0.08200   15.47580  -50.82210  -17.86180   15.47580  885.10000
 2100.00000   14.57000   13.90840   14.57000  412.69450    0.15400    0.15400    2.35260    0.20900    0.20900    2.42310  100.82680  100.82680   59.66700   59.46220   59.66700    2.42310    2.66740    2.66740    0.16100    0.16100    2.50180  -45.01990  -10.33030    2.50180  944.42900
 2150.00000   14.56200   13.97080   14.56200  107.61250    0.16800    0.16800    2.41930    0.17000    0.17000    9.29260   64.80310   64.80310   29.32400   26.92670   29.32400    9.29260   11.09370   11.09370    0.08400    0.08400   10.84320  -51.85430  -15.43550   10.84320  757.20400
 2200.00000   14.56800   13.98360   14.56800   75.44610    0.15900    0.15900    2.49800    0.12400    0.12400   13.25450   65.87960   65.87960   25.91000   28.44620   25.91000   13.25450   13.25400   13.25400    0.08600    0.08600   14.26780  -55.11290  -16.96480   14.26780  758.73600
 2250.00000   14.56800   13.87390   14.56800   89.35270    0.14000    0.14000    2.50310    0.12100    0.12100   11.19160   67.96600   67.96600   29.95500   28.13430   29.95500   11.19160   11.14580   11.14580    0.09800    0.09800   12.71660  -55.96920  -16.09180   12.71660  805.80700
 2300.00000   13.95600   13.31080   13.95600  183.97570   -0.01300   -0.01300    2.24320    0.27300    0.27300    5.43550   61.06300   61.06300   31.09100   38.11420   31.09100    5.43550    6.69210    6.69210    0.14300    0.14300   10.68580  -52.19120  -10.58460   10.68580  950.00000
 2350.00000   13.38900   13.04950   13.38900  101.04790    0.01900    0.01900    2.57660    0.07800    0.07800    9.89630   65.39370   65.39370   28.76200   33.16730   28.76200    9.89630   13.50560   13.50560    0.13000    0.13000   10.07880  -49.00400   -5.66810   10.07880  930.85300
