~Version ---------------------------------------------------
VERS. 2.0 : CWLS log ASCII Standard -VERSION 2.0
WRAP.  NO : ONE LINE PER DEPTH STEP
~Well ------------------------------------------------------
STRT.F                   300.0 : START DEPTH
STOP.F                 13300.0 : STOP DEPTH
STEP.F                50.00000 : STEP LENGTH
NULL.                  -999.25 : NULL VALUE
COMP.         DALECO RESOURCES : COMPANY
WELL.                 OLSON #1 : WELL
FLD .               CLAY CREEK : FIELD
LOC .                          : LOCATION
CNTY.               WASHINGTON : COUNTY
STAT.                    TEXAS : STATE
CTRY. UNITED STATES OF AMERICA : COUNTRY
SRVC.             Schlumberger : SERVICE COMPANY
DATE.              06-Jan-1984 : LOGDATE
API .           42477305280000 : API NUMBER
UWI .           42477305280000 : UNIQUE WELL ID
SLAT.WGS84           30.312105 : SURFACE LATITUDE
SLON.WGS84          -96.369064 : SURFACE LONGITUDE
~Curve Information -----------------------------------------
DEPT   .F                 : 
DCALR  .IN   07 280 01 00 : DIFFERENTIAL CALIPER FROM RESISTIVITY LOG
DPHI_LS.DEC  45 890 10 00 : DENSITY POROSITY LIMESTONE
DPHI_SS.DEC  45 890 12 00 : DENSITY POROSITY SANDSTONE
DRHO   .G/C3 45 356 01 00 : BULK DENSITY CORRECTION
GRR    .GAPI 07 310 01 00 : GAMMA RAY FROM RESISTIVITY LOG
ILD    .OHMM 07 120 46 00 : INDUCTION DEEP RESISTIVITY
ILM    .OHMM 07 120 44 00 : INDUCTION MEDIUM RESISTIVITY
NPHI_LS.DEC  42 890 01 00 : NEUTRON POROSITY LIMESTONE
NPHI_SS.DEC  42 890 03 00 : NEUTRON POROSITY SANDSTONE
SFLU   .OHMM 07 220 01 00 : SHALLOW FOCUSED RESISTIVITY (UNAVERAGED)
SPR    .MV   07 010 01 00 : SPONTANEOUS POTENTIAL FROM RESISTIVITY LOG
~Params ----------------------------------------------------
PD  .                     GL : PERMANENT DATUM
EPD .FT                  390 : ELEVATION PERMANENT DATUM
LMF .                     KB : LOG MEASURED FROM
DAPD.FT                   23 : MEASUREMENT ABOVE PERMANENT DATUM
DMF .                     KB : DRILLING MEASURED FROM
EKB .FT                  413 : KELLY BUSHING
EDF .FT                  412 : DRILLING FLOOR
EGL .FT                  390 : GROUND LEVEL
DATE.               01/06/84 : RUN DATE
RUN .                      3 : RUN NUMBER
DD  .FT                13320 : DEPTH DRILLER
DL  .FT                13323 : DEPTH LOGGER
BLI .FT                13317 : BOTTOM LOG INTERVAL
TLI .FT                11306 : TOP LOG INTERVAL
CS  .IN                7.625 : CASING SIZE
CBD .FT                11309 : CASING BOTTOM DRILLER
CBL .FT                11306 : CASING BOTTOM LOGGER
BS  .IN                  6.5 : BIT SIZE
BSD .FT                13320 : BIT SIZE AT DEPTH
DFT .                    LSN : DRILLING FLUID TYPE
DFD .                   10.4 : DRILLING FLUID DENSITY
DFV .                     45 : DRILLING FLUID VISCOSITY
DFPH.                      9 : DRILLING FLUID PH
DFL .                      4 : DRILLING FLUID LOSS
MSS .                   TANK : MUD SAMPLE SOURCE
RMS .OHMM               5.27 : RESISTIVITY MUD SAMPLE
MST .DEGF                107 : MUD SAMPLE TEMPERATURE
RMF .OHMM               3.95 : RESISTIVITY MUD FILTRATE SAMPLE
MFST.DEGF                107 : MUD FILTRATE SAMPLE TEMPERATURE
RMC .OHMM                7.9 : RESISTIVITY MUD CAKE
MCST.DEGF                107 : MUD CAKE SAMPLE TEMPERATURE
MFSS.                      C : MUD FILTRATE SAMPLE SOURCE
MCSS.                      C : MUD CAKE SAMPLE SOURCE
RMB .OHMM              2.513 : RESISTIVITY MUD AT BHT
TCS .HRS                1300 : TIME CIRCULATED STOPPED
TLAB.HRS                1930 : TIME LOGGER AT BOTTOM
LUN .                   8227 : LOGGING UNIT NUMBER
LUL .                BRENHAM : LOGGING UNIT LOCATION
ENGI.               BERDINIS : RECORDING ENGINEER
WITN.      ELLIS NORTH FILGO : WITNESSED BY
CLNT.                A2DTECH : CLIENT CODE
ORIG.            1" 5" PRINT : ORIGIN OF DATA
UWI .         42477305280000 : UNIQUE WELL ID
DICO. A2D Technologies, Inc. : DIGITIZING COMPANY
~Other -----------------------------------------------------
~ASCII -----------------------------------------------------
# ...
 6400.00000    0.60690    -999.25    0.16400    0.05120  109.33400    1.83160    1.99590    -999.25    0.38370    1.81750  -39.23070
 6450.00000    0.27770    -999.25    0.15750    0.02240   94.70620    1.68420    2.11550    -999.25    0.27970    5.49470  -77.57090
 6500.00000   -0.12550    -999.25    0.20730    0.00280   45.84990    0.69300    0.87340    -999.25    0.26260    3.39730 -100.27830
 6550.00000    0.58000    -999.25    0.10640    0.06810   99.59590    1.85340    1.70250    -999.25    0.31490    2.09790  -29.42880
 6600.00000    0.46840    -999.25    0.10980    0.02230  102.45630    2.17640    2.08960    -999.25    0.28290    2.97030  -34.21460
 6650.00000    1.60520    -999.25    0.31880    0.05210   81.56400    1.32090    1.39700    -999.25    0.32630    2.80320  -42.07790
 6700.00000    0.16240    -999.25    0.21160    0.00320   23.44720    1.09870    1.56070    -999.25    0.26910    4.39090 -101.78990
 6750.00000    0.39540    -999.25    0.18460    0.01560   60.72500    1.23320    1.64480    -999.25    0.22270    4.61930  -77.60030
 6800.00000    0.38120    -999.25    0.12680    0.00080   93.49860    1.34930    1.85190    -999.25    0.26540    4.23360  -89.23450
 6850.00000    0.84040    -999.25    0.47830   -0.03440   96.91270    2.09970    2.53700    -999.25    0.45650    7.30720  -52.25470
 6900.00000    0.69420    -999.25    0.09490    0.06790  119.82310    2.02100    1.79300    -999.25    0.31480    2.05040  -19.18830
 6950.00000    0.11400    -999.25    0.24250   -0.00110   65.41210    1.55580    1.70900    -999.25    0.27980    4.14870 -109.37160
 7000.00000    0.73220    -999.25    0.24400    0.07450   97.53300    2.81460    2.17540    -999.25    0.42300    2.11980  -13.93140
 7050.00000   -0.02390    -999.25    0.26250    0.00220   55.13070    0.75210    1.09330    -999.25    0.27500    3.24910 -108.01480
 7100.00000   -0.16250    -999.25    0.21020   -0.00680   44.22500    0.30580    0.32040    -999.25    0.28320    0.56600 -109.97300
 7150.00000   -0.27650    -999.25    0.23250   -0.00170   48.46150    0.42480    0.44060    -999.25    0.24450    2.15050 -118.96340
 7200.00000   -0.29700    -999.25    0.24480   -0.00330   48.26650    0.46130    0.50210    -999.25    0.25810    1.37390 -118.11850
 7250.00000   -0.35590    -999.25    0.07420   -0.02460   51.34030    2.47470    2.87260    -999.25    0.19440   10.68600  -94.76650
 7300.00000    0.03300    -999.25    0.10560    0.00990   58.98040    3.40370    4.44860    -999.25    0.20760   14.72320  -60.00270
 7350.00000   -0.45000    -999.25    0.13460    0.05850   66.59240    2.58560    3.47480    -999.25    0.20810   10.69730  -74.32920
 7400.00000    2.67090    -999.25    0.59950   -0.06380   38.01600   16.13090    8.09480    -999.25    -999.25 1337.31160  -25.85120
 7450.00000   -0.23880    -999.25    0.03420    0.05950   45.02760   20.50610   17.29210    -999.25    0.11050   80.09910  -89.77680
 7500.00000    7.56570    -999.25    0.59930   -0.06790   38.50620   16.60570    4.47760    -999.25    -999.25   33.25350  -22.64770
 7550.00000    0.06400    -999.25    0.19050    0.01600   56.97310    2.19340    3.65710    -999.25    0.23860    8.48280  -84.37290
 7600.00000    0.56290    -999.25    0.08620    0.03540   87.83960    3.67270    3.92440    -999.25    0.19860    6.71260  -41.65890
 7650.00000    0.33730    -999.25    0.03150    0.03340  124.22580    4.66660    4.20960    -999.25    0.22610    5.49760  -21.62830
 7700.00000    0.16420    -999.25    0.03430    0.02250  113.66330    3.38020    3.90700    -999.25    0.22160    5.56150  -30.37760
 7750.00000   -0.06900    -999.25    0.16060    0.04860   61.06450    1.77690    2.52960    -999.25    0.22690    8.39700  -83.42820
 7800.00000   -0.21340    -999.25    0.15130    0.02210   61.89880    1.30680    1.88350    -999.25    0.20870    8.30830 -101.32510
 7850.00000   -0.19430    -999.25    0.13610    0.02060   81.68270    1.61540    2.30020    -999.25    0.25210    6.56300  -79.96810
 7900.00000    0.35670    -999.25    0.09620    0.02190   89.16250    2.94920    2.93100    -999.25    0.20680    5.56490  -28.86640
 7950.00000    0.14990    -999.25    0.08180    0.03890  110.34320    2.24860    2.91300    -999.25    0.22990    3.91100  -43.33130
 8000.00000   -0.09590    -999.25    0.11790    0.03010   87.61570    2.50890    3.73080    -999.25    0.24540    8.02900  -52.41490
 8050.00000   -0.11010    -999.25    0.08420    0.00530   45.40020    2.58940    4.02320    -999.25    0.16140   20.58510  -99.85430
 8100.00000    0.20870    -999.25    0.06220    0.02560   85.19050    1.52520    2.26630    -999.25    0.19420    7.55100  -50.82090
 8150.00000   -0.19000    -999.25    0.22430    0.01030   48.92840    1.00590    1.76960    -999.25    0.22730    6.80660  -94.91170
 8200.00000    0.55730    -999.25    0.03420    0.04670  123.90380    2.30060    2.54860    -999.25    0.26750    2.91920  -14.24610
 8250.00000    0.29270    -999.25    0.08200    0.02800  105.16020    2.23990    2.48480    -999.25    0.20970    3.95780  -17.82200
 8300.00000   -0.01490    -999.25    0.18620    0.02820   52.38480    0.97660    1.63620    -999.25    0.22530    6.66160  -91.32350
 8350.00000    0.16250    -999.25    0.12670    0.03610   92.35600    1.73630    2.29700    -999.25    0.22630    5.58350  -41.39520
 8400.00000    0.59560    -999.25    0.11930    0.05010  109.63370    2.00220    2.30500    -999.25    0.25870    4.73050  -23.18530
 8450.00000    0.79040    -999.25    0.09840    0.03440   96.28720    2.01910    2.24910    -999.25    0.24350    3.12590  -18.37290
 8500.00000    0.50680    -999.25    0.09190    0.02680   82.71020    2.62780    3.15290    -999.25    0.20090    5.62880  -21.16880
 8550.00000    0.80490    -999.25    0.06720    0.00760  126.09290    2.43550    2.58180    -999.25    0.27440    2.77910   -0.02930
 8600.00000    0.98660    -999.25    0.09090    0.00840  113.49940    2.70320    2.74490    -999.25    0.25690    3.03360   -7.97590
 8650.00000    1.53760    -999.25    0.07020    0.01880  101.62560    2.47720    2.56130    -999.25    0.24950    2.75730   -8.10080
 8700.00000    1.82700    -999.25    0.08200    0.01470   98.75380    2.60970    2.75090    -999.25    0.18010    4.02780  -14.40900
 8750.00000    3.60120    -999.25    0.05610    0.07700  101.00120    2.05860    2.17230    -999.25    0.30010    2.30790    1.05670
 8800.00000    2.24100    -999.25    0.08050    0.00980   90.49670    3.32230    3.33520    -999.25    0.19040    4.07250  -22.69850
 8850.00000    1.58720    -999.25    0.13070    0.01680   61.34020    2.65310    3.84160    -999.25    0.19690    7.98200  -59.81620
 8900.00000    3.31170    -999.25    0.04950    0.06780   90.79730    2.44910    2.45830    -999.25    0.26610    2.48700  -10.45010
 8950.00000    2.82710    -999.25    0.09950   -0.00080  102.37480    2.75970    2.86290    -999.25    0.24650    3.16740   -2.96510
 9000.00000    3.33260    -999.25    0.08820    0.04310   93.69370    2.69670    2.65160    -999.25    0.21690    3.30520   -3.18830
 9050.00000    3.46950    -999.25    0.07940    0.01810   92.12000    2.72070    2.77260    -999.25    0.21910    2.84550   -2.29820
 9100.00000    3.47570    -999.25    0.07780    0.03180   93.40990    2.72370    2.77070    -999.25    0.23700    2.89460    0.14030
 9150.00000    2.84780    -999.25    0.09360    0.00530   80.77270    3.47490    3.56000    -999.25    0.21800    3.69530   -2.54700
 9200.00000    2.05710    -999.25    0.17740    0.09820   87.99590    2.14130    2.08880    -999.25    0.36510    2.19790   -1.48330
 9250.00000    2.31030    -999.25    0.13600    0.10600   89.21980    2.34980    2.40940    -999.25    0.30280    2.45420    0.64120
 9300.00000    3.90160    -999.25    0.31410    0.08150   74.62010    2.38070    2.32490    -999.25    0.49590    2.34610   -5.21490
 9350.00000    5.75540    -999.25    0.17570    0.08380   69.20250    2.16610    2.06020    -999.25    0.46020    2.20500    5.21360
 9400.00000    6.07860    -999.25    0.28560    0.06120   84.73510    2.21700    2.12730    -999.25    0.36030    2.19560    2.96310
