~Version ---------------------------------------------------
VERS.      2.0 : CWLS log ASCII Standard -VERSION 2.0
WRAP.      YES : Multiple lines per depth step
CREA. 07/19/18 : LAS Creation Date
~Well ------------------------------------------------------
STRT.FT                           4000.0 : START DEPTH
STOP.FT                          13600.0 : STOP DEPTH
STEP.FT                         50.00000 : STEP LENGTH
NULL.                            -999.25 : NULL VALUE
COMP. TEXSTAR NORTH AMERICA INCORPORATED : COMPANY
WELL.                         HOMEYER #2 : WELL
FLD .                     CENTRAL KENEDY : FIELD
LOC .                                    : LOCATION
CNTY.                             KARNES : COUNTY
STAT.                              TEXAS : STATE
CTRY.           UNITED STATES OF AMERICA : COUNTRY
SRVC.                       Schlumberger : SERVICE COMPANY
DATE.                        30-Mar-1990 : LOGDATE
API .                     42255312470000 : API NUMBER
UWI .                     42255312470000 : UNIQUE WELL ID
SLAT.WGS84                 28.7726896993 : SURFACE LATITUDE
SLON.WGS84                -97.8709093626 : SURFACE LONGITUDE
~Curve Information -----------------------------------------
DEPT    .FT    : DEPTH FEET
CALWS   .IN    : CALIPER [DCALDED+BIT]
CONDWS  .MMHO  : DEEP CONDUCTIVITY [1000/DRESWS]
DCALDED .IN    : DIFFERENTIAL CALIPER FROM DENSITY LOG
DCORWS  .G/C3  : DENSITY CORRECTION [DRHOED]
DENWS   .G/C3  : BULK DENSITY [TOP CALC. DPHISSED M=2.68 F=1.0, 12400' DPHISSED M=2.71 F=1.0]]
DPHILSED.V/V   : DENSITY POROSITY (LS) [M=2.71 F=1.0] FROM DENSITY LOG
DPHISSED.V/V   : DENSITY POROSITY (SS) [M=2.68 F=1.0] FROM DENSITY LOG
DPOLSWS .V/V   : DENSITY POROSITY LIMESTONE [M=2.71 F=1.0] [CALC. FROM DENWS]
DRESWS  .OHMM  : DEEP RESISTIVITY [ILDED]
DRHOED  .G/C3  : DENSITY CORRECTION FROM DENSITY LOG
DTED    .US/F  : DELTA TIME FROM DIL/SONIC LOG
DTLED   .US/F  : DELTA TIME LONG SPACING FROM DIL/SONIC LOG
DTWS    .US/F  : DELTA TIME COMPRESSIONAL [DTED]
GRDED   .GAPI  : GAMMA RAY FROM DENSITY LOG
GRRED   .GAPI  : GAMMA RAY FROM RESISTIVITY LOG
GRWS    .GAPI  : GAMMA RAY [TOP GRDED 6100' GRRED 13560' GRDED]
ILDED   .OHMM  : INDUCTION LOG DEEP RESISTIVITY
ILMED   .OHMM  : INDUCTION LOG MEDIUM RESISTIVITY
MRESWS  .OHMM  : MEDIUM RESISTIVITY [ILMED]
NPHILSED.V/V   : NEUTRON POROSITY LIMESTONE FROM DENSITY LOG
NPHISSED.V/V   : NEUTRON POROSITY SANDSTONE FROM DENSITY LOG
NPOLSWS .V/V   : NEUTRON POROSITY LIMESTONE [TOP CONVERSED NPHISSED TO LIME FROM POWER LOG; 12400' NPHILSED]
PEFED   .B/E   : PHOTOELECTRIC FACTOR FROM DENSITY LOG
PEFWS   .B/E   : PHOTOELECTRIC FACTOR [PEFED]
SFLUED  .OHMM  : SPHERICALLY FOCUSED LOG RESISTIVITY
SPHILSED.V/V   : SONIC POROSITY (LS) [DTM=49 DTF=189] FROM DIL/SONIC LOG
SPHISSED.V/V   : SONIC POROSITY (SS) [DTM=55.6 DTF=189] FROM DIL/SONIC LOG
SPOLSWS .V/V   : SONIC POROSITY (LS) [DTM=49 DTF=189] [CALC. FROM DTWS]
SPRED   .MV    : SPONTANEOUS POTENTIAL FROM RESISTIVITY LOG
SPWS    .MV    : SPONTANEOUS POTENTIAL [BASELINE 0 MV] [SPRED]
SRESWS  .OHMM  : SHALLOW RESISTIVITY [SFLUED]
TENDED  .LBF   : TENSION FROM DENSITY LOG
TENRED  .LBF   : TENSION FROM RESISTIVITY LOG
~Params ----------------------------------------------------
PD  .                     GL : PERMANENT DATUM
EPD .FT                  455 : ELEVATION PERMANENT DATUM
LMF .                     KB : LOG MEASURED FROM
DAPD.FT                   23 : MEASUREMENT ABOVE PERMANENT DATUM
DMF .                     KB : DRILLING MEASURED FROM
EKB .FT                  478 : KELLY BUSHING
EDF .FT                  477 : DRILLING FLOOR
EGL .FT                  455 : GROUND LEVEL
DATE.               03/30/90 : RUN DATE
RUN .                      1 : RUN NUMBER
DD  .FT                13600 : DEPTH DRILLER
DL  .FT                13608 : DEPTH LOGGER
BLI .FT                13602 : BOTTOM LOG INTERVAL
TLI .FT                 3954 : TOP LOG INTERVAL
CS  .IN                9.625 : CASING SIZE
CBD .FT                 3950 : CASING BOTTOM DRILLER
CBL .FT                 3954 : CASING BOTTOM LOGGER
BS  .IN                  8.5 : BIT SIZE
BSD .FT                13600 : BIT SIZE AT DEPTH
DFT .               KCL KLIG : DRILLING FLUID TYPE
DFD .                   10.7 : DRILLING FLUID DENSITY
DFV .                     41 : DRILLING FLUID VISCOSITY
DFPH.                   11.5 : DRILLING FLUID PH
DFL .                    9.4 : DRILLING FLUID LOSS
MSS .               CIRC PIT : MUD SAMPLE SOURCE
RMS .OHMM               0.63 : RESISTIVITY MUD SAMPLE
MST .DEGF                 75 : MUD SAMPLE TEMPERATURE
RMF .OHMM               0.55 : RESISTIVITY MUD FILTRATE SAMPLE
MFST.DEGF                 75 : MUD FILTRATE SAMPLE TEMPERATURE
RMC .OHMM               0.95 : RESISTIVITY MUD CAKE
MCST.DEGF                 75 : MUD CAKE SAMPLE TEMPERATURE
MFSS.                   MEAS : MUD FILTRATE SAMPLE SOURCE
MCSS.                   CALC : MUD CAKE SAMPLE SOURCE
RMB .OHMM              0.167 : RESISTIVITY MUD AT BHT
TCS .HRS                1530 : TIME CIRCULATED STOPPED
TLAB.HRS                  50 : TIME LOGGER AT BOTTOM
LUN .                   8268 : LOGGING UNIT NUMBER
LUL .             PLEASANTON : LOGGING UNIT LOCATION
ENGI.                 WILKIE : RECORDING ENGINEER
WITN.         REQUARTH GIBBS : WITNESSED BY
CLNT.                A2DTECH : CLIENT CODE
ORIG.            1" 5" PRINT : ORIGIN OF DATA
UWI .         42255312470000 : UNIQUE WELL ID
DICO. A2D Technologies, Inc. : DIGITIZING COMPANY
~Other -----------------------------------------------------
GRR SATURATED AT 5988'.
~ASCII -----------------------------------------------------
# ...
 5100.00000    -999.25 1012.76080    -999.25    -999.25    -999.25    -999.25    -999.25    -999.25    0.98740    -999.25   98.60570   95.82250   98.60570    -999.25    -999.25    -999.25    0.98740    1.05480    1.05480    -999.25    -999.25    -999.25    -999.25    -999.25    1.17100    -999.25    0.27190    0.35430  -28.94060  -10.05330    1.17100    -999.25 2123.35400
 5150.00000    -999.25  593.33100    -999.25    -999.25    -999.25    -999.25    -999.25    -999.25    1.68540    -999.25   99.35650   98.72970   99.35650    -999.25    -999.25    -999.25    1.68540    1.79620    1.79620    -999.25    -999.25    -999.25    -999.25    -999.25    1.72600    -999.25    0.27560    0.35970  -30.07620  -11.26660    1.72600    -999.25 2190.15280
 5200.00000    -999.25  645.16130    -999.25    -999.25    -999.25    -999.25    -999.25    -999.25    1.55000    -999.25   96.57200   97.25360   96.57200    -999.25    -999.25    -999.25    1.55000    1.53560    1.53560    -999.25    -999.25    -999.25    -999.25    -999.25    1.86360    -999.25    0.26490    0.33980  -24.98520   -6.25330    1.86360    -999.25 2224.74630
 5250.00000    -999.25  685.44790    -999.25    -999.25    -999.25    -999.25    -999.25    -999.25    1.45890    -999.25   96.92920   97.80960   96.92920    -999.25    -999.25    -999.25    1.45890    1.34380    1.34380    -999.25    -999.25    -999.25    -999.25    -999.25    1.56460    -999.25    0.26740    0.34240  -25.99990   -7.34570    1.56460    -999.25 2230.45750
 5300.00000    -999.25  795.98820    -999.25    -999.25    -999.25    -999.25    -999.25    -999.25    1.25630    -999.25  101.24710  100.90940  101.24710    -999.25    -999.25    -999.25    1.25630    1.33980    1.33980    -999.25    -999.25    -999.25    -999.25    -999.25    1.30910    -999.25    0.28170    0.37320  -23.63470   -5.05820    1.30910    -999.25 2178.26880
 5350.00000    -999.25 1374.57040    -999.25    -999.25    -999.25    -999.25    -999.25    -999.25    0.72750    -999.25  115.98700  114.54870  115.98700    -999.25    -999.25    -999.25    0.72750    0.76300    0.76300    -999.25    -999.25    -999.25    -999.25    -999.25    0.88410    -999.25    0.32440    0.47850  -20.26730   -1.76850    0.88410    -999.25 2240.58940
 5400.00000    -999.25 1014.09590    -999.25    -999.25    -999.25    -999.25    -999.25    -999.25    0.98610    -999.25  107.67670  106.19390  107.67670    -999.25    -999.25    -999.25    0.98610    0.96650    0.96650    -999.25    -999.25    -999.25    -999.25    -999.25    1.32040    -999.25    0.30280    0.41910  -21.75780   -3.33670    1.32040    -999.25 2238.24020
 5450.00000    -999.25  718.28760    -999.25    -999.25    -999.25    -999.25    -999.25    -999.25    1.39220    -999.25   99.31050   99.14440   99.31050    -999.25    -999.25    -999.25    1.39220    1.39940    1.39940    -999.25    -999.25    -999.25    -999.25    -999.25    1.67390    -999.25    0.27470    0.35940  -23.17060   -4.82710    1.67390    -999.25 2264.70530
 5500.00000    -999.25  977.70830    -999.25    -999.25    -999.25    -999.25    -999.25    -999.25    1.02280    -999.25  105.28510  105.51630  105.28510    -999.25    -999.25    -999.25    1.02280    1.05620    1.05620    -999.25    -999.25    -999.25    -999.25    -999.25    1.12440    -999.25    0.29470    0.40200  -21.83420   -3.56840    1.12440    -999.25 2248.47310
 5550.00000    -999.25 1135.46040    -999.25    -999.25    -999.25    -999.25    -999.25    -999.25    0.88070    -999.25  108.39570  107.19940  108.39570    -999.25    -999.25    -999.25    0.88070    0.91470    0.91470    -999.25    -999.25    -999.25    -999.25    -999.25    0.95800    -999.25    0.30260    0.42430  -20.19150   -2.00340    0.95800    -999.25 2313.28980
 5600.00000    -999.25  922.76460    -999.25    -999.25    -999.25    -999.25    -999.25    -999.25    1.08370    -999.25   98.74290  101.97110   98.74290    -999.25    -999.25    -999.25    1.08370    1.10530    1.10530    -999.25    -999.25    -999.25    -999.25    -999.25    1.29080    -999.25    0.26960    0.35530  -20.58710   -2.47670    1.29080    -999.25 2256.31570
 5650.00000    -999.25 1385.42530    -999.25    -999.25    -999.25    -999.25    -999.25    -999.25    0.72180    -999.25  106.71920  109.13910  106.71920    -999.25    -999.25    -999.25    0.72180    0.71220    0.71220    -999.25    -999.25    -999.25    -999.25    -999.25    0.70000    -999.25    0.29790    0.41230  -19.79350   -1.76080    0.70000    -999.25 2306.00390
 5700.00000    9.75370  820.61380    1.25370    0.08070    2.19460    -999.25    0.28890    0.30140    1.21860    0.08070  101.48540  101.01660  101.48540   84.92790    -999.25   84.92790    1.21860    1.21900    1.21900    -999.25    0.41610    0.37260    -999.25    -999.25    1.61110    -999.25    0.28180    0.37490  -20.76570   -2.81070    1.61110 3589.04980 2243.44040
 5750.00000    9.74000  934.49210    1.24000    0.11390    2.29600    -999.25    0.22860    0.24210    1.07010    0.11390  103.76420  104.61790  103.76420   84.53720    -999.25   84.53720    1.07010    1.10330    1.10330    -999.25    0.38880    0.34280    -999.25    -999.25    1.15200    -999.25    0.28920    0.39120  -20.89560   -3.04910    1.15200 3381.52120 2310.90430
 5800.00000    8.59250  354.04500    0.09250    0.00280    2.43070    -999.25    0.14840    0.16330    2.82450    0.00280   90.21780   89.67080   90.21780   71.59530    -999.25   71.59530    2.82450    3.04600    3.04600    -999.25    0.29630    0.24480    -999.25    -999.25    3.68910    -999.25    0.23790    0.29440  -32.91650  -15.25020    3.68910 4161.80320 2297.74100
 5850.00000    8.45150  251.02290   -0.04850    0.01320    2.38420    -999.25    0.17610    0.19060    3.98370    0.01320   91.57470   89.80410   91.57470   79.05800    -999.25   79.05800    3.98370    3.74330    3.74330    -999.25    0.26500    0.21240    -999.25    -999.25    4.05660    -999.25    0.24130    0.30410  -30.67260  -13.18650    4.05660 3341.30980 2344.87380
 5900.00000    8.55970  270.59210    0.05970    0.00230    2.46550    -999.25    0.12770    0.14300    3.69560    0.00230   88.95060   88.31420   88.95060   78.42740    -999.25   78.42740    3.69560    3.83790    3.83790    -999.25    0.30480    0.25360    -999.25    -999.25    4.44370    -999.25    0.23050    0.28540  -29.12070  -11.81470    4.44370 3361.35230 2285.74390
 5950.00000    8.34600  498.50450   -0.15400    0.02760    2.19430    -999.25    0.28910    0.30160    2.00600    0.02760   88.05880   87.32230   88.05880   33.00410    -999.25   33.00410    2.00600    1.92320    1.92320    -999.25    0.25360    0.20090    -999.25    -999.25    1.98410    -999.25    0.22630    0.27900  -27.99470  -10.86890    1.98410 3309.11060 2367.48510
 6000.00000    8.49270  238.16330   -0.00730    0.00300    2.35880    -999.25    0.19120    0.20540    4.19880    0.00300   88.65630   88.15820   88.65630   79.16290   74.99170   79.16290    4.19880    4.02270    4.02270    -999.25    0.33670    0.28700    -999.25    -999.25    4.64410    -999.25    0.23030    0.28330  -35.75330  -18.80770    4.64410 3345.18550 2346.84380
 6050.00000    8.78200  504.99950    0.28200    0.00960    2.57280    -999.25    0.06380    0.08020    1.98020    0.00960  100.96500  100.46190  100.96500  107.12340  101.94290  107.12340    1.98020    2.04170    2.04170    -999.25    0.51360    0.48100    -999.25    -999.25    2.49470    -999.25    0.28050    0.37120  -25.19310   -8.42770    2.49470 3350.96530 2369.33200
 6100.00000    8.44060  365.65750   -0.05940    0.00310    2.35000    -999.25    0.19640    0.21050    2.73480    0.00310   85.62930   85.13120   85.62930   87.83900   90.62890   87.83900    2.73480    2.66880    2.66880    -999.25    0.28850    0.23670    -999.25    -999.25    3.38690    -999.25    0.21690    0.26160  -42.99090  -26.40570    3.38690 3371.47710 2383.40670
 6150.00000    8.05840  708.46620   -0.44160    0.01080    -999.25    -999.25    -999.25    -999.25    1.41150    0.01080   85.23680   84.73850   85.23680    -999.25   50.95140   50.95140    1.41150    1.72520    1.72520    -999.25    -999.25    -999.25    -999.25    -999.25    2.43030    -999.25    0.21120    0.25880  -51.25930  -34.85430    2.43030 3438.01460 2390.39400
