~Version ---------------------------------------------------
VERS.      2.0 : CWLS log ASCII Standard -VERSION 2.0
WRAP.      YES : Multiple lines per depth step
CREA. 01/04/13 : LAS Creation Date
~Well ------------------------------------------------------
STRT.FT                 2000.0 : START DEPTH
STOP.FT                 9700.0 : STOP DEPTH
STEP.FT               50.00000 : STEP LENGTH
NULL.                  -999.25 : NULL VALUE
COMP.   TXO PRODUCTION COMPANY : COMPANY
WELL.              TXO HULL #1 : WELL
FLD .                  BRANTON : FIELD
LOC .                          : LOCATION
CNTY.                     LEON : COUNTY
STAT.                    TEXAS : STATE
CTRY. UNITED STATES OF AMERICA : COUNTRY
SRVC.             Schlumberger : SERVICE COMPANY
DATE.              17-Jul-1985 : LOGDATE
API .           42289306650000 : API NUMBER
UWI .           42289306650000 : UNIQUE WELL ID
SLAT.WGS84       31.3703569787 : SURFACE LATITUDE
SLON.WGS84      -96.2242249712 : SURFACE LONGITUDE
~Curve Information -----------------------------------------
DEPT    .FT    : DEPTH FEET
CALDED  .IN    : CALIPER FROM CNLD LOG [ADJ.TO GRRED]
CALRED  .IN    : CALIPER FROM DIL-SFL-SONIC LOG
CALWS   .IN    : CALIPER [CALRED SPL.TO CALDED @ 9704']
CONDWS  .MMHO  : CONDUCTIVITY [1000/DRESWS]
DCORWS  .G/C3  : DENSITY CORRECTION [DRHOED]
DENWS   .G/C3  : FORMATION BULK DENSITY [CALCULATED FROM DPOWS, M=2.71, F=1.0]
DPHILSED.V/V   : DENSITY POROSITY LIMESTONE [M=2.71, F=1.0] FROM CNLD LOG [ADJ.TO GRRED]
DPOWS   .V/V   : DENSITY POROSITY LIMESTONE [DPHILSED]
DRESWS  .OHMM  : DEEP RESISTIVITY [ILMED]
DRHOED  .G/C3  : DENSITY CORRECTION FROM CNLD LOG [ADJ.TO GRRED]
DTED    .US/F  : DELTA-T FROM DIL-SFL-SONIC LOG
DTWS    .US/F  : COMPRESSIONAL SONIC [DTED]
GRDED   .GAPI  : GAMMA RAY FROM CNLD LOG [ADJ.TO GRRED]
GRRED   .GAPI  : GAMMA RAY FROM DIL-SFL-SONIC LOG
GRWS    .GAPI  : GAMMA RAY [GRRED]
ILDED   .OHMM  : DEEP INDUCTION FROM DIL-SFL-SONIC LOG
ILMED   .OHMM  : MEDIUM INDUCTION FROM DIL-SFL-SONIC LOG
MRESWS  .OHMM  : MEDIUM RESISTIVITY [ILMED]
NPHILSED.V/V   : NEUTRON POROSITY LIMESTONE FROM CNLD LOG [ADJ.TO GRRED]
NPOWS   .V/V   : NEUTRON POROSITY LIMESTONE [NPHILSED]
SFLUED  .OHMM  : SHALLOW FOCUSED FROM DIL-SFL-SONIC LOG
SPRED   .MV    : SPONTANEOUS POTENTIAL FROM DIL-SFL-SONIC LOG
SPWS    .MV    : SPONTANEOUS POTENTIAL [BASELINE 0 MV, SPRED]
SRESWS  .OHMM  : SHALLOW RESISTIVITY [SFLUED]
TENDED  .LBF   : TENSION FROM CNLD LOG [ADJ.TO GRRED]
TENRED  .LBF   : TENSION FROM DIL-SFL-SONIC LOG
~Params ----------------------------------------------------
PD  .                     GL : PERMANENT DATUM
EPD .FT                  503 : ELEVATION PERMANENT DATUM
LMF .                    RKB : LOG MEASURED FROM
DAPD.FT                 13.5 : FEET ABOVE PERMANENT DATUM
DMF .                    RKB : DRILLING MEASURED FROM
EKB .FT                516.5 : KELLY BUSHING
EDF .FT                515.5 : DRILLING FLOOR
EGL .FT                  503 : GROUND LEVEL
DATE.               07/17/85 : RUN DATE
RUN .                      2 : RUN NUMBER
DD  .FT                 9750 : DEPTH DRILLER
DL  .FT                 9736 : DEPTH LOGGER
BLI .FT                 9730 : BOTTOM LOG INTERVAL
TLI .FT                 8100 : TOP LOG INTERVAL
CS  .IN                8.625 : CASING SIZE
CBD .FT                 2000 : CASING BOTTOM DRILLER
CBL .FT                 2000 : CASING BOTTOM LOGGER
BS  .IN                7.875 : BIT SIZE
BSD .FT                 9750 : BIT SIZE AT DEPTH
DFT .         LIGNOSULFONATE : DRILLING FLUID TYPE
DFD .                    9.9 : DRILLING FLUID DENSITY
DFV .                     45 : DRILLING FLUID VISCOSITY
DFPH.                    9.5 : DRILLING FLUID PH
DFL .                   11.4 : DRILLING FLUID LOSS
MSS .               CIR TANK : MUD SAMPLE SOURCE
RMS .OHMM               2.23 : RESISTIVITY MUD SAMPLE
MST .DEGF                 75 : MUD SAMPLE TEMPERATURE
RMF .OHMM               1.99 : RESISTIVITY MUD FILTRATE SAMPLE
MFST.DEGF                 75 : MUD FILTRATE SAMPLE TEMPERATURE
RMC .OHMM               3.34 : RESISTIVITY MUD CAKE
MCST.DEGF                 75 : MUD CAKE SAMPLE TEMPERATURE
MFSS.                   MEAS : MUD FILTRATE SAMPLE SOURCE
MCSS.                   CALC : MUD CAKE SAMPLE SOURCE
RMB .OHMM               1.11 : RESISTIVITY MUD AT BHT
TCS .HRS                 100 : TIME CIRCULATED STOPPED
TLAB.HRS                1000 : TIME LOGGER AT BOTTOM
LUN .                   8276 : LOGGING UNIT NUMBER
LUL .                   3808 : LOGGING UNIT LOCATION
ENGI.              LANGHAMER : RECORDING ENGINEER
WITN.              GILLESPIE : WITNESSED BY
CLNT.                A2DTECH : CLIENT CODE
ORIG.            2" 5" PRINT : ORIGIN OF DATA
UWI .         42289306650000 : UNIQUE WELL ID
DICO. A2D Technologies, Inc. : DIGITIZING COMPANY
~Other -----------------------------------------------------
~ASCII -----------------------------------------------------
# ...
 3350.00000    -999.25   10.10550   10.10550  807.36320    -999.25    -999.25    -999.25    -999.25    1.23860    -999.25  117.71790  117.71790    -999.25   89.91050   89.91050    1.23860    1.29180    1.29180    -999.25    -999.25    1.38840  -17.73910   -5.38680    1.38840    -999.25    -999.25
 3400.00000    -999.25   10.19200   10.19200  845.45150    -999.25    -999.25    -999.25    -999.25    1.18280    -999.25  119.24240  119.24240    -999.25   95.60370   95.60370    1.18280    1.21340    1.21340    -999.25    -999.25    1.31020  -17.07250   -4.72020    1.31020    -999.25    -999.25
 3450.00000    -999.25    9.48440    9.48440  911.99270    -999.25    -999.25    -999.25    -999.25    1.09650    -999.25  120.78700  120.78700    -999.25  101.57260  101.57260    1.09650    1.12500    1.12500    -999.25    -999.25    1.26100  -17.23690   -4.88460    1.26100    -999.25    -999.25
 3500.00000    -999.25   10.69280   10.69280  764.00030    -999.25    -999.25    -999.25    -999.25    1.30890    -999.25  113.86880  113.86880    -999.25   94.11740   94.11740    1.30890    1.34270    1.34270    -999.25    -999.25    1.51190  -17.50620   -5.15390    1.51190    -999.25    -999.25
 3550.00000    -999.25   10.22440   10.22440  764.87690    -999.25    -999.25    -999.25    -999.25    1.30740    -999.25  114.14250  114.14250    -999.25   91.53570   91.53570    1.30740    1.24120    1.24120    -999.25    -999.25    1.41180  -18.10390   -5.75160    1.41180    -999.25    -999.25
 3600.00000    -999.25   13.55530   13.55530  874.73760    -999.25    -999.25    -999.25    -999.25    1.14320    -999.25  121.36960  121.36960    -999.25   86.73030   86.73030    1.14320    1.17640    1.17640    -999.25    -999.25    1.22070  -13.51300   -1.16070    1.22070    -999.25    -999.25
 3650.00000    -999.25    8.99340    8.99340  348.28640    -999.25    -999.25    -999.25    -999.25    2.87120    -999.25   83.78680   83.78680    -999.25   69.23340   69.23340    2.87120    2.94880    2.94880    -999.25    -999.25    6.54440  -56.05030  -43.61500    6.54440    -999.25    -999.25
 3700.00000    -999.25    8.74530    8.74530  335.32290    -999.25    -999.25    -999.25    -999.25    2.98220    -999.25   90.75330   90.75330    -999.25   89.55920   89.55920    2.98220    3.05890    3.05890    -999.25    -999.25    2.91320  -35.21170  -22.46920    2.91320    -999.25    -999.25
 3750.00000    -999.25    8.28060    8.28060  346.14050    -999.25    -999.25    -999.25    -999.25    2.88900    -999.25   92.15130   92.15130    -999.25   88.41860   88.41860    2.88900    2.96330    2.96330    -999.25    -999.25    2.96340  -22.45310   -9.40330    2.96340    -999.25    -999.25
 3800.00000    -999.25    9.52440    9.52440  714.94960    -999.25    -999.25    -999.25    -999.25    1.39870    -999.25  109.77020  109.77020    -999.25   87.95590   87.95590    1.39870    1.41980    1.41980    -999.25    -999.25    1.64570  -17.36520   -4.13270    1.64570    -999.25    -999.25
 3850.00000    -999.25    9.95330    9.95330  687.94720    -999.25    -999.25    -999.25    -999.25    1.45360    -999.25  110.95690  110.95690    -999.25   97.30360   97.30360    1.45360    1.49270    1.49270    -999.25    -999.25    1.66510  -16.60760   -3.89840    1.66510    -999.25    -999.25
 3900.00000    -999.25   10.21780   10.21780  759.12850    -999.25    -999.25    -999.25    -999.25    1.31730    -999.25  111.58760  111.58760    -999.25   83.71760   83.71760    1.31730    1.35120    1.35120    -999.25    -999.25    1.54510  -14.68120   -2.49540    1.54510    -999.25    -999.25
 3950.00000    -999.25   10.04070   10.04070  672.31410    -999.25    -999.25    -999.25    -999.25    1.48740    -999.25  106.99890  106.99890    -999.25   93.43380   93.43380    1.48740    1.54690    1.54690    -999.25    -999.25    1.73970  -16.39400   -4.73150    1.73970    -999.25    -999.25
 4000.00000    -999.25   10.00700   10.00700  570.19040    -999.25    -999.25    -999.25    -999.25    1.75380    -999.25  101.31940  101.31940    -999.25   84.99550   84.99550    1.75380    1.79890    1.79890    -999.25    -999.25    2.11430  -16.67310   -5.53390    2.11430    -999.25    -999.25
 4050.00000    -999.25   10.11640   10.11640  630.59650    -999.25    -999.25    -999.25    -999.25    1.58580    -999.25  105.09300  105.09300    -999.25  102.51370  102.51370    1.58580    1.62850    1.62850    -999.25    -999.25    1.78640  -13.00760   -2.39170    1.78640    -999.25    -999.25
 4100.00000    -999.25   10.32260   10.32260  737.84400    -999.25    -999.25    -999.25    -999.25    1.35530    -999.25  107.99490  107.99490    -999.25   97.41650   97.41650    1.35530    1.39200    1.39200    -999.25    -999.25    1.64680  -12.92200   -2.82950    1.64680    -999.25    -999.25
 4150.00000    -999.25   10.33770   10.33770  795.67150    -999.25    -999.25    -999.25    -999.25    1.25680    -999.25  110.60550  110.60550    -999.25   99.37020   99.37020    1.25680    1.28920    1.28920    -999.25    -999.25    1.50170  -13.39860   -3.82940    1.50170    -999.25    -999.25
 4200.00000    -999.25   10.75030   10.75030  894.05450    -999.25    -999.25    -999.25    -999.25    1.11850    -999.25  114.60730  114.60730    -999.25   90.61120   90.61120    1.11850    1.14720    1.14720    -999.25    -999.25    1.39200  -13.28130   -4.23540    1.39200    -999.25    -999.25
 4250.00000    -999.25   10.81880   10.81880  847.67310    -999.25    -999.25    -999.25    -999.25    1.17970    -999.25  111.89850  111.89850    -999.25   82.76880   82.76880    1.17970    1.21000    1.21000    -999.25    -999.25    1.43840  -10.83520   -2.31270    1.43840    -999.25    -999.25
 4300.00000    -999.25   10.78450   10.78450  992.45730    -999.25    -999.25    -999.25    -999.25    1.00760    -999.25  113.72130  113.72130    -999.25   75.36610   75.36610    1.00760    1.06680    1.06680    -999.25    -999.25    1.32700  -15.72490   -5.22390    1.32700    -999.25    -999.25
 4350.00000    -999.25   10.94600   10.94600  833.95880    -999.25    -999.25    -999.25    -999.25    1.19910    -999.25  109.08440  109.08440    -999.25   99.05400   99.05400    1.19910    1.22990    1.22990    -999.25    -999.25    1.51930  -17.04640   -4.77810    1.51930    -999.25    -999.25
 4400.00000    -999.25    9.45260    9.45260  290.55410    -999.25    -999.25    -999.25    -999.25    3.44170    -999.25   87.01130   87.01130    -999.25   45.90110   45.90110    3.44170    3.53030    3.53030    -999.25    -999.25    3.82250  -26.13260  -12.94350    3.82250    -999.25    -999.25
 4450.00000    -999.25   10.48100   10.48100  539.72370    -999.25    -999.25    -999.25    -999.25    1.85280    -999.25  102.61420  102.61420    -999.25   88.13160   88.13160    1.85280    1.91650    1.91650    -999.25    -999.25    2.01130  -17.03990   -4.14830    2.01130    -999.25    -999.25
 4500.00000    -999.25   10.98290   10.98290  595.41530    -999.25    -999.25    -999.25    -999.25    1.67950    -999.25  101.92280  101.92280    -999.25   97.39180   97.39180    1.67950    1.72330    1.72330    -999.25    -999.25    1.98330  -16.03940   -3.44520    1.98330    -999.25    -999.25
 4550.00000    -999.25    9.98190    9.98190  589.06690    -999.25    -999.25    -999.25    -999.25    1.69760    -999.25  100.04940  100.04940    -999.25   77.41700   77.41700    1.69760    1.74400    1.74400    -999.25    -999.25    2.03440  -16.63990   -4.34320    2.03440    -999.25    -999.25
 4600.00000    -999.25    9.77020    9.77020  385.86200    -999.25    -999.25    -999.25    -999.25    2.59160    -999.25   88.76410   88.76410    -999.25   65.20720   65.20720    2.59160    2.65980    2.65980    -999.25    -999.25    3.56740  -16.00450   -4.00520    3.56740    -999.25    -999.25
 4650.00000    -999.25    9.49830    9.49830  275.32280    -999.25    -999.25    -999.25    -999.25    3.63210    -999.25   82.87260   82.87260    -999.25   38.82650   38.82650    3.63210    3.81870    3.81870    -999.25    -999.25    3.54710  -18.84550   -7.14360    3.54710    -999.25    -999.25
