~Version ---------------------------------------------------
VERS. 2.0 : CWLS log ASCII Standard -VERSION 2.0
WRAP. YES : Multiple lines per depth step
~Well ------------------------------------------------------
STRT.FT                   3400.0 : START DEPTH
STOP.FT                  16600.0 : STOP DEPTH
STEP.FT                 50.00000 : STEP LENGTH
NULL.                    -999.25 : NULL VALUE
COMP. CHAMPLIN PETROLEUM COMPANY : COMPANY
WELL.      CHARLES C. CHARTER #1 : WELL
FLD .                    WILDCAT : FIELD
LOC .                            : LOCATION
CNTY.                     BRAZOS : COUNTY
STAT.                      TEXAS : STATE
CTRY.   UNITED STATES OF AMERICA : COUNTRY
SRVC.                            : SERVICE COMPANY
DATE.                            : LOGDATE
API .             42041304470000 : API NUMBER
UWI .             42041304470000 : UNIQUE WELL ID
SLAT.WGS84         30.8464717491 : SURFACE LATITUDE
SLON.WGS84        -96.3676910928 : SURFACE LONGITUDE
~Curve Information -----------------------------------------
DEPT  .FT    : DEPTH
CALDED.IN    : CALIPER FROM DENSITY LOG
CALWS .IN    : CALIPER [CALDED]
CONDWS.MMHO  : CONDUCTIVITY [1000/DRESWS]
DCORWS.G/C3  : DENSITY CORRECTION [DRHOED]
DENWS .G/C3  : BULK DENSITY [RHOBED]
DPOWS .V/V   : DENSITY POROSITY [3434 M=2.71 F=1.0, 11632 M=2.65 F=1.0, 15400 M=2.71 F=1.0] [CALCULATED FROM RHOBED]
DRESWS.OHMM  : DEEP RESISTIVITY [ILDED]
DRHOED.G/C3  : DENSITY CORRECTION FROM DENSITY LOG
DTED  .US/F  : DELTA TIME FROM SONIC LOG
DTWS  .US/F  : DELTA TIME [DTED]
GRDED .GAPI  : GAMMA RAY FROM DENSITY LOG
GRRED .GAPI  : GAMMA RAY FROM RESISTIVITY LOG
GRWS  .GAPI  : GAMMA RAY [GRDED]
ILDED .OHMM  : INDUCTION LOG DEEP RESISTIVITY
ILMED .OHMM  : INDUCTION LOG MEDIUM RESISTIVITY
MRESWS.OHMM  : MEDIUM RESISTIVITY [ILMED]
NPHIED.V/V   : NEUTRON POROSITY 3434 LIMESTONE 11632 SANDSTONE 15400 LIMESTONE FROM DENSITY LOG
NPOWS .V/V   : NEUTRON POROSITY 3434 LIMESTONE 11632 SANDSTONE 15400 LIMESTONE [NPHIED]
RHOBED.G/C3  : BULK DENSITY FROM DENSITY LOG
SFLED .OHMM  : SPHERICALLY FOCUSED LOG RESISTIVITY
SPED  .MV    : SPONTANEOUS POTENTIAL [BASELINE 0 MV] FROM RESISTIVITY LOG
SPWS  .MV    : SPONTANEOUS POTENTIAL [SPED]
SRESWS.OHMM  : SHALLOW RESISTIVITY [SFLED]
~Params ----------------------------------------------------
EKB .F                 368.0 : Kelly bushing
EGL .F                 346.0 : Ground level
EDF .F                 367.0 : Drilling floor
EPD .F                 346.0 : Permanent datum
TD  .F               16600.0 : Total depth
DATE.            01-OCT-1979 : DATE LOGGED
CLNT.                A2DTECH : CLIENT CODE
SL  . 100' FSEL & 3100' FNEL : SURFACE LOCATION
PD  .                     GL : PERMANENT DATUM
LMF .                     KB : LOG MEASURED FROM
DMF .                     KB : DRILLING MEASURED FROM
DAPD.F                    22 : FEET ABOVE PERMANENT DATUM
DD  .F                 16600 : DEPTH DRILLER
DL  .F                 16600 : DEPTH LOGGER
BLI .F                 16593 : BOTTOM LOG INTERVAL
TLI .F                 10338 : TOP LOG INTERVAL
CS1 .IN                9.625 : CASING SIZE
CBD1.        9.625" @ 10324' : CASING DRILLER 1
CBL1.F                 10338 : CASING LOGGER 1
BS1 .IN                  8.5 : BIT SIZE
BSD1.F                 16600 : DEPTH DRILLED WITH BIT1
DFT .             SPER XP-20 : TYPE FLUID IN HOLE
DFD .                   12.2 : DENSITY
DFV .                     47 : VISCOSITY
DFPH.                   10.5 : PH
DFL .                    5.3 : FLUID LOSS
MSS .                    PIT : SOURCE OF SAMPLE
RMS .OHMM               0.21 : RM
RMF .OHMM               0.16 : RMF
RMC .OHMM               0.32 : RMC
MFSS.                   CALC : SOURCE RMF.
MCSS.                   CALC : SOURCE RMC.
RMB .OHMM               0.04 : RM. AT BHT
BHT .F                   334 : BHT.
TCS .HRS                 600 : TIME CIRC. STOPPED
TLAB.HRS                 530 : TIME LOGGER AT BOTTOM
LUN .                   8101 : LOGGING UNIT NUMBER
LUL .                BRENHAM : LOGGING UNIT LOCATION
ENGI.                   EAST : RECORDED BY
WITN.           LANNY CRAMER : WITNESSED BY
ORIG.               5" PRINT : ORIGIN OF DATA
UWI .         42041304470000 : UNIQUE WELL ID
DICO. A2D TECHNOLOGIES, INC. : DIGITIZING COMPANY
~Other -----------------------------------------------------
~ASCII -----------------------------------------------------
# ...
 9600.00000   12.81200   12.81200   62.98020   -0.02500    2.64500    0.03800   15.87800   -0.02500   53.50700   53.50700   24.65500   29.14400   24.65500   15.87800    -999.25    -999.25    0.00000    0.00000    2.64500  171.59100  -15.58610  -15.58610  171.59100
 9650.00000   12.82200   12.82200  110.80330   -0.01600    2.58100    0.07540    9.02500   -0.01600   54.45700   54.45700   16.93500   14.56400   16.93500    9.02500    -999.25    -999.25    0.02100    0.02100    2.58100   15.29000  -39.74530  -39.74530   15.29000
 9700.00000   12.89400   12.89400   31.35480   -0.00200    2.67300    0.02160   31.89300   -0.00200   51.01000   51.01000   30.11400   26.61500   30.11400   31.89300    -999.25    -999.25    0.00200    0.00200    2.67300   94.82100  -29.01350  -29.01350   94.82100
 9750.00000   12.92300   12.92300  177.05380    0.00800    2.65600    0.03160    5.64800    0.00800   64.89200   64.89200   42.45600   39.05900   42.45600    5.64800    -999.25    -999.25    0.06600    0.06600    2.65600   17.75400   -7.17970   -7.17970   17.75400
 9800.00000   12.98300   12.98300   40.88640   -0.01300    2.67800    0.01870   24.45800   -0.01300   50.56500   50.56500   17.63200   15.14500   17.63200   24.45800    -999.25    -999.25   -0.00400   -0.00400    2.67800  253.25700  -34.48190  -34.48190  253.25700
 9850.00000   13.23900   13.23900  156.83820    0.00100    2.63600    0.04330    6.37600    0.00100   61.67400   61.67400   48.85200   40.36600   48.85200    6.37600    -999.25    -999.25    0.17900    0.17900    2.63600   13.90100  -29.92310  -29.92310   13.90100
 9900.00000   12.95100   12.95100  117.06860   -0.01400    2.66900    0.02400    8.54200   -0.01400   58.89700   58.89700   44.26300   37.15400   44.26300    8.54200    -999.25    -999.25    0.05900    0.05900    2.66900   13.72200  -39.67630  -39.67630   13.72200
 9950.00000   13.02200   13.02200   82.82260    0.00000    2.64300    0.03920   12.07400    0.00000   57.13900   57.13900   56.96300   46.64200   56.96300   12.07400    -999.25    -999.25    0.02800    0.02800    2.64300   23.68200  -43.60150  -43.60150   23.68200
 10000.00000   12.86100   12.86100   32.66690   -0.00200    2.65300    0.03330   30.61200   -0.00200   51.51900   51.51900   23.27700   19.39400   23.27700   30.61200    -999.25    -999.25    0.00200    0.00200    2.65300  167.27000  -66.42670  -66.42670  167.27000
 10050.00000   12.66500   12.66500   24.34450   -0.00200    2.68000    0.01750   41.07700   -0.00200   50.70600   50.70600   29.48500   25.90800   29.48500   41.07700    -999.25    -999.25   -0.00500   -0.00500    2.68000  144.22000  -58.59390  -58.59390  144.22000
 10100.00000   12.59600   12.59600  191.82810    0.01000    2.55500    0.09060    5.21300    0.01000   59.71400   59.71400   16.75800   12.90600   16.75800    5.21300    -999.25    -999.25    0.07500    0.07500    2.55500   10.19300  -73.83110  -73.83110   10.19300
 10150.00000   12.84900   12.84900   84.99070    0.01700    2.66400    0.02690   11.76600    0.01700   57.34400   57.34400   51.07300   41.56100   51.07300   11.76600    -999.25    -999.25    0.01400    0.01400    2.66400   57.08000  -41.91330  -41.91330   57.08000
 10200.00000   12.68300   12.68300   28.48920   -0.00400    2.64800    0.03630   35.10100   -0.00400   49.55000   49.55000   22.09100   18.28900   22.09100   35.10100    -999.25    -999.25   -0.00300   -0.00300    2.64800  136.51800  -81.60450  -81.60450  136.51800
 10250.00000   12.54600   12.54600  683.99450   -0.00600    2.46400    0.14390    1.46200   -0.00600   62.57600   62.57600   14.40700   11.00500   14.40700    1.46200    -999.25    -999.25    0.10300    0.10300    2.46400    3.33000  -69.19270  -69.19270    3.33000
 10300.00000   12.42000   12.42000  851.78880    0.02600    2.47300    0.13860    1.17400    0.02600   61.50300   61.50300   18.72800   15.19400   18.72800    1.17400    -999.25    -999.25    0.14700    0.14700    2.47300    1.61700  -67.25690  -67.25690    1.61700
 10350.00000   12.29000   12.29000  417.36230   -0.00300    2.52900    0.10580    2.39600   -0.00300   58.57100   58.57100   22.86200   18.84200   22.86200    2.39600    3.48800    3.48800    0.06100    0.06100    2.52900    3.98300  -65.02610  -65.02610    3.98300
 10400.00000   12.71000   12.71000  148.43400    0.00500    2.59800    0.06550    6.73700    0.00500   54.46300   54.46300   26.86900   22.39200   26.86900    6.73700    8.64600    8.64600    0.03300    0.03300    2.59800    8.60600  -70.23830  -70.23830    8.60600
 10450.00000   12.75000   12.75000   59.30140   -0.00100    2.68500    0.01460   16.86300   -0.00100   49.53200   49.53200   33.73800   27.75900   33.73800   16.86300   13.41800   13.41800    0.00200    0.00200    2.68500  136.45700  -46.63350  -46.63350  136.45700
 10500.00000   12.78400   12.78400   36.03340   -0.00800    2.65300    0.03330   27.75200   -0.00800   50.06800   50.06800   36.00900   30.16600   36.00900   27.75200   19.98200   19.98200   -0.00100   -0.00100    2.65300   97.31900  -50.59070  -50.59070   97.31900
 10550.00000   12.92600   12.92600  133.42230   -0.00100    2.65300    0.03330    7.49500   -0.00100   60.95500   60.95500   47.48300   38.97300   47.48300    7.49500    7.12700    7.12700    0.06900    0.06900    2.65300   10.51900  -33.41390  -33.41390   10.51900
 10600.00000   12.92700   12.92700   52.82060   -0.01300    2.63900    0.04150   18.93200   -0.01300   53.30700   53.30700   41.61100   34.95600   41.61100   18.93200   12.91300   12.91300    0.02900    0.02900    2.63900   22.52500  -32.08010  -32.08010   22.52500
 10650.00000   13.10700   13.10700  277.39250    0.06700    2.68100    0.01700    3.60500    0.06700   72.59700   72.59700   85.95200   71.61700   85.95200    3.60500    1.97700    1.97700    0.15600    0.15600    2.68100    5.19500  -18.45630  -18.45630    5.19500
 10700.00000   13.54500   13.54500  391.54270    0.15700    2.62200    0.05150    2.55400    0.15700   73.95600   73.95600   93.38100   78.15500   93.38100    2.55400    1.42100    1.42100    0.12000    0.12000    2.62200    7.52600  -11.35440  -11.35440    7.52600
 10750.00000   13.85800   13.85800  491.88390    0.07900    2.61100    0.05790    2.03300    0.07900   85.67800   85.67800  102.80000   85.82400  102.80000    2.03300    2.23600    2.23600    0.26900    0.26900    2.61100    2.66400  -17.55060  -17.55060    2.66400
 10800.00000   15.36100   15.36100  738.55240    0.07400    2.56600    0.08420    1.35400    0.07400   94.51800   94.51800  109.29300   90.59600  109.29300    1.35400    1.42400    1.42400    0.35000    0.35000    2.56600    1.97700  -21.72880  -21.72880    1.97700
 10850.00000   13.15200   13.15200   76.15570   -0.01500    2.59000    0.07020   13.13100   -0.01500   58.08800   58.08800   51.39800   43.32900   51.39800   13.13100   10.48500   10.48500    0.02700    0.02700    2.59000   31.30700  -49.72200  -49.72200   31.30700
 10900.00000   13.05500   13.05500  196.69550    0.00000    2.61300    0.05670    5.08400    0.00000   69.69200   69.69200   72.66300   55.76500   72.66300    5.08400    7.13600    7.13600    0.17700    0.17700    2.61300    3.89100  -61.96120  -61.96120    3.89100
 10950.00000   13.13000   13.13000  145.26440   -0.00400    2.67800    0.01870    6.88400   -0.00400   56.83900   56.83900   46.05200   37.27700   46.05200    6.88400    7.48400    7.48400    0.02100    0.02100    2.67800   14.68800  -57.13940  -57.13940   14.68800
 11000.00000   14.63700   14.63700  653.16780    0.06900    2.55900    0.08830    1.53100    0.06900   84.50400   84.50400   95.41800   79.89800   95.41800    1.53100    1.21500    1.21500    0.21800    0.21800    2.55900    2.04900  -48.62060  -48.62060    2.04900
 11050.00000   13.16500   13.16500   92.27650   -0.00700    2.66100    0.02870   10.83700   -0.00700   51.09300   51.09300   24.79900   21.42400   24.79900   10.83700   12.54200   12.54200    0.01700    0.01700    2.66100   16.56900  -56.14680  -56.14680   16.56900
 11100.00000   13.11800   13.11800  178.28490   -0.01700    2.64900    0.03570    5.60900   -0.01700   61.93100   61.93100   59.57100   50.12600   59.57100    5.60900    5.15800    5.15800    0.07400    0.07400    2.64900    7.11500  -46.16200  -46.16200    7.11500
