~Version ---------------------------------------------------
VERS.      2.0 : CWLS log ASCII Standard -VERSION 2.0
WRAP.      YES : Multiple lines per depth step
CREA. 01/04/18 : LAS Creation Date
~Well ------------------------------------------------------
STRT.FT                         3450.0 : START DEPTH
STOP.FT                        13850.0 : STOP DEPTH
STEP.FT                       50.00000 : STEP LENGTH
NULL.                          -999.25 : NULL VALUE
COMP.          TORCH OPERATING COMPANY : COMPANY
WELL.           CAROLYN WARMKE UNIT #1 : WELL
FLD .                          WILDCAT : FIELD
LOC .                                  : LOCATION
CNTY.                          FAYETTE : COUNTY
STAT.                            TEXAS : STATE
CTRY.         UNITED STATES OF AMERICA : COUNTRY
SRVC. HALLIBURTON LOGGING SERVICES INC : SERVICE COMPANY
DATE.                      31-Dec-1991 : LOGDATE
API .                   42149325050000 : API NUMBER
UWI .                   42149325050000 : UNIQUE WELL ID
SLAT.WGS84               30.0718798257 : SURFACE LATITUDE
SLON.WGS84              -96.6577022662 : SURFACE LONGITUDE
~Curve Information -----------------------------------------
DEPT    .FT    : DEPTH FEET
CALRED  .IN    : CALIPER FROM DIL/SDL/DSN LOG
CALWS   .IN    : CALIPER [TOP DCALRD+BIT 13316' CALRED]
CONDWS  .MMHO  : DEEP CONDUCTIVITY [1000/DRESWS]
CORRED  .G/C3  : DENSITY CORRECTION FROM DIL/SDL/DSN LOG
DCALED  .IN    : DIFFERENTIAL CALIPER FROM DENSITY LOG
DENWS   .G/C3  : BULK DENSITY [CALC. FROM DPOLSWS]
DPHILSED.V/V   : DENSITY POROSITY (LS) [M=2.71 F=1.0] FROM DIL/SDL/DSN LOG
DPOLSWS .V/V   : DENSITY POROSITY LIMESTONE [M=2.71 F=1.0] [DPHILSED]
DRESWS  .OHMM  : DEEP RESISTIVITY [ILDED]
DTED    .US/F  : DELTA TIME FROM DIL/LSS LOG
DTWS    .US/F  : DELTA TIME COMPRESSIONAL [DTED]
GRRED   .GAPI  : GAMMA RAY FROM RESISTIVITY LOG
GRWS    .GAPI  : GAMMA RAY [GRRED]
ILDED   .OHMM  : INDUCTION LOG DEEP RESISTIVITY
ILMED   .OHMM  : INDUCTION LOG MEDIUM RESISTIVITY
MRESWS  .OHMM  : MEDIUM RESISTIVITY [ILMED]
NPHILSED.V/V   : NEUTRON POROSITY LIMESTONE FROM DIL/SDL/DSN LOG
NPOLSWS .V/V   : NEUTRON POROSITY LIMESTONE [NPHILSED]
SGUARDED.OHMM  : SHORT GUARD RESISTIVITY
SNED    .OHMM  : 16 INCH SHORT NORMAL RESISTIVITY FROM IEL LOG
SPRED   .MV    : SPONTANEOUS POTENTIAL FROM RESISTIVITY LOG
SPWS    .MV    : SPONTANEOUS POTENTIAL [BASELINE 0 MV] [SPRED]
SRESWS  .OHMM  : SHALLOW RESISTIVITY [TOP SGUARDED 13320' SNED]
TENRED  .LBF   : TENSION FROM RESISTIVITY LOG
~Params ----------------------------------------------------
PD  .                     GL : PERMANENT DATUM
EPD .FT                  387 : ELEVATION PERMANENT DATUM
LMF .                    TKB : LOG MEASURED FROM
DAPD.FT                 22.1 : FEET ABOVE PERMANENT DATUM
DMF .                    TKB : DRILLING MEASURED FROM
EKB .FT                409.1 : KELLY BUSHING
EDF .FT                407.8 : DRILLING FLOOR
EGL .FT                  387 : GROUND LEVEL
DATE.             12/31/1991 : RUN DATE
RUN .                      2 : RUN NUMBER
DD  .FT                13866 : DEPTH DRILLER
DL  .FT                13790 : DEPTH LOGGER
BLI .FT                13788 : BOTTOM LOG INTERVAL
TLI .FT                13316 : TOP LOG INTERVAL
CS  .IN                  6.5 : CASING SIZE
CBD .FT                13316 : CASING BOTTOM DRILLER
CBL .FT                13316 : CASING BOTTOM LOGGER
BS  .IN                 4.75 : BIT SIZE
BSD .FT                13866 : BIT SIZE AT DEPTH
DFT .                    CLS : DRILLING FLUID TYPE
DFD .                   10.6 : DRILLING FLUID DENSITY
DFV .                     45 : DRILLING FLUID VISCOSITY
DFPH.                    9.9 : DRILLING FLUID PH
DFL .                    6.2 : DRILLING FLUID LOSS
MSS .               FLOWLINE : MUD SAMPLE SOURCE
RMS .OHMM               0.86 : RESISTIVITY MUD SAMPLE
MST .DEGF                 75 : MUD SAMPLE TEMPERATURE
RMF .OHMM               0.72 : RESISTIVITY MUD FILTRATE SAMPLE
MFST.DEGF                 75 : MUD FILTRATE SAMPLE TEMPERATURE
RMC .OHMM                1.1 : RESISTIVITY MUD CAKE
MCST.DEGF                 75 : MUD CAKE SAMPLE TEMPERATURE
MFSS.                   MEAS : MUD FILTRATE SAMPLE SOURCE
MCSS.                   MEAS : MUD CAKE SAMPLE SOURCE
RMB .OHMM              0.241 : RESISTIVITY MUD AT BHT
TCS .HRS                1630 : TIME CIRCULATED STOPPED
TLAB.HRS                2324 : TIME LOGGER AT BOTTOM
LUN .                   7678 : LOGGING UNIT NUMBER
LUL .                   VICT : LOGGING UNIT LOCATION
ENGI.         STAPP ROBINSON : RECORDING ENGINEER
WITN.                HOLLIER : WITNESSED BY
CLNT.                A2DTECH : CLIENT CODE
ORIG.               5" PRINT : ORIGIN OF DATA
UWI .         42149325050000 : UNIQUE WELL ID
DICO. A2D Technologies, Inc. : DIGITIZING COMPANY
~Other -----------------------------------------------------
DIL/SDL/DSN PRESENTD FROM TD TO 10600'; DIL/LSS FROM 10600' TO CASING.
ALL POROSITY LOGS RAN ON LIMESTONE MATRIX.
DID NOT RACH TO TD WITH IEL.
LOGS WERE RAN SEPARATELY THEN MURGED TOGETHER.
~ASCII -----------------------------------------------------
# ...
 7800.00000    -999.25    9.10600  657.03020    -999.25   -0.76900    -999.25    -999.25    -999.25    1.52200   78.66800   78.66800   70.81180   70.81180    1.52200    2.66200    2.66200    -999.25    -999.25    6.31700    -999.25 -131.99100  -76.52830    6.31700 3388.37010
 7850.00000    -999.25    9.69400  475.96380    -999.25   -0.18100    -999.25    -999.25    -999.25    2.10100   81.55000   81.55000   62.59660   62.59660    2.10100    3.50300    3.50300    -999.25    -999.25    6.32300    -999.25 -103.74700  -48.31440    6.32300 3403.12080
 7900.00000    -999.25   10.66400  380.80730    -999.25    0.78900    -999.25    -999.25    -999.25    2.62600  129.76100  129.76100   75.23370   75.23370    2.62600    2.89500    2.89500    -999.25    -999.25    5.50400    -999.25  -59.74200   -4.33950    5.50400 3452.03980
 7950.00000    -999.25    9.89300  544.06960    -999.25    0.01800    -999.25    -999.25    -999.25    1.83800   81.05400   81.05400   93.50730   93.50730    1.83800    2.77400    2.77400    -999.25    -999.25    6.86800    -999.25 -101.76900  -46.47900    6.86800 3288.64500
 8000.00000    -999.25    9.99700  191.64430    -999.25    0.12200    -999.25    -999.25    -999.25    5.21800  132.94200  132.94200   45.25280   45.25280    5.21800   11.26000   11.26000    -999.25    -999.25   55.95200    -999.25  -98.39300  -43.37580   55.95200 3209.75610
 8050.00000    -999.25    9.39600  475.96380    -999.25   -0.47900    -999.25    -999.25    -999.25    2.10100   97.26000   97.26000   43.90800   43.90800    2.10100    4.24900    4.24900    -999.25    -999.25   18.46000    -999.25 -122.26700  -67.52260   18.46000 3233.43380
 8100.00000    -999.25    9.49700  427.35040    -999.25   -0.37800    -999.25    -999.25    -999.25    2.34000   78.51900   78.51900   74.24210   74.24210    2.34000    3.42700    3.42700    -999.25    -999.25    5.45100    -999.25 -102.23800  -47.76640    5.45100 3316.95680
 8150.00000    -999.25    8.88800  855.43200    -999.25   -0.98700    -999.25    -999.25    -999.25    1.16900   79.82100   79.82100   50.14900   50.14900    1.16900    2.11900    2.11900    -999.25    -999.25    6.10300    -999.25 -136.22100  -82.02220    6.10300 3320.54170
 8200.00000    -999.25    9.42700  609.75610    -999.25   -0.44800    -999.25    -999.25    -999.25    1.64000   84.29400   84.29400   75.76780   75.76780    1.64000    2.59800    2.59800    -999.25    -999.25    6.96300    -999.25 -100.76500  -46.83900    6.96300 3374.51860
 8250.00000    -999.25    8.88200  615.38460    -999.25   -0.99300    -999.25    -999.25    -999.25    1.62500   80.80500   80.80500   48.20150   48.20150    1.62500    3.00100    3.00100    -999.25    -999.25    6.80100    -999.25 -125.52300  -71.86980    6.80100 3305.08960
 8300.00000    -999.25   10.78900  407.83030    -999.25    0.91400    -999.25    -999.25    -999.25    2.45200   78.25700   78.25700   72.08810   72.08810    2.45200    3.01300    3.01300    -999.25    -999.25    5.21800    -999.25  -72.01600  -18.63560    5.21800 3410.67630
 8350.00000    -999.25   10.49700  632.91140    -999.25    0.62200    -999.25    -999.25    -999.25    1.58000   78.46900   78.46900   71.27930   71.27930    1.58000    2.10800    2.10800    -999.25    -999.25    5.12600    -999.25  -95.78700  -42.67940    5.12600 3431.01760
 8400.00000    -999.25   10.76200  386.84720    -999.25    0.88700    -999.25    -999.25    -999.25    2.58500   79.06600   79.06600   86.43200   86.43200    2.58500    3.09700    3.09700    -999.25    -999.25    4.94000    -999.25  -74.43400  -21.59920    4.94000 3430.39970
 8450.00000    -999.25   10.13100  285.38810    -999.25    0.25600    -999.25    -999.25    -999.25    3.50400   80.95100   80.95100   77.53060   77.53060    3.50400    3.92500    3.92500    -999.25    -999.25    4.19900    -999.25  -65.31600  -12.75400    4.19900 3432.80520
 8500.00000    -999.25    9.66800  419.28720    -999.25   -0.20700    -999.25    -999.25    -999.25    2.38500   89.20500   89.20500   85.19490   85.19490    2.38500    2.69900    2.69900    -999.25    -999.25    3.13900    -999.25  -61.44100   -9.15170    3.13900 3348.57130
 8550.00000    -999.25   10.50900  365.36350    -999.25    0.63400    -999.25    -999.25    -999.25    2.73700   76.34900   76.34900   79.39360   79.39360    2.73700    3.19500    3.19500    -999.25    -999.25    5.54200    -999.25  -73.47300  -21.82790    5.54200 3406.93850
 8600.00000    -999.25   10.85400  355.49240    -999.25    0.97900    -999.25    -999.25    -999.25    2.81300   85.03200   85.03200   78.46400   78.46400    2.81300    3.13900    3.13900    -999.25    -999.25    3.37300    -999.25  -60.57200   -9.57860    3.37300 3389.41500
 8650.00000    -999.25   10.90200  351.37030    -999.25    1.02700    -999.25    -999.25    -999.25    2.84600   80.89600   80.89600   82.30200   82.30200    2.84600    3.09700    3.09700    -999.25    -999.25    3.45600    -999.25  -58.87900   -8.53730    3.45600 3396.35280
 8700.00000    -999.25   11.81700  331.89510    -999.25    1.94200    -999.25    -999.25    -999.25    3.01300   78.86700   78.86700   78.40340   78.40340    3.01300    3.18300    3.18300    -999.25    -999.25    3.50700    -999.25  -56.57800   -6.88810    3.50700 3471.03860
 8750.00000    -999.25   11.85600  318.47130    -999.25    1.98100    -999.25    -999.25    -999.25    3.14000   80.67500   80.67500   82.89880   82.89880    3.14000    3.31700    3.31700    -999.25    -999.25    3.86400    -999.25  -53.68400   -4.64580    3.86400 3456.25000
 8800.00000    -999.25   12.57100  308.54670    -999.25    2.69600    -999.25    -999.25    -999.25    3.24100   83.13700   83.13700   77.27440   77.27440    3.24100    3.48700    3.48700    -999.25    -999.25    3.85300    -999.25  -55.21700   -6.83050    3.85300 3535.99680
 8850.00000    -999.25   12.92700  324.67530    -999.25    3.05200    -999.25    -999.25    -999.25    3.08000   82.84300   82.84300   89.82060   89.82060    3.08000    3.09700    3.09700    -999.25    -999.25    3.56500    -999.25  -52.27400   -4.53930    3.56500 3565.36400
 8900.00000    -999.25   13.16800  323.72940    -999.25    3.29300    -999.25    -999.25    -999.25    3.08900   77.47500   77.47500   77.76890   77.76890    3.08900    3.21000    3.21000    -999.25    -999.25    3.65100    -999.25  -52.39200   -5.30900    3.65100 3576.70170
 8950.00000    -999.25   14.94700  331.89510    -999.25    5.07200    -999.25    -999.25    -999.25    3.01300   77.21700   77.21700   77.52940   77.52940    3.01300    3.13900    3.13900    -999.25    -999.25    3.36300    -999.25  -49.17200   -2.74070    3.36300 3593.98490
 9000.00000    -999.25   15.10700  378.78790    -999.25    5.23200    -999.25    -999.25    -999.25    2.64000   86.14400   86.14400   78.45950   78.45950    2.64000    2.63000    2.63000    -999.25    -999.25    2.97100    -999.25  -46.06000   -0.28040    2.97100 3532.97510
 9050.00000    -999.25   15.26500  338.40950    -999.25    5.39000    -999.25    -999.25    -999.25    2.95500   75.88500   75.88500   81.65100   81.65100    2.95500    3.05400    3.05400    -999.25    -999.25    3.34700    -999.25  -49.20400   -4.07620    3.34700 3491.66310
 9100.00000    -999.25   14.71900  407.83030    -999.25    4.84400    -999.25    -999.25    -999.25    2.45200   88.21100   88.21100   75.77690   75.77690    2.45200    2.45200    2.45200    -999.25    -999.25    2.73400    -999.25  -48.05100   -3.57490    2.73400 3564.19380
 9150.00000    -999.25   14.06000  424.98940    -999.25    4.18500    -999.25    -999.25    -999.25    2.35300   86.52100   86.52100   78.93900   78.93900    2.35300    2.35300    2.35300    -999.25    -999.25    2.66200    -999.25  -48.05800   -4.04880    2.66200 3541.05660
 9200.00000    -999.25   16.14000  490.91800    -999.25    6.26500    -999.25    -999.25    -999.25    2.03700   96.22200   96.22200   75.25760   75.25760    2.03700    2.05100    2.05100    -999.25    -999.25    2.34900    -999.25  -49.21800   -5.24450    2.34900 3787.27780
