~Version ---------------------------------------------------
VERS. 2.0 : CWLS log ASCII Standard -VERSION 2.0
WRAP. YES : Multiple lines per depth step
~Well ------------------------------------------------------
STRT.FT                  2300.0 : START DEPTH
STOP.FT                 10600.0 : STOP DEPTH
STEP.FT                50.00000 : STEP LENGTH
NULL.                   -999.25 : NULL VALUE
COMP. PAUL E CAMERON, JR., INC. : COMPANY
WELL.           FREEMAN UNIT #1 : WELL
FLD .                    BEDIAS : FIELD
LOC .                           : LOCATION
CNTY.                    GRIMES : COUNTY
STAT.                     TEXAS : STATE
CTRY.  UNITED STATES OF AMERICA : COUNTRY
SRVC.                     Welex : SERVICE COMPANY
DATE.               15-Aug-1981 : LOGDATE
API .            42185302840000 : API NUMBER
UWI .            42185302840000 : UNIQUE WELL ID
SLAT.WGS84        30.7842928206 : SURFACE LATITUDE
SLON.WGS84        -95.978471058 : SURFACE LONGITUDE
~Curve Information -----------------------------------------
DEPT    .FT    : DEPTH
CALDED  .IN    : CALIPER FROM DENSITY LOG (ADJ TO RES.)
CALWS   .IN    : CALIPER (CALDED)
CONDWS  .MMHO  : CONDUCTIVITY (1000/DRESWS)
CORRED  .G/C3  : DENSITY CORRECTION (ADJ TO RES.)
DCORWS  .G/C3  : DENSITY CORRECTION (CORRED)
DENWS   .G/C3  : BULK DENSITY  (RHOBED LS)
DPORLSED.V/V   : DENSITY POROSITY  LIMESTONE (ADJ TO RES.)
DPOWS   .V/V   : DENSITY POROSITY (M=2.71 F=1 DPORLSED)
DRESWS  .OHMM  : DEEP RESISTIVITY (ILDED0
GRDED   .GAPI  : GAMMA RAY FROM DENSITY LOG (ADJ TO RES.)
GRRED   .GAPI  : GAMMA RAY FROM RESISTIVITY LOG
GRWS    .GAPI  : GAMMA RAY (GRRED)
ILDED   .OHMM  : DEEP INDUCTION RESISTIVITY
ILMED   .OHMM  : MEDIUM INDUCTION RESISTIVITY
MRESWS  .OHMM  : MEDIUM RESISTIVITY (ILMED)
NEUTED  .NAPI  : Neutron from Neutron Gamma Log (ADJ TO RES.)
NEUTWS  .NAPI  : Neutron from Neutron Gamma Log (NEUTED)
RHOBED  .G/C3  : BULK DENSITY (ADJ TO RES.)
SGUARDED.OHMM  : SHORT GUARD LOG RESISTIVITY
SPRED   .MV    : Spontaneous Potential from Resistivity Log
SPWS    .MV    : SPONTANEOUS POTENTIAL BASELINE 0 MV (SPRED)
SRESWS  .OHMM  : SHALLOW RESISTIVITY (SGUARDED)
~Params ----------------------------------------------------
PD  .                     GL : PERMANENT DATUM
LMF .                    TKB : LOG MEASURED FROM
DAPD.FT                 18.2 : FEET ABOVE PERMANENT DATUM
DMF .                    TKB : DRILLING MEASURED FROM
DATE.               08/15/81 : RUN DATE
RUN .                      1 : RUN NUMBER
DD  .FT                10631 : DEPTH DRILLER
DL  .FT                10612 : DEPTH LOGGER
BLI .FT                10610 : BOTTOM LOG INTERVAL
TLI .FT                 2287 : TOP LOG INTERVAL
CS  .IN                9.625 : CASING SIZE
CBD .FT                 2294 : CASING BOTTOM DRILLER
CBL .FT                 2287 : CASING BOTTOM LOGGER
BS  .IN                 8.75 : BIT SIZE
BSD .FT                10631 : BIT SIZE AT DEPTH
DFT .     LIGNOSULFONATE MUD : DRILLING FLUID TYPE
DFD .                    9.9 : DRILLING FLUID DENSITY
DFV .                     50 : DRILLING FLUID VISCOSITY
DFPH.                    1.8 : DRILLING FLUID PH
DFL .                      6 : DRILLING FLUID LOSS
MSS .                    PIT : MUD SAMPLE SOURCE
RMS .OHMM               1.84 : RESISTIVITY MUD SAMPLE
MST .DEGF                 75 : MUD SAMPLE TEMPERATURE
RMF .OHMM               1.64 : RESISTIVITY MUD FILTRATE SAMPLE
MFST.DEGF                 75 : MUD FILTRATE SAMPLE TEMPERATURE
RMC .OHMM               1.41 : RESISTIVITY MUD CAKE
MCST.DEGF                 75 : MUD CAKE SAMPLE TEMPERATURE
MFSS.                   MEAS : MUD FILTRATE SAMPLE SOURCE
MCSS.                   MEAS : MUD CAKE SAMPLE SOURCE
RMB .OHMM               0.62 : RESISTIVITY MUD AT BHT
TCS .HRS                   7 : TIME CIRCULATED STOPPED
LUN .                   1123 : LOGGING UNIT NUMBER
LUL .                   BRYN : LOGGING UNIT LOCATION
ENGI.                  SMITH : RECORDING ENGINEER
CLNT.                A2DTECH : CLIENT CODE
ORIG.            1" 5" PRINT : ORIGIN OF DATA
UWI .         42185302840000 : UNIQUE WELL ID
DICO. A2D Technologies, Inc. : DIGITIZING COMPANY
~Other -----------------------------------------------------
~ASCII -----------------------------------------------------
# ...
 8700.00000    -999.25    -999.25  238.98290    -999.25    -999.25    -999.25    -999.25    -999.25    4.18440    -999.25   51.00230   51.00230    4.18440    4.62000    4.62000    -999.25    -999.25    -999.25    5.25500  -34.51710   -2.18180    5.25500
 8750.00000    -999.25    -999.25  285.43700    -999.25    -999.25    -999.25    -999.25    -999.25    3.50340    -999.25   61.64210   61.64210    3.50340    4.01220    4.01220    -999.25    -999.25    -999.25    5.14330  -33.03450   -1.18500    5.14330
 8800.00000    -999.25    -999.25  263.26870    -999.25    -999.25    -999.25    -999.25    -999.25    3.79840    -999.25   67.64590   67.64590    3.79840    4.49330    4.49330    -999.25    -999.25    -999.25    6.02460  -33.39030   -2.02660    6.02460
 8850.00000    -999.25    -999.25  276.35000    -999.25    -999.25    -999.25    -999.25    -999.25    3.61860    -999.25   78.37340   78.37340    3.61860    4.11060    4.11060    -999.25    -999.25    -999.25    4.69030  -33.83030   -2.95240    4.69030
 8900.00000    -999.25    -999.25  320.46150    -999.25    -999.25    -999.25    -999.25    -999.25    3.12050    -999.25   89.36430   89.36430    3.12050    3.54660    3.54660    -999.25    -999.25    -999.25    4.21050  -32.16030   -1.76820    4.21050
 8950.00000    -999.25    -999.25  336.12310    -999.25    -999.25    -999.25    -999.25    -999.25    2.97510    -999.25   93.77430   93.77430    2.97510    3.37580    3.37580  348.93750  348.93750    -999.25    4.21000  -31.59710   -1.69080    4.21000
 9000.00000   11.29980   11.29980  358.43580    0.14830    0.14830    -999.25    -999.25    -999.25    2.78990    -999.25   95.59740   95.59740    2.78990    3.19680    3.19680  276.60800  276.60800    -999.25    3.80570  -31.60170   -2.18120    3.80570
 9050.00000   10.74750   10.74750  341.95050    0.17880    0.17880    2.64430    0.04160    0.04160    2.92440   89.38100   89.37170   89.37170    2.92440    3.30540    3.30540  336.95530  336.95530    2.64430    4.11140  -27.42540    1.50930    4.11140
 9100.00000   10.66780   10.66780  187.24840    0.12740    0.12740    2.63710    0.04370    0.04370    5.34050   56.79010   56.35850   56.35850    5.34050    5.97070    5.97070  431.81460  431.81460    2.63710    7.31690  -31.92560   -3.47670    7.31690
 9150.00000   10.97380   10.97380  184.76770    0.13930    0.13930    2.64970    0.03760    0.03760    5.41220   54.62190   54.13310   54.13310    5.41220    6.06320    6.06320  464.15570  464.15570    2.64970    7.15600  -34.33480   -6.37170    7.15600
 9200.00000   11.55840   11.55840  135.29790    0.21320    0.21320    2.39920    0.18530    0.18530    7.39110   41.38010   42.38030   42.38030    7.39110    7.97010    7.97010  527.77630  527.77630    2.39920   12.12520  -37.20580   -9.72850   12.12520
 9250.00000   10.60770   10.60770  147.86120    0.15610    0.15610    2.58310    0.07640    0.07640    6.76310   59.66590   61.91160   61.91160    6.76310    7.29310    7.29310  456.20140  456.20140    2.58310    5.85750  -39.21960  -12.22810    5.85750
 9300.00000   16.97010   16.97010   39.12240   -0.08670   -0.08670    1.39700    0.76910    0.76910   25.56080   43.02930   42.94900   42.94900   25.56080   18.14190   18.14190  792.69290  792.69290    1.39700   21.16680  -69.78350  -43.27780   21.16680
 9350.00000   16.59780   16.59780   60.24280    0.01070    0.01070    1.60940    0.64150    0.64150   16.59950   21.48650   21.84490   21.84490   16.59950   14.66650   14.66650  441.50330  441.50330    1.60940   17.45670  -68.06250  -42.04260   17.45670
 9400.00000   12.85810   12.85810  284.37370    0.17240    0.17240    2.48450    0.13630    0.13630    3.51650   78.36080   78.44080   78.44080    3.51650    3.79650    3.79650  637.73570  637.73570    2.48450    5.94630  -38.52190  -12.91650    5.94630
 9450.00000   11.26040   11.26040   85.79130    0.14840    0.14840    2.50940    0.11890    0.11890   11.65620   32.37630   31.65210   31.65210   11.65620   10.14670   10.14670  959.99280  959.99280    2.50940   12.96050  -70.93380  -45.49040   12.96050
 9500.00000   12.56020   12.56020  185.84940    0.19730    0.19730    2.53310    0.10670    0.10670    5.38070   43.68210   41.88510   41.88510    5.38070    5.60380    5.60380  588.56260  588.56260    2.53310    5.95190  -57.23090  -31.94960    5.95190
 9550.00000   10.89410   10.89410  169.26200    0.19050    0.19050    2.61110    0.05920    0.05920    5.90800   57.86470   58.49210   58.49210    5.90800    6.38200    6.38200  464.82610  464.82610    2.61110    7.29050  -62.28600  -37.16670    7.29050
 9600.00000   12.79010   12.79010   44.65520    0.04880    0.04880    2.01310    0.40960    0.40960   22.39380   34.91970   34.80000   34.80000   22.39380   16.43730   16.43730  444.28950  444.28950    2.01310   26.55410 -100.10270  -75.14540   26.55410
 9650.00000   10.67860   10.67860  225.89170    0.19140    0.19140    2.44160    0.15170    0.15170    4.42690   63.52880   63.78740   63.78740    4.42690    4.75190    4.75190  313.03780  313.03780    2.44160    5.90280  -44.25200  -19.45680    5.90280
 9700.00000   10.81450   10.81450  285.04650    0.14090    0.14090    2.45360    0.15030    0.15030    3.50820   90.39930   89.49250   89.49250    3.50820    3.82580    3.82580  348.81910  348.81910    2.45360    5.20690  -30.86650   -6.23330    5.20690
 9750.00000   12.17400   12.17400  226.20340    0.20040    0.20040    2.43140    0.16370    0.16370    4.42080   86.43750   86.29980   86.29980    4.42080    4.09840    4.09840  391.87750  391.87750    2.43140    6.07520  -28.01990   -3.40450    6.07520
 9800.00000   14.02400   14.02400  291.60470    0.19470    0.19470    2.35530    0.20690    0.20690    3.42930   76.39230   76.76340   76.76340    3.42930    3.30470    3.30470  388.86820  388.86820    2.35530    5.21520  -29.29050   -4.67510    5.21520
 9850.00000   12.40340   12.40340  225.10860    0.14290    0.14290    2.11690    0.34780    0.34780    4.44230   79.96790   79.00380   79.00380    4.44230    4.07370    4.07370  405.99280  405.99280    2.11690    5.33090  -28.29950   -3.68410    5.33090
 9900.00000   14.01390   14.01390  282.63760    0.15500    0.15500    2.10410    0.35440    0.35440    3.53810   77.33880   76.13300   76.13300    3.53810    2.97090    2.97090  309.52480  309.52480    2.10410    3.81540  -28.71470   -3.18220    3.81540
 9950.00000   12.57080   12.57080  247.25540    0.21180    0.21180    2.29190    0.24780    0.24780    4.04440   91.03510   90.55100   90.55100    4.04440    3.39290    3.39290  321.55740  321.55740    2.29190    4.59210  -27.69450   -0.32780    4.59210
 10000.00000   12.85460   12.85460  126.59190    0.10270    0.10270    1.93300    0.45730    0.45730    7.89940   67.50550   67.29240   67.29240    7.89940    5.07230    5.07230  330.42250  330.42250    1.93300    6.13090  -33.24150   -4.04050    6.13090
 10050.00000   12.29420   12.29420  187.64890    0.09630    0.09630    1.97830    0.42740    0.42740    5.32910   69.53990   71.61420   71.61420    5.32910    4.08000    4.08000  298.37760  298.37760    1.97830    7.99650  -35.98700   -4.95180    7.99650
 10100.00000   12.80500   12.80500  232.99700    0.04470    0.04470    1.83560    0.50890    0.50890    4.29190   79.26300   79.88620   79.88620    4.29190    4.52630    4.52630  338.95430  338.95430    1.83560    6.40730  -42.81980   -9.95040    6.40730
 10150.00000   10.10330   10.10330  137.33440    0.09760    0.09760    2.04990    0.38890    0.38890    7.28150   62.01020   61.37030   61.37030    7.28150    7.33350    7.33350  395.21030  395.21030    2.04990   15.56270  -47.10210  -12.39840   15.56270
 10200.00000   14.79400   14.79400  243.92620    0.18010    0.18010    2.24280    0.27850    0.27850    4.09960   85.46290   83.34470   83.34470    4.09960    4.26680    4.26680  301.95580  301.95580    2.24280    7.04180  -46.50070   -9.96280    7.04180
 10250.00000    9.23320    9.23320  108.94910    0.16950    0.16950    2.69770    0.00890    0.00890    9.17860   37.47820   37.04040   37.04040    9.17860   10.80780   10.80780  892.68800  892.68800    2.69770   20.40040  -60.43850  -19.48480   20.40040
