~Version ---------------------------------------------------
VERS. 2.0 : CWLS log ASCII Standard -VERSION 2.0
WRAP. YES : Multiple lines per depth step
~Well ------------------------------------------------------
STRT.FT                  2550.0 : START DEPTH
STOP.FT                 14350.0 : STOP DEPTH
STEP.FT                50.00000 : STEP LENGTH
NULL.                   -999.25 : NULL VALUE
COMP. GENERAL CRUDE OIL COMPANY : COMPANY
WELL.    A G HENKES GAS UNIT #1 : WELL
FLD .                   WILDCAT : FIELD
LOC .                           : LOCATION
CNTY.                    LAVACA : COUNTY
STAT.                     TEXAS : STATE
CTRY.  UNITED STATES OF AMERICA : COUNTRY
SRVC.                   Unknown : SERVICE COMPANY
DATE.               29-Aug-1977 : LOGDATE
API .            42285307220000 : API NUMBER
UWI .            42285307220000 : UNIQUE WELL ID
SLAT.WGS84        29.3839239903 : SURFACE LATITUDE
SLON.WGS84       -96.9359395822 : SURFACE LONGITUDE
~Curve Information -----------------------------------------
DEPT  .FT    : DEPTH
SPED  .MV    : SPONTANEOUS POTENTIAL FROM DIL/SONIC LOG
CALRED.IN    : CALIPER FROM DIL/SONIC LOG
ILDED .OHMM  : INDUCTION LOG DEEP RESISTIVITY FROM DIL/SONIC LOG
ILMED .OHMM  : INDUCTION LOG MEDIUM RESISTIVITY FROM DIL/SONIC LOG
LL8ED .OHMM  : LATEROLOG 8 INCH FROM DIL/SONIC LOG
CILDED.MMHO  : CONDUCTIVITY FROM DIL/SONIC LOG
CALDED.IN    : CALIPER FROM CN/FD LOG
GRDED .GAPI  : GAMMA RAY FROM CN/FD LOG
DRHOED.G/C3  : DENSITY CORRECTION FROM CN/FD LOG
RHOBED.G/C3  : BULK DENSITY FROM CN/FD LOG
NPHIED.V/V   : NEUTRON POROSITY LIMETONE FROM CN/FD LOG
DTED  .US/F  : DELTA TIME FROM DIL/SONIC LOG
DPHIED.V/V   : DENSITY POROSITY [M=2.68, F=1.0] FROM CN/FD LOG
SPWS  .MV    : SPONTANEOUS POTENTIAL [BASELINE 0 MV]
CALWS .IN    : CALIPER [2520 CALRED, 9690.5 CALDED]
CONDWS.MMHO  : CONDUCTIVITY [CILDED]
DCORWS.G/C3  : DENSITY CORRECTION [DRHOED]
DENWS .G/C3  : BULK DENSITY [RHOBED]
DPOWS .V/V   : DENSITY POROSITY [M=2.68, F=1.0] [DPHIED]
DRESWS.OHMM  : DEEP RESISTIVITY [ILDED]
DTWS  .US/F  : DELTA TIME [DTED]
GRWS  .GAPI  : GAMMA RAY [GRDED]
MRESWS.OHMM  : MEDIUM RESISTIVITY [ILMED]
NPOWS .V/V   : NEUTRON POROSITY LIMETONE [NPHIED]
SRESWS.OHMM  : SHALLOW RESISTIVITY [LL8ED]
~Params ----------------------------------------------------
EKB .F                 278.0 : Kelly bushing
EGL .F                 260.0 : Ground level
EDF .F                 277.0 : Drilling floor
EPD .F                 260.0 : Permanent datum
TD  .F               14505.0 : Total depth
DATE.            29-AUG-1977 : Date logged
CLNT.                A2DTECH : Client Code
DAPD.F                    18 : Feet Above Permanent Datum
DD  .F                 14505 : Depth driller
DL  .F                 14401 : Depth logger
BLI .F                 14394 : Bottom log interval
TLI .F                 13663 : Top log interval
CS1 .IN                    7 : Casing size
CBD1.             7" @ 3646' : Casing driller 1
CBL1.F                 13663 : Casing logger 1
BS1 .IN                    6 : Bit size
BSD1.F                 14505 : Depth drilled with bit1
DFT .                CLS-LIG : Type fluid in hole
DFD .                   11.6 : Density
DFV .                     45 : Viscosity
DFPH.                     11 : pH
DFL .                    3.8 : Fluid loss
MSS .              CIRC. PIT : Source of sample
RMS .OHMM              0.865 : Rm
RMF .OHMM               0.57 : Rmf
RMC .OHMM                1.3 : Rmc
MFSS.                   MEAS : Source Rmf.
MCSS.                   CALC : Source Rmc.
TCS .HRS                 330 : Time Circ. stopped
TLAB.HRS                 530 : Time logger at bottom
LUN .                   8005 : Logging unit number
LUL .                   VICT : Logging unit location
ORIG.            2" 5" PRINT : Origin of data
UWI .         42285307220000 : Unique Well ID
DICO. A2D TECHNOLOGIES, INC. : Digitizing Company
SL  .  3700' FWL & 1000' FNL : Surface Location
PD  .                     GL : Permanent Datum
LMF .                     KB : Log Measured From
DMF .                     KB : Drilling Measured From
~Other -----------------------------------------------------
~ASCII -----------------------------------------------------
# ...
 9550.00000  -41.04060   13.59220    1.65500    1.73040    2.42440  609.86550    -999.25    -999.25    -999.25    -999.25    -999.25   87.34940    -999.25   -1.91410   13.59220  609.86550    -999.25    -999.25    -999.25    1.65500   87.34940    -999.25    1.73040    -999.25    2.42440
 9600.00000  -42.94390   12.85760    1.99310    2.02780    3.32600  487.27340    -999.25    -999.25    -999.25    -999.25    -999.25   80.22650    -999.25   -3.71030   12.85760  487.27340    -999.25    -999.25    -999.25    1.99310   80.22650    -999.25    2.02780    -999.25    3.32600
 9650.00000  -42.27790   13.57720    1.25670    1.26890    1.97260  790.73240    -999.25    -999.25    -999.25    -999.25    -999.25   93.75900    -999.25   -2.93730   13.57720  790.73240    -999.25    -999.25    -999.25    1.25670   93.75900    -999.25    1.26890    -999.25    1.97260
 9700.00000  -41.67920   13.96700    1.65510    1.64370    2.35980  612.85500    -999.25    -999.25    -999.25    -999.25    -999.25    -999.25    -999.25   -4.27180    -999.25  612.85500    -999.25    -999.25    -999.25    1.65510    -999.25    -999.25    1.64370    -999.25    2.35980
 9750.00000  -19.57810    -999.25    1.39190    1.37470    1.75950  710.82530   11.84320    -999.25   -0.00600    2.45860    0.32740   94.31140    0.12200   -5.28040   11.84320  710.82530   -0.00600    2.45860    0.12200    1.39190   94.31140    -999.25    1.37470    0.32740    1.75950
 9800.00000  -14.60840    -999.25    1.04000    1.02580    1.32460 1000.00010   10.92460    -999.25   -0.15820    2.31390    0.39210   99.70020    0.21700   -0.74230   10.92460 1000.00010   -0.15820    2.31390    0.21700    1.04000   99.70020    -999.25    1.02580    0.39210    1.32460
 9850.00000  -15.30600    -999.25    1.13150    1.07740    1.26890  854.41500   11.93390    -999.25   -0.16720    2.22520    0.31620  102.36490    0.26500   -1.47740   11.93390  854.41500   -0.16720    2.22520    0.26500    1.13150  102.36490    -999.25    1.07740    0.31620    1.26890
 9900.00000  -16.49640    -999.25    0.87640    0.85880    1.12080 1177.71090   12.19000    -999.25   -0.18950    2.25730    0.38620  106.71180    0.25000   -2.70520   12.19000 1177.71090   -0.18950    2.25730    0.25000    0.87640  106.71180    -999.25    0.85880    0.38620    1.12080
 9950.00000  -15.90030    -999.25    1.20360    1.22160    1.27770  864.45780   12.79230    -999.25   -0.15970    2.26770    0.36690   97.74850    0.24900   -2.14660   12.79230  864.45780   -0.15970    2.26770    0.24900    1.20360   97.74850    -999.25    1.22160    0.36690    1.27770
 10000.00000  -16.24610    -999.25    1.05600    1.01270    1.22590  938.74850   11.81340    -999.25   -0.17160    2.26940    0.35520  100.60060    0.24800   -2.52980   11.81340  938.74850   -0.17160    2.26940    0.24800    1.05600  100.60060    -999.25    1.01270    0.35520    1.22590
 10050.00000  -15.21120    -999.25    1.17940    1.16200    1.33170  865.45650   11.82830    -999.25   -0.17690    2.25420    0.35030   97.74650    0.25200   -1.53230   11.82830  865.45650   -0.17690    2.25420    0.25200    1.17940   97.74650    -999.25    1.16200    0.35030    1.33170
 10100.00000  -16.56660    -999.25    1.39190    1.37040    1.62630  730.65010   12.55130    -999.25   -0.03660    2.44440    0.31840   90.41900    0.14100   -2.92520   12.55130  730.65010   -0.03660    2.44440    0.14100    1.39190   90.41900    -999.25    1.37040    0.31840    1.62630
 10150.00000  -15.21100    -999.25    1.20410    1.19440    1.50760  859.15330   11.52540    -999.25   -0.08210    2.37040    0.34500   92.81430    0.19500   -1.60700   11.52540  859.15330   -0.08210    2.37040    0.19500    1.20410   92.81430    -999.25    1.19440    0.34500    1.50760
 10200.00000  -16.82470    -999.25    1.16660    1.17750    1.45940  860.68110   11.27110    -999.25   -0.02460    2.39750    0.32610   95.95820    0.16600   -3.25810   11.27110  860.68110   -0.02460    2.39750    0.16600    1.16660   95.95820    -999.25    1.17750    0.32610    1.45940
 10250.00000  -15.84450    -999.25    1.57160    1.57610    2.09210  653.25070   11.52700    -999.25    0.00300    2.47640    0.27210   90.56890    0.11300   -2.31540   11.52700  653.25070    0.00300    2.47640    0.11300    1.57160   90.56890    -999.25    1.57610    0.27210    2.09210
 10300.00000  -14.98950    -999.25    1.54980    1.54380    1.80400  656.34050   12.44590    -999.25   -0.00080    2.45800    0.29820   90.38800    0.12700   -1.49780   12.44590  656.34050   -0.00080    2.45800    0.12700    1.54980   90.38800    -999.25    1.54380    0.29820    1.80400
 10350.00000  -15.17470    -999.25    1.23440    1.25140    1.49010  784.30020   13.09350    -999.25   -0.12610    2.36390    0.36030   91.80040    0.18800   -1.72040   13.09350  784.30020   -0.12610    2.36390    0.18800    1.23440   91.80040    -999.25    1.25140    0.36030    1.49010
 10400.00000  -15.54930    -999.25    2.00000    2.04890    2.15760  479.86920   12.92770    -999.25   -0.00670    2.52140    0.25230   82.83360    0.09200   -2.13250   12.92770  479.86920   -0.00670    2.52140    0.09200    2.00000   82.83360    -999.25    2.04890    0.25230    2.15760
 10450.00000  -15.08300    -999.25    1.09030    1.06330    1.28650  908.66870   13.03310    -999.25   -0.04700    2.41690    0.35410   98.42510    0.15800   -1.70360   13.03310  908.66870   -0.04700    2.41690    0.15800    1.09030   98.42510    -999.25    1.06330    0.35410    1.28650
 10500.00000  -14.47960    -999.25    1.02480    1.03430    1.21750  981.42420   14.61450    -999.25   -0.06790    2.39220    0.34270  100.75100    0.16900   -1.13770   14.61450  981.42420   -0.06790    2.39220    0.16900    1.02480  100.75100    -999.25    1.03430    0.34270    1.21750
 10550.00000  -14.17810    -999.25    1.13150    1.13930    1.27240  846.75300   14.67480    -999.25   -0.05670    2.45260    0.36650   98.94870    0.13600   -0.49120   14.67480  846.75300   -0.05670    2.45260    0.13600    1.13150   98.94870    -999.25    1.13930    0.36650    1.27240
 10600.00000  -15.50150    -999.25    1.23780    1.20400    1.25500  813.66810   12.00900    -999.25   -0.01720    2.44820    0.33280  100.82390    0.14300   -1.35550   12.00900  813.66810   -0.01720    2.44820    0.14300    1.23780  100.82390    -999.25    1.20400    0.33280    1.25500
 10650.00000  -27.69580    -999.25    2.47070    2.18750    1.65840  405.56650   16.43610    -999.25    0.00750    2.39850    0.20660   86.50110    0.16500  -13.09070   16.43610  405.56650    0.00750    2.39850    0.16500    2.47070   86.50110    -999.25    2.18750    0.20660    1.65840
 10700.00000  -21.68670    -999.25    1.07270    1.07880    1.07140  827.06770   20.48120    -999.25   -0.01420    2.41570    0.30310   99.62290    0.15900   -6.62240   20.48120  827.06770   -0.01420    2.41570    0.15900    1.07270   99.62290    -999.25    1.07880    0.30310    1.07140
 10750.00000  -20.18070    -999.25    0.86060    0.86410    1.08630 1163.90980   18.86140    -999.25   -0.00750    2.44940    0.28070  109.82000    0.13900   -4.65730   18.86140 1163.90980   -0.00750    2.44940    0.13900    0.86060  109.82000    -999.25    0.86410    0.28070    1.08630
 10800.00000  -18.52410    -999.25    2.14280    2.14300    2.09870  479.86370   11.48180    -999.25    0.01340    2.54680    0.23870   88.98040    0.08300   -2.54150   11.48180  479.86370    0.01340    2.54680    0.08300    2.14280   88.98040    -999.25    2.14300    0.23870    2.09870
 10850.00000  -17.92240    -999.25    2.44250    2.39940    2.98140  430.33430   11.45180    -999.25   -0.00150    2.53630    0.27130   81.63440    0.08700   -1.48070   11.45180  430.33430   -0.00150    2.53630    0.08700    2.44250   81.63440    -999.25    2.39940    0.27130    2.98140
 10900.00000  -16.86800    -999.25    2.05570    2.06230    2.02560  495.34980   14.22290    -999.25   -0.00070    2.56630    0.28610   88.68070    0.07000   -0.20640   14.22290  495.34980   -0.00070    2.56630    0.07000    2.05570   88.68070    -999.25    2.06230    0.28610    2.02560
