~Version ---------------------------------------------------
VERS. 2.0 : CWLS log ASCII Standard -VERSION 2.0
WRAP. YES : Multiple lines per depth step
~Well ------------------------------------------------------
STRT.FT                  300.0 : START DEPTH
STOP.FT                24000.0 : STOP DEPTH
STEP.FT               50.00000 : STEP LENGTH
NULL.                  -999.25 : NULL VALUE
COMP.       PLACID OIL COMPANY : COMPANY
WELL.                PEELER #1 : WELL
FLD .                  WILDCAT : FIELD
LOC .                          : LOCATION
CNTY.                MC MULLEN : COUNTY
STAT.                    TEXAS : STATE
CTRY. UNITED STATES OF AMERICA : COUNTRY
SRVC.             Schlumberger : SERVICE COMPANY
DATE.              01-Jan-1984 : LOGDATE
API .           42311317850000 : API NUMBER
UWI .           42311317850000 : UNIQUE WELL ID
SLAT.WGS84       28.5959255047 : SURFACE LATITUDE
SLON.WGS84      -98.4401225914 : SURFACE LONGITUDE
~Curve Information -----------------------------------------
DEPT  .FT    : 
CALDED.IN    : CALIPER FROM DENSITY LOG (ADJ TO RES.)
CALWS .IN    : CALIPER (CALDED)
CILDED.MMHO  : CONDUCTIVITY FROM LOG
CONDWS.MMHO  : CONDUCTIVITY (1000/DRESws)
DCORWS.G/C3  : DENSITY CORRECTION (DRHOED)
DENWS .G/C3  : BULK DENSITY  (FROM DPOws LS)
DPHIED.V/V   : DENSITY POROSITY  (ADJ TO RES.)
DPOWS .V/V   : DENSITY POROSITY (M=2.71 F=1 DPHIED)
DRESWS.OHMM  : DEEP RESISTIVITY (ILDED)
DRHOED.G/C3  : DENSITY CORRECTION (ADJ TO RES.)
DTED  .US/F  : DELTA TIME
DTWS  .US/F  : DELTA TIME  (DTED)
GRWS  .GAPI  : GAMMA RAY (GRRED)
GRRED .GAPI  : GAMMA RAY FROM RESISTIVITY LOG
ILDED .OHMM  : DEEP INDUCTION RESISTIVITY
ILMED .OHMM  : MEDIUM INDUCTION RESISTIVITY
MRESWS.OHMM  : MEDIUM RESISTIVITY (ILMED)
NPHIED.V/V   : NEUTRON POROSITY (ADJ TO RES.)
NPOWS .V/V   : NEUTRON POROSITY LIMESTONE (NPHIED)
RHOBED.G/C3  : BULK DENSITY (ADJ TO RES.)
SFLAED.OHMM  : SPHERICALLY FOCUSED RESISTIVITY
SPWS  .MV    : SPONTANEOUS POTENTIAL BASELINE 0 MV (SPRED)
SPRED .MV    : SPONTANEOUS POTENTIAL FROM RESISTIVITY
SRESWS.OHMM  : SHALLOW RESISTIVITY (SFLAED)
~Params ----------------------------------------------------
PD  .                     GL : PERMANENT DATUM
EPD .F                   336 : ELEVATION PERMANENT DATUM
LMF .                     KB : LOG MEASURED FROM
DMF .                     KB : DRILLING MEASURED FROM
EKB .F                   368 : KELLING BUSHING
EDF .F                   367 : DRILLING FLOOR
EGL .F                   336 : GROUND LEVEL
DATE.               1-1-1984 : RUN DATE
RUN .                      7 : RUN NUMBER
DD  .F                 24031 : DEPTH DRILLER
DL  .F                 24037 : DEPTH LOGGER
BLI .F                 24030 : BOTTOM LOG INTERVAL
TLI .F                 21000 : TOP LOG INTERVAL
CS  .IN                8.625 : CASING SIZE
CBD .F                 19500 : CASING BOTTOM DRILLER
CBL .F                 19500 : CASING BOTTOM LOGGER
BS  .IN                  7.5 : BIT SIZE
BSD .F                 24031 : BIT SIZE AT DEPTH
DFT .               INVERMUL : DRILLING FLUID TYPE
DFV .                     83 : DRILLING FLUID VISCOSITY
TCS .HRS                 800 : TIME CURCULATED STOPPED
TLAB.HRS                 200 : TIME LOGGER AT BOTTOM
LUL .               EDINBURG : LOGGING UNIT LOCATION
ENGI.              NEWMISTER : RECORDING ENGINEER
WITN.                   LONG : WITNESSED BY
CLNT.                A2DTECH : CLIENT CODE
ORIG.            1",5" PRINT : ORIGIN OF DATA
UWI .         42311317850000 : UNIQUE WELL ID
DICO. A2D Technologies, Inc. : DIGITIZING COMPANY
~Other -----------------------------------------------------
~ASCII -----------------------------------------------------
# ...
 20600.00000    7.75300    7.75300    -999.25  106.90270    -999.25    2.92940   -0.12830   -0.12830    9.35430    -999.25   55.54760   55.54760   29.86040   29.86040    9.35430   10.98250   10.98250    0.01300    0.01300    2.93400    -999.25    -999.25    -999.25    -999.25
 20650.00000    7.75100    7.75100    -999.25  164.17130    -999.25    2.71960   -0.00560   -0.00560    6.09120    -999.25   53.33160   53.33160   35.45580   35.45580    6.09120    6.22880    6.22880    0.02400    0.02400    2.71800    -999.25    -999.25    -999.25    -999.25
 20700.00000    7.79400    7.79400    -999.25  296.92970    -999.25    2.74610   -0.02110   -0.02110    3.36780    -999.25   63.12500   63.12500   62.28620   62.28620    3.36780    3.09600    3.09600    0.19300    0.19300    2.75200    -999.25    -999.25    -999.25    -999.25
 20750.00000    7.77300    7.77300    -999.25  190.15380    -999.25    2.96070   -0.14660   -0.14660    5.25890    -999.25   58.94290   58.94290   10.49770   10.49770    5.25890    5.53030    5.53030    0.00300    0.00300    2.96500    -999.25    -999.25    -999.25    -999.25
 20800.00000    7.78200    7.78200    -999.25   17.64900    -999.25    2.85500   -0.08480   -0.08480   56.66050    -999.25   48.28130   48.28130    5.02200    5.02200   56.66050   14.73980   14.73980    0.00400    0.00400    2.86900    -999.25    -999.25    -999.25    -999.25
 20850.00000    7.74700    7.74700    -999.25   62.87880    -999.25    2.72970   -0.01150   -0.01150   15.90360    -999.25   51.17680   51.17680   15.39660   15.39660   15.90360   17.51270   17.51270    0.02000    0.02000    2.73700    -999.25    -999.25    -999.25    -999.25
 20900.00000    7.76300    7.76300    -999.25  453.90590    -999.25    2.78730   -0.04520   -0.04520    2.20310    -999.25   72.81250   72.81250   33.82580   33.82580    2.20310    2.29640    2.29640    0.13100    0.13100    2.81600    -999.25    -999.25    -999.25    -999.25
 20950.00000    7.72800    7.72800    -999.25   75.31370    -999.25    2.23100    0.28010    0.28010   13.27780    -999.25   63.21110   63.21110   19.82990   19.82990   13.27780   14.63560   14.63560   -0.00400   -0.00400    2.17800    -999.25    -999.25    -999.25    -999.25
 21000.00000    7.74300    7.74300    -999.25   32.92330   -0.04300    2.13970    0.33350    0.33350   30.37360   -0.04300   70.00030   70.00030   13.06220   13.06220   30.37360   36.16090   36.16090    0.00500    0.00500    2.16600    -999.25    -999.25    -999.25    -999.25
 21050.00000    7.70100    7.70100    -999.25  240.99870   -0.00800    2.81600   -0.06200   -0.06200    4.14940   -0.00800   60.78120   60.78120   14.60740   14.60740    4.14940    3.17190    3.17190    0.05700    0.05700    2.81400    -999.25    -999.25    -999.25    -999.25
 21100.00000    7.76800    7.76800    -999.25    0.54890   -0.01200    1.82340    0.51850    0.51850 1821.86520   -0.01200   64.13820   64.13820    7.46500    7.46500 1821.86520  130.20150  130.20150   -0.00200   -0.00200    1.77500    -999.25    -999.25    -999.25    -999.25
 21150.00000    7.72100    7.72100    -999.25  278.23380   -0.01700    2.57530    0.07880    0.07880    3.59410   -0.01700   75.15620   75.15620   25.67040   25.67040    3.59410    2.72820    2.72820    0.12400    0.12400    2.56000    -999.25    -999.25    -999.25    -999.25
 21200.00000    7.78200    7.78200    -999.25  429.77480   -0.02100    2.67270    0.02180    0.02180    2.32680   -0.02100   69.68750   69.68750   42.45720   42.45720    2.32680    1.89420    1.89420    0.06100    0.06100    2.67300    -999.25    -999.25    -999.25    -999.25
 21250.00000    7.74800    7.74800    -999.25   80.19250   -0.05600    2.34000    0.21640    0.21640   12.47000   -0.05600   69.14200   69.14200   16.93000   16.93000   12.47000   13.52530   13.52530    0.03700    0.03700    2.19200    -999.25    -999.25    -999.25    -999.25
 21300.00000    -999.25    -999.25    -999.25    0.98370   -0.05000    2.13850    0.33420    0.33420 1016.58700   -0.05000   68.13300   68.13300    5.75200    5.75200 1016.58700    -999.25    -999.25    0.01300    0.01300    2.15100    -999.25    -999.25    -999.25    -999.25
 21350.00000    -999.25    -999.25    -999.25    4.69070   -0.08300    2.19290    0.30240    0.30240  213.18700   -0.08300   68.86900   68.86900    8.00300    8.00300  213.18700    -999.25    -999.25    0.01500    0.01500    2.30900    -999.25    -999.25    -999.25    -999.25
 21400.00000    -999.25    -999.25    -999.25    0.50000   -0.04500    2.04890    0.38660    0.38660 1999.99960   -0.04500   69.66300   69.66300    3.79500    3.79500    -999.25    -999.25    -999.25    0.00800    0.00800    2.03400    -999.25    -999.25    -999.25    -999.25
 21450.00000    -999.25    -999.25    -999.25  125.69130   -0.00700    2.61030    0.05830    0.05830    7.95600   -0.00700   54.11900   54.11900   17.18100   17.18100    7.95600    -999.25    -999.25    0.07600    0.07600    2.65900    -999.25    -999.25    -999.25    -999.25
 21500.00000    -999.25    -999.25    -999.25   45.45250   -0.03700    2.63610    0.04320    0.04320   22.00100   -0.03700   55.88000   55.88000   13.29400   13.29400   22.00100    -999.25    -999.25    0.04400    0.04400    2.37600    -999.25    -999.25    -999.25    -999.25
 21550.00000    -999.25    -999.25    -999.25   26.47320   -0.07400    2.36490    0.20180    0.20180   37.77400   -0.07400   62.01800   62.01800   11.24100   11.24100   37.77400    -999.25    -999.25    0.02900    0.02900    2.25700    -999.25    -999.25    -999.25    -999.25
 21600.00000    -999.25    -999.25    -999.25   35.56690   -0.01200    2.81230   -0.05980   -0.05980   28.11600   -0.01200   50.81300   50.81300   11.14100   11.14100   28.11600    -999.25    -999.25    0.03200    0.03200    2.85900    -999.25    -999.25    -999.25    -999.25
 21650.00000    -999.25    -999.25    -999.25    5.64980   -0.00300    2.16880    0.31650    0.31650  176.99700   -0.00300   67.26800   67.26800    4.30700    4.30700  176.99700    -999.25    -999.25    0.01400    0.01400    2.17700    -999.25    -999.25    -999.25    -999.25
 21700.00000    -999.25    -999.25    -999.25    9.86340   -0.07500    2.12550    0.34180    0.34180  101.38500   -0.07500   66.09100   66.09100    5.48900    5.48900  101.38500    -999.25    -999.25    0.01400    0.01400    2.13000    -999.25    -999.25    -999.25    -999.25
 21750.00000    -999.25    -999.25    -999.25    0.63030   -0.04700    2.14740    0.32900    0.32900 1586.49300   -0.04700   66.90500   66.90500    4.38500    4.38500 1586.49300    -999.25    -999.25    0.01300    0.01300    2.15000    -999.25    -999.25    -999.25    -999.25
 21800.00000    -999.25    -999.25    -999.25   14.34040   -0.03400    2.40050    0.18100    0.18100   69.73300   -0.03400   58.12500   58.12500    7.29900    7.29900   69.73300    -999.25    -999.25    0.03300    0.03300    2.39500    -999.25    -999.25    -999.25    -999.25
 21850.00000    -999.25    -999.25    -999.25  282.72550    0.00100    2.65440    0.03250    0.03250    3.53700    0.00100   63.39500   63.39500   25.60800   25.60800    3.53700    -999.25    -999.25    0.13000    0.13000    2.54600    -999.25    -999.25    -999.25    -999.25
 21900.00000    -999.25    -999.25    -999.25   40.76970    0.00200    2.33930    0.21680    0.21680   24.52800    0.00200   59.41100   59.41100    5.34500    5.34500   24.52800    -999.25    -999.25    0.04100    0.04100    2.22200    -999.25    -999.25    -999.25    -999.25
 21950.00000    -999.25    -999.25    -999.25  123.71640   -0.01500    2.47860    0.13530    0.13530    8.08300   -0.01500   66.86700   66.86700   32.44500   32.44500    8.08300    -999.25    -999.25    0.06700    0.06700    2.51200    -999.25    -999.25    -999.25    -999.25
 22000.00000    -999.25    -999.25    -999.25   87.38200   -0.03100    2.39130    0.18640    0.18640   11.44400   -0.03100   67.47100   67.47100   28.34800   28.34800   11.44400    -999.25    -999.25    0.07200    0.07200    2.30900    -999.25    -999.25    -999.25    -999.25
