~Version ---------------------------------------------------
VERS. 2.0 : CWLS log ASCII Standard -VERSION 2.0
WRAP. YES : MULTIPLE LINES PER DEPTH STEP
~Well ------------------------------------------------------
STRT.FT                 3700.0 : START DEPTH
STOP.FT                11650.0 : STOP DEPTH
STEP.FT               50.00000 : STEP LENGTH
NULL.                  -999.25 : NULL VALUE
COMP.     LA SALLE ENERGY CORP : COMPANY
WELL.                   PAM #1 : WELL
FLD .                  WILDCAT : FIELD
LOC .                          : LOCATION
CNTY.                   GRIMES : COUNTY
STAT.                    TEXAS : STATE
CTRY. UNITED STATES OF AMERICA : COUNTRY
SRVC.             Schlumberger : SERVICE COMPANY
DATE.              15-May-1981 : LOGDATE
API .           42185302670000 : API NUMBER
UWI .           42185302670000 : UNIQUE WELL ID
SLAT.WGS84       30.7678132029 : SURFACE LATITUDE
SLON.WGS84      -95.8888588158 : SURFACE LONGITUDE
~Curve Information -----------------------------------------
DEPT    .FT    : DEPTH FEET
CALWS   .IN    : CALIPER [DCALED+8.75]
CONDWS  .MMHO  : CONDUCTIVITY [1000/DRESWS]
DCALRED .IN    : DIFFERENTIAL CALIPER FROM RES. LOG
DCORWS  .G/C3  : DENSITY CORRECTION [DRHOED]
DENWS   .G/C3  : BULK DENSITY [CALCULATED FROM DPOWS][M=2.65 F=1.0]<9830>[M=2.71 F=1.0]<10130>[M=2.68 F=1.0]<11075>[M=2.71 F=1.0] TO TD
DPHILSED.V/V   : DENSITY POROSITY [M=2.71 F=1.0] FROM DENSITY LOG
DPHISSED.V/V   : DENSITY POROSITY [M=2.65 F=1.0] FROM DENSITY LOG
DPOWS   .V/V   : DENSITY POROSITY SNADSTONE [DPHISSED]<9830>[DPHILSED]<10130>[DPHISSED]<11075>[DPHILSED] TO TD
DRESWS  .OHMM  : DEEP RESISTIVITY [ILDED]
DRHOED  .G/C3  : DENSITY CORRECTION FROM DENSITY LOG
GRRED   .GAPI  : GAMMA RAY FROM RESISTIVITY LOG
GRWS    .GAPI  : GAMMA RAY [GRRED]
ILDED   .OHMM  : INDUCTION LOG DEEP RESISTIVITY
ILMED   .OHMM  : INDUCTION LOG MEDIUM RESISTIVITY
MRESWS  .OHMM  : MEDIUM RESISTIVITY [ILMED]
NPHILSED.V/V   : NEUTRON POROSITY LIMESTONE FROM DENSITY LOG
NPHISSED.V/V   : NEUTRON POROSITY SANDSTONE FROM DENSITY LOG
NPOWS   .V/V   : NEUTRON POROSITY SANDSTONE [NPHISSED]<9830>[NPHILSED]<10130>[NPHISSED]<11075>[NPHILSED] TO TD
SFLUED  .OHMM  : SPHERICALLY FOCUSED LOG RESISTIVITY
SPRED   .MV    : SPONTANEOUS POTENTIAL FROM RESISTIVITY LOG
SPWS    .MV    : SPONTANEOUS POTENTIAL [BASELINE 0 MV] [SPRED]
SRESWS  .OHMM  : SHALLOW RESISTIVITY [SFLUED]
TENRED  .LBF   : TENSION FROM RESISTIVITY LOG
~Params ----------------------------------------------------
PD  .                     GL : PERMANENT DATUM
EPD .FT                  259 : ELEVATION PERMANENT DATUM
LMF .                    TKB : LOG MEASURED FROM
DAPD.FT                   13 : FEET ABOVE PERMANENT DATUM
DMF .                    TKB : DRILLING MEASURED FROM
EKB .FT                  272 : KELLY BUSHING
EDF .FT                  271 : DRILLING FLOOR
EGL .FT                  259 : GROUND LEVEL
DATE.               05/15/81 : RUN DATE
RUN .                      1 : RUN NUMBER
DD  .FT                11590 : DEPTH DRILLER
DL  .FT                11619 : DEPTH LOGGER
BLI .FT                11616 : BOTTOM LOG INTERVAL
TLI .FT                 3730 : TOP LOG INTERVAL
CS  .IN                9.625 : CASING SIZE
CBD .FT                 3819 : CASING BOTTOM DRILLER
CBL .FT                 3730 : CASING BOTTOM LOGGER
BS  .IN                 8.75 : BIT SIZE
BSD .FT                11590 : BIT SIZE AT DEPTH
DFT .                  GELEX : DRILLING FLUID TYPE
DFD .                    9.6 : DRILLING FLUID DENSITY
DFV .                     44 : DRILLING FLUID VISCOSITY
DFPH.                      9 : DRILLING FLUID PH
DFL .                    6.6 : DRILLING FLUID LOSS
MSS .               CIRC PIT : MUD SAMPLE SOURCE
RMS .OHMM                1.7 : RESISTIVITY MUD SAMPLE
MST .DEGF                 75 : MUD SAMPLE TEMPERATURE
RMF .OHMM               1.38 : RESISTIVITY MUD FILTRATE SAMPLE
MFST.DEGF                 75 : MUD FILTRATE SAMPLE TEMPERATURE
RMC .OHMM               2.04 : RESISTIVITY MUD CAKE
MCST.DEGF                 75 : MUD CAKE SAMPLE TEMPERATURE
MFSS.                      M : MUD FILTRATE SAMPLE SOURCE
MCSS.                      C : MUD CAKE SAMPLE SOURCE
RMB .OHMM              0.557 : RESISTIVITY MUD AT BHT
TCS .HRS                1300 : TIME CIRCULATED STOPPED
TLAB.HRS                2300 : TIME LOGGER AT BOTTOM
LUN .                   8066 : LOGGING UNIT NUMBER
LUL .                 DAYTON : LOGGING UNIT LOCATION
ENGI.               HARRISON : RECORDING ENGINEER
WITN.                  DUKES : WITNESSED BY
CLNT.                A2DTECH : CLIENT CODE
ORIG.            2" 5" PRINT : ORIGIN OF DATA
UWI .         42185302670000 : UNIQUE WELL ID
DICO. A2D Technologies, Inc. : DIGITIZING COMPANY
~Other -----------------------------------------------------
~ASCII -----------------------------------------------------
# ...
 9900.00000   11.13030  190.69050    2.38030    0.02350    2.64930    0.03550    -999.25    0.03550    5.24410    0.02350   71.06850   71.06850    5.24410    5.60800    5.60800    0.14330    -999.25    0.14330    6.89240  -23.42540  -14.04490    6.89240 4888.94530
 9950.00000   11.51720  135.18260    2.76720    0.03930    2.66610    0.02570    -999.25    0.02570    7.39740    0.03930   52.83060   52.83060    7.39740    8.97340    8.97340    0.09650    -999.25    0.09650   14.56840  -26.27730  -16.94420   14.56840 4885.54350
 10000.00000   11.28660   80.29160    2.53660    0.00840    2.66260    0.02770    -999.25    0.02770   12.45460    0.00840   46.34660   46.34660   12.45460   14.03030   14.03030    0.09910    -999.25    0.09910   27.63770  -30.75130  -21.46560   27.63770 4952.91310
 10050.00000   11.27790   71.21240    2.52790    0.10340    2.56380    0.08550    -999.25    0.08550   14.04250    0.10340   43.04740   43.04740   14.04250   24.61820   24.61820    0.12650    -999.25    0.12650   50.88060  -34.50750  -25.26920   50.88060 4942.66850
 10100.00000   10.59440   29.85110    1.84440    0.00780    2.67630    0.01970    -999.25    0.01970   33.49960    0.00780   39.77080   39.77080   33.49960   42.62150   42.62150    0.04190    -999.25    0.04190   67.77800  -35.15560  -25.96470   67.77800 4927.78220
 10150.00000   13.41580  203.54990    4.66580    0.10240    2.25900    -999.25    0.25060    0.25060    4.91280    0.10240   70.85320   70.85320    4.91280    5.19970    5.19970    -999.25    0.22670    0.22670    6.19760  -27.75290  -18.60940    6.19760 4954.13670
 10200.00000   12.03890  162.02470    3.28890    0.09780    2.52640    -999.25    0.09140    0.09140    6.17190    0.09780   61.15370   61.15370    6.17190    6.53440    6.53440    -999.25    0.23280    0.23280    7.88510  -38.84300  -29.74690    7.88510 4902.00830
 10250.00000    8.78160   65.41630    0.03160    0.06590    2.56730    -999.25    0.06710    0.06710   15.28670    0.06590   38.87190   38.87190   15.28670   20.71970   20.71970    -999.25    0.10170    0.10170   28.79730  -80.13450  -71.08580   28.79730 4956.43460
 10300.00000    9.75050   44.63890    1.00050    0.07570    2.61310    -999.25    0.03980    0.03980   22.40200    0.07570   24.92600   24.92600   22.40200   24.93960   24.93960    -999.25    0.06290    0.06290   39.06680  -74.29030  -65.28900   39.06680 4951.76560
 10350.00000   10.72180  124.29310    1.97180    0.09620    2.62410    -999.25    0.03330    0.03330    8.04550    0.09620   47.62560   47.62560    8.04550    8.31850    8.31850    -999.25    0.11400    0.11400   10.26670  -44.02430  -35.07040   10.26670 4960.98490
 10400.00000   11.91740  147.50570    3.16740    0.10040    2.57000    -999.25    0.06550    0.06550    6.77940    0.10040   68.34970   68.34970    6.77940    7.11090    7.11090    -999.25    0.20270    0.20270    8.79250  -21.39260  -12.48610    8.79250 4994.78220
 10450.00000   13.68260  160.65030    4.93260    -999.25    2.45220    -999.25    0.13560    0.13560    6.22470    -999.25   70.81550   70.81550    6.22470    6.61510    6.61510    -999.25    0.22250    0.22250    9.84980  -20.86760  -12.00850    9.84980 4999.65620
 10500.00000   10.44860  156.97850    1.69860    0.09980    2.54340    -999.25    0.08130    0.08130    6.37030    0.09980   78.20720   78.20720    6.37030    7.03420    7.03420    -999.25    0.24350    0.24350    8.25890  -23.85740  -15.04570    8.25890 5021.45650
 10550.00000   14.34510  252.06060    5.59510    -999.25    2.35210    -999.25    0.19520    0.19520    3.96730    -999.25   73.42060   73.42060    3.96730    3.67210    3.67210    -999.25    0.33840    0.33840    5.08480  -19.75550  -10.99120    5.08480 5100.42970
 10600.00000   19.84110  397.07750   11.09110   -0.00710    1.49060    -999.25    0.70800    0.70800    2.51840   -0.00710   61.60280   61.60280    2.51840    1.91210    1.91210    -999.25    0.52800    0.52800    3.37380  -19.82320  -11.10630    3.37380 5052.37840
 10650.00000   14.70870  247.85610    5.95870    -999.25    2.39460    -999.25    0.16990    0.16990    4.03460    -999.25   80.75420   80.75420    4.03460    3.42210    3.42210    -999.25    0.41470    0.41470    5.17170  -21.26120  -12.59170    5.17170 5097.35890
 10700.00000   12.96930  218.74660    4.21930    0.09550    2.43560    -999.25    0.14550    0.14550    4.57150    0.09550   87.40450   87.40450    4.57150    3.74460    3.74460    -999.25    0.45220    0.45220    6.82720  -18.69540  -10.07330    6.82720 5111.93900
 10750.00000    9.53550   67.33370    0.78550    0.09900    2.51170    -999.25    0.10020    0.10020   14.85140    0.09900   48.45450   48.45450   14.85140   11.42570   11.42570    -999.25    0.12730    0.12730   31.96970  -29.66000  -21.08530   31.96970 5139.36870
 10800.00000   11.39250  375.79860    2.64250    0.06330    2.26030    -999.25    0.24980    0.24980    2.66100    0.06330   92.95650   92.95650    2.66100    2.58010    2.58010    -999.25    0.43720    0.43720    4.19840  -29.85100  -21.32370    4.19840 5195.43360
 10850.00000   17.16390  326.94700    8.41390    0.10120    1.95020    -999.25    0.43440    0.43440    3.05860    0.10120   74.97330   74.97330    3.05860    2.34830    2.34830    -999.25    0.48340    0.48340    3.79940  -25.65940  -17.17950    3.79940 5353.96680
 10900.00000   19.52530  248.69440   10.77530    0.06430    1.64800    -999.25    0.61430    0.61430    4.02100    0.06430   54.85240   54.85240    4.02100    2.76010    2.76010    -999.25    0.49670    0.49670    4.55660  -27.64340  -19.21090    4.55660 5123.44480
 10950.00000   14.34120  152.00340    5.59120    0.09920    2.22440    -999.25    0.27120    0.27120    6.57880    0.09920   96.88780   96.88780    6.57880    5.63920    5.63920    -999.25    0.34580    0.34580   11.71980  -20.17210  -11.78700   11.71980 5213.29100
 11000.00000   18.44360  200.25630    9.69360    0.03910    1.97590    -999.25    0.41910    0.41910    4.99360    0.03910   65.06510   65.06510    4.99360    3.96130    3.96130    -999.25    0.53320    0.53320    7.10640  -24.54350  -16.20580    7.10640 5323.41990
 11050.00000    9.58220   37.20110    0.83220    0.01920    2.73120    -999.25   -0.03050   -0.03050   26.88090    0.01920   24.74020   24.74020   26.88090   36.14810   36.14810    -999.25    0.05140    0.05140   58.88590  -31.77140  -23.48110   58.88590 5493.37790
 11100.00000   10.13550   28.30340    1.38550    0.03030    2.68790    0.01290    -999.25    0.01290   35.33150    0.03030   28.75580   28.75580   35.33150   32.90400   32.90400    0.01670    -999.25    0.01670   50.36920  -26.66700  -18.42410   50.36920 5276.85110
 11150.00000    9.62740   33.83550    0.87740    0.02530    2.72640   -0.00960    -999.25   -0.00960   29.55480    0.02530   22.48970   22.48970   29.55480   37.88480   37.88480    0.02010    -999.25    0.02010   77.34960  -49.83020  -41.63470   77.34960 5330.86380
 11200.00000    9.48010   15.17430    0.73010    0.01160    2.70540    0.00270    -999.25    0.00270   65.90100    0.01160   14.36550   14.36550   65.90100   80.35160   80.35160    0.01950    -999.25    0.01950  127.09250  -55.63830  -47.49020  127.09250 5373.03170
 11250.00000   10.41510   14.49890    1.66510    0.07370    2.72030   -0.00600    -999.25   -0.00600   68.97080    0.07370   16.24680   16.24680   68.97080   86.02930   86.02930    0.02030    -999.25    0.02030  191.78680  -58.75680  -50.65610  191.78680 5368.43600
 11300.00000   10.16380   30.57470    1.41380    0.09840    2.76810   -0.03400    -999.25   -0.03400   32.70680    0.09840   23.38240   23.38240   32.70680   35.71370   35.71370    0.01810    -999.25    0.01810   98.44980  -25.75870  -17.70540   98.44980 5366.62840
 11350.00000   10.93620   21.62970    2.18620    0.01070    2.72250   -0.00730    -999.25   -0.00730   46.23270    0.01070   19.52200   19.52200   46.23270   49.72980   49.72980    0.00040    -999.25    0.00040   53.97360  -65.18010  -57.17420   53.97360 5399.49900
 11400.00000    9.86150  114.14740    1.11150    0.06490    2.67390    0.02110    -999.25    0.02110    8.76060    0.06490   83.37260   83.37260    8.76060    8.39140    8.39140    0.09190    -999.25    0.09190   12.50230   -4.51080   -0.20240   12.50230 5419.63720
