~Version ---------------------------------------------------
VERS.      2.0 : CWLS log ASCII Standard -VERSION 2.0
WRAP.      YES : Multiple lines per depth step
CREA. 07/19/12 : LAS Creation Date
~Well ------------------------------------------------------
STRT.FT                  3700.0 : START DEPTH
STOP.FT                  8100.0 : STOP DEPTH
STEP.FT                50.00000 : STEP LENGTH
NULL.                   -999.25 : NULL VALUE
COMP. BRITTANY DRILLING COMPANY : COMPANY
WELL.           WENKE UNIT A #1 : WELL
FLD .                  GIDDINGS : FIELD
LOC .                           : LOCATION
CNTY.                       LEE : COUNTY
STAT.                     TEXAS : STATE
CTRY.  UNITED STATES OF AMERICA : COUNTRY
SRVC.              Schlumberger : SERVICE COMPANY
DATE.               14-Apr-1981 : LOGDATE
API .            42287309140000 : API NUMBER
UWI .            42287309140000 : UNIQUE WELL ID
SLAT.WGS84        30.1151179696 : SURFACE LATITUDE
SLON.WGS84       -97.0048315462 : SURFACE LONGITUDE
~Curve Information -----------------------------------------
DEPT    .FT    : DEPTH FEET
CALDED  .IN    : CALIPER FROM COMPENSATED NEUTRON-FORMATION DENSITY LOG
CALRED  .IN    : CALIPER FROM DUAL INDUCTION-SFL-SONIC LOG
CALWS   .IN    : CALIPER [CALRED SPL. TO CALDED @ 8077.5']
CONDWS  .MMHO  : CONDUCTIVITY [1000/DRESWS]
DCORWS  .G/C3  : DENSITY CORRECTION [DRHOED]
DENWS   .G/C3  : FORMATION BULK DENSITY [RHOBED]
DPHILSED.V/V   : DENSITY POROSITY LIMESTONE [M=2.71 F=1.0] FROM COMPENSATED NEUTRON-FORMATION DENSITY LOG
DPOWS   .V/V   : DENSITY POROSITY LIMESTONE [DPHILSED]
DRESWS  .OHMM  : DEEP RESISTIVITY [ILDED]
DRHOED  .G/C3  : DENSITY CORRECTION FROM COMPENSATED NEUTRON-FORMATION DENSITY LOG
DTED    .US/F  : INTERVAL TRANSIT TIME FROM DUAL INDUCTION-SFL-SONIC LOG
DTWS    .US/F  : COMPRESSIONAL SONIC [DTED]
GRDED   .GAPI  : GAMMA RAY FROM COMPENSATED NEUTRON-FORMATION DENSITY LOG
GRWS    .GAPI  : GAMMA RAY [GRDED]
ILDED   .OHMM  : DEEP INDUCTION FROM DUAL INDUCTION-SFL-SONIC LOG
ILMED   .OHMM  : MEDIUM INDUCTION FROM DUAL INDUCTION-SFL-SONIC LOG
MRESWS  .OHMM  : MEDIUM RESISTIVITY [ILMED]
NPHILSED.V/V   : NEUTRON POROSITY LIMESTONE FROM COMPENSATED NEUTRON-FORMATION DENSITY LOG
NPOWS   .V/V   : NEUTRON POROSITY LIMESTONE[NPHILSED]
RHOBED  .G/C3  : BULK DENSITY FROM COMPENSATED NEUTRON-FORMATION DENSITY LOG
SFLUED  .OHMM  : SHALLOW FOCUS RESISTIVITY UNAVERAGED FROM DUAL INDUCTION-SFL-SONIC LOG
SPRED   .MV    : SPONTANEOUS POTENTIAL FROM DUAL INDUCTION-SFL-SONIC LOG
SPWS    .MV    : SPONTANEOUS POTENTIAL [BASELINE 0 MV, SPRED]
SRESWS  .OHMM  : SHALLOW RESISTIVITY [SFLUED]
~Params ----------------------------------------------------
PD  .                     GL : PERMANENT DATUM
EPD .FT                  432 : ELEVATION PERMANENT DATUM
LMF .                    RKB : LOG MEASURED FROM
DAPD.FT                   16 : FEET ABOVE PERMANENT DATUM
DMF .                    RKB : DRILLING MEASURED FROM
EKB .FT                  448 : KELLY BUSHING
EDF .FT                  447 : DRILLING FLOOR
EGL .FT                  432 : GROUND LEVEL
DATE.               04/14/81 : RUN DATE
RUN .                      1 : RUN NUMBER
DD  .FT                 8140 : DEPTH DRILLER
DL  .FT                 8136 : DEPTH LOGGER
BLI .FT                 8129 : BOTTOM LOG INTERVAL
TLI .FT                 3699 : TOP LOG INTERVAL
CS  .IN                8.625 : CASING SIZE
CBD .FT                 3700 : CASING BOTTOM DRILLER
CBL .FT                 3699 : CASING BOTTOM LOGGER
BS  .IN                7.875 : BIT SIZE
BSD .FT                 8140 : BIT SIZE AT DEPTH
DFT .             LOW SOLIDS : DRILLING FLUID TYPE
DFD .                    9.2 : DRILLING FLUID DENSITY
DFV .                     38 : DRILLING FLUID VISCOSITY
DFPH.                    9.5 : DRILLING FLUID PH
DFL .                    6.6 : DRILLING FLUID LOSS
MSS .               CIRC PIT : MUD SAMPLE SOURCE
RMS .OHMM                2.6 : RESISTIVITY MUD SAMPLE
MST .DEGF                 75 : MUD SAMPLE TEMPERATURE
RMF .OHMM               3.54 : RESISTIVITY MUD FILTRATE SAMPLE
MFST.DEGF                 75 : MUD FILTRATE SAMPLE TEMPERATURE
RMC .OHMM                3.9 : RESISTIVITY MUD CAKE
MCST.DEGF                 75 : MUD CAKE SAMPLE TEMPERATURE
MFSS.                      M : MUD FILTRATE SAMPLE SOURCE
MCSS.                      C : MUD CAKE SAMPLE SOURCE
RMB .OHMM               0.98 : RESISTIVITY MUD AT BHT
TCS .HRS                2000 : TIME CIRCULATED STOPPED
TLAB.HRS                 155 : TIME LOGGER AT BOTTOM
LUN .                   8005 : LOGGING UNIT NUMBER
LUL .               VICTORIA : LOGGING UNIT LOCATION
ENGI.              BENAVIDES : RECORDING ENGINEER
WITN.                 KURTIN : WITNESSED BY
CLNT.                A2DTECH : CLIENT CODE
ORIG.               5" PRINT : ORIGIN OF DATA
UWI .         42287309140000 : UNIQUE WELL ID
DICO. A2D Technologies, Inc. : DIGITIZING COMPANY
~Other -----------------------------------------------------
~ASCII -----------------------------------------------------
# ...
 5150.00000    -999.25    9.00750    9.00750  761.96280    -999.25    -999.25    -999.25    -999.25    1.31240    -999.25  104.99820  104.99820    -999.25    -999.25    1.31240    1.36160    1.36160    -999.25    -999.25    -999.25    1.57400  -13.31740   -3.93730    1.57400
 5200.00000    -999.25    9.09670    9.09670  631.39290    -999.25    -999.25    -999.25    -999.25    1.58380    -999.25   98.48910   98.48910    -999.25    -999.25    1.58380    1.64350    1.64350    -999.25    -999.25    -999.25    1.74280  -15.48500   -5.71170    1.74280
 5250.00000    -999.25    9.15030    9.15030  748.05510    -999.25    -999.25    -999.25    -999.25    1.33680    -999.25   98.74720   98.74720    -999.25    -999.25    1.33680    1.38730    1.38730    -999.25    -999.25    -999.25    1.66090  -13.96030   -3.79370    1.66090
 5300.00000    -999.25    8.74610    8.74610 1023.75100    -999.25    -999.25    -999.25    -999.25    0.97680    -999.25  102.89640  102.89640    -999.25    -999.25    0.97680    1.02230    1.02230    -999.25    -999.25    -999.25    1.14360  -10.37330    0.18650    1.14360
 5350.00000    -999.25    8.67770    8.67770  689.65520    -999.25    -999.25    -999.25    -999.25    1.45000    -999.25   97.22070   97.22070    -999.25    -999.25    1.45000    1.40120    1.40120    -999.25    -999.25    -999.25    1.37020  -11.63190   -0.67880    1.37020
 5400.00000    -999.25    8.76820    8.76820  656.08190    -999.25    -999.25    -999.25    -999.25    1.52420    -999.25   97.45800   97.45800    -999.25    -999.25    1.52420    1.58330    1.58330    -999.25    -999.25    -999.25    1.81990  -15.18090   -3.83460    1.81990
 5450.00000    -999.25    8.27970    8.27970  602.33710    -999.25    -999.25    -999.25    -999.25    1.66020    -999.25   90.30910   90.30910    -999.25    -999.25    1.66020    1.80120    1.80120    -999.25    -999.25    -999.25    2.90380  -22.52390  -11.32920    2.90380
 5500.00000    -999.25    8.35810    8.35810  465.70110    -999.25    -999.25    -999.25    -999.25    2.14730    -999.25   84.41980   84.41980    -999.25    -999.25    2.14730    2.29720    2.29720    -999.25    -999.25    -999.25    2.69980  -17.76930   -6.80060    2.69980
 5550.00000    -999.25    8.78820    8.78820  510.96010    -999.25    -999.25    -999.25    -999.25    1.95710    -999.25   93.62730   93.62730    -999.25    -999.25    1.95710    2.05270    2.05270    -999.25    -999.25    -999.25    1.95480  -16.30390   -5.56110    1.95480
 5600.00000    -999.25    9.21890    9.21890  878.34870    -999.25    -999.25    -999.25    -999.25    1.13850    -999.25  105.44160  105.44160    -999.25    -999.25    1.13850    1.18120    1.18120    -999.25    -999.25    -999.25    1.39490  -15.28190   -4.76500    1.39490
 5650.00000    -999.25    9.42810    9.42810  755.62940    -999.25    -999.25    -999.25    -999.25    1.32340    -999.25  100.52060  100.52060    -999.25    -999.25    1.32340    1.37480    1.37480    -999.25    -999.25    -999.25    1.57410  -15.20760   -4.91670    1.57410
 5700.00000    -999.25    9.39440    9.39440  801.28210    -999.25    -999.25    -999.25    -999.25    1.24800    -999.25  101.62370  101.62370    -999.25    -999.25    1.24800    1.29520    1.29520    -999.25    -999.25    -999.25    1.48470  -14.24370   -4.17870    1.48470
 5750.00000    -999.25    8.93000    8.93000  575.10930    -999.25    -999.25    -999.25    -999.25    1.73880    -999.25   94.61870   94.61870    -999.25    -999.25    1.73880    1.80400    1.80400    -999.25    -999.25    -999.25    1.98230  -14.01200   -4.17300    1.98230
 5800.00000    -999.25    9.92760    9.92760  919.28660    -999.25    -999.25    -999.25    -999.25    1.08780    -999.25  105.75000  105.75000    -999.25    -999.25    1.08780    1.13590    1.13590    -999.25    -999.25    -999.25    1.21990  -17.09400   -7.48090    1.21990
 5850.00000    -999.25    9.37510    9.37510  815.39470    -999.25    -999.25    -999.25    -999.25    1.22640    -999.25   99.41030   99.41030    -999.25    -999.25    1.22640    1.27230    1.27230    -999.25    -999.25    -999.25    1.50300  -15.03470   -5.64750    1.50300
 5900.00000    -999.25    9.16310    9.16310  814.33220    -999.25    -999.25    -999.25    -999.25    1.22800    -999.25   99.06260   99.06260    -999.25    -999.25    1.22800    1.27560    1.27560    -999.25    -999.25    -999.25    1.56450  -16.73430   -7.57310    1.56450
 5950.00000    -999.25    8.35710    8.35710  506.32910    -999.25    -999.25    -999.25    -999.25    1.97500    -999.25   92.57800   92.57800    -999.25    -999.25    1.97500    2.08150    2.08150    -999.25    -999.25    -999.25    1.50020  -16.94470   -8.00940    1.50020
 6000.00000    -999.25    8.14950    8.14950  470.45540    -999.25    -999.25    -999.25    -999.25    2.12560    -999.25   84.14060   84.14060    -999.25    -999.25    2.12560    2.22260    2.22260    -999.25    -999.25    -999.25    6.96810  -26.25390  -17.54460    6.96810
 6050.00000    -999.25    9.29010    9.29010  708.11500    -999.25    -999.25    -999.25    -999.25    1.41220    -999.25   91.17020   91.17020    -999.25    -999.25    1.41220    1.46750    1.46750    -999.25    -999.25    -999.25    1.53460  -11.48420   -2.99990    1.53460
 6100.00000    -999.25    8.88790    8.88790  905.79710    -999.25    -999.25    -999.25    -999.25    1.10400    -999.25  102.00480  102.00480    -999.25    -999.25    1.10400    1.14530    1.14530    -999.25    -999.25    -999.25    1.22590  -10.83560   -2.57130    1.22590
 6150.00000    -999.25    9.15390    9.15390  695.50700    -999.25    -999.25    -999.25    -999.25    1.43780    -999.25   93.07660   93.07660    -999.25    -999.25    1.43780    1.50800    1.50800    -999.25    -999.25    -999.25    1.67360  -10.60500   -2.56070    1.67360
 6200.00000    -999.25   10.27760   10.27760 1090.39360    -999.25    -999.25    -999.25    -999.25    0.91710    -999.25  103.13200  103.13200    -999.25    -999.25    0.91710    0.97180    0.97180    -999.25    -999.25    -999.25    1.13120   -5.90750    1.91670    1.13120
 6250.00000    -999.25   10.12980   10.12980  823.38410    -999.25    -999.25    -999.25    -999.25    1.21450    -999.25   98.41770   98.41770    -999.25    -999.25    1.21450    1.26290    1.26290    -999.25    -999.25    -999.25    1.14660  -12.78770   -5.18350    1.14660
 6300.00000    -999.25   10.25080   10.25080  815.46110    -999.25    -999.25    -999.25    -999.25    1.22630    -999.25   98.82070   98.82070    -999.25    -999.25    1.22630    1.27840    1.27840    -999.25    -999.25    -999.25    1.52940   -8.52420   -1.14000    1.52940
 6350.00000    -999.25   11.11930   11.11930  839.70110    -999.25    -999.25    -999.25    -999.25    1.19090    -999.25  101.64900  101.64900    -999.25    -999.25    1.19090    1.23640    1.23640    -999.25    -999.25    -999.25    1.34320  -14.49860   -7.33440    1.34320
 6400.00000    -999.25   10.46650   10.46650  678.47210    -999.25    -999.25    -999.25    -999.25    1.47390    -999.25   95.07630   95.07630    -999.25    -999.25    1.47390    1.53390    1.53390    -999.25    -999.25    -999.25    1.76610  -10.56280   -3.61870    1.76610
 6450.00000    -999.25   10.09460   10.09460  533.19110    -999.25    -999.25    -999.25    -999.25    1.87550    -999.25   89.35420   89.35420    -999.25    -999.25    1.87550    1.94700    1.94700    -999.25    -999.25    -999.25    2.17620   -9.64800   -2.92390    2.17620
 6500.00000    -999.25   12.59890   12.59890  818.86670    -999.25    -999.25    -999.25    -999.25    1.22120    -999.25  101.16140  101.16140    -999.25    -999.25    1.22120    1.26710    1.26710    -999.25    -999.25    -999.25    1.42390  -15.83820   -9.33410    1.42390
 6550.00000    -999.25   12.72920   12.72920  804.57000    -999.25    -999.25    -999.25    -999.25    1.24290    -999.25  100.98230  100.98230    -999.25    -999.25    1.24290    1.28980    1.28980    -999.25    -999.25    -999.25    1.46940  -16.50390  -10.21980    1.46940
