~Version ---------------------------------------------------
VERS. 2.0 : CWLS log ASCII Standard -VERSION 2.0
WRAP. YES : MULTIPLE LINES PER DEPTH STEP
~Well ------------------------------------------------------
STRT.FT                   3300.0 : START DEPTH
STOP.FT                   8250.0 : STOP DEPTH
STEP.FT                 50.00000 : STEP LENGTH
NULL.                    -999.25 : NULL VALUE
COMP. CHAMPLIN EXPLORATION, INC. : COMPANY
WELL.      WILLIE LEHMAN UNIT #1 : WELL
FLD .                   GIDDINGS : FIELD
LOC .                            : LOCATION
CNTY.                    FAYETTE : COUNTY
STAT.                      TEXAS : STATE
CTRY.   UNITED STATES OF AMERICA : COUNTRY
SRVC.               Schlumberger : SERVICE COMPANY
DATE.                15-Mar-1980 : LOGDATE
API .             42149304890000 : API NUMBER
UWI .             42149304890000 : UNIQUE WELL ID
SLAT.WGS84         30.0169410094 : SURFACE LATITUDE
SLON.WGS84        -97.0211316988 : SURFACE LONGITUDE
~Curve Information -----------------------------------------
DEPT    .FT    : DEPTH FEET
CALRED  .IN    : CALIPER FROM RESISTIVITY LOG
CALWS   .IN    : CALIPER [CALRED]
CONDWS  .MMHO  : CONDUCTIVITY [1000/DRESWS]
DCORWS  .G/C3  : DENSITY CORRECTION [DRHOED]
DENWS   .G/C3  : BULK DENSITY [M=2.71 F=1.0] CALCULATED FROM [DPHILSED]
DPHILSED.V/V   : DENSITY POROSITY [M=2.71 F=1.0] FROM DENSITY LOG
DPOWS   .V/V   : DENSITY POROSITY [DPHILSED]
DRESWS  .OHMM  : DEEP RESISTIVITY [ILDED]
DRHOED  .G/C3  : DENSITY CORRECTION FROM DENSITY LOG
GRRED   .GAPI  : GAMMA RAY FROM RESISTIVITY LOG
GRWS    .GAPI  : GAMMA RAY [GRRED]
ILDED   .OHMM  : INDUCTION LOG DEEP RESISTIVITY
ILMED   .OHMM  : INDUCTION LOG MEDIUM RESISTIVITY
MRESWS  .OHMM  : MEDIUM RESISTIVITY [ILMED]
NPHILSED.V/V   : NEUTRON POROSITY LIMESTONE FROM DENSITY LOG
NPOWS   .V/V   : NEUTRON POROSITY LIMESTONE [NPHILSED]
RHOBED  .G/C3  : BULK DENSITY FROM DENSITY LOG
SFLUED  .OHMM  : SPHERICALLY FOCUSED LOG RESISTIVITY
SPRED   .MV    : SPONTANEOUS POTENTIAL FROM RESISTIVITY LOG
SPWS    .MV    : SPONTANEOUS POTENTIAL [BASELINE 0 MV] [SPRED]
SRESWS  .OHMM  : SHALLOW RESISTIVITY [SFLUED]
~Params ----------------------------------------------------
PD  .                     GL : PERMANENT DATUM
EPD .F                   366 : ELEVATION PERMANENT DATUM
LMF .                     KB : LOG MEASURED FROM
DAPD.F                  10.0 : FEET ABOVE PERMANENT DATUM
DMF .                     KB : DRILLING MEASURED FROM
EKB .F                   377 : KELLING BUSHING
EDF .F                   376 : DRILLING FLOOR
EGL .F                   366 : GROUND LEVEL
DATE.            15-MAR-1980 : RUN DATE
RUN .                      1 : RUN NUMBER
DD  .F                  8317 : DEPTH DRILLER
DL  .F                  8290 : DEPTH LOGGER
BLI .F                  8284 : BOTTOM LOG INTERVAL
TLI .F                  3284 : TOP LOG INTERVAL
CS  .IN                8.625 : CASING SIZE
CBD .F                  3300 : CASING BOTTOM DRILLER
CBL .F                  3284 : CASING BOTTOM LOGGER
BS  .IN                7.875 : BIT SIZE
BSD .F                  8317 : BIT SIZE AT DEPTH
DFT .                    LNS : DRILLING FLUID TYPE
DFD .                    9.4 : DRILLING FLUID DENSITY
DFV .                     56 : DRILLING FLUID VISCOSITY
DFPH.                    9.0 : DRILLING FLUID PH
DFL .                    5.0 : DRILLING FLUID LOSS
MSS .              CIRC. PIT : MUD SAMPLE SOURCE
RMS .OHMM                2.1 : RESISTIVITY MUD SAMPLE
MST .F                    75 : MUD SAMPLE TEMPERATURE
RMF .OHMM               1.81 : RESISTIVITY MUD FILTRATE SAMPLE
MFST.F                    75 : MUD FILTRATE SAMPLE TEMPERATURE
RMC .OHMM                3.0 : RESISTIVITY MUD CAKE
MCST.F                    75 : MUD CAKE SAMPLE TEMPERATURE
MFSS.                      M : MUD FILTRATE SAMPLE SOURCE
MCSS.                      C : MUD CAKE SAMPLE SOURCE
RMB .OHMM                0.8 : RESISTIVITY MUD AT BHT
TCS .HRS                2000 : TIME CURCULATED STOPPED
TLAB.HRS                 230 : TIME LOGGER AT BOTTOM
LUN .                   8176 : LOGGING UNIT NUMBER
LUL .                BRENHAM : LOGGING UNIT LOCATION
ENGI.                 WRIGHT : RECORDING ENGINEER
WITN.              ROBERTSON : WITNESSED BY
CLNT.                A2DTECH : CLIENT CODE
ORIG.               5" PRINT : ORIGIN OF DATA
UWI .         42149304890000 : UNIQUE WELL ID
DICO. A2D Technologies, Inc. : DIGITIZING COMPANY
~Other -----------------------------------------------------
~ASCII -----------------------------------------------------
# ...
 4950.00000    7.92620    7.92620  407.88020    -999.25    -999.25    -999.25    -999.25    2.45170    -999.25   92.44930   92.44930    2.45170    2.52350    2.52350    -999.25    -999.25    -999.25    2.81290    6.17920   -6.98540    2.81290
 5000.00000    7.65010    7.65010  460.91450    -999.25    -999.25    -999.25    -999.25    2.16960    -999.25   83.62020   83.62020    2.16960    2.48500    2.48500    -999.25    -999.25    -999.25    3.07360   -4.00910  -17.49770    3.07360
 5050.00000    8.20850    8.20850  409.39980    -999.25    -999.25    -999.25    -999.25    2.44260    -999.25   90.09280   90.09280    2.44260    2.53730    2.53730    -999.25    -999.25    -999.25    2.65990    9.46860   -4.34400    2.65990
 5100.00000    8.17360    8.17360  410.02090    -999.25    -999.25    -999.25    -999.25    2.43890    -999.25   86.57870   86.57870    2.43890    2.53990    2.53990    -999.25    -999.25    -999.25    2.83400   12.00430   -2.13230    2.83400
 5150.00000    8.97730    8.97730  473.55210    -999.25    -999.25    -999.25    -999.25    2.11170    -999.25   93.60220   93.60220    2.11170    2.20230    2.20230    -999.25    -999.25    -999.25    2.54720   11.67730   -2.31690    2.54720
 5200.00000    9.22460    9.22460  474.33830    -999.25    -999.25    -999.25    -999.25    2.10820    -999.25   86.30770   86.30770    2.10820    2.19150    2.19150    -999.25    -999.25    -999.25    2.24770   11.01950   -2.61290    2.24770
 5250.00000    9.14110    9.14110  633.15190    -999.25    -999.25    -999.25    -999.25    1.57940    -999.25   98.16580   98.16580    1.57940    1.64480    1.64480    -999.25    -999.25    -999.25    1.84080   10.36250   -2.90810    1.84080
 5300.00000    9.60170    9.60170  622.31630    -999.25    -999.25    -999.25    -999.25    1.60690    -999.25   96.24000   96.24000    1.60690    1.66190    1.66190    -999.25    -999.25    -999.25    1.94140    9.49390   -3.41490    1.94140
 5350.00000   10.05290   10.05290  709.37080    -999.25    -999.25    -999.25    -999.25    1.40970    -999.25  102.81340  102.81340    1.40970    1.46810    1.46810    -999.25    -999.25    -999.25    1.62690    8.14070   -4.40630    1.62690
 5400.00000    9.84880    9.84880  743.16290    -999.25    -999.25    -999.25    -999.25    1.34560    -999.25   95.81780   95.81780    1.34560    1.40110    1.40110    -999.25    -999.25    -999.25    1.60050    6.53890   -5.64630    1.60050
 5450.00000    9.48120    9.48120  758.09270    -999.25    -999.25    -999.25    -999.25    1.31910    -999.25   98.44420   98.44420    1.31910    1.37500    1.37500    -999.25    -999.25    -999.25    1.61250    8.04220   -3.78120    1.61250
 5500.00000    9.30890    9.30890  790.26390    -999.25    -999.25    -999.25    -999.25    1.26540    -999.25  106.30670  106.30670    1.26540    1.31810    1.31810    -999.25    -999.25    -999.25    1.48210    6.12230   -5.33940    1.48210
 5550.00000    8.39160    8.39160  758.15010    -999.25    -999.25    -999.25    -999.25    1.31900    -999.25   93.55270   93.55270    1.31900    1.38260    1.38260    -999.25    -999.25    -999.25    1.57140    9.40630   -1.69360    1.57140
 5600.00000    8.44940    8.44940  850.84660    -999.25    -999.25    -999.25    -999.25    1.17530    -999.25  101.09580  101.09580    1.17530    1.22990    1.22990    -999.25    -999.25    -999.25    1.28830   10.08280   -0.17800    1.28830
 5650.00000    8.53080    8.53080 1055.85470    -999.25    -999.25    -999.25    -999.25    0.94710    -999.25   97.62040   97.62040    0.94710    1.01700    1.01700    -999.25    -999.25    -999.25    1.11470   12.37400    3.01730    1.11470
 5700.00000    8.28750    8.28750  491.42470    -999.25    -999.25    -999.25    -999.25    2.03490    -999.25   73.08590   73.08590    2.03490    2.14330    2.14330    -999.25    -999.25    -999.25    2.30280    9.70310    1.25050    2.30280
 5750.00000    8.29230    8.29230  606.09740    -999.25    -999.25    -999.25    -999.25    1.64990    -999.25   74.88420   74.88420    1.64990    1.69810    1.69810    -999.25    -999.25    -999.25    1.82000    9.42330    1.87490    1.82000
 5800.00000    7.93080    7.93080  563.79320    -999.25    -999.25    -999.25    -999.25    1.77370    -999.25   61.23530   61.23530    1.77370    1.88630    1.88630    -999.25    -999.25    -999.25    2.33080   -1.78920   -8.43350    2.33080
 5850.00000    7.82190    7.82190  617.89420    -999.25    -999.25    -999.25    -999.25    1.61840    -999.25   69.42410   69.42410    1.61840    1.69680    1.69680    -999.25    -999.25    -999.25    1.74830    1.18060   -4.55960    1.74830
 5900.00000    8.58400    8.58400  800.00000    -999.25    -999.25    -999.25    -999.25    1.25000    -999.25   89.59660   89.59660    1.25000    1.34180    1.34180    -999.25    -999.25    -999.25    1.56470    6.55510    1.71900    1.56470
 5950.00000    9.39200    9.39200  627.78580    -999.25    -999.25    -999.25    -999.25    1.59290    -999.25   87.87450   87.87450    1.59290    1.65470    1.65470    -999.25    -999.25    -999.25    1.97280    2.71210   -1.21980    1.97280
 6000.00000   10.19770   10.19770  711.44000    -999.25    -999.25    -999.25    -999.25    1.40560    -999.25   83.78840   83.78840    1.40560    1.52410    1.52410    -999.25    -999.25    -999.25    1.78110    2.56250   -0.46530    1.78110
 6050.00000    9.96310    9.96310  679.30170    -999.25    -999.25    -999.25    -999.25    1.47210    -999.25   69.71370   69.71370    1.47210    1.59780    1.59780    -999.25    -999.25    -999.25    1.82590    1.83790   -0.28580    1.82590
 6100.00000   10.56660   10.56660  924.12900    -999.25    -999.25    -999.25    -999.25    1.08210    -999.25   84.40500   84.40500    1.08210    1.16630    1.16630    -999.25    -999.25    -999.25    1.35680    0.52330   -0.69630    1.35680
 6150.00000   10.39990   10.39990  828.02020    -999.25    -999.25    -999.25    -999.25    1.20770    -999.25   76.73910   76.73910    1.20770    1.28070    1.28070    -999.25    -999.25    -999.25    1.46600   -0.40250   -0.71790    1.46600
 6200.00000    9.69690    9.69690 1008.26780    -999.25    -999.25    -999.25    -999.25    0.99180    -999.25   84.01490   84.01490    0.99180    1.08120    1.08120    -999.25    -999.25    -999.25    1.26150   -2.53200   -1.94330    1.26150
 6250.00000    9.67560    9.67560  836.05050    -999.25    -999.25    -999.25    -999.25    1.19610    -999.25   89.90310   89.90310    1.19610    1.27250    1.27250    -999.25    -999.25    -999.25    1.52730   -0.96150    0.53130    1.52730
 6300.00000    7.38660    7.38660  523.72470    -999.25    -999.25    -999.25    -999.25    1.90940    -999.25   71.32140   71.32140    1.90940    2.07830    2.07830    -999.25    -999.25    -999.25    3.39900  -16.52500  -14.12810    3.39900
 6350.00000    9.46830    9.46830  906.45400    -999.25    -999.25    -999.25    -999.25    1.10320    -999.25   94.07380   94.07380    1.10320    1.19820    1.19820    -999.25    -999.25    -999.25    1.31620   -4.04590   -0.74490    1.31620
 6400.00000   10.70050   10.70050  862.44070    -999.25    -999.25    -999.25    -999.25    1.15950    -999.25   98.42330   98.42330    1.15950    1.19090    1.19090    -999.25    -999.25    -999.25    1.33690   -5.08060   -0.87540    1.33690
 6450.00000   11.02340   11.02340  829.18740    -999.25    -999.25    -999.25    -999.25    1.20600    -999.25   98.73470   98.73470    1.20600    1.21230    1.21230    -999.25    -999.25    -999.25    1.13300   -7.47870   -2.36940    1.13300
 6500.00000   11.93720   11.93720  727.43150    -999.25    -999.25    -999.25    -999.25    1.37470    -999.25  101.24900  101.24900    1.37470    1.45910    1.45910    -999.25    -999.25    -999.25    1.46460   -4.10140    1.91200    1.46460
 6550.00000   10.83370   10.83370 1000.40010    -999.25    -999.25    -999.25    -999.25    0.99960    -999.25   98.06070   98.06070    0.99960    1.06850    1.06850    -999.25    -999.25    -999.25    1.11380   -5.32260    1.59490    1.11380
