~Version ---------------------------------------------------
VERS. 2.0 : CWLS log ASCII Standard -VERSION 2.0
WRAP.  NO : ONE LINE PER DEPTH STEP
~Well ------------------------------------------------------
STRT.F                  3700.0 : START DEPTH
STOP.F                  8350.0 : STOP DEPTH
STEP.F                50.00000 : STEP LENGTH
NULL.                  -999.25 : NULL VALUE
COMP.                GSI, INC. : COMPANY
WELL.         FRANK RIBARDO #1 : WELL
FLD .                   KURTEN : FIELD
LOC .                          : LOCATION
CNTY.                   BRAZOS : COUNTY
STAT.                    TEXAS : STATE
CTRY. UNITED STATES OF AMERICA : COUNTRY
SRVC.                          : SERVICE COMPANY
DATE.                          : LOGDATE
API .           42041309220000 : API NUMBER
UWI .           42041309220000 : UNIQUE WELL ID
SLAT.WGS84       30.7654044442 : SURFACE LATITUDE
SLON.WGS84      -96.3940516035 : SURFACE LONGITUDE
~Curve Information -----------------------------------------
DEPT.F                 : 
SPR .MV   07 010 01 00 : SPONTANEOUS POTENTIAL
CALR.IN   07 280 01 00 : CALIPER FROM RESISTIVITY
TENR.LBS  07 635 01 00 : TOTAL TENSION RESISTIVITY
CORR.G/C3 45 356 01 00 : DENSITY CORRECTION
RILM.OHMM 07 120 44 00 : INDUCTION LOG MEDIUM RESISTIVITY
RILD.OHMM 06 120 46 00 : INDUCTION LOG DEEP RESISTIVITY
RFOC.OHMM 07 220 04 00 : RESISTIVITY FOCUSED LOG RES.
PORD.DEC  45 890 10 00 : POROSITY DENSITY
CNC .DEC  42 890 01 00 : NEUTRON PORISITY
GRR .GAPI 07 310 01 00 : GAMMA RAY FROM RESISTIVITY
~Params ----------------------------------------------------
EKB .F                 377.0 : KELLY BUSHING
EGL .F                   363 : ELEVATION GROUND LEVEL
EDF .F                   376 : ELEVATION DERRICK FLOOR
EPD .F                   363 : ELEVATION PERMANENT DATUM
TD  .F                8376.0 : TOTAL DEPTH
DATE.            29-APR-1983 : DATE LOGGED
CLNT.                A2DTECH : CLIENT CODE
SL  .  1332' FNL & 7125' FEL : SURFACE LOCATION
PD  .                     GL : PERMANENT DATUM
LMF .                     KB : LOG MEASURED FROM
DMF .                     KB : DRILLING MEASURED FROM
DAPD.F                    14 : FEET ABOVE PERMANENT DATUM
DD  .F                  8376 : DEPTH DRILLER
DL  .F                  8351 : DEPTH LOGGER
BLI .F                  8351 : BOTTOM LOG INTERVAL
TLI .F                  3696 : TOP LOG INTERVAL
CS1 .IN                9.625 : CASING SIZE
CBD1.         9.625" @ 3699' : CASING DRILLER 1
CBL1.F                  3696 : CASING LOGGER 1
BS1 .IN                 8.75 : BIT SIZE
BSD1.F                  8376 : DEPTH DRILLED WITH BIT1
DFT .                  BENEX : TYPE FLUID IN HOLE
DFD .                    9.0 : DENSITY
DFV .                     38 : VISCOSITY
DFPH.                    9.0 : PH
DFL .                    6.2 : FLUID LOSS
MSS .                   TANK : SOURCE OF SAMPLE
RMS .OHMM                4.2 : RM
RMF .OHMM                4.4 : RMF
RMC .OHMM                5.2 : RMC
MFSS.                   MEAS : SOURCE RMF.
MCSS.                   CALC : SOURCE RMC.
RMB .OHMM               1.87 : RM. AT BHT
BHT .F                   177 : BHT.
TCS .HRS                   4 : TIME CIRC. STOPPED
LUN .                   6300 : LOGGING UNIT NUMBER
LUL .                  BRYAN : LOGGING UNIT LOCATION
ENGI.                 THOMAS : RECORDED BY
WITN.                STATHAM : WITNESSED BY
ORIG.               5" PRINT : ORIGIN OF DATA
UWI .         42041309220000 : UNIQUE WELL ID
DICO. A2D TECHNOLOGIES, INC. : DIGITIZING COMPANY
~Other -----------------------------------------------------
~ASCII -----------------------------------------------------
 3700.00000  -49.71500    9.30200   31.44400    -999.25    7.47000    4.27600    7.61500    -999.25    -999.25   59.64400
 3750.00000  -37.25300    9.37800   14.95500    -999.25    5.53000    4.52800    6.22600    -999.25    -999.25   66.95600
 3800.00000  -10.29000    9.16600   14.95500    -999.25    3.79100    3.64600    3.79000    -999.25    -999.25   89.58600
 3850.00000  -14.90600    9.25600   14.95500    -999.25    3.84900    3.75200    3.93700    -999.25    -999.25   68.96400
 3900.00000   -1.58300    9.85400    6.39700    -999.25    2.53400    2.51000    2.72700    -999.25    -999.25   86.25700
 3950.00000   -2.96600   10.53400   20.94600    -999.25    2.63600    2.57400    2.68900    -999.25    -999.25   85.20200
 4000.00000   -1.14600    9.92300   20.48800    -999.25    2.56600    2.49300    2.55700    -999.25    -999.25   84.33000
 4050.00000   -1.41300    9.58200   14.38100    -999.25    6.03400    4.47700    5.45200    -999.25    -999.25   69.43700
 4100.00000    1.03000    9.83400    8.27300    -999.25    3.55900    3.09200    3.64000    -999.25    -999.25   68.60800
 4150.00000   -2.37000   10.47400   14.35000    -999.25    2.44200    2.37200    2.75200    -999.25    -999.25   77.81600
 4200.00000   -2.10900   10.21000   10.75800    -999.25    2.12000    2.06500    2.39800    -999.25    -999.25   86.24800
 4250.00000   -2.94300   10.65700    7.16500    -999.25    1.66100    1.69800    2.07300    -999.25    -999.25   94.92800
 4300.00000   -1.31800   10.96700    6.71300    -999.25    1.64500    1.69100    2.06600    -999.25    -999.25   88.20700
 4350.00000   -4.24700   11.51700   22.06700    -999.25    1.68800    1.74300    2.07000    -999.25    -999.25   90.78400
 4400.00000   -6.70800   10.61400   -2.93900    -999.25    1.43200    1.47500    1.83700    -999.25    -999.25   98.25000
 4450.00000   -1.24400   11.22500   -4.80500    -999.25    1.82700    1.86100    2.20800    -999.25    -999.25  103.44100
 4500.00000   -0.88200    9.94000   15.53100    -999.25    1.80400    1.87100    2.10800    -999.25    -999.25  104.77900
 4550.00000   -1.14500    9.36800   24.92500    -999.25    1.38200    1.42700    1.84600    -999.25    -999.25   97.35300
 4600.00000    1.10300    9.11700   26.04600    -999.25    2.14500    2.15700    2.34600    -999.25    -999.25   75.45100
 4650.00000    0.44200   10.35100   34.67500    -999.25    1.23600    1.27100    1.67600    -999.25    -999.25   80.73700
 4700.00000    2.45500   10.06400   28.25100    -999.25    1.12100    1.16600    1.57600    -999.25    -999.25   77.26000
 4750.00000    0.98700    9.87000   21.82700    -999.25    1.31600    1.37100    1.69600    -999.25    -999.25   76.86200
 4800.00000   -0.30000   10.14100   15.40300    -999.25    1.54300    1.60500    1.87200    -999.25    -999.25   79.11800
 4850.00000    0.85700   10.10100   14.95500    -999.25    1.90100    1.96200    2.20800    -999.25    -999.25   72.85400
 4900.00000   -2.40600    9.74900   22.65300    -999.25    1.80000    1.74200    2.05100    -999.25    -999.25   78.59000
 4950.00000   -6.28500   10.25200   11.95400    -999.25    1.52500    1.49900    1.88000    -999.25    -999.25   75.73900
 5000.00000   -3.36700    9.98300   16.32900    -999.25    1.25400    1.33800    1.85400    -999.25    -999.25   86.17200
 5050.00000   -4.04600    9.82200   20.53100    -999.25    1.16600    1.19300    1.63800    -999.25    -999.25   89.23700
 5100.00000   -6.26100    9.34400   24.73200    -999.25    1.36000    1.40700    1.78300    -999.25    -999.25   77.60200
 5150.00000   -5.31300    9.10300   14.95500    -999.25    1.02400    1.06900    1.56000    -999.25    -999.25   77.32500
 5200.00000   -4.57900    9.55800   14.95500    -999.25    1.55100    1.63100    1.76600    -999.25    -999.25   87.64500
 5250.00000   -3.62600    9.39000    4.98500    -999.25    1.97100    1.90000    2.20800    -999.25    -999.25   75.86900
 5300.00000   -5.48900    9.39200   -4.68000    -999.25    1.58000    1.51500    2.05700    -999.25    -999.25   79.74100
 5350.00000   -3.93300    8.36500    4.98500    -999.25    2.00000    1.87900    2.33300    -999.25    -999.25   70.93700
 5400.00000   -3.97800    8.45800   -7.72700    -999.25    3.97300    3.73000    3.90100    -999.25    -999.25   43.12600
 5450.00000    1.32100    8.54400   11.59100    -999.25    3.04300    2.92000    3.36800    -999.25    -999.25   57.38800
 5500.00000    1.34400    8.67400    5.01700    -999.25    1.18200    1.14500    1.63000    -999.25    -999.25   87.83000
 5550.00000   -1.56500    8.64400   24.92500    -999.25    1.28300    1.31600    1.68200    -999.25    -999.25   90.62000
 5600.00000   -1.35400    8.45000    4.98500    -999.25    1.23900    1.14500    1.64000    -999.25    -999.25   94.33700
 5650.00000    0.15500    9.27700   12.32500    -999.25    1.33900    1.29600    1.74900    -999.25    -999.25   86.34200
 5700.00000   -1.65700    9.63400   14.95500    -999.25    1.22400    1.38900    1.57400    -999.25    -999.25   90.57600
 5750.00000   -0.75900   10.12500   44.86500    -999.25    1.00200    1.02600    1.40800    -999.25    -999.25   96.67800
 5800.00000   -0.76600   10.50500   23.88200    -999.25    1.04100    1.07500    1.43400    -999.25    -999.25  116.20700
 5850.00000   -0.35000   10.62100    6.79500    -999.25    1.37400    1.30900    1.78300    -999.25    -999.25   95.94600
 5900.00000   -1.15300   10.20100    4.98500    -999.25    1.69200    1.63000    2.04800    -999.25    -999.25   87.37700
 5950.00000    0.44200    9.91400    4.98500    -999.25    1.98600    1.90500    2.29000    -999.25    -999.25   80.74300
 6000.00000   -0.74700   10.38300    4.98500    -999.25    1.67200    1.57700    2.08600    -999.25    -999.25   85.98900
 6050.00000   -3.02600    9.98300    2.14100    -999.25    1.77100    1.69500    2.04100    -999.25    -999.25  100.22100
 6100.00000   -2.77100    8.53800   -3.60300    -999.25    1.80600    1.72800    2.17200    -999.25    -999.25   93.40700
 6150.00000   -0.61100    9.77900   -1.52800    -999.25    1.74200    1.65400    2.04800    -999.25    -999.25   90.47500
 6200.00000    0.75900   10.10000    4.98500    -999.25    1.29800    1.24900    1.73600    -999.25    -999.25   95.49500
 6250.00000   -1.10100   10.45100   14.54400    -999.25    1.25000    1.20200    1.68800    -999.25    -999.25   97.65300
 6300.00000   -2.02300   11.31300   19.43100    -999.25    1.49400    1.44300    1.92200    -999.25    -999.25   92.90800
 6350.00000   -0.80100   11.18500   14.95500    -999.25    1.79500    1.73700    2.15100    -999.25    -999.25   82.29200
 6400.00000   -2.97400   10.81900   14.95500    -999.25    1.65600    1.58800    2.11400    -999.25    -999.25   80.45500
 6450.00000   -4.68000   11.54600   16.42200    -999.25    1.48500    1.42100    1.94800    -999.25    -999.25   83.78500
 6500.00000   -3.97600   10.26200   22.29100    -999.25    2.77700    2.60200    2.93400    -999.25    -999.25   75.30200
 6550.00000   -2.10300   10.31000   28.12100    -999.25    2.35700    2.23200    2.63100    -999.25    -999.25   76.72400
 6600.00000   -1.96800    9.90900   33.91900    -999.25    2.49700    2.31100    2.88100    -999.25    -999.25   73.37900
 6650.00000   -3.95300   10.82300   26.58100    -999.25    1.50100    1.39500    2.03200    -999.25    -999.25   84.19200
 6700.00000   -2.78600   11.02600   24.92500    -999.25    1.60100    1.53400    2.10800    -999.25    -999.25   81.74500
 6750.00000   -3.06900   11.26500   24.92500    -999.25    1.82100    1.74300    2.37600    -999.25    -999.25   81.92700
 6800.00000   -1.17300   11.34500   24.92500    -999.25    2.15200    1.97700    2.54000    -999.25    -999.25   82.34800
 6850.00000   -2.14300   12.54000   21.68600    -999.25    1.58200    1.48700    2.20800    -999.25    -999.25   85.23100
 6900.00000   -1.64200   12.83100   14.91500    -999.25    1.63000    1.56400    2.19600    -999.25    -999.25   85.09900
 6950.00000   -1.07600   13.32600    8.14400    -999.25    1.59200    1.50300    2.23400    -999.25    -999.25   83.30800
