~Version ---------------------------------------------------
VERS. 2.0 : CWLS log ASCII Standard -VERSION 2.0
WRAP. YES : Multiple lines per depth step
~Well ------------------------------------------------------
STRT.FT                    1500.0 : START DEPTH
STOP.FT                    9700.0 : STOP DEPTH
STEP.FT                  50.00000 : STEP LENGTH
NULL.                     -999.25 : NULL VALUE
COMP.        MARATHON OIL COMPANY : COMPANY
WELL.                 NEWELL A #5 : WELL
FLD .                  BEAR GRASS : FIELD
LOC .                             : LOCATION
CNTY.                        LEON : COUNTY
STAT.                       TEXAS : STATE
CTRY.    UNITED STATES OF AMERICA : COUNTRY
SRVC. HALLIBURTON Sperry Drilling : SERVICE COMPANY
DATE.                 18-May-2000 : LOGDATE
API .              42289313250000 : API NUMBER
UWI .              42289313250000 : UNIQUE WELL ID
SLAT.WGS84          31.3623770117 : SURFACE LATITUDE
SLON.WGS84           -96.26513599 : SURFACE LONGITUDE
~Curve Information -----------------------------------------
DEPT    .FT    : DEPTH.FT
CALDED  .IN    : CALIPER FROM CNFD LOG
CALWS   .IN    : CALIPER [DCARLED+BIT SIZE]
CONDWS  .MMHO  : CONDUCTIVITY [1000/DRESWS]
DCALED  .IN    : DIFFERENTIAL CALIPER FROM HRIDN LOG
DCORED  .G/C3  : DENSITY CORRECTION FROM HRIDN LOG
DCORWS  .G/C3  : DENSITY CORRECTION [DCORED]
DENWS   .G/C3  : BULK DENSITY [M=2.71 F=1.0] [CALCULATED FROM DPOWS]
DFLED   .OHMM  : DIGITALLY FOCUSED LATEROLOG FROM HRIDN LOG
DPORLSED.V/V   : DENSITY POROSITY LIMESTONE FROM CNFD LOG
DPOWS   .V/V   : DENSITY POROSITY [M=2.71 F=1.0] [DPHILSED]
DRESWS  .OHMM  : DEEP RESISTIVITY [RILDED]
GRRED   .GAPI  : GAMMA RAY FROM IDN LOG
GRWS    .GAPI  : GAMMA RAY [GRRED]
MRESWS  .OHMM  : MEDIUM RESISTIVITY [RILMED]
NPORLSED.V/V   : NEUTRON POROSITY LIMESTONE FROM CNFD LOG
NPOWS   .V/V   : NEUTRON POROSITY LIMESTONE [NPHILSED]
RILDED  .OHMM  : INDUCTION DEEP RESISTIVITY FROM HRIDN LOG
RILMED  .OHMM  : INDUCTION MEDIUM RESISTIVITY FROM HRIDN LOG
SPRED   .MV    : SPONTANEOUS POTENTIAL FROM HRIDN LOG
SPWS    .MV    : SPONTANEOUS POTENTIAL [BASELINE 0 MV] [SPRED]
SRESWS  .OHMM  : SHALLOW RESISTIVITY [DFLED]
TENDED  .LBF   : TENSION FROM CNFD LOG
TENRED  .LBF   : TENSION FROM HRIDN LOG
~Params ----------------------------------------------------
PD  .                     GL : PERMANENT DATUM
EPD .FT                  501 : ELEVATION PERMANENT DATUM
LMF .                     KB : LOG MEASURED FROM
DAPD.FT                   12 : FEET ABOVE PERMANENT DATUM
DMF .                     KB : DRILLING MEASURED FROM
EKB .FT                  513 : KELLY BUSHING
EDF .FT                  512 : DRILLING FLOOR
EGL .FT                  501 : GROUND LEVEL
DATE.               05/18/00 : RUN DATE
RUN .                      1 : RUN NUMBER
DD  .FT                 9700 : DEPTH DRILLER
DL  .FT                 9688 : DEPTH LOGGER
BLI .FT                 9676 : BOTTOM LOG INTERVAL
TLI .FT                 1523 : TOP LOG INTERVAL
CS  .IN                9.625 : CASING SIZE
CBD .FT                 1530 : CASING BOTTOM DRILLER
CBL .FT                 1523 : CASING BOTTOM LOGGER
BS  .IN                7.875 : BIT SIZE
BSD .FT                 9700 : BIT SIZE AT DEPTH
DFT .         WATERBASED MUD : DRILLING FLUID TYPE
DFD .                    9.8 : DRILLING FLUID DENSITY
DFV .                     52 : DRILLING FLUID VISCOSITY
DFPH.                     10 : DRILLING FLUID PH
DFL .                    9.6 : DRILLING FLUID LOSS
MSS .               MUD TANK : MUD SAMPLE SOURCE
RMS .OHMM                1.9 : RESISTIVITY MUD SAMPLE
MST .DEGF                 84 : MUD SAMPLE TEMPERATURE
RMF .OHMM               1.56 : RESISTIVITY MUD FILTRATE SAMPLE
MFST.DEGF                 82 : MUD FILTRATE SAMPLE TEMPERATURE
RMC .OHMM               2.35 : RESISTIVITY MUD CAKE
MCST.DEGF                 82 : MUD CAKE SAMPLE TEMPERATURE
MFSS.                   MEAS : MUD FILTRATE SAMPLE SOURCE
MCSS.                   MEAS : MUD CAKE SAMPLE SOURCE
RMB .OHMM              0.738 : RESISTIVITY MUD AT BHT
TCS .HRS                1830 : TIME CIRCULATED STOPPED
TLAB.HRS                 200 : TIME LOGGER AT BOTTOM
LUN .                  52552 : LOGGING UNIT NUMBER
LUL .                KILGORE : LOGGING UNIT LOCATION
ENGI.                 GLEITZ : RECORDING ENGINEER
WITN.       EWBANK GALLAGHER : WITNESSED BY
CLNT.                A2DTECH : CLIENT CODE
ORIG.         1" 2" 5" PRINT : ORIGIN OF DATA
UWI .         42289313250000 : UNIQUE WELL ID
DICO. A2D Technologies, Inc. : DIGITIZING COMPANY
~Other -----------------------------------------------------
1. ALL CURVES APPEAR ON DEPTH. MATRIX LIMESTONE M=2.71 F=1
~ASCII -----------------------------------------------------
# ...
 7700.00000    9.62900    9.62900   92.86340    1.84350    0.02250    0.02250    2.67080   14.38410    0.02290    0.02290   10.76850   37.54370   37.54370   11.66110    0.07210    0.07210   10.76850   11.66110  -36.12630   -0.84680   14.38410 3913.74830 3919.36010
 7750.00000    9.64820    9.64820   58.29000    1.90180    0.02080    0.02080    2.67770   35.05280    0.01890    0.01890   17.15560   37.32760   37.32760   20.15560    0.05200    0.05200   17.15560   20.15560  -35.16530    0.11420   35.05280 3879.45850 3899.23240
 7800.00000    9.48040    9.48040   84.63890    1.65980    0.02750    0.02750    2.67220   19.39780    0.02210    0.02210   11.81490   34.95470   34.95470   12.35560    0.05690    0.05690   11.81490   12.35560  -36.54010   -1.26060   19.39780 3855.16820 3887.35520
 7850.00000    9.64240    9.64240   51.57220    1.77420    0.03610    0.03610    2.66790   83.62960    0.02460    0.02460   19.39030   42.42170   42.42170   25.90290    0.04690    0.04690   19.39030   25.90290  -35.99850   -0.71900   83.62960 3873.30640 3877.95070
 7900.00000    9.93400    9.93400  112.26620    2.08190    0.02800    0.02800    2.68020   12.37680    0.01740    0.01740    8.90740   44.35500   44.35500    9.92860    0.07600    0.07600    8.90740    9.92860  -37.72890   -2.44940   12.37680 3870.56590 3933.87620
 7950.00000   10.10560   10.10560   32.57170    2.31290    0.06270    0.06270    2.69960   50.28790    0.00610    0.00610   30.70150   47.24890   47.24890   36.15850    0.03330    0.03330   30.70150   36.15850  -44.86510   -9.58560   50.28790 3998.81400 3971.26290
 8000.00000   10.22130   10.22130   94.67460    2.35700    0.04530    0.04530    2.67530   16.25280    0.02030    0.02030   10.56250   37.20540   37.20540   13.61150    0.05900    0.05900   10.56250   13.61150  -39.64800   -4.36850   16.25280 3920.33030 3927.51030
 8050.00000   10.51000   10.51000   36.75460    2.68750    0.05280    0.05280    2.69120   44.51570    0.01100    0.01100   27.20750   56.86260   56.86260   31.56940    0.02680    0.02680   27.20750   31.56940  -71.44490  -37.52520   44.51570 3974.25460 3972.25240
 8100.00000   10.33420   10.33420   26.28090    2.46130    0.02910    0.02910    2.66400   72.08340    0.02690    0.02690   38.05040   35.40970   35.40970   44.04760    0.02050    0.02050   38.05040   44.04760  -67.13990  -34.91980   72.08340 3976.11110 3962.79860
 8150.00000   10.71030   10.71030   22.17590    2.90200    0.03540    0.03540    2.89280 1872.03340   -0.10690   -0.10690   45.09410   15.58450   15.58450   70.56790   -0.00030   -0.00030   45.09410   70.56790  -39.68610   -9.16570 1872.03340 3959.08280 3993.09110
 8200.00000    9.89780    9.89780   28.77520    1.99710    0.04240    0.04240    2.67650  164.02350    0.01960    0.01960   34.75220   27.53290   27.53290   55.31430    0.03840    0.03840   34.75220   55.31430  -34.76850   -5.51330  164.02350 3953.49320 3938.02760
 8250.00000   10.49030   10.49030   60.27650    2.69920    0.05850    0.05850    2.63320   24.33690    0.04490    0.04490   16.59020   38.67990   38.67990   18.21410    0.05860    0.05860   16.59020   18.21410  -97.10590  -67.73980   24.33690 3979.99020 3985.69360
 8300.00000    8.93970    8.93970  241.86720    1.11160    0.14020    0.14020    2.62020   34.42780    0.05250    0.05250    4.13450   17.95370   17.95370    6.56440    0.11730    0.11730    4.13450    6.56440 -175.65720 -146.18030   34.42780 3968.17070 3961.22240
 8350.00000    9.92890    9.92890   30.26000    1.99210    0.02400    0.02400    2.65580   45.85820    0.03170    0.03170   33.04690   31.68200   31.68200   34.82800    0.02290    0.02290   33.04690   34.82800 -103.56520  -73.97740   45.85820 3975.16040 4013.16650
 8400.00000   10.19490   10.19490  109.71050    2.31630    0.02470    0.02470    2.68950   12.90830    0.01200    0.01200    9.11490   49.68640   49.68640    9.57570    0.10860    0.10860    9.11490    9.57570  -32.70390   -3.00530   12.90830 4032.13330 4118.96580
 8450.00000    9.66130    9.66130   16.10320    1.85360    0.06650    0.06650    2.71190  238.74380   -0.00110   -0.00110   62.09950   39.52660   39.52660   79.06710    0.01730    0.01730   62.09950   79.06710  -44.93920  -15.12980  238.74380 4056.92360 4069.87260
 8500.00000    9.69130    9.69130   55.54850    1.85750    0.02360    0.02360    2.68550   29.39820    0.01430    0.01430   18.00230   49.43430   49.43430   20.61420    0.05030    0.05030   18.00230   20.61420  -38.18930   -8.26900   29.39820 4074.26950 4096.62260
 8550.00000   11.67310   11.67310  317.69230    4.10210    -999.25    -999.25    2.57730    4.14920    0.07760    0.07760    3.14770   91.60190   91.60190    3.66720    0.24150    0.24150    3.14770    3.66720  -45.92230  -15.89120    4.14920 4130.96290 4142.81300
 8600.00000   10.10160   10.10160  116.17240    3.83340    0.09080    0.09080    2.56980   95.73690    0.08200    0.08200    8.60790   42.41190   42.41190   12.11540    0.15810    0.15810    8.60790   12.11540  -44.15550  -14.01350   95.73690 4070.03250 4112.36380
 8650.00000   11.06790   11.06790  244.61240    3.28230    0.17540    0.17540    2.43790    6.10160    0.15910    0.15910    4.08810   92.23940   92.23940    4.40770    0.23810    0.23810    4.08810    4.40770  -39.77780   -9.52500    6.10160 4156.36470 4169.13130
 8700.00000   13.27900   13.27900  386.96700    5.40090    -999.25    -999.25    2.59320    3.54400    0.06830    0.06830    2.58420  104.84500  104.84500    2.74140    0.39880    0.39880    2.58420    2.74140  -40.23820   -9.87450    3.54400 4141.80760 4155.69780
 8750.00000   10.26640   10.26640  347.19810    2.41060    0.20140    0.20140    2.22970    3.90090    0.28090    0.28090    2.88020  110.57910  110.57910    3.01380    0.33400    0.33400    2.88020    3.01380  -40.30760   -9.83310    3.90090 4119.80760 4136.72070
 8800.00000    9.39650    9.39650  112.49230    1.59060    0.15340    0.15340    2.60790   16.87250    0.05970    0.05970    8.88950   84.29220   84.29220   12.97690    0.22740    0.22740    8.88950   12.97690  -36.83810   -6.09350   16.87250 4224.79930 4239.44430
 8850.00000   12.56590   12.56590  391.34350    5.23690    -999.25    -999.25    2.22610    3.18920    0.28300    0.28300    2.55530  102.15090  102.15090    2.92600    0.40900    0.40900    2.55530    2.92600  -37.08260   -4.77960    3.18920 4195.07420 4158.29440
 8900.00000    9.93130    9.93130  363.08180    1.81840    0.17080    0.17080    2.20380    4.90560    0.29600    0.29600    2.75420   81.08670   81.08670    3.48070    0.18080    0.18080    2.75420    3.48070  -45.08500  -11.22360    4.90560 4215.54640 4244.82810
 8950.00000    9.52940    9.52940   84.26370    1.73340    0.03810    0.03810    2.69700   20.55010    0.00760    0.00760   11.86750   68.28720   68.28720   12.95690    0.06970    0.06970   11.86750   12.95690  -49.49680  -14.07700   20.55010 4236.75780 4231.50240
 9000.00000   10.24240   10.24240   25.33490    2.44350    0.18070    0.18070    2.71260   59.90220   -0.00150   -0.00150   39.47120   24.90410   24.90410   42.52490    0.03110    0.03110   39.47120   42.52490 -114.20660  -77.22850   59.90220 4251.96340 4258.47410
 9050.00000    9.34110    9.34110   22.36210    1.50140    0.04150    0.04150    2.67510   72.72160    0.02040    0.02040   44.71850   48.35190   48.35190   47.29780    0.02260    0.02260   44.71850   47.29780  -92.76300  -54.22650   72.72160 4214.34770 4240.36330
 9100.00000    9.43160    9.43160   25.23120    1.63240    0.03570    0.03570    2.68790   71.59410    0.01290    0.01290   39.63340   47.00840   47.00840   47.39970    0.02470    0.02470   39.63340   47.39970 -109.28080  -69.18590   71.59410 4255.46580 4310.35110
 9150.00000    8.80050    8.80050   43.75560    0.98190    0.02690    0.02690    2.68620   86.39830    0.01390    0.01390   22.85420   54.18390   54.18390   30.76600    0.04060    0.04060   22.85420   30.76600  -50.84150   -9.18820   86.39830 4237.49020 4261.83110
 9200.00000    8.79300    8.79300  260.72220    1.03120    0.17580    0.17580    2.62020    6.70860    0.05250    0.05250    3.83550   84.64540   84.64540    4.66380    0.16480    0.16480    3.83550    4.66380  -56.94050  -13.72890    6.70860 4296.81250 4293.71730
