~Version ---------------------------------------------------
VERS. 2.0 : CWLS log ASCII Standard -VERSION 2.0
WRAP.  NO : ONE LINE PER DEPTH STEP
~Well ------------------------------------------------------
STRT.F                  1750.0 : START DEPTH
STOP.F                  7850.0 : STOP DEPTH
STEP.F                50.00000 : STEP LENGTH
NULL.                  -999.25 : NULL VALUE
COMP.             LOVELADY I W : COMPANY
WELL.       REYNOLDS-WILSON #1 : WELL
FLD .                  WILDCAT : FIELD
LOC .                          : LOCATION
CNTY.                   DIMMIT : COUNTY
STAT.                    TEXAS : STATE
CTRY. UNITED STATES OF AMERICA : COUNTRY
SRVC.             Schlumberger : SERVICE COMPANY
DATE.              29-May-1978 : LOGDATE
API .           42127317010000 : API NUMBER
UWI .           42127317010000 : UNIQUE WELL ID
SLAT.WGS84       28.5815005355 : SURFACE LATITUDE
SLON.WGS84      -99.7303290517 : SURFACE LONGITUDE
~Curve Information -----------------------------------------
DEPT   .F                 : 
ALL8   .OHMM 07 221 08 00 : AMPLIFIED LATEROLOG 8
CILD   .MMHO 07 110 46 00 : INDUCTION DEEP CONDUCTIVITY
SPR    .MV   07 010 01 00 : SPONTANEOUS POTENTIAL FROM RESISTIVITY LOG
ILD    .OHMM 07 120 46 00 : INDUCTION DEEP RESISTIVITY
NPHI_SS.DEC  42 890 03 00 : NEUTRON POROSITY SANDSTONE
DPHI_SS.DEC  45 890 12 00 : DENSITY POROSITY SANDSTONE
NPHI_LS.DEC  42 890 01 00 : NEUTRON POROSITY LIMESTONE
DPHI_LS.DEC  45 890 10 00 : DENSITY POROSITY LIMESTONE
GRD    .GAPI 45 310 01 00 : GAMMA RAY FROM DENSITY LOG
CALD   .IN   45 280 60 00 : CALIPER FROM DENSITY LOG
CORR   .G/C3 45 356 01 00 : DENSITY CORRECTION
RHOB   .G/C3 45 350 01 00 : BULK DENSITY
~Params ----------------------------------------------------
PD  .                     GL : PERMANENT DATUM
EPD .FT                565.3 : ELEVATION PERMANENT DATUM
LMF .                     KB : LOG MEASURED FROM
DAPD.FT                   11 : FEET ABOVE PERMANENT DATUM
DMF .                     KB : DRILLING MEASURED FROM
EDF .FT                575.3 : DRILLING FLOOR
EGL .FT                565.3 : GROUND LEVEL
DATE.               05/29/78 : RUN DATE
RUN .                      2 : RUN NUMBER
DD  .FT                 7872 : DEPTH DRILLER
DL  .FT                 7875 : DEPTH LOGGER
BLI .FT                 7869 : BOTTOM LOG INTERVAL
TLI .FT                 7080 : TOP LOG INTERVAL
CS  .IN                10.75 : CASING SIZE
CBD .FT                 1725 : CASING BOTTOM DRILLER
BS  .IN                 8.75 : BIT SIZE
BSD .FT                 7872 : BIT SIZE AT DEPTH
DFT .              DISPERSED : DRILLING FLUID TYPE
DFD .                   10.1 : DRILLING FLUID DENSITY
DFV .                     56 : DRILLING FLUID VISCOSITY
DFPH.                     10 : DRILLING FLUID PH
DFL .                    8.2 : DRILLING FLUID LOSS
MSS .              CIRC TANK : MUD SAMPLE SOURCE
RMS .OHMM               1.06 : RESISTIVITY MUD SAMPLE
MST .DEGF                 75 : MUD SAMPLE TEMPERATURE
RMF .OHMM                0.6 : RESISTIVITY MUD FILTRATE SAMPLE
MFST.DEGF                 75 : MUD FILTRATE SAMPLE TEMPERATURE
MFSS.                   MEAS : MUD FILTRATE SAMPLE SOURCE
RMB .OHMM               0.44 : RESISTIVITY MUD AT BHT
TCS .HRS                 900 : TIME CIRCULATED STOPPED
TLAB.HRS                1500 : TIME LOGGER AT BOTTOM
LUN .                   2739 : LOGGING UNIT NUMBER
LUL .                 LAREDO : LOGGING UNIT LOCATION
CLNT.                A2DTECH : CLIENT CODE
ORIG.               1" PRINT : ORIGIN OF DATA
UWI .         42127317010000 : UNIQUE WELL ID
DICO. A2D Technologies, Inc. : DIGITIZING COMPANY
~Other -----------------------------------------------------
~ASCII -----------------------------------------------------
 1750.00000    3.38110  296.64070  -25.91690    2.84600    0.34100    0.21050    -999.25    -999.25   71.45630   10.84050    0.02720    2.35950
 1800.00000    5.40270  190.13960  -43.50720    4.94630    0.32670    0.26900    -999.25    -999.25   57.19320   11.47980    0.03750    2.23450
 1850.00000    4.13570  255.81510  -36.99140    3.89010    0.33860    0.12690    -999.25    -999.25   88.89010   12.46710    0.04540    2.44700
 1900.00000    5.61330  153.80260  -33.93650    6.46380    0.31270    0.26380    -999.25    -999.25   79.98690   11.64160    0.00700    2.24290
 1950.00000    6.05510  149.87320  -36.15200    6.43220    0.30560    0.20970    -999.25    -999.25   73.17140   11.14440    0.02820    2.31490
 2000.00000    5.63280  152.44730  -32.65730    6.21380    0.31980    0.22570    -999.25    -999.25   63.33900   11.69300    0.04310    2.31090
 2050.00000    5.79850  144.99060  -33.61450    7.11550    0.33130    0.26470    -999.25    -999.25   66.06860   11.23370    0.00680    2.19820
 2100.00000    5.51160  145.93520  -31.72540    6.70580    0.23860    0.21590    -999.25    -999.25   24.04310   10.81860    0.01850    2.31090
 2150.00000    4.32200  243.55360  -36.86370    4.15820    0.30080    0.09710    -999.25    -999.25  110.09720   11.90750    0.02270    2.52340
 2200.00000    2.46500  428.95730  -34.87300    2.57160    0.38790    0.12390    -999.25    -999.25  102.58770   11.92180    0.05870    2.47630
 2250.00000    2.05850  550.65780  -34.14490    1.91870    0.43590    0.15500    -999.25    -999.25   99.01030   12.39600    0.08820    2.38360
 2300.00000    2.33950  458.70070  -34.61530    2.26900    0.25530    0.07780    -999.25    -999.25   85.19840   12.27840    0.04330    2.57200
 2350.00000    2.25340  451.09640  -34.76850    2.11380    0.37910    0.11840    -999.25    -999.25   97.95450   12.25280    0.03510    2.47960
 2400.00000    2.36310  450.81710  -35.79430    2.44240    0.32170    0.16820    -999.25    -999.25   86.21770   11.80290    0.00620    2.51000
 2450.00000    2.02050  517.21550  -34.44670    1.72060    0.35950    0.51560    -999.25    -999.25   88.74650   15.44710    0.04490    1.80740
 2500.00000    1.54320  745.91970  -34.98020    1.27370    0.39550    0.18300    -999.25    -999.25  101.42080   11.38950    0.06420    2.36850
 2550.00000    6.14180  170.46500  -44.28210    5.79250    0.19760    0.08540    -999.25    -999.25   56.22790   11.81600    0.00770    2.51340
 2600.00000    6.08270  163.73030  -39.33250    5.69570    0.23510    0.08190    -999.25    -999.25   67.64730   12.08100    0.01880    2.52050
 2650.00000    8.46960  117.66320  -46.05440    8.07000    0.20630    0.10340    -999.25    -999.25   52.78260   11.71630    0.00370    2.49480
 2700.00000    4.55370  201.91210  -39.35850    4.40930    0.23510    0.10140    -999.25    -999.25   71.37610   11.18260    0.19090    2.47130
 2750.00000    9.21890  117.80360  -43.87380    8.20430    0.19560    0.06730    -999.25    -999.25   58.21560   10.82330    0.03620    2.54830
 2800.00000    5.05910  222.38160  -54.03410    4.06330    0.24380    0.13860    -999.25    -999.25   47.77090   10.73110    0.04960    2.50010
 2850.00000    4.00290  280.17370  -36.37750    2.89380    0.29600    0.17020    -999.25    -999.25   81.36330   12.13090    0.10210    2.44900
 2900.00000    4.06150  266.86270  -35.98090    3.45450    0.32640    0.11430    -999.25    -999.25   76.21260   10.73670    0.06720    2.56080
 2950.00000    6.11810  192.31170  -41.11050    4.73610    0.31520    0.21080    -999.25    -999.25   78.58860   10.82490    0.11510    2.24130
 3000.00000    2.96710  324.20920  -35.03280    2.35190    0.38120    0.31970    -999.25    -999.25   88.06110   11.43910    0.07100    2.17080
 3050.00000    3.82050  266.41050  -34.13830    3.36120    0.34270    0.26690    -999.25    -999.25   83.58520   13.16610    0.15600    2.19580
 3100.00000    3.42600  327.32880  -32.87060    2.63910    0.33860    0.28170    -999.25    -999.25   81.01570   11.39830    0.16330    2.21960
 3150.00000    3.59410  292.58300  -32.83810    3.16150    0.31670    0.27300    -999.25    -999.25   78.86350   11.28440    0.15240    2.20390
 3200.00000    3.52210  311.26710  -32.09360    2.70420    0.30340    0.24710    -999.25    -999.25   84.31560   12.83890    0.14930    2.20940
 3250.00000    3.96180  267.37640  -30.52410    3.21140    0.28370    0.20940    -999.25    -999.25   78.11420   11.85940    0.13400    2.30640
 3300.00000    3.51840  320.45630  -32.84860    2.57770    0.30080    0.19710    -999.25    -999.25   74.56800   12.40560    0.14230    2.32460
 3350.00000    2.87680  387.96070  -33.79520    2.25050    0.38130    0.15360    -999.25    -999.25   87.32910   11.95410    0.08030    2.43670
 3400.00000    3.43660  311.78520  -32.73940    2.72590    0.34510    0.17980    -999.25    -999.25   84.31330   11.71000    0.07010    2.33940
 3450.00000    2.73180  422.38990  -31.42230    2.10040    0.33040    0.19520    -999.25    -999.25   73.22690   10.98450    0.09920    2.33370
 3500.00000    3.70740  313.53760  -34.70530    3.06070    0.31140    0.27120    -999.25    -999.25   78.21500   11.55050    0.12740    2.22240
 3550.00000    2.46890  448.22950  -33.64330    1.99820    0.35360    0.14390    -999.25    -999.25   91.27730   11.74170    0.05460    2.45800
 3600.00000    2.44250  457.92010  -32.75740    1.81610    0.34020    0.19840    -999.25    -999.25   84.10430   12.47600    0.07060    2.32040
 3650.00000    3.46330  330.35780  -33.04290    2.59430    0.33210    0.20530    -999.25    -999.25   78.57650   12.50740    0.11520    2.32610
 3700.00000    6.61020  204.78350  -32.07030    4.71210    0.18430    0.01040    -999.25    -999.25   75.93550   10.17460    0.09500    2.58010
 3750.00000    4.23940  337.40090  -51.97900    2.08100    0.19940    0.14400    -999.25    -999.25   28.49420    9.15780    0.04140    2.46030
 3800.00000    7.22270  294.55890  -70.38870    3.04590    0.26320    0.14070    -999.25    -999.25   45.89350    9.18570    0.02470    2.41530
 3850.00000    4.87120  242.63160  -35.89390    3.62710    0.30350    0.14020    -999.25    -999.25   80.07620   10.07540   -0.00790    2.40950
 3900.00000    2.20150  511.98510  -34.02930    1.63690    0.38670    0.16160    -999.25    -999.25   94.49970   10.88310    0.04110    2.46920
 3950.00000    5.49320  228.39490  -40.31240    3.90380    0.24700    0.13850    -999.25    -999.25   66.80010   10.23000    0.02730    2.45760
 4000.00000    4.48110  255.89740  -37.42530    3.54950    0.25050    0.11050    -999.25    -999.25   80.76760   10.44630    0.07170    2.49260
 4050.00000    4.87050  232.72540  -36.94350    3.94830    0.27690    0.19040    -999.25    -999.25   77.83560   10.14480    0.09850    2.29490
 4100.00000    3.90740  349.92250  -30.87050    2.52630    0.31310    0.27470    -999.25    -999.25   75.38120   10.68710    0.16880    2.23000
 4150.00000    4.53520  293.61980  -31.00010    2.91170    0.30990    0.26380    -999.25    -999.25   74.90750   10.90480    0.12340    2.12580
 4200.00000    2.13530  538.92650  -30.37620    1.45810    0.39480    0.28360    -999.25    -999.25   78.54540   12.86520    0.11510    2.20180
 4250.00000    1.98570  605.85570  -30.49410    1.32710    0.41400    0.17980    -999.25    -999.25   89.20570   11.95500    0.09420    2.38300
 4300.00000    4.49420  270.03950  -31.36500    3.37910    0.22870    0.06700    -999.25    -999.25   84.43800   10.50540    0.09420    2.54420
 4350.00000    2.11880  545.16380  -28.73070    1.61690    0.36540    0.11040    -999.25    -999.25   91.32200   12.45030    0.08420    2.47620
 4400.00000    2.06280  567.52120  -29.41520    1.41020    0.37230    0.16060    -999.25    -999.25   95.68960   12.76880    0.08010    2.40090
 4450.00000    3.41280  318.60860  -30.51810    3.25280    0.30390    0.08400    -999.25    -999.25  102.95030   11.35030   -0.00080    2.53060
 4500.00000    2.58890  418.86670  -28.77230    2.15040    0.30300    0.22330    -999.25    -999.25   97.36630   13.66270    0.14570    2.28350
