~Version ---------------------------------------------------
VERS.      2.0 : CWLS log ASCII Standard -VERSION 2.0
WRAP.      YES : Multiple lines per depth step
CREA. 08/18/12 : LAS Creation Date
~Well ------------------------------------------------------
STRT.FT                 2900.0 : START DEPTH
STOP.FT                17850.0 : STOP DEPTH
STEP.FT               50.00000 : STEP LENGTH
NULL.                  -999.25 : NULL VALUE
COMP. AMOCO PRODUCTION COMPANY : COMPANY
WELL.   JIMMY HILL GAS UNIT #1 : WELL
FLD .                  WILDCAT : FIELD
LOC .                          : LOCATION
CNTY.                     LEON : COUNTY
STAT.                    TEXAS : STATE
CTRY. UNITED STATES OF AMERICA : COUNTRY
SRVC.             Schlumberger : SERVICE COMPANY
DATE.              04-Jun-1996 : LOGDATE
API .           42289312310000 : API NUMBER
UWI .           42289312310000 : UNIQUE WELL ID
SLAT.WGS84       31.2538599246 : SURFACE LATITUDE
SLON.WGS84      -96.2196025838 : SURFACE LONGITUDE
~Curve Information -----------------------------------------
DEPT    .FT                                                                                                : DEPTH FEET
AO10ED  .OHMM                                                                                              : ARRAY INDUCTION ONE FOOT RESISTIVITY A10 FROM AIT-PI-DITE-LDT-CNT LOG
AO20ED  .OHMM                                                                                              : ARRAY INDUCTION ONE FOOT RESISTIVITY A20 FROM AIT-PI-DITE-LDT-CNT LOG
AO30ED  .OHMM                                                                                              : ARRAY INDUCTION ONE FOOT RESISTIVITY A30 FROM AIT-PI-DITE-LDT-CNT LOG
AO60ED  .OHMM                                                                                              : ARRAY INDUCTION ONE FOOT RESISTIVITY A60 FROM AIT-PI-DITE-LDT-CNT LOG
AO90ED  .OHMM                                                                                              : ARRAY INDUCTION ONE FOOT RESISTIVITY A90 FROM AIT-PI-DITE-LDT-CNT LOG
CALSED  .IN                                                                                                : CALIPER FROM BCS-CALIPER-GR LOG [ADJ. TO GRRED]
CALWS   .IN                                                                                                : CALIPER [DCALED+BITS]
CONDWS  .MMHO                                                                                              : CONDUCTIVITY [1000/DRESWS]
DCALED  .IN                                                                                                : DIFFERENTIAL CALIPER FROM AIT-PI-DITE-LDT-CNT LOG
DCORWS  .G/C3                                                                                              : DENSITY CORRECTION [DRHED SPL. TO DRHOED @ 10860']
DENWS   .G/C3 :   FORMATION BULK DENSITY [RHOMED, DENWS CALCULATED FROM DPOWS FROM 7004'-10889'] [M:2.71,F : 1.0]
DPHILSED.V/V                                                      :   DENSITY POROSITY LIMESTONE [M:2.71,F : 1.0] FROM AIT-PI-DITE-LDT-CNT LOG
DPOLSED .V/V                                                                                               : DENSITY POROSITY LIMESTONE FROM HOSTILE LDL-CN-GR LOG
DPOWS   .V/V                                                                                               : DENSITY POROSITY [DPHILSED SPL. TO DPOLSED @ 10852']
DRESWS  .OHMM                                                                                              : DEEP RESISTIVITY [AO30ED SPL. TO IDPHED]
DRHED   .G/C3                                                                                              : BULK DENSITY CORRECTION FROM HOSTILE LDL-CN-GR LOG
DRHOED  .G/C3                                                                                              : BULK DENSITY CORRECTION FROM AIT-PI-DITE-LDT-CNT LOG
DTED    .US/F                                                                                              : DELTA T FROM BCS-CALIPER-GR LOG [ADJ. TO GRRED/NPHILSED]
DTLFED  .US/F                                                                                              : DELTA-T LONG SPACING FAR FROM AIT-PI-DITE-LDT-CNT-PI-LSS-GR LOG
DTLNED  .US/F                                                                                              : DELTA-T LONG SPACING NEAR FROM AIT-PI-DITE-LDT-CNT-PI-LSS-GR LOG
DTWS    .US/F                                                                                              : COMPRESSIONAL SONIC [DTED SPL. TO DTLNED @ 10865.5'-15946.5']
GRRED   .GAPI                                                                                              : GAMMA RAY FROM AIT-PI-DITE-LDT-CNT LOG
GRSED   .GAPI                                                                                              : GAMMA RAY FROM BCS-CALIPER-GR-PI-LSS LOG [ADJ. TO GRRED]
GRWS    .GAPI                                                                                              : GAMMA RAY [GRRED]
IDPHED  .OHMM                                                                                              : DEEP INDUCTION PHASOR FROM AIT-PI-DITE-LDT-CNT- PI-LSS-GR LOG
LCALED  .IN                                                                                                : LOWER CALIPER FROM HOSTILE LDL-CN-GR LOG
MRESWS  .OHMM                                                                                              : MEDIUM RESISTIVITY [AO30ED]
NPHILSED.V/V                                                                                               : NEUTRON POROSITY LIMESTONE FROM AIT-PI-DITE-LDT-CNT LOG
NPOWS   .V/V                                                                                               : NEUTRON POROSITY [NPHILSED]
PEFED   .B/E                                                                                               : PHOTOELECTRIC FACTOR FROM AIT-PI-DITE-LDT-CNT LOG
PEFLED  .B/E                                                                                               : HLDT PEF LONG SPACING FROM HOSTILE LDL-CN-GR LOG
PEFSED  .B/E                                                                                               : SHORT SPACED CORRECTED PHOTOELECTRIC FACTOR FROM HOSTILE LDL-CN-GR LOG
PEFWS   .B/E                                                                                               : PHOTOELECTRIC FACTOR [PEFED SPL. TO PEFSED @ 10847.5']
RHOMED  .G/C3                                                                                              : CORRECTED BULK DENSITY FROM HOSTILE LDL-CN-GR LOG
SPRED   .MV                                                                                                : SPONTANEOUS POTENTIAL  FROM AIT-PI-DITE-LDT-CNT LOG
SPWS    .MV                                                                                                : SPONTANEOUS POTENTIAL [BASELINE 0, MV SPRED]
SRESWS  .OHMM                                                                                              : SHALLOW RESISTIVITY [AO10ED]
TENDED  .LBF                                                                                               : DIFFERENTIAL TENSION FROM HOSTILE LDL-CN-GR LOG
TENRED  .LBF                                                                                               : TENSION FROM AIT-PI-DITE-LDT-CNT LOG
TENSED  .LBF                                                                                               : TOTAL TENSION FROM BCS-CALIPER-GR LOG [ADJ. TO GRRED]
~Params ----------------------------------------------------
PD  .                     GL : PERMANENT DATUM
EPD .FT                 3759 : ELEVATION PERMANENT DATUM
LMF .                     KB : LOG MEASURED FROM
DAPD.FT                 37.2 : FEET ABOVE PERMANENT DATUM
DMF .                     KB : DRILLING MEASURED FROM
EKB .FT                 4131 : KELLY BUSHING
EDF .FT                 4121 : DRILLING FLOOR
EGL .FT                 3759 : GROUND LEVEL
DATE.               06/04/96 : RUN DATE
RUN .                      4 : RUN NUMBER
DD  .FT                17800 : DEPTH DRILLER
DL  .FT                17800 : DEPTH LOGGER
BLI .FT                17797 : BOTTOM LOG INTERVAL
TLI .FT                15944 : TOP LOG INTERVAL
CS  .IN                    7 : CASING SIZE
CBD .FT                15950 : CASING BOTTOM DRILLER
CBL .FT                15944 : CASING BOTTOM LOGGER
BS  .IN                5.875 : BIT SIZE
BSD .FT                17800 : BIT SIZE AT DEPTH
DFT .              OIL BASED : DRILLING FLUID TYPE
DFD .                     18 : DRILLING FLUID DENSITY
DFV .                     88 : DRILLING FLUID VISCOSITY
RMC .OHMM      OIL BASED MUD : RESISTIVITY MUD CAKE
MCST.DEGF      OIL BASED MUD : MUD CAKE SAMPLE TEMPERATURE
TCS .HRS                2100 : TIME CIRCULATED STOPPED
TLAB.HRS                1500 : TIME LOGGER AT BOTTOM
LUN .                   2019 : LOGGING UNIT NUMBER
LUL .                  TYLER : LOGGING UNIT LOCATION
ENGI.                 FERRIS : RECORDING ENGINEER
WITN.              MCGINNUSS : WITNESSED BY
CLNT.                A2DTECH : CLIENT CODE
ORIG.               5' PRINT : ORIGIN OF DATA
UWI .         42289312310000 : UNIQUE WELL ID
DICO. A2D Technologies, Inc. : DIGITIZING COMPANY
~Other -----------------------------------------------------
~ASCII -----------------------------------------------------
# ...
 13700.00000    -999.25    -999.25    -999.25    -999.25    -999.25    -999.25    8.84120   10.71740    0.34120   -0.00050    2.54410    -999.25    0.09700    0.09700   93.30630   -0.00050    -999.25    -999.25   59.01930   59.42370   59.42370   24.79480    -999.25   24.79480   93.30630    8.78930    -999.25    0.00300    0.00300    -999.25    3.82130    3.38470    3.38470    2.54410    -999.25    -999.25    -999.25 4970.25000 4921.98970    -999.25
 13750.00000    -999.25    -999.25    -999.25    -999.25    -999.25    -999.25    8.89670  236.75360    0.39670   -0.00550    2.72880    -999.25   -0.00540   -0.00540    4.22380   -0.00550    -999.25    -999.25  106.71810   75.08410   75.08410   99.42950    -999.25   99.42950    4.22380    8.86020    -999.25    0.06140    0.06140    -999.25    5.01140    3.94640    3.94640    2.72880    -999.25    -999.25    -999.25 4895.78030 4959.04390    -999.25
 13800.00000    -999.25    -999.25    -999.25    -999.25    -999.25    -999.25    8.96420    4.95750    0.46420    0.03500    2.54460    -999.25    0.09420    0.09420  201.71530    0.03500    -999.25    -999.25   57.63620   57.73800   57.73800   13.67220    -999.25   13.67220  201.71530    8.90660    -999.25   -0.00510   -0.00510    -999.25    6.53620    4.58110    4.58110    2.54460    -999.25    -999.25    -999.25 5018.27390 4948.35110    -999.25
 13850.00000    -999.25    -999.25    -999.25    -999.25    -999.25    -999.25    9.00900  173.06730    0.50900    0.02430    2.66820    -999.25    0.02230    0.02230    5.77810    0.02430    -999.25    -999.25   89.29370   92.80330   92.80330   98.19740    -999.25   98.19740    5.77810    8.97510    -999.25    0.07300    0.07300    -999.25    4.81070    4.80820    4.80820    2.66820    -999.25    -999.25    -999.25 5023.71480 4932.79350    -999.25
 13900.00000    -999.25    -999.25    -999.25    -999.25    -999.25    -999.25    8.99050  122.25390    0.49050   -0.00490    2.69620    -999.25    0.01580    0.01580    8.17970   -0.00490    -999.25    -999.25   62.16840   60.54500   60.54500   60.76950    -999.25   60.76950    8.17970    8.93780    -999.25    0.03460    0.03460    -999.25    5.18530    3.95080    3.95080    2.69620    -999.25    -999.25    -999.25 4960.34720 4922.63430    -999.25
 13950.00000    -999.25    -999.25    -999.25    -999.25    -999.25    -999.25    8.93150   30.24560    0.43150    0.00360    2.69900    -999.25    0.01200    0.01200   33.06270    0.00360    -999.25    -999.25  126.28430   56.98970   56.98970   32.48420    -999.25   32.48420   33.06270    8.93280    -999.25    0.00680    0.00680    -999.25    5.14930    4.02150    4.02150    2.69900    -999.25    -999.25    -999.25 5006.30910 4951.38620    -999.25
 14000.00000    -999.25    -999.25    -999.25    -999.25    -999.25    -999.25    9.32930  358.78300    0.82930   -0.01090    2.63630    -999.25    0.04140    0.04140    2.78720   -0.01090    -999.25    -999.25   80.32280   80.09910   80.09910  126.20390    -999.25  126.20390    2.78720    9.26850    -999.25    0.17270    0.17270    -999.25    5.16400    3.80450    3.80450    2.63630    -999.25    -999.25    -999.25 5025.15670 5023.60550    -999.25
 14050.00000    -999.25    -999.25    -999.25    -999.25    -999.25    -999.25    9.08520  290.21680    0.58520   -0.00210    2.65100    -999.25    0.03270    0.03270    3.44570   -0.00210    -999.25    -999.25   77.89400   77.61610   77.61610  117.31190    -999.25  117.31190    3.44570    9.04710    -999.25    0.15150    0.15150    -999.25    4.92290    4.37710    4.37710    2.65100    -999.25    -999.25    -999.25 5035.55180 5026.27930    -999.25
 14100.00000    -999.25    -999.25    -999.25    -999.25    -999.25    -999.25    8.83590   28.93510    0.33590   -0.00340    2.55300    -999.25    0.08960    0.08960   34.56010   -0.00340    -999.25    -999.25  161.23070  141.04640  141.04640   22.88990    -999.25   22.88990   34.56010    8.78940    -999.25    0.00290    0.00290    -999.25    3.70090    3.06320    3.06320    2.55300    -999.25    -999.25    -999.25 5077.19820 5024.15430    -999.25
 14150.00000    -999.25    -999.25    -999.25    -999.25    -999.25    -999.25    9.04630  305.91330    0.54630    0.00510    2.62900    -999.25    0.04430    0.04430    3.26890    0.00510    -999.25    -999.25   53.81820  162.41230  162.41230  110.01880    -999.25  110.01880    3.26890    8.97350    -999.25    0.11280    0.11280    -999.25    5.29500    4.74790    4.74790    2.62900    -999.25    -999.25    -999.25 5105.93020 5055.95460    -999.25
 14200.00000    -999.25    -999.25    -999.25    -999.25    -999.25    -999.25    8.83490  219.35600    0.33490   -0.01190    2.67930    -999.25    0.01630    0.01630    4.55880   -0.01190    -999.25    -999.25   79.80920   73.16830   73.16830   83.78480    -999.25   83.78480    4.55880    8.76300    -999.25    0.10590    0.10590    -999.25    6.76860    4.20720    4.20720    2.67930    -999.25    -999.25    -999.25 5103.86910 5077.88090    -999.25
 14250.00000    -999.25    -999.25    -999.25    -999.25    -999.25    -999.25    8.97710  216.13210    0.47710    0.00500    2.62530    -999.25    0.04610    0.04610    4.62680    0.00500    -999.25    -999.25   71.55470   72.29000   72.29000   91.39670    -999.25   91.39670    4.62680    8.95870    -999.25    0.10700    0.10700    -999.25    5.11470    5.07540    5.07540    2.62530    -999.25    -999.25    -999.25 5077.65720 5083.69780    -999.25
 14300.00000    -999.25    -999.25    -999.25    -999.25    -999.25    -999.25    8.85310  298.41840    0.35310   -0.00400    2.63030    -999.25    0.04850    0.04850    3.35100   -0.00400    -999.25    -999.25  120.21230   96.19600   96.19600  111.82280    -999.25  111.82280    3.35100    8.79210    -999.25    0.13520    0.13520    -999.25    5.03960    4.14930    4.14930    2.63030    -999.25    -999.25    -999.25 5118.92970 5108.39550    -999.25
 14350.00000    -999.25    -999.25    -999.25    -999.25    -999.25    -999.25    8.85960   62.75340    0.35960    0.00690    2.54620    -999.25    0.09260    0.09260   15.93540    0.00690    -999.25    -999.25   60.16600   94.05790   94.05790   27.17630    -999.25   27.17630   15.93540    8.79100    -999.25    0.01110    0.01110    -999.25    3.40490    3.23080    3.23080    2.54620    -999.25    -999.25    -999.25 5111.13130 5140.93210    -999.25
 14400.00000    -999.25    -999.25    -999.25    -999.25    -999.25    -999.25    8.84860   50.81480    0.34860   -0.00590    2.55450    -999.25    0.09050    0.09050   19.67930   -0.00590    -999.25    -999.25   57.98660   58.77710   58.77710   18.09130    -999.25   18.09130   19.67930    8.80280    -999.25    0.00510    0.00510    -999.25    3.14160    2.93290    2.93290    2.55450    -999.25    -999.25    -999.25 5109.74120 5123.22610    -999.25
 14450.00000    -999.25    -999.25    -999.25    -999.25    -999.25    -999.25    8.87560  194.51470    0.37560    0.00300    2.64190    -999.25    0.03910    0.03910    5.14100    0.00300    -999.25    -999.25   70.05420   69.50370   69.50370  102.21550    -999.25  102.21550    5.14100    8.81930    -999.25    0.09050    0.09050    -999.25    5.57550    4.71440    4.71440    2.64190    -999.25    -999.25    -999.25 5203.95950 5205.71480    -999.25
 14500.00000    -999.25    -999.25    -999.25    -999.25    -999.25    -999.25    8.88470  156.06220    0.38470    0.00440    2.59770    -999.25    0.05980    0.05980    6.40770    0.00440    -999.25    -999.25   89.53560   76.59300   76.59300   70.24030    -999.25   70.24030    6.40770    8.85810    -999.25    0.06270    0.06270    -999.25    4.18740    3.83260    3.83260    2.59770    -999.25    -999.25    -999.25 5191.06490 5153.42290    -999.25
 14550.00000    -999.25    -999.25    -999.25    -999.25    -999.25    -999.25    8.84480   13.82650    0.34480    0.11490    2.56040    -999.25    0.08320    0.08320   72.32480    0.11490    -999.25    -999.25   58.69580   59.43310   59.43310   21.31260    -999.25   21.31260   72.32480    8.78220    -999.25   -0.00210   -0.00210    -999.25    7.90000    9.13770    9.13770    2.56040    -999.25    -999.25    -999.25 5240.86670 5188.20950    -999.25
