~Version ---------------------------------------------------
VERS. 2.0 : CWLS log ASCII Standard -VERSION 2.0
WRAP. YES : Multiple lines per depth step
~Well ------------------------------------------------------
STRT.FT                    300.0 : START DEPTH
STOP.FT                  19600.0 : STOP DEPTH
STEP.FT                 50.00000 : STEP LENGTH
NULL.                    -999.25 : NULL VALUE
COMP. CITIES SERVICE OIL COMPANY : COMPANY
WELL.          PEELER RANCH A #1 : WELL
FLD .                    WILDCAT : FIELD
LOC .                            : LOCATION
CNTY.                   ATASCOSA : COUNTY
STAT.                      TEXAS : STATE
CTRY.   UNITED STATES OF AMERICA : COUNTRY
SRVC.               Schlumberger : SERVICE COMPANY
DATE.                12-Feb-1972 : LOGDATE
API .             42013301410000 : API NUMBER
UWI .             42013301410000 : UNIQUE WELL ID
SLAT.WGS84         28.6903618688 : SURFACE LATITUDE
SLON.WGS84        -98.4697337546 : SURFACE LONGITUDE
~Curve Information -----------------------------------------
DEPT  .FT    : DEPTH
ALL8ED.OHMM  : LATEROLOG-8 RESISTIVITY AMPLIFIED
ASNED .OHMM  : AMPLIFIED SHORT NORMAL 16 IN.
CALWS .IN    : CALIPER (CALSED)
CALSED.IN    : CALIPER FROM SONIC LOG (ADJ TO RES.)
CILDED.MMHO  : CONDUCTIVITY FROM LOG
CONDWS.MMHO  : CONDUCTIVITY (1000/DRESws)
DCORWS.G/C3  : DENSITY CORRECTION (DRHOED)
DENWS .G/C3  : BULK DENSITY  (RHOBED LS)
DPOWS .V/V   : DENSITY POROSITY (M=2.71 F=1 FROM DENws)
DRESWS.OHMM  : DEEP RESISTIVITY (IF ILDED<1, THEN 1000/CILDED)
DRHOED.G/C3  : DENSITY CORRECTION (ADJ TO RES.)
DTED  .US/F  : DELTA TIME  (ADJ TO RES.)
DTWS  .US/F  : DELTA TIME  (DTED)
GRDED .GAPI  : GAMMA RAY FROM DENSITY LOG (ADJ TO RES.)
GRWS  .GAPI  : GAMMA RAY (GRSED/GRDED @ 8498)
GRSED .GAPI  : GAMMA RAY FROM SONIC LOG (ADJ TO RES.)
ILDED .OHMM  : DEEP INDUCTION RESISTIVITY
NEUTED.CU    : NEUTRON FROM GAMMA RAY NEUTRON LOG (ADJ TO RES.)
NEUTWS.CU    : NEUTRON FROM GAMMA RAY NEUTRON LOG (NEUTED)
NPOWS .V/V   : NEUTRON POROSITY LIMESTONE (SNPED)
RHOBED.G/C3  : BULK DENSITY (ADJ TO RES.)
SNPED .V/V   : SIDEWALL NEUTRON POROSITY (ADJ TO RES.)
SPWS  .MV    : SPONTANEOUS POTENTIAL BASELINE 0 MV (SPRED)
SPRED .MMHO  : SPONTANEOUS POTENTIAL FROM RESISTIVITY
SRESWS.OHMM  : SHALLOW RESISTIVITY (ASNED/ALL8ED @ 12329)
~Params ----------------------------------------------------
PD  .                     GL : PERMANENT DATUM
EPD .F                   297 : ELEVATION PERMANENT DATUM
LMF .                     KB : LOG MEASURED FROM
DAPD.F                  30.5 : FEET ABOVE PERMANENT DATUM
DMF .                     KB : DRILLING MEASURED FROM
EKB .F                 327.5 : KELLING BUSHING
EDF .F                 326.5 : DRILLING FLOOR
EGL .F                   297 : GROUND LEVEL
DATE.             02-12-1972 : RUN DATE
RUN .                      9 : RUN NUMBER
DD  .F                 19629 : DEPTH DRILLER
DL  .F                 19635 : DEPTH LOGGER
BLI .F                 19628 : BOTTOM LOG INTERVAL
TLI .F                 19127 : TOP LOG INTERVAL
BS  .IN                  4.4 : BIT SIZE
BSD .F                 19629 : BIT SIZE AT DEPTH
DFT .       INVERMUL 43% OIL : DRILLING FLUID TYPE
DFD .                   19.1 : DRILLING FLUID DENSITY
DFV .                     88 : DRILLING FLUID VISCOSITY
TCS .HRS                  12 : TIME CURCULATED STOPPED
LUN .                   7504 : LOGGING UNIT NUMBER
LUL .                  PLEAS : LOGGING UNIT LOCATION
ENGI.               CLEMENTS : RECORDING ENGINEER
WITN.         GRIGSBY THOMAS : WITNESSED BY
CLNT.                A2DTECH : CLIENT CODE
ORIG.            2" 5" PRINT : ORIGIN OF DATA
UWI .         42013301410000 : UNIQUE WELL ID
DICO. A2D Technologies, Inc. : DIGITIZING COMPANY
~Other -----------------------------------------------------
~ASCII -----------------------------------------------------
# ...
 18500.00000    -999.25    -999.25    6.64700    6.64700   32.17130   20.15570   -0.03530    2.93830   -0.13350   49.61370   -0.03530   52.84900   52.84900   12.04900   12.04900   38.66850   49.61370 2831.47390 2831.47390    -999.25    2.93830    -999.25    -999.25    -999.25    -999.25
 18550.00000    -999.25    -999.25    6.64600    6.64600   40.77030   32.70680   -0.05670    2.91600   -0.12050   30.57470   -0.05670   54.60200   54.60200   15.88100   15.88100   31.79560   30.57470 2905.01320 2905.01320    -999.25    2.91600    -999.25    -999.25    -999.25    -999.25
 18600.00000    -999.25    -999.25    -999.25    -999.25   36.46630   59.44770   -0.05280    2.96310   -0.14800   16.82150   -0.05280   52.09200   52.09200   11.21190   11.21190   23.24920   16.82150 2693.23630 2693.23630    -999.25    2.96310    -999.25    -999.25    -999.25    -999.25
 18650.00000    -999.25    -999.25    -999.25    -999.25   32.27090   64.49530   -0.04660    2.94380   -0.13670   15.50500   -0.04660   52.61000   52.61000   15.83820   15.83820   26.81930   15.50500 3254.90410 3254.90410    -999.25    2.94380    -999.25    -999.25    -999.25    -999.25
 18700.00000    -999.25    -999.25    -999.25    -999.25   36.11150   44.55180   -0.05510    2.78660   -0.04480   22.44580   -0.05510   49.75700   49.75700   14.23200   14.23200   33.84570   22.44580 2772.50000 2772.50000    -999.25    2.78660    -999.25    -999.25    -999.25    -999.25
 18750.00000    -999.25    -999.25    -999.25    -999.25   27.49000   21.40310   -0.05200    2.98920   -0.16330   46.72210   -0.05200   53.28700   53.28700   12.75000   12.75000   26.98070   46.72210 3891.80000 3891.80000    -999.25    2.98920    -999.25    -999.25    -999.25    -999.25
 18800.00000    -999.25    -999.25    -999.25    -999.25   15.52590   16.43020   -0.05470    2.83550   -0.07340   60.86340   -0.05470   51.33500   51.33500   18.97300   18.97300   25.91320   60.86340 4677.50000 4677.50000    -999.25    2.83550    -999.25    -999.25    -999.25    -999.25
 18850.00000    -999.25    -999.25    -999.25    -999.25   11.11740   10.60030   -0.06370    2.91270   -0.11850   94.33680   -0.06370   52.49000   52.49000   38.04400   38.04400   19.97300   94.33680 4825.33690 4825.33690    -999.25    2.91270    -999.25    -999.25    -999.25    -999.25
 18900.00000    -999.25    -999.25    -999.25    -999.25   10.92170    9.08040   -0.05510    2.75160   -0.02430  110.12730   -0.05510   48.97900   48.97900    8.38400    8.38400   13.88170  110.12730 5862.37010 5862.37010    -999.25    2.75160    -999.25    -999.25    -999.25    -999.25
 18950.00000    -999.25    -999.25    -999.25    -999.25   10.50180   11.74090   -0.06190    2.73680   -0.01570   85.17240   -0.06190   50.63700   50.63700    6.00700    6.00700    7.95760   85.17240 5849.69090 5849.69090    -999.25    2.73680    -999.25    -999.25    -999.25    -999.25
 19000.00000    -999.25    -999.25    -999.25    -999.25  127.60450  252.54440   -0.06440    2.75630   -0.02710    3.95970   -0.06440   50.04000   50.04000    7.87300    7.87300   14.44080    3.95970 2120.55300 2120.55300    -999.25    2.75630    -999.25    -999.25    -999.25    -999.25
 19050.00000    -999.25    -999.25    -999.25    -999.25  104.20000  100.13720   -0.06130    2.70890    0.00060    9.98630   -0.06130   51.00800   51.00800    8.73900    8.73900   15.92590    9.98630 5144.79390 5144.79390    -999.25    2.70890    -999.25    -999.25    -999.25    -999.25
 19100.00000    -999.25    -999.25    -999.25    -999.25   18.38860   27.14310   -0.06210    2.78300   -0.04270   36.84180   -0.06210   46.63600   46.63600    8.78700    8.78700    5.64080   36.84180 4133.69040 4133.69040    -999.25    2.78300    -999.25    -999.25    -999.25    -999.25
 19150.00000    -999.25    -999.25    -999.25    -999.25    9.63880   13.36650    -999.25    2.84430   -0.07850   74.81410    -999.25   46.18000   46.18000    3.68300    3.68300    3.56300   74.81410 4666.28320 4666.28320    -999.25    2.84430    -999.25    -999.25    -999.25    -999.25
 19200.00000    -999.25    -999.25    -999.25    -999.25   25.81900   20.44300    -999.25    2.78080   -0.04140   48.91640    -999.25   45.22900   45.22900    6.29500    6.29500    6.19300   48.91640 4505.11040 4505.11040    -999.25    2.78080    -999.25    -999.25    -999.25    -999.25
 19250.00000    -999.25    -999.25    -999.25    -999.25    -999.25    6.42790    -999.25    2.83710   -0.07430  155.57260    -999.25   44.71200   44.71200    6.14500    6.14500    5.26400  155.57260 5039.92970 5039.92970    -999.25    2.83710    -999.25    -999.25    -999.25    -999.25
 19300.00000    -999.25    -999.25    -999.25    -999.25   11.86030   13.18450    -999.25    2.79150   -0.04770   75.84640    -999.25   48.01200   48.01200    9.83600    9.83600   11.14800   75.84640 4668.05960 4668.05960    -999.25    2.79150    -999.25    -999.25    -999.25    -999.25
 19350.00000    -999.25    -999.25    -999.25    -999.25    9.13270   10.54270    -999.25    2.74460   -0.02020   94.85210    -999.25   49.56800   49.56800   15.15100   15.15100   14.88300   94.85210 4531.12010 4531.12010    -999.25    2.74460    -999.25    -999.25    -999.25    -999.25
 19400.00000    -999.25    -999.25    -999.25    -999.25    9.10560   10.31210    -999.25    2.68780    0.01300   96.97390    -999.25   51.54400   51.54400   19.65400   19.65400   19.52300   96.97390 4217.65620 4217.65620    -999.25    2.68780    -999.25    -999.25    -999.25    -999.25
 19450.00000    -999.25    -999.25    -999.25    -999.25    6.77290    7.85730    -999.25    2.69930    0.00630  127.27040    -999.25   50.11600   50.11600   10.42500   10.42500   10.82400  127.27040 5131.81540 5131.81540    -999.25    2.69930    -999.25    -999.25    -999.25    -999.25
 19500.00000    -999.25    -999.25    -999.25    -999.25   10.64980   12.55990    -999.25    2.71910   -0.00530   79.61820    -999.25   50.39800   50.39800   18.23200   18.23200   18.89100   79.61820 4365.84570 4365.84570    -999.25    2.71910    -999.25    -999.25    -999.25    -999.25
 19550.00000    -999.25    -999.25    -999.25    -999.25    7.78900   10.33880    -999.25    2.72480   -0.00870   96.72340    -999.25   48.95400   48.95400   16.75100   16.75100   17.25600   96.72340 5250.35110 5250.35110    -999.25    2.72480    -999.25    -999.25    -999.25    -999.25
 19600.00000    -999.25    -999.25    -999.25    -999.25   27.53980   31.98010    -999.25    2.79540   -0.04990   31.26940    -999.25   48.33000   48.33000   28.23300   28.23300   28.91900   31.26940 3229.63130 3229.63130    -999.25    2.79540    -999.25    -999.25    -999.25    -999.25
