~Version ---------------------------------------------------
VERS. 2.0 : CWLS log ASCII Standard -VERSION 2.0
WRAP. YES : Multiple lines per depth step
~Well ------------------------------------------------------
STRT.FT                  300.0 : START DEPTH
STOP.FT                10000.0 : STOP DEPTH
STEP.FT               50.00000 : STEP LENGTH
NULL.                  -999.25 : NULL VALUE
COMP.     TEXAS OIL & GAS CORP : COMPANY
WELL.     SILVER LAKE RANCH #1 : WELL
FLD .                  WILDCAT : FIELD
LOC .                          : LOCATION
CNTY.                   DIMMIT : COUNTY
STAT.                    TEXAS : STATE
CTRY. UNITED STATES OF AMERICA : COUNTRY
SRVC.                  Unknown : SERVICE COMPANY
DATE.              08-Nov-1979 : LOGDATE
API .           42127318560000 : API NUMBER
UWI .           42127318560000 : UNIQUE WELL ID
SLAT.WGS84       28.3952279901 : SURFACE LATITUDE
SLON.WGS84      -99.4517773834 : SURFACE LONGITUDE
~Curve Information -----------------------------------------
DEPT  .FT    : DEPTH
CALDED.IN    : CALIPER FROM DENSITY LOG (ADJ TO RES.)
CALWS .IN    : CALIPER (CALDED)
CONDWS.MMHO  : CONDUCTIVITY (1000/DRESws)
DCORWS.G/C3  : DENSITY CORRECTION (DRHOED)
DENWS .G/C3  : BULK DENSITY  (RHOBED LS)
DPHIED.V/V   : DENSITY POROSITY  (ADJ TO RES.)
DPOWS .V/V   : DENSITY POROSITY (M=2.71 F=1 DPHIED)
DRESWS.OHMM  : DEEP RESISTIVITY (RLLDED)
DRHOED.G/C3  : DENSITY CORRECTION (ADJ TO RES.)
DTED  .US/F  : DELTA TIME
DTWS  .US/F  : DELTA TIME  (DTED)
GRWS  .GAPI  : GAMMA RAY (GRRED) CASED TOP-1519
GRRED .GAPI  : GAMMA RAY FROM RESISTIVITY LOG
MRESWS.OHMM  : MEDIUM RESISTIVITY (RILMED)
NPHIED.V/V   : NEUTRON POROSITY (ADJ TO RES.)
NPOWS .V/V   : NEUTRON POROSITY LIMESTONE (NPHIED)
RHOBED.G/C3  : BULK DENSITY (ADJ TO RES.)
RILDED.OHMM  : DEEP INDUCTION RESISTIVITY
RILMED.OHMM  : MEDIUM INDUCTION RESISTIVITY
RLL8ED.OHMM  : LATEROLOG-8 RESISTIVITY
SPWS  .MV    : SPONTANEOUS POTENTIAL BASELINE 0 MV (SPRED)
SPRED .MV    : SPONTANEOUS POTENTIAL FROM RESISTIVITY
SRESWS.OHMM  : SHALLOW RESISTIVITY (RLL8ED)
~Params ----------------------------------------------------
EKB .F                  460.5 : KELLY BUSHING
EGL .F                    0.0 : GROUND LEVEL
EDF .F                    0.0 : DRILLING FLOOR
EPD .F                    0.0 : PERMANENT DATUM
TD  .F                10015.0 : TOTAL DEPTH
DATE.             09-NOV-1979 : DATE LOGGED
CLNT.                 A2DTECH : CLIENT CODE
SL  . 21900' FWL & 11800' FSL : SURFACE LOCATION
PD  .                      GL : PERMANENT DATUM
LMF .                      KB : LOG MEASURED FROM
DMF .                      KB : DRILLING MEASURED FROM
DAPD.F                     15 : FEET ABOVE PERMANENT DATUM
DD  .F                  10015 : DEPTH DRILLER
DL  .F                   9992 : DEPTH LOGGER
BLI .F                   9986 : BOTTOM LOG INTERVAL
TLI .F                   1519 : TOP LOG INTERVAL
CS1 .IN                 8.625 : CASING SIZE
CBD1.          8.625" @ 1520' : CASING DRILLER 1
CBL1.F                   1519 : CASING LOGGER 1
BS1 .IN                 7.875 : BIT SIZE
BSD1.F                  10015 : DEPTH DRILLED WITH BIT1
DFT .  LIGNITE-LIGNOSULFONATE : TYPE FLUID IN HOLE
DFD .                    10.8 : DENSITY
DFV .                      53 : VISCOSITY
DFPH.                      11 : PH
DFL .                     3.6 : FLUID LOSS
MSS .              CIRC. TANK : SOURCE OF SAMPLE
RMS .OHMM                0.92 : RM
RMF .OHMM                0.68 : RMF
RMC .OHMM                 1.0 : RMC
MFSS.                    MEAS : SOURCE RMF.
MCSS.                    CALC : SOURCE RMC.
RMB .OHMM                0.31 : RM. AT BHT
BHT .F                    220 : BHT.
TCS .HRS                  300 : TIME CIRC. STOPPED
TLAB.                     900 : TIME LOGGER AT BOTTOM
LUN .                    8132 : LOGGING UNIT NUMBER
LUL .                  LAREDO : LOGGING UNIT LOCATION
ENGI.                   FOGAL : RECORDED BY
WITN.                  FISHER : WITNESSED BY
ORIG.                5" PRINT : ORIGIN OF DATA
UWI .          42127318560000 : UNIQUE WELL ID
DICO.  A2D TECHNOLOGIES, INC. : DIGITIZING COMPANY
~Other -----------------------------------------------------
~ASCII -----------------------------------------------------
# ...
 8050.00000    8.46000    8.46000    6.11570   -0.00600    2.39700    0.18300    0.18300  163.51400   -0.00600   80.30200   80.30200  102.60200  102.60200   99.12800    0.21800    0.21800    2.39700  163.51400   99.12800  306.32800  -98.05660 -132.34600  306.32800
 8100.00000    8.54000    8.54000   12.95660    0.00700    2.55200    0.09240    0.09240   77.18100    0.00700   69.89100   69.89100  113.33400  113.33400   56.26900    0.11300    0.11300    2.55200   77.18100   56.26900  130.47300  -68.58130 -101.74200  130.47300
 8150.00000    8.13400    8.13400    4.24030    0.01500    2.66300    0.02750    0.02750  235.83100    0.01500   53.06000   53.06000   43.17400   43.17400  105.36600    0.01600    0.01600    2.66300  235.83100  105.36600  556.94900  -82.96890 -115.00100  556.94900
 8200.00000    9.12700    9.12700   93.61540    0.04100    2.59600    0.06670    0.06670   10.68200    0.04100   65.19900   65.19900   72.07000   72.07000    9.03000    0.15300    0.15300    2.59600   10.68200    9.03000   10.68200   -8.06550  -38.96900   10.68200
 8250.00000    9.24000    9.24000  137.60840    0.01100    2.62800    0.04800    0.04800    7.26700    0.01100   69.05300   69.05300   82.14200   82.14200   10.11100    0.16500    0.16500    2.62800    7.26700   10.11100   10.51500  -27.87970  -60.12500   10.51500
 8300.00000    8.35200    8.35200    6.00470    0.00200    2.68300    0.01580    0.01580  166.53600    0.00200   52.67000   52.67000   41.95900   41.95900 1402.03100    0.00800    0.00800    2.68300  166.53600 1402.03100  160.44400  -69.01450 -105.17300  160.44400
 8350.00000    9.01500    9.01500    1.47500    0.11300    2.67100    0.02280    0.02280  677.95600    0.11300   51.85100   51.85100   43.12200   43.12200 1092.89000    0.00500    0.00500    2.67100  677.95600 1092.89000  196.37100  -86.32830 -126.40000  196.37100
 8400.00000    9.93900    9.93900   17.92440    0.22900    2.70400    0.00350    0.00350   55.79000    0.22900   51.04300   51.04300   59.01300   59.01300   92.14100    0.00700    0.00700    2.70400   55.79000   92.14100  221.35200  -91.62810 -135.61300  221.35200
 8450.00000    7.62300    7.62300  224.66860    0.02500    2.55800    0.08890    0.08890    4.45100    0.02500   56.24800   56.24800   50.83300   50.83300    5.73200    0.05300    0.05300    2.55800    4.45100    5.73200   13.49700  -75.55290 -123.45100   13.49700
 8500.00000    7.37600    7.37600  185.63210    0.04400    2.58200    0.07490    0.07490    5.38700    0.04400   56.72100   56.72100   44.95400   44.95400    9.05900    0.06300    0.06300    2.58200    5.38700    9.05900   19.45800  -75.57080 -127.38200   19.45800
 8550.00000    8.17900    8.17900   55.96600    0.04900    2.64300    0.03920    0.03920   17.86800    0.04900   51.47100   51.47100   45.58000   45.58000   18.50300    0.01800    0.01800    2.64300   17.86800   18.50300   34.44500  -51.29560 -107.02000   34.44500
 8600.00000    8.88600    8.88600   61.21450    0.01600    2.65000    0.03510    0.03510   16.33600    0.01600   51.25500   51.25500   58.44100   58.44100   21.07400    0.01300    0.01300    2.65000   16.33600   21.07400   37.27900  -49.61040 -109.24800   37.27900
 8650.00000    7.81600    7.81600  154.77480    0.01700    2.58900    0.07080    0.07080    6.46100    0.01700   55.14000   55.14000   50.06200   50.06200    7.68300    0.04400    0.04400    2.58900    6.46100    7.68300   21.54600  -71.34720 -134.89800   21.54600
 8700.00000    8.63700    8.63700   12.52520    0.11400    2.68500    0.01460    0.01460   79.83900    0.11400   50.19800   50.19800   38.03200   38.03200   71.50800    0.01000    0.01000    2.68500   79.83900   71.50800   87.33600  -45.86700 -113.33100   87.33600
 8750.00000    7.27900    7.27900  346.50040    0.04100    2.58100    0.07540    0.07540    2.88600    0.04100   56.13500   56.13500   50.99300   50.99300    3.99000    0.13400    0.13400    2.58100    2.88600    3.99000   14.80200  -63.06580 -134.44300   14.80200
 8800.00000   10.59300   10.59300   32.41600    0.17700    2.63400    0.04440    0.04440   30.84900    0.17700   51.79000   51.79000   55.22700   55.22700   31.61800    0.05800    0.05800    2.63400   30.84900   31.61800   32.54100  -10.56170  -85.85200   32.54100
 8850.00000    8.10200    8.10200   27.29480    0.01600    2.69200    0.01050    0.01050   36.63700    0.01600   49.80300   49.80300   49.17600   49.17600   41.14300    0.00900    0.00900    2.69200   36.63700   41.14300   91.00800  -36.12060 -113.21800   91.00800
 8900.00000    9.34600    9.34600   20.42860    0.16900    2.68400    0.01520    0.01520   48.95100    0.16900   49.10400   49.10400   48.87500   48.87500  520.82000    0.02000    0.02000    2.68400   48.95100  520.82000  152.19200  -44.39460 -122.63400  152.19200
 8950.00000    7.65200    7.65200  120.49640    0.06600    2.59600    0.06670    0.06670    8.29900    0.06600   53.54900   53.54900   55.69600   55.69600   10.31300    0.06400    0.06400    2.59600    8.29900   10.31300   29.28200  -50.52470 -129.90600   29.28200
 9000.00000    7.40600    7.40600  196.50230    0.05100    2.62100    0.05200    0.05200    5.08900    0.05100   55.80800   55.80800   46.37400   46.37400    6.98200    0.05400    0.05400    2.62100    5.08900    6.98200   23.98900  -45.00770 -125.53100   23.98900
 9050.00000   10.65200   10.65200    6.76370    0.17200    2.56500    0.08480    0.08480  147.84900    0.17200   53.14800   53.14800   50.84200   50.84200   77.94650    0.00200    0.00200    2.56500  147.84900   77.94650  734.18200  -42.52880 -124.19400  734.18200
 9100.00000    8.14500    8.14500    1.74920    0.02400    2.66400    0.02690    0.02690  571.69000    0.02400   51.83600   51.83600   58.94700   58.94700 1335.50450    0.01300    0.01300    2.66400  571.69000 1335.50450  408.47800 -151.22080 -234.02800  408.47800
 9150.00000    7.83700    7.83700    0.50000    0.00800    2.77600   -0.03860   -0.03860 2000.00000    0.00800   49.86100   49.86100   47.48800   47.48800 1674.66910    0.00600    0.00600    2.77600 2000.00000 1674.66910 1808.53890 -106.03680 -189.98600 1808.53890
 9200.00000   10.60300   10.60300    4.29930    0.17600    2.66700    0.02510    0.02510  232.59500    0.17600   51.25500   51.25500   68.49200   68.49200  111.75500    0.00400    0.00400    2.66700  232.59500  111.75500  265.10600  -63.46290 -148.55400  265.10600
 9250.00000    8.60400    8.60400    2.58880    0.21100    2.68900    0.01230    0.01230  386.27200    0.21100   50.65700   50.65700   75.09600   75.09600  191.05100    0.01000    0.01000    2.68900  386.27200  191.05100  287.75400  -69.37990 -155.61300  287.75400
 9300.00000    9.86100    9.86100    2.17970    0.23800    2.48600    0.13100    0.13100  458.77100    0.23800   50.06000   50.06000   68.54000   68.54000  955.60400    0.00700    0.00700    2.48600  458.77100  955.60400 1154.51700  -83.49400 -170.86900 1154.51700
 9350.00000    9.36300    9.36300    4.38340    0.03500    2.27600    0.25380    0.25380  228.13100    0.03500   50.36900   50.36900   77.80300   77.80300 1608.70800    0.01200    0.01200    2.27600  228.13100 1608.70800  253.84800  -18.43100 -106.94800  253.84800
 9400.00000   10.05400   10.05400   33.88220    0.20500    2.55500    0.09060    0.09060   29.51400    0.20500   52.20100   52.20100   52.75300   52.75300   20.65100    0.01600    0.01600    2.55500   29.51400   20.65100   37.11800  -30.55110 -120.21000   37.11800
 9450.00000    9.17500    9.17500   19.35360    0.23300    2.57100    0.08130    0.08130   51.67000    0.23300   49.66100   49.66100   63.06800   63.06800   84.45600    0.00500    0.00500    2.57100   51.67000   84.45600  219.87000   -7.75610  -98.55700  219.87000
 9500.00000    7.65600    7.65600  261.02840    0.05800    2.58100    0.07540    0.07540    3.83100    0.05800   56.83300   56.83300   52.62000   52.62000    4.27600    0.07300    0.07300    2.58100    3.83100    4.27600   12.82900  -36.31190 -126.57700   12.82900
 9550.00000    7.97800    7.97800   93.61540    0.07800    2.66400    0.02690    0.02690   10.68200    0.07800   51.05600   51.05600   60.54800   60.54800   11.38900    0.04500    0.04500    2.66400   10.68200   11.38900   33.82400  -20.52420 -109.93400   33.82400
