~Version ---------------------------------------------------
VERS. 2.0 : CWLS log ASCII Standard -VERSION 2.0
WRAP.  NO : ONE LINE PER DEPTH STEP
~Well ------------------------------------------------------
STRT.F                     1050.0 : START DEPTH
STOP.F                    10450.0 : STOP DEPTH
STEP.F                   50.00000 : STEP LENGTH
NULL.                     -999.25 : NULL VALUE
COMP. GOLDKING PRODUCTION COMPANY : COMPANY
WELL.    ALICE AINSWORTH ET AL #1 : WELL
FLD .         OAK FOREST PROSPECT : FIELD
LOC .                             : LOCATION
CNTY.                    GONZALES : COUNTY
STAT.                       TEXAS : STATE
CTRY.    UNITED STATES OF AMERICA : COUNTRY
SRVC.                Schlumberger : SERVICE COMPANY
DATE.                 18-Jan-1981 : LOGDATE
API .              42177306920000 : API NUMBER
UWI .              42177306920000 : UNIQUE WELL ID
SLAT.WGS84          29.5020058328 : SURFACE LATITUDE
SLON.WGS84         -97.5543126964 : SURFACE LONGITUDE
~Curve Information -----------------------------------------
DEPT   .F                 : 
DT     .US/F 60 500 00 00 : DELTA-T (INTERVAL TRANSIT TIME)
GRR    .GAPI 07 310 01 00 : GAMMA RAY FROM RESISTIVITY LOG
ILD    .OHMM 07 120 46 00 : INDUCTION DEEP RESISTIVITY
ILM    .OHMM 07 120 44 00 : INDUCTION MEDIUM RESISTIVITY
SFLU   .OHMM 07 220 01 00 : SHALLOW FOCUSED RESISTIVITY (UNAVERAGED)
SPR    .MV   07 010 01 00 : SPONTANEOUS POTENTIAL FROM RESISTIVITY LOG
NPHI_SS.DEC  42 890 03 00 : NEUTRON POROSITY SANDSTONE
DPHI_SS.DEC  45 890 12 00 : DENSITY POROSITY SANDSTONE
DPHI_LS.DEC  45 890 10 00 : DENSITY POROSITY LIMESTONE
NPHI_LS.DEC  42 890 01 00 : NEUTRON POROSITY LIMESTONE
DRHO   .G/C3 45 356 01 00 : BULK DENSITY CORRECTION
RHOB   .G/C3 45 350 01 00 : BULK DENSITY
CALD   .IN   45 280 60 00 : CALIPER FROM DENSITY LOG
~Params ----------------------------------------------------
EKB .FT                352.1 : KELLY BUSHING
EDF .FT                351.1 : DRILLING FLOOR
EGL .FT                337.1 : GROUND LEVEL
DATE.               01/18/81 : RUN DATE
RUN .                      1 : RUN NUMBER
CLNT.                A2DTECH : CLIENT CODE
ORIG.            1" 5" PRINT : ORIGIN OF DATA
UWI .         42177306920000 : UNIQUE WELL ID
DICO. A2D Technologies, Inc. : DIGITIZING COMPANY
~Other -----------------------------------------------------
~ASCII -----------------------------------------------------
# ...
 6250.00000   67.34520   15.41360    1.97210    3.24550   15.52260  -75.37160    -999.25    -999.25    0.14720    0.16590    0.03820    2.46880    8.08010
 6300.00000   65.34970   18.32270    1.46410    2.11220   13.75320  -74.39360    -999.25    -999.25    0.17480    0.17600   -0.00370    2.41660    8.17140
 6350.00000   71.51000   18.56560    1.38350    2.38530    8.10680  -74.59920    -999.25    -999.25    0.19180    0.21350    0.01470    2.38520    8.05310
 6400.00000   51.56670    8.44340    5.97860    8.47500  371.23590  -70.73060    -999.25    -999.25   -0.14850    0.00520   -0.00890    2.96170    9.21750
 6450.00000   64.58470   17.66940    2.08350    3.29400   10.63950  -73.00430    -999.25    -999.25    0.11150    0.16830    0.03350    2.52780    8.22970
 6500.00000   60.36580   17.65710    3.29990    4.77220   20.05420  -69.42110    -999.25    -999.25    0.08870    0.13510    0.03810    2.56300    8.23760
 6550.00000   53.44320   16.65290   10.22870   11.75830   23.53580  -47.71830    -999.25    -999.25    0.07450    0.06540    0.03230    2.59390   10.15820
 6600.00000   50.78310   30.16540   55.38450   58.67780   61.19030  -12.69680    -999.25    -999.25    0.07640    0.02070    0.17320    2.56750    9.79420
 6650.00000   54.41620   21.97100   16.47500   19.00650   40.83340  -15.80500    -999.25    -999.25    0.09590    0.03540   -0.00330    2.59720   10.94510
 6700.00000   52.20060   17.69840   19.50520   26.27650   36.63390  -30.10790    -999.25    -999.25    0.08230    0.07960    0.04470    2.57620    9.46210
 6750.00000   50.52850   16.18540   97.15230   70.45610   73.87280   -9.84850    -999.25    -999.25    0.25940    0.01250    0.01380    2.26110   15.03720
 6800.00000   65.02450   12.06300    2.89820    4.73040   14.56790  -58.05770    -999.25    -999.25    0.07670    0.08450    0.01330    2.59070    8.96610
 6850.00000   54.45330   27.48870   11.72860   13.18520   13.97330  -21.84100    -999.25    -999.25    0.04390    0.12300    0.01230    2.70170   10.31450
 6900.00000   60.73330   25.67630    5.35840    7.68860   18.06550  -43.47680    -999.25    -999.25    0.07730    0.08350    0.01470    2.58910   10.43030
 6950.00000   52.62070   41.85540   23.81850   24.26710   21.68660  -13.49790    -999.25    -999.25    0.07170    0.03080    0.00990    2.61810    9.72710
 7000.00000   54.57100   27.75640    7.14630    6.80790   12.46760   -2.62440    -999.25    -999.25   -0.00370    0.04940    0.01850    2.72270    9.81060
 7050.00000   51.63220   27.24310   17.58580   19.96870   20.63410  -32.00520    -999.25    -999.25    0.04400    0.00960    0.14850    2.63890   10.40090
 7100.00000   62.02000   19.13670    3.08770    4.12330   13.41700  -64.56860    -999.25    -999.25    0.04140    0.05690    0.02000    2.64560    9.84800
 7150.00000   61.79450   16.44470    3.07050    4.80540   21.07550  -69.67020    -999.25    -999.25    0.14520    0.14850    0.00670    2.46940    9.64920
 7200.00000   55.45740   26.01860   19.17770   19.53590   20.36220   12.22460    -999.25    -999.25   -0.01890    0.04120    0.12060    2.73710    9.41480
 7250.00000   67.67790    8.81900    1.44670    1.86210    4.64200  -71.16260    -999.25    -999.25    0.12630    0.15800    0.02690    2.50180    8.78600
 7300.00000   66.34370    6.84100    2.58010    4.02640   16.42420  -74.78670    -999.25    -999.25    0.13240    0.15820    0.04660    2.48380    9.25200
 7350.00000   72.44510    9.14820    0.83190    0.91490    1.55030  -70.15110    -999.25    -999.25    0.16410    0.20890    0.00750    2.42900    8.80610
 7400.00000   75.92410    9.93870    0.35970    0.57660    3.66420  -75.21320    -999.25    -999.25    0.22730    0.23740   -0.00380    2.32790    8.79230
 7450.00000   54.85230   11.15530    1.93810    2.57030   12.53380  -88.75480    -999.25    -999.25    0.04150    0.10020    0.04840    2.64870    8.95430
 7500.00000   54.90200   19.59450    4.11400    5.22520   12.08160  -67.81450    -999.25    -999.25    0.09370    0.06790    0.02420    2.55720   11.40330
 7550.00000   52.73290   19.39460   41.29970   42.27750   21.13580  -26.89840    -999.25    -999.25    0.08790    0.00940    0.11910    2.56950   11.73170
 7600.00000   57.16280   17.86880    5.88550    6.60690   23.47670  -47.75270    -999.25    -999.25    0.06240    0.05060    0.03480    2.61810   10.91460
 7650.00000   54.32360   40.83240   17.57540   30.63790   56.37770  -55.17870    -999.25    -999.25    0.27080    0.04140    0.20400    2.20610   11.01720
 7700.00000   63.61990   22.87710    1.79390    2.43390    9.48150  -94.18230    -999.25    -999.25    0.12270    0.11920    0.04570    2.49840   10.67610
 7750.00000   55.49490   25.09810    8.04650    7.10970   10.03090  -74.72410    -999.25    -999.25    0.06060    0.07690    0.01010    2.61320    9.58840
 7800.00000   52.62460   33.33870   27.93420   35.09450   44.35510  -14.55980    -999.25    -999.25    0.01220    0.02080    0.01490    2.70140    8.59420
 7850.00000   91.22600   63.57420    1.64060    1.60550    1.76260   -4.28370    -999.25    -999.25    0.20900    0.41850    0.15190    2.36260   16.52060
 7900.00000   95.94750   63.38660    1.82930    1.71040    2.43960  -13.31520    -999.25    -999.25    0.31130    0.42270    0.09720    2.21530   15.99140
 7950.00000   95.34940   54.96500    2.43530    2.06610    2.19840   -9.74760    -999.25    -999.25    0.57080    0.47900    0.01580    1.75010   14.73300
 8000.00000   92.62640   59.56130    5.47520    4.02580    4.41650   -4.08470    -999.25    -999.25    0.27340    0.38600    0.09810    2.26940   17.31720
 8050.00000   74.22850   60.31920   11.25640   10.97640   16.16240    3.20160    -999.25    -999.25    0.07020    0.16450    0.01030    2.59900   11.27080
 8100.00000   60.95860   33.55550   11.07890   10.55960   13.76350    3.33760    -999.25    -999.25    0.02350    0.05020    0.00850    2.67070   11.42270
 8150.00000   49.59850   15.08460  146.04000   58.18210  228.93970  -32.65290    -999.25    -999.25    0.02070    0.00090    0.03660    2.68510   10.74460
 8200.00000   50.42520   28.32120   65.26200   40.86950  131.79950  -41.56870    -999.25    -999.25    0.06130    0.00650    0.04890    2.62460   10.42410
 8250.00000   66.27360   32.63800    1.32860    1.37140    1.80410  -54.82400    -999.25    -999.25    0.08620    0.22360    0.00880    2.56810   10.65090
 8300.00000   49.63630   27.63280  166.50560   86.51090  253.10090  -10.85190    -999.25    -999.25    0.00810    0.00900    0.01660    2.70300    9.26220
 8350.00000   53.05210   18.62220   80.08650   46.71040   87.79840  -58.85740    -999.25    -999.25   -0.01420    0.04600    0.02400    2.74940    8.74460
 8400.00000   54.10740   27.63990    9.96180    9.24870    9.59720  -50.80800    -999.25    -999.25   -0.01420    0.02850    0.01900    2.73630    8.83260
 8450.00000   51.47670   22.43470    9.36090    8.54420   14.49650  -71.73310    -999.25    -999.25   -0.00930    0.13050    0.01530    2.72630    8.21760
 8500.00000   53.60910   30.65180   11.72710   12.43340   21.01190  -55.79790    -999.25    -999.25    0.01290    0.10710    0.01000    2.68700   10.38730
 8550.00000   50.28180   26.73730   88.76260   54.06640  123.27550  -22.13340    -999.25    -999.25   -0.00620    0.02560    0.09550    2.71700   10.70370
 8600.00000   54.87380   42.75440   20.80300   24.10580   25.62740  -18.95380    -999.25    -999.25    0.07870    0.05150    0.04570    2.59230   10.53740
 8650.00000   54.38390   46.93400   33.22610   27.68000   39.79270   -7.58640    -999.25    -999.25    0.00220    0.04590    0.00200    2.70510    9.91640
 8700.00000   55.22180   59.51170   41.21760   28.65360   58.42700  -24.51630    -999.25    -999.25    0.04670    0.05360    0.11320    2.61940   10.01200
 8750.00000   54.48370   49.25550    4.36260    5.50000   10.73760  -64.17190    -999.25    -999.25    0.00320    0.14130    0.03120    2.69840   10.16360
 8800.00000   55.45020   40.97240    3.91330    4.29680   10.65660  -62.94550    -999.25    -999.25    0.03200    0.19720    0.07680    2.65850   10.99160
