~Version ---------------------------------------------------
VERS. 2.0 : CWLS log ASCII Standard -VERSION 2.0
WRAP. YES : Multiple lines per depth step
~Well ------------------------------------------------------
STRT.FT                         300.0 : START DEPTH
STOP.FT                       13900.0 : STOP DEPTH
STEP.FT                      50.00000 : STEP LENGTH
NULL.                         -999.25 : NULL VALUE
COMP. MOBIL PRODUCING TX. & N.M. INC. : COMPANY
WELL.               J. V. FORD JR. #1 : WELL
FLD .                         WILDCAT : FIELD
LOC .                                 : LOCATION
CNTY.                             BEE : COUNTY
STAT.                           TEXAS : STATE
CTRY.        UNITED STATES OF AMERICA : COUNTRY
SRVC.                    Schlumberger : SERVICE COMPANY
DATE.                     24-Oct-1988 : LOGDATE
API .                  42025324790000 : API NUMBER
UWI .                  42025324790000 : UNIQUE WELL ID
SLAT.WGS84              28.6662336968 : SURFACE LATITUDE
SLON.WGS84             -98.0215217404 : SURFACE LONGITUDE
~Curve Information -----------------------------------------
DEPT    .FT    : DEPTH FEET
CALMED  .IN    : CALIPER FROM MSFL [DEP ADJ TO SFLUED]
CALWS   .IN    : CALIPER [DCALED+BITED]
CONDWS  .MMHO  : CONDUCTIVITY [1000/DRESWS]
DCALED  .IN    : DIFFERENTIAL CALIPER FROM DENSITY LOG [DEP ADJ TO GRRED]
DCORWS  .G/C3  : DENSITY CORRECTION [DRHOED]
DENWS   .G/C3  : BULK DENSITY [M=2.71, F= 1] [CAL FROM DPOLSWS]
DPHILSED.V/V   : DENSITY POROSITY [M=2.71 F=1.0] FROM DENSITY LOG [DEP ADJ TO GRRED]
DPHISSED.V/V   : DENSITY POROSITY [M=2.68 F=1.0] FROM DENSITY LOG [DEP ADJ TO GRRED]
DPOLSWS .V/V   : DENSITY POROSITY [M=2.71, F= 1] [76 DPOLSCAL 12989 DPHILSED]
DRESWS  .OHMM  : DEEP RESISTIVITY [ILDED]
DRHOED  .G/C3  : DENSITY CORRECTION FROM DENSITY LOG [DEP ADJ TO GRRED]
DTED    .US/F  : DELTA TIME FROM SONIC LOG
DTLED   .US/F  : DELTA TIME LONG SPACING FROM SONIC LOG
DTWS    .US/F  : DELTA TIME [76 DTED 543.5 DTLED 1373.5 DTED 2134 DTLED 3009.5 DTED 3022 DTLED 3172 DTED 8805 DTLED 8815 DTED 9717.5 DTLED 9901 DTED 12984.5 DTLED 13003.5 DTED]
GRDED   .GAPI  : GAMMA RAY FROM DENSITY LOG [DEP ADJ TO GRRED]
GRMED   .GAPI  : GAMMA RAY FROM MSFL LOG [DEP ADJ TO GRRED]
GRRED   .GAPI  : GAMMA RAY FROM RESISTIVITY LOG
GRWS    .GAPI  : GAMMA RAY [76 GRRED 3494.5 GRDEDNRM 3506 GRDED 9027 GRRED 13030.5 GRDED]
ILDED   .OHMM  : INDUCTION LOG DEEP RESISTIVITY
ILMED   .OHMM  : INDUCTION LOG MEDIUM RESISTIVITY
MRESWS  .OHMM  : MEDIUM RESISTIVITY [ILMED]
MSFLED  .OHMM  : MICROSPHERICALLY FOCUSED LOG RESISTIVITY [DEP ADJ TO SFLUED]
NPHILSED.V/V   : NEUTRON POROSITY LIMESTONE FROM DENSITY LOG [DEP ADJ TO GRRED]
NPHISSED.V/V   : NEUTRON POROSITY SANDSTONE FROM DENSITY LOG [DEP ADJ TO GRRED]
NPOLSWS .V/V   : NEUTRON POROSITY LIMESTONE [76 NPOLSCAL 12989 NPHILSED]
SFLUED  .OHMM  : SPHERICALLY FOCUSED LOG RESISTIVITY
SPRED   .MV    : SPONTANEOUS POTENTIAL FROM RESISTIVITY LOG
SPWS    .MV    : SPONTANEOUS POTENTIAL [BASELINE 0 MV] [SPRED]
SRESWS  .OHMM  : SHALLOW RESISTIVITY [SFLUED]
TENDED  .LBF   : TENSION FROM DENSITY LOG [DEP ADJ TO GRRED]
TENMED  .LBF   : TENSION FROM MSFL LOG [DEP ADJ TO SFLUED]
TENRED  .LBF   : TENSION FROM RESISTIVITY LOG
~Params ----------------------------------------------------
PD  .                     GL : PERMANENT DATUM
EPD .FT                  350 : ELEVATION PERMANENT DATUM
LMF .                     KB : LOG MEASURED FROM
DAPD.FT                 26.5 : FEET ABOVE PERMANENT DATUM
DMF .                     KB : DRILLING MEASURED FROM
EKB .FT                376.5 : KELLY BUSHING
EDF .FT                375.5 : DRILLING FLOOR
EGL .FT                  350 : GROUND LEVEL
DATE.               10/14/88 : RUN DATE
RUN .                      2 : RUN NUMBER
DD  .FT                13900 : DEPTH DRILLER
DL  .FT                13881 : DEPTH LOGGER
BLI .FT                13881 : BOTTOM LOG INTERVAL
TLI .FT                 3505 : TOP LOG INTERVAL
CS  .IN                9.625 : CASING SIZE
CBD .FT                 3510 : CASING BOTTOM DRILLER
CBL .FT                 3505 : CASING BOTTOM LOGGER
BS  .IN                  8.5 : BIT SIZE
BSD .FT                13900 : BIT SIZE AT DEPTH
DFT .            LIGNITE CLS : DRILLING FLUID TYPE
DFD .                   11.6 : DRILLING FLUID DENSITY
DFV .                     23 : DRILLING FLUID VISCOSITY
DFPH.                     10 : DRILLING FLUID PH
DFL .                    5.9 : DRILLING FLUID LOSS
MSS .               MUD TANK : MUD SAMPLE SOURCE
RMS .OHMM               1.08 : RESISTIVITY MUD SAMPLE
MST .DEGF                 75 : MUD SAMPLE TEMPERATURE
RMF .OHMM               0.72 : RESISTIVITY MUD FILTRATE SAMPLE
MFST.DEGF                 75 : MUD FILTRATE SAMPLE TEMPERATURE
RMC .OHMM               1.59 : RESISTIVITY MUD CAKE
MCST.DEGF                 75 : MUD CAKE SAMPLE TEMPERATURE
MFSS.                   MEAS : MUD FILTRATE SAMPLE SOURCE
MCSS.                   CALC : MUD CAKE SAMPLE SOURCE
RMB .OHMM              0.289 : RESISTIVITY MUD AT BHT
TCS .HRS                1500 : TIME CIRCULATED STOPPED
TLAB.HRS                1500 : TIME LOGGER AT BOTTOM
LUN .                   8248 : LOGGING UNIT NUMBER
LUL .             PLEASANTON : LOGGING UNIT LOCATION
ENGI.                 HOOPER : RECORDING ENGINEER
WITN.           WEIMER CARAM : WITNESSED BY
CLNT.                A2DTECH : CLIENT CODE
ORIG.               5" PRINT : ORIGIN OF DATA
UWI .         42025324790000 : UNIQUE WELL ID
DICO. A2D Technologies, Inc. : DIGITIZING COMPANY
~Other -----------------------------------------------------
~ASCII -----------------------------------------------------
# ...
 6900.00000    -999.25   11.36950  626.80210    2.86950    0.04820    2.14540    -999.25    0.33020    0.33020    1.59540    0.04820  106.33890  111.85050  106.33890   78.09550    -999.25   73.33260   78.09550    1.59540    1.45630    1.45630    -999.25    -999.25    0.47640    0.43470    1.72020   -4.66540   -2.89600    1.72020 2514.47800    -999.25 2649.43190
 6950.00000    -999.25   10.50140  359.46660    2.00140    0.03650    2.44020    -999.25    0.15780    0.15780    2.78190    0.03650   89.89950   91.48620   89.89950   75.08810    -999.25   69.89250   75.08810    2.78190    2.63770    2.63770    -999.25    -999.25    0.32350    0.27960    2.98360   -9.30540   -7.56890    2.98360 2519.65500    -999.25 2653.09470
 7000.00000    -999.25   10.22700  273.75510    1.72700   -0.02010    2.49390    -999.25    0.12640    0.12640    3.65290   -0.02010   80.50070   80.98860   80.50070   69.51650    -999.25   62.54810   69.51650    3.65290    3.70630    3.70630    -999.25    -999.25    0.24530    0.20140    3.78090  -21.31320  -19.60970    3.78090 2573.82670    -999.25 2653.91650
 7050.00000    -999.25    9.55010  274.10780    1.05010    0.00490    2.38540    -999.25    0.18980    0.18980    3.64820    0.00490   83.56360   83.99590   83.56360   60.27600    -999.25   56.19940   60.27600    3.64820    4.48320    4.48320    -999.25    -999.25    0.25570    0.21180    5.98220  -41.86770  -40.19710    5.98220 2492.88620    -999.25 2630.60060
 7100.00000    -999.25   11.06910  317.66200    2.56910    0.00460    2.42430    -999.25    0.16710    0.16710    3.14800    0.00460   84.11260   85.55120   84.11260   67.94100    -999.25   67.98310   67.94100    3.14800    3.47810    3.47810    -999.25    -999.25    0.32380    0.27990    4.11030  -31.65560  -30.01790    4.11030 2536.00150    -999.25 2673.27560
 7150.00000    -999.25   12.22060  495.14760    3.72060   -0.00480    2.01470    -999.25    0.40660    0.40660    2.01960   -0.00480   95.45620   96.20850   95.45620   63.19600    -999.25   62.67120   63.19600    2.01960    1.97670    1.97670    -999.25    -999.25    0.40800    0.36530    2.11880   -6.30590   -4.70110    2.11880 2575.16770    -999.25 2665.83470
 7200.00000    -999.25   12.53220  393.25180    4.03220    0.01990    2.43160    -999.25    0.16280    0.16280    2.54290    0.01990   89.25520   91.55840   89.25520   75.50150    -999.25   80.53520   75.50150    2.54290    2.45510    2.45510    -999.25    -999.25    0.44240    0.40050    2.50440   -8.72840   -7.15650    2.50440 2595.92990    -999.25 2700.76560
 7250.00000    -999.25   12.02150  467.88000    3.52150    0.03470    2.44910    -999.25    0.15260    0.15260    2.13730    0.03470   90.02820   89.73160   90.02820   71.26970    -999.25   59.25900   71.26970    2.13730    2.01120    2.01120    -999.25    -999.25    0.37150    0.32810    2.29200   -7.10580   -5.56690    2.29200 2571.84300    -999.25 2684.25810
 7300.00000    -999.25   13.37020  466.04840    4.87020    0.05480    2.45590    -999.25    0.14860    0.14860    2.14570    0.05480   90.93520   91.72320   90.93520   65.65380    -999.25   61.51650   65.65380    2.14570    2.07750    2.07750    -999.25    -999.25    0.42410    0.38170    2.50050   -6.73600   -5.20590    2.50050 2616.51810    -999.25 2783.62650
 7350.00000    -999.25   12.71420  413.44530    4.21420    0.02480    2.39740    -999.25    0.18280    0.18280    2.41870    0.02480   90.15920   90.71430   90.15920   66.71600    -999.25   67.28410   66.71600    2.41870    2.36220    2.36220    -999.25    -999.25    0.43140    0.38920    2.48180   -6.55860   -5.02850    2.48180 2613.11570    -999.25 2713.04810
 7400.00000    -999.25   11.91730  480.81550    3.41730    0.02230    2.46000    -999.25    0.14620    0.14620    2.07980    0.02230   91.19970   99.77460   91.19970   67.92560    -999.25   74.13920   67.92560    2.07980    2.01310    2.01310    -999.25    -999.25    0.42960    0.38740    2.15490   -7.88700   -6.35690    2.15490 2692.61940    -999.25 2790.47850
 7450.00000    -999.25   11.70410  346.98130    3.20410    0.00310    2.50870    -999.25    0.11770    0.11770    2.88200    0.00310   85.41910   86.99300   85.41910   70.76050    -999.25   71.18980   70.76050    2.88200    2.79820    2.79820    -999.25    -999.25    0.38330    0.34010    2.92850  -10.98700   -9.45690    2.92850 2659.66380    -999.25 2820.34860
 7500.00000    -999.25   12.76710  440.52860    4.26710    0.01130    2.46650    -999.25    0.14240    0.14240    2.27000    0.01130   87.41020   86.71390   87.41020   63.77770    -999.25   61.21070   63.77770    2.27000    2.13250    2.13250    -999.25    -999.25    0.39350    0.35050    2.32670   -5.24150   -3.71140    2.32670 2629.60620    -999.25 2823.96950
 7550.00000    -999.25   13.03660  659.71770    4.53660    0.05710    2.28850    -999.25    0.24650    0.24650    1.51580    0.05710   93.84030   94.37540   93.84030   71.83650    -999.25   58.66240   71.83650    1.51580    1.47450    1.47450    -999.25    -999.25    0.38040    0.33720    1.56110   -2.85600   -1.30800    1.56110 2677.26390    -999.25 2841.15500
 7600.00000    -999.25   12.25600  258.60510    3.75600   -0.02000    2.50480    -999.25    0.12000    0.12000    3.86690   -0.02000   72.74730   96.69110   72.74730   59.72320    -999.25   50.81000   59.72320    3.86690    3.97940    3.97940    -999.25    -999.25    0.22140    0.17770    3.77570  -26.23540  -24.60170    3.77570 2658.52120    -999.25 2805.86940
 7650.00000    -999.25   12.93220  332.21490    4.43220    0.00230    2.56000    -999.25    0.08770    0.08770    3.01010    0.00230   82.58610   84.64530   82.58610   74.29700    -999.25   69.14310   74.29700    3.01010    2.93580    2.93580    -999.25    -999.25    0.24610    0.20220    3.26810   -8.01730   -6.29800    3.26810 2722.95480    -999.25 2891.80980
 7700.00000    -999.25   13.10180  712.40300    4.60180    0.01210    2.26690    -999.25    0.25910    0.25910    1.40370    0.01210  102.21150  103.27740  102.21150   81.06660    -999.25   65.48750   81.06660    1.40370    1.32740    1.32740    -999.25    -999.25    0.41180    0.36920    1.40610   -2.77750   -1.01330    1.40610 2727.26270    -999.25 2874.30590
 7750.00000    -999.25   13.27190  302.15130    4.77190    0.00050    2.53710    -999.25    0.10110    0.10110    3.30960    0.00050   86.43050   87.37760   86.43050   86.13730    -999.25   66.78650   86.13730    3.30960    2.93960    2.93960    -999.25    -999.25    0.28050    0.23650    3.15980   -8.97610   -9.16350    3.15980 2713.38840    -999.25 2899.76880
 7800.00000    -999.25   12.48790  331.84010    3.98790   -0.00690    2.48680    -999.25    0.13050    0.13050    3.01350   -0.00690   84.19620   86.29700   84.19620   75.77610    -999.25   60.68280   75.77610    3.01350    2.84480    2.84480    -999.25    -999.25    0.24190    0.19800    2.78870  -11.64120  -13.78020    2.78870 2728.58010    -999.25 2900.62210
 7850.00000    -999.25   13.40160  348.17730    4.90160   -0.00740    2.55540    -999.25    0.09040    0.09040    2.87210   -0.00740   80.84870   82.82960   80.84870   70.26620    -999.25   61.51710   70.26620    2.87210    2.66170    2.66170    -999.25    -999.25    0.23870    0.19490    2.82580   -3.88470   -6.85590    2.82580 2730.49930    -999.25 2913.05270
 7900.00000    -999.25   12.42880  291.50270    3.92880   -0.00820    2.45200    -999.25    0.15090    0.15090    3.43050   -0.00820   82.16050   83.45760   82.16050   63.38860    -999.25   58.83930   63.38860    3.43050    3.50960    3.50960    -999.25    -999.25    0.26750    0.22350    3.40080  -31.10110  -32.91460    3.40080 2773.59470    -999.25 2919.12480
 7950.00000    -999.25   13.73740  678.28800    5.23740    0.10420    2.53400    -999.25    0.10290    0.10290    1.47430    0.10420  102.51800  103.84160  102.51800   80.48010    -999.25   72.00030   80.48010    1.47430    1.37740    1.37740    -999.25    -999.25    0.36860    0.32520    1.36480   -0.79180   -1.44750    1.36480 2750.75290    -999.25 2954.83250
