~Version ---------------------------------------------------
VERS. 2.0 : CWLS log ASCII Standard -VERSION 2.0
WRAP. YES : Multiple lines per depth step
~Well ------------------------------------------------------
STRT.FT                    300.0 : START DEPTH
STOP.FT                  19600.0 : STOP DEPTH
STEP.FT                 50.00000 : STEP LENGTH
NULL.                    -999.25 : NULL VALUE
COMP. CITIES SERVICE OIL COMPANY : COMPANY
WELL.          PEELER RANCH A #1 : WELL
FLD .                    WILDCAT : FIELD
LOC .                            : LOCATION
CNTY.                   ATASCOSA : COUNTY
STAT.                      TEXAS : STATE
CTRY.   UNITED STATES OF AMERICA : COUNTRY
SRVC.               Schlumberger : SERVICE COMPANY
DATE.                12-Feb-1972 : LOGDATE
API .             42013301410000 : API NUMBER
UWI .             42013301410000 : UNIQUE WELL ID
SLAT.WGS84         28.6903618688 : SURFACE LATITUDE
SLON.WGS84        -98.4697337546 : SURFACE LONGITUDE
~Curve Information -----------------------------------------
DEPT  .FT    : DEPTH
ALL8ED.OHMM  : LATEROLOG-8 RESISTIVITY AMPLIFIED
ASNED .OHMM  : AMPLIFIED SHORT NORMAL 16 IN.
CALWS .IN    : CALIPER (CALSED)
CALSED.IN    : CALIPER FROM SONIC LOG (ADJ TO RES.)
CILDED.MMHO  : CONDUCTIVITY FROM LOG
CONDWS.MMHO  : CONDUCTIVITY (1000/DRESws)
DCORWS.G/C3  : DENSITY CORRECTION (DRHOED)
DENWS .G/C3  : BULK DENSITY  (RHOBED LS)
DPOWS .V/V   : DENSITY POROSITY (M=2.71 F=1 FROM DENws)
DRESWS.OHMM  : DEEP RESISTIVITY (IF ILDED<1, THEN 1000/CILDED)
DRHOED.G/C3  : DENSITY CORRECTION (ADJ TO RES.)
DTED  .US/F  : DELTA TIME  (ADJ TO RES.)
DTWS  .US/F  : DELTA TIME  (DTED)
GRDED .GAPI  : GAMMA RAY FROM DENSITY LOG (ADJ TO RES.)
GRWS  .GAPI  : GAMMA RAY (GRSED/GRDED @ 8498)
GRSED .GAPI  : GAMMA RAY FROM SONIC LOG (ADJ TO RES.)
ILDED .OHMM  : DEEP INDUCTION RESISTIVITY
NEUTED.CU    : NEUTRON FROM GAMMA RAY NEUTRON LOG (ADJ TO RES.)
NEUTWS.CU    : NEUTRON FROM GAMMA RAY NEUTRON LOG (NEUTED)
NPOWS .V/V   : NEUTRON POROSITY LIMESTONE (SNPED)
RHOBED.G/C3  : BULK DENSITY (ADJ TO RES.)
SNPED .V/V   : SIDEWALL NEUTRON POROSITY (ADJ TO RES.)
SPWS  .MV    : SPONTANEOUS POTENTIAL BASELINE 0 MV (SPRED)
SPRED .MMHO  : SPONTANEOUS POTENTIAL FROM RESISTIVITY
SRESWS.OHMM  : SHALLOW RESISTIVITY (ASNED/ALL8ED @ 12329)
~Params ----------------------------------------------------
PD  .                     GL : PERMANENT DATUM
EPD .F                   297 : ELEVATION PERMANENT DATUM
LMF .                     KB : LOG MEASURED FROM
DAPD.F                  30.5 : FEET ABOVE PERMANENT DATUM
DMF .                     KB : DRILLING MEASURED FROM
EKB .F                 327.5 : KELLING BUSHING
EDF .F                 326.5 : DRILLING FLOOR
EGL .F                   297 : GROUND LEVEL
DATE.             02-12-1972 : RUN DATE
RUN .                      9 : RUN NUMBER
DD  .F                 19629 : DEPTH DRILLER
DL  .F                 19635 : DEPTH LOGGER
BLI .F                 19628 : BOTTOM LOG INTERVAL
TLI .F                 19127 : TOP LOG INTERVAL
BS  .IN                  4.4 : BIT SIZE
BSD .F                 19629 : BIT SIZE AT DEPTH
DFT .       INVERMUL 43% OIL : DRILLING FLUID TYPE
DFD .                   19.1 : DRILLING FLUID DENSITY
DFV .                     88 : DRILLING FLUID VISCOSITY
TCS .HRS                  12 : TIME CURCULATED STOPPED
LUN .                   7504 : LOGGING UNIT NUMBER
LUL .                  PLEAS : LOGGING UNIT LOCATION
ENGI.               CLEMENTS : RECORDING ENGINEER
WITN.         GRIGSBY THOMAS : WITNESSED BY
CLNT.                A2DTECH : CLIENT CODE
ORIG.            2" 5" PRINT : ORIGIN OF DATA
UWI .         42013301410000 : UNIQUE WELL ID
DICO. A2D Technologies, Inc. : DIGITIZING COMPANY
~Other -----------------------------------------------------
~ASCII -----------------------------------------------------
# ...
 8700.00000    -999.25    2.25180   14.17600   14.17600  461.07780  516.58230    0.05140    2.48990    0.12870    1.93580    0.05140   87.22700   87.22700   75.65200   75.65200    -999.25    1.93580    -999.25    -999.25    0.24050    2.48990    0.24050   -5.86150  -11.79880    2.25180
 8750.00000    -999.25    2.38390   14.09100   14.09100  447.27210  487.87630    0.06260    2.52090    0.11060    2.04970    0.06260   87.96700   87.96700   66.98300   66.98300    -999.25    2.04970    -999.25    -999.25    0.19850    2.52090    0.19850   -6.76650  -12.53540    2.38390
 8800.00000    -999.25    2.55110   14.04100   14.04100  393.92020  420.00920    0.02470    2.52830    0.10630    2.38090    0.02470   83.15100   83.15100   60.45000   60.45000    -999.25    2.38090    -999.25    -999.25    0.26250    2.52830    0.26250   -6.96050  -12.56100    2.55110
 8850.00000    -999.25    2.24870   14.04400   14.04400  473.05390  495.39290    0.01200    2.50570    0.11950    2.01860    0.01200   98.85700   98.85700   65.64200   65.64200    -999.25    2.01860    -999.25    -999.25    0.25860    2.50570    0.25860   -6.70950  -12.14170    2.24870
 8900.00000    -999.25    2.68730   14.08800   14.08800  392.52910  412.81380    0.02070    2.54110    0.09880    2.42240    0.02070   83.64800   83.64800   61.44700   61.44700    -999.25    2.42240    -999.25    -999.25    0.16220    2.54110    0.16220   -6.38250  -11.64630    2.68730
 8950.00000    -999.25    2.61610   14.53200   14.53200  413.17370  429.33190    0.04680    2.53830    0.10040    2.32920    0.04680   83.94600   83.94600   64.05000   64.05000    -999.25    2.32920    -999.25    -999.25    0.21350    2.53830    0.21350   -6.24610  -11.34150    2.61610
 9000.00000    -999.25    -999.25   14.68300   14.68300    -999.25    -999.25    0.03370    2.49390    0.12640    -999.25    0.03370   85.93400   85.93400   60.25700   60.25700    -999.25    -999.25    -999.25    -999.25    0.28750    2.49390    0.28750   -5.88920    -999.25    -999.25
 9050.00000    -999.25    3.11150   14.76900   14.76900  294.93450  303.04870    0.03250    2.54800    0.09470    3.29980    0.03250   78.23100   78.23100   54.99500   54.99500    -999.25    3.29980    -999.25    -999.25    0.13480    2.54800    0.13480   -5.16050  -26.55490    3.11150
 9100.00000    -999.25    3.49320   14.64700   14.64700  256.97210  262.86040    0.01930    2.59370    0.06800    3.80430    0.01930   75.99400   75.99400   48.27600   48.27600    -999.25    3.80430    -999.25    -999.25    0.15480    2.59370    0.15480   -6.63910  -27.62190    3.49320
 9150.00000    -999.25    6.10420   14.64100   14.64100  182.60290  196.66460    0.02240    2.52010    0.11110    5.08480    0.02240   66.42700   66.42700   56.81600   56.81600    -999.25    5.08480    -999.25    -999.25    0.14730    2.52010    0.14730   -5.83110  -26.40240    6.10420
 9200.00000    -999.25    6.34030   14.03300   14.03300  125.60370  135.17720    0.00620    2.61530    0.05540    7.39770    0.00620   64.96150   64.96150   39.11800   39.11800    -999.25    7.39770    -999.25    -999.25    0.11440    2.61530    0.11440   -5.93790  -26.09760    6.34030
 9250.00000    -999.25    4.31120   14.15000   14.15000  244.62150  240.74920    0.00010    2.61160    0.05750    4.15370    0.00010   82.87950   82.87950   45.90000   45.90000    -999.25    4.15370    -999.25    -999.25    0.13550    2.61160    0.13550   -5.58830  -25.33640    4.31120
 9300.00000    -999.25    5.14980   14.15100   14.15100  188.30440  192.24480    0.03030    2.66760    0.02480    5.20170    0.03030   74.83280   74.83280   45.85700   45.85700    -999.25    5.20170    -999.25    -999.25    0.10410    2.66760    0.10410   -4.45250  -24.47170    5.14980
 9350.00000    -999.25    6.27700   14.15900   14.15900  147.46730  148.32830    0.07120    2.61950    0.05290    6.74180    0.07120   67.76880   67.76880   39.87800   39.87800    -999.25    6.74180    -999.25    -999.25    0.08510    2.61950    0.08510   -5.93930  -26.85980    6.27700
 9400.00000    -999.25    7.56970   14.09800   14.09800  112.14270  112.98160    0.01640    2.63020    0.04670    8.85100    0.01640   65.77620   65.77620   33.70600   33.70600    -999.25    8.85100    -999.25    -999.25    0.08200    2.63020    0.08200   -8.54410  -30.36590    7.56970
 9450.00000    -999.25    3.70730   14.40400   14.40400  398.80480  238.54960    0.05720    2.53110    0.10460    4.19200    0.05720   81.68790   81.68790   54.01800   54.01800    -999.25    4.19200    -999.25    -999.25    0.19190    2.53110    0.19190   -7.38890  -30.11200    3.70730
 9500.00000    -999.25   13.09600   14.01800   14.01800   59.58310   63.76210    0.00030    2.67670    0.01950   15.68330    0.00030   58.19870   58.19870   15.03800   15.03800    -999.25   15.68330    -999.25    -999.25    0.03580    2.67670    0.03580  -17.81980  -41.95120   13.09600
 9550.00000    -999.25   13.80050   14.04100   14.04100   50.59760   43.61440    0.01710    2.65040    0.03490   22.92820    0.01710   67.09700   67.09700   32.30600   32.30600    -999.25   22.92820    -999.25    -999.25    0.04660    2.65040    0.04660  -10.47550  -36.15820   13.80050
 9600.00000    -999.25   10.55780   13.99800   13.99800   75.12040   94.74810    0.03880    2.59000    0.07020   10.55430    0.03880   67.25600   67.25600   41.39100   41.39100    -999.25   10.55430    -999.25    -999.25    0.10200    2.59000    0.10200   -5.20520  -32.43920   10.55780
 9650.00000    -999.25   22.32980   14.06800   14.06800   33.46610   39.63060    0.01720    2.48000    0.13450   25.23300    0.01720   70.99400   70.99400   51.36400   51.36400    -999.25   25.23300    -999.25    -999.25    0.13650    2.48000    0.13650   -5.08670  -33.87200   22.32980
 9700.00000    -999.25   26.39320   14.09100   14.09100   20.30430   12.17390    0.02810    2.52970    0.10540   82.14280    0.02810   74.09500   74.09500   52.74000   52.74000    -999.25   82.14280    -999.25    -999.25    0.16060    2.52970    0.16060   -5.21220  -35.54880   26.39320
 9750.00000    -999.25   23.03920   14.59000   14.59000   10.84490    8.30780    0.02480    2.65230    0.03370  120.36930    0.02480   51.82900   51.82900   16.18700   16.18700    -999.25  120.36930    -999.25    -999.25    0.02870    2.65230    0.02870  -11.29720  -40.88410   23.03920
 9800.00000    -999.25   19.42720   14.71500   14.71500   30.68630   31.56860    0.02490    2.62220    0.05130   31.67700    0.02490   54.01600   54.01600   17.24500   17.24500    -999.25   31.67700    -999.25    -999.25    0.03180    2.62220    0.03180  -11.41100  -39.30830   19.42720
 9850.00000    -999.25    6.88600   14.74300   14.74300  161.75300  175.23880    0.02790    2.48000    0.13450    5.70650    0.02790   59.32500   59.32500   32.99500   32.99500    -999.25    5.70650    -999.25    -999.25    0.29460    2.48000    0.29460  -10.65910  -37.68290    6.88600
 9900.00000    -999.25   23.25070   14.77500   14.77500   27.94020   26.66670    0.02560    2.53720    0.10110   37.50000    0.02560   51.98800   51.98800   19.66600   19.66600    -999.25   37.50000    -999.25    -999.25    0.06190    2.53720    0.06190  -32.61160  -74.26830   23.25070
 9950.00000    -999.25   24.51750   14.71400   14.71400   39.44220   38.04960    0.02940    2.58080    0.07560   26.28150    0.02940   52.18700   52.18700   16.24100   16.24100    -999.25   26.28150    -999.25    -999.25    0.07460    2.58080    0.07460   -7.66410  -63.95360   24.51750
 10000.00000    -999.25   16.35820   14.33700   14.33700  131.21710  140.55800    0.00480    2.48310    0.13270    7.11450    0.00480   51.06800   51.06800   14.46400   14.46400    -999.25    7.11450    -999.25    -999.25    0.18330    2.48310    0.18330  -69.29450 -150.28420   16.35820
 10050.00000    -999.25   28.20430   14.17600   14.17600   21.91240   31.91880    0.05030    2.55470    0.09080   31.32950    0.05030   50.99400   50.99400   16.41800   16.41800    -999.25   31.32950    -999.25    -999.25    0.11280    2.55470    0.11280  -23.91270 -130.72120   28.20430
