~Version ---------------------------------------------------
VERS.      2.0 : CWLS log ASCII Standard -VERSION 2.0
WRAP.      YES : MULTIPLE LINES PER DEPTH STEP
CREA. 09/17/13 : LAS CREATION DATE
~Well ------------------------------------------------------
STRT.FT                   2000.0 : START DEPTH
STOP.FT                  11500.0 : STOP DEPTH
STEP.FT                 50.00000 : STEP LENGTH
NULL.                    -999.25 : NULL VALUE
COMP. LADD PETROLEUM CORPORATION : COMPANY
WELL.        LADD FITZSIMMONS #1 : WELL
FLD .                    WILDCAT : FIELD
LOC .                            : LOCATION
CNTY.                     DIMMIT : COUNTY
STAT.                      TEXAS : STATE
CTRY.   UNITED STATES OF AMERICA : COUNTRY
SRVC.               Schlumberger : SERVICE COMPANY
DATE.                19-Jan-1978 : LOGDATE
API .             42127315740000 : API NUMBER
UWI .             42127315740000 : UNIQUE WELL ID
SLAT.WGS84         28.2507010101 : SURFACE LATITUDE
SLON.WGS84       -100.0580378891 : SURFACE LONGITUDE
~Curve Information -----------------------------------------
DEPT    .FT    : DEPTH FEET
CALDED  .IN    : CALIPER FROM DENSITY LOG, DEPTH ADJUSTED WITH [SPRED]
CALWS   .IN    : CALIPER [CALDED]
CILDED  .MMHO  : CONDUCTIVITY FROM RESISTIVITY LOG
CONDWS  .MMHO  : CONDUCTIVITY [1000/DRESWS]
CORRED  .G/C3  : DENSITY CORRECTION FROM DENSITY LOG, DEPTH ADJUSTED WITH [SPRED]
DCORWS  .G/C3  : DENSITY CORRECTION [CORRED]
DENWS   .G/C3  : BULK DENSITY [M=2.71 F=1.0] [RHOBED]
DPHILSED.V/V   : DENSITY POROSITY [M=2.71 F=1.0] FROM DENSITY LOG, DEPTH ADJUSTED WITH [SPRED]
DPHISSED.V/V   : DENSITY POROSITY [M=2.65 F=1.0] FROM DENSITY LOG, DEPTH ADJUSTED WITH [SPRED]
DPOLSWS .V/V   : DEBSITY POROSITY LIMESTONE [CALCULATED FROM DENWS]
DRESWS  .OHMM  : DEEP RESISTIVITY [ILDED] IF DRESWS<1;1000/CONDWS
DTED    .US/F  : DELTA TIME FROM SONIC LOG
DTWS    .US/F  : DELTA TIME [DTED]
GRDED   .GAPI  : GAMMA RAY FROM DENSITY LOG, DEPTH ADJUSTED WITH [SPRED]
GRRED   .GAPI  : GAMMA RAY FROM RESISTIVITY LOG
GRWS    .GAPI  : GAMMA RAY [GRRED], SPLICED WITH [GRDED] FROM TOP TO 5160'
ILDED   .OHMM  : INDUCTION LOG DEEP RESISTIVITY
ILMED   .OHMM  : INDUCTION LOG MEDIUM RESISTIVITY
LL8ED   .OHMM  : 8 INCH LATEROLOG RESISTIVITY
MRESWS  .OHMM  : MEDIUM RESISTIVITY [ILMED]
NPHILSED.V/V   : NEUTRON POROSITY LIMESTONE FROM DENSITY LOG, DEPTH ADJUSTED WITH [SPRED]
NPHISSED.V/V   : NEUTRON POROSITY SANDSTONE FROM DENSITY LOG, DEPTH ADJUSTED WITH [SPRED]
NPOLSWS .V/V   : NEUTRON POROSITY LIMESTONE [NPHILSED], MATRIX CONVERTED [NPHISSED] TO LIMESTONE [TOP-5100]
RHOBED  .G/C3  : BULK DENSITY FROM DENSITY LOG, DEPTH ADJUSTED WITH [SPRED]
SPHIED  .V/V   : SONIC POROSITY FROM SONIC LOG
SPOWS   .V/V   : SONIC POROSITY [SPHIED]
SPRED   .MV    : SPONTANEOUS POTENTIAL FROM RESISTIVITY LOG
SPWS    .MV    : SPONTANEOUS POTENTIAL [BASELINE 0 MV] [SPRED]
SRESWS  .OHMM  : SHALLOW RESISTIVITY [LL8ED]
~Params ----------------------------------------------------
EKB .F                  728.0 : Kelly bushing
EGL .F                  710.0 : Ground level
EDF .F                  727.0 : Drilling floor
EPD .F                  710.0 : Permanent datum
TD  .F                11519.0 : Total depth
DATE.             19-JAN-1978 : DATE LOGGED
CLNT.                 A2DTECH : CLIENT CODE
SL  . 7000' FNEL & 7500' FSEL : SURFACE LOCATION
PD  .                      GL : PERMANENT DATUM
LMF .                      KB : LOG MEASURED FROM
DMF .                      KB : DRILLING MEASURED FROM
DAPD.F                     18 : FEET ABOVE PERMANENT DATUM
DD  .F                  11518 : DEPTH DRILLER
DL  .F                  11519 : DEPTH LOGGER
BLI .F                  11513 : BOTTOM LOG INTERVAL
TLI .F                   9875 : TOP LOG INTERVAL
CS1 .IN                 7.625 : CASING SIZE
CBD1.          7.625" @ 9920' : CASING DRILLER 1
CBL1.F                   9875 : CASING LOGGER 1
BS1 .IN                   6.5 : BIT SIZE
BSD1.F                  11518 : DEPTH DRILLED WITH BIT1
DFT .               SPER-TANN : TYPE FLUID IN HOLE
DFD .                    16.5 : DENSITY
DFV .                      50 : VISCOSITY
DFPH.                    11.8 : PH
MSS .              CIRC. TANK : SOURCE OF SAMPLE
RMS .OHMM                1.41 : RM
RMF .OHMM                0.51 : RMF
RMC .OHMM                 4.6 : RMC
MFSS.                    MEAS : SOURCE RMF.
MCSS.                    CALC : SOURCE RMC.
RMB .OHMM                0.38 : RM. AT BHT
BHT .F                    260 : BHT.
TCS .HRS                 1000 : TIME CIRC. STOPPED
TLAB.                    1500 : TIME LOGGER AT BOTTOM
LUN .                    7739 : LOGGING UNIT NUMBER
LUL .                  LAREDO : LOGGING UNIT LOCATION
ENGI.                   LOGAL : RECORDED BY
WITN.                 ELLISON : WITNESSED BY
ORIG.             1" 5" PRINT : ORIGIN OF DATA
UWI .          42127315740000 : UNIQUE WELL ID
DICO.  A2D TECHNOLOGIES, INC. : DIGITIZING COMPANY
~Other -----------------------------------------------------
~ASCII -----------------------------------------------------
# ...
 3250.00000   17.25530   17.25530    -999.25  280.39480   -0.00320   -0.00320    1.64900    -999.25    0.63960    0.62050    3.56640  108.77240  108.77240   51.93270    -999.25   51.93270    3.56640    2.39160    3.28010    2.39160    -999.25    0.56890    0.54220    1.64900    -999.25    -999.25  -16.56440  -16.70410    3.28010
 3300.00000   13.47600   13.47600    -999.25  266.39670    0.09040    0.09040    2.19060    -999.25    0.43280    0.30370    3.75380   82.71140   82.71140   77.59760    -999.25   77.59760    3.75380    5.42840    4.67820    5.42840    -999.25    0.42360    0.38080    2.19060    -999.25    -999.25  -18.07330  -18.11620    4.67820
 3350.00000   14.92510   14.92510    -999.25  598.15770   -0.00360   -0.00360    1.71050    -999.25    0.55880    0.58450    1.67180  121.01550  121.01550   67.07130    -999.25   67.07130    1.67180    2.24140    2.54970    2.24140    -999.25    0.49330    0.45840    1.71050    -999.25    -999.25  -25.04030  -24.98630    2.54970
 3400.00000   12.42110   12.42110    -999.25  234.80240    0.01580    0.01580    2.53470    -999.25    0.05490    0.10250    4.25890   76.11060   76.11060   48.89110    -999.25   48.89110    4.25890    4.57390    5.81970    4.57390    -999.25    0.19950    0.14870    2.53470    -999.25    -999.25  -30.65470  -30.50380    5.81970
 3450.00000   13.27110   13.27110    -999.25  221.52320    0.07680    0.07680    2.52970    -999.25    0.12090    0.10540    4.51420   77.18500   77.18500   63.61960    -999.25   63.61960    4.51420    4.63790    5.03610    4.63790    -999.25    0.24510    0.19250    2.52970    -999.25    -999.25  -26.45340  -26.20570    5.03610
 3500.00000   17.40980   17.40980    -999.25  372.73100    0.02380    0.02380    1.70620    -999.25    0.58440    0.58700    2.68290   96.43380   96.43380   64.20180    -999.25   64.20180    2.68290    2.74460    3.80230    2.74460    -999.25    0.48190    0.44570    1.70620    -999.25    -999.25  -20.15100  -19.80640    3.80230
 3550.00000   16.06990   16.06990    -999.25  193.68580    0.08760    0.08760    2.30890    -999.25    0.20780    0.23460    5.16300   86.22450   86.22450   89.10170    -999.25   89.10170    5.16300    5.98220    6.82910    5.98220    -999.25    0.35260    0.30390    2.30890    -999.25    -999.25  -16.50900  -16.06750    6.82910
 3600.00000   15.96780   15.96780    -999.25  168.17180    0.01810    0.01810    2.55290    -999.25    0.06920    0.09190    5.94630   76.61190   76.61190   64.56840    -999.25   64.56840    5.94630    6.03180    8.61310    6.03180    -999.25    0.25920    0.20660    2.55290    -999.25    -999.25  -20.98910  -20.45080    8.61310
 3650.00000   17.25040   17.25040    -999.25  212.49470    0.14690    0.14690    2.25280    -999.25    0.20480    0.26740    4.70600   84.89310   84.89310   83.90730    -999.25   83.90730    4.70600    4.77640    5.21630    4.77640    -999.25    0.28400    0.23200    2.25280    -999.25    -999.25  -16.43780  -15.80260    5.21630
 3700.00000   17.41480   17.41480    -999.25  228.90630    0.11390    0.11390    2.16790    -999.25    0.32000    0.31700    4.36860   84.48460   84.48460   83.66960    -999.25   83.66960    4.36860    4.43400    5.19950    4.43400    -999.25    0.34220    0.29290    2.16790    -999.25    -999.25  -14.82800  -14.09590    5.19950
 3750.00000   17.39050   17.39050    -999.25  282.26260    0.16240    0.16240    2.39080    -999.25    0.19790    0.18670    3.54280   85.96180   85.96180   85.31610    -999.25   85.31610    3.54280    3.59670    4.32610    3.59670    -999.25    0.34640    0.29730    2.39080    -999.25    -999.25  -11.97580  -11.14690    4.32610
 3800.00000   17.42040   17.42040    -999.25  326.06210    0.12650    0.12650    2.36290    -999.25    0.16370    0.20300    3.06690   90.25340   90.25340   74.01440    -999.25   74.01440    3.06690    3.12800    3.69600    3.12800    -999.25    0.41480    0.37120    2.36290    -999.25    -999.25  -11.38850  -10.46270    3.69600
 3850.00000   15.97380   15.97380    -999.25  270.85590    0.18060    0.18060    2.30380    -999.25    0.21120    0.23750    3.69200   81.92920   81.92920   86.39300    -999.25   86.39300    3.69200    3.78120    4.44100    3.78120    -999.25    0.35410    0.30550    2.30380    -999.25    -999.25  -12.22150  -11.19890    4.44100
 3900.00000   17.39340   17.39340    -999.25  446.26920    0.08420    0.08420    1.83670    -999.25    0.49790    0.51070    2.24080  110.24860  110.24860   81.56750    -999.25   81.56750    2.24080    2.37640    3.32690    2.37640    -999.25    0.46300    0.42460    1.83670    -999.25    -999.25  -11.90460  -10.78510    3.32690
 3950.00000   13.12480   13.12480    -999.25  161.07990    0.04230    0.04230    2.39330    -999.25    0.17280    0.18520    6.20810   87.45240   87.45240   61.49090    -999.25   61.49090    6.20810    6.29850    8.30410    6.29850    -999.25    0.21240    0.16090    2.39330    -999.25    -999.25  -33.65070  -32.43430    8.30410
 4000.00000   17.38060   17.38060    -999.25  319.91810    0.07170    0.07170    2.51960    -999.25    0.08110    0.11130    3.12580   87.99040   87.99040  107.12340    -999.25  107.12340    3.12580    3.18320    4.06920    3.18320    -999.25    0.25290    0.20020    2.51960    -999.25    -999.25   -6.00600   -4.69280    4.06920
 4050.00000   17.40420   17.40420    -999.25  275.01990    0.03360    0.03360    2.55700    -999.25    0.07340    0.08950    3.63610   84.33890   84.33890  110.25060    -999.25  110.25060    3.63610    3.68840    4.50720    3.68840    -999.25    0.20850    0.15720    2.55700    -999.25    -999.25   -1.89210   -0.46590    4.50720
 4100.00000   17.44270   17.44270    -999.25  268.78830    0.03650    0.03650    2.57190    -999.25    0.04440    0.08080    3.72040   81.90530   81.90530  101.23570    -999.25  101.23570    3.72040    3.78930    4.88450    3.78930    -999.25    0.23030    0.17800    2.57190    -999.25    -999.25  -13.07210  -11.01210    4.88450
 4150.00000   17.42110   17.42110    -999.25  249.35790    0.02310    0.02310    2.55120    -999.25    0.04980    0.09290    4.01030   80.50180   80.50180   94.93680    -999.25   94.93680    4.01030    4.09080    4.94740    4.09080    -999.25    0.19160    0.14140    2.55120    -999.25    -999.25  -16.81160  -14.11780    4.94740
 4200.00000   17.39830   17.39830    -999.25  280.30050    0.09850    0.09850    2.59550    -999.25    0.05910    0.06700    3.56760   83.56720   83.56720  105.52270    -999.25  105.52270    3.56760    3.62480    4.68460    3.62480    -999.25    0.19620    0.14570    2.59550    -999.25    -999.25  -13.72840  -10.40080    4.68460
 4250.00000   17.38950   17.38950    -999.25  361.27170    0.16500    0.16500    2.52440    -999.25    0.07900    0.10850    2.76800   89.10210   89.10210  101.81550    -999.25  101.81550    2.76800    2.80790    4.14520    2.80790    -999.25    0.21250    0.16100    2.52440    -999.25    -999.25  -12.78540   -8.82390    4.14520
 4300.00000   17.39870   17.39870    -999.25  326.28560    0.13370    0.13370    2.43810    -999.25    0.11580    0.15900    3.06480   86.54520   86.54520   99.56860    -999.25   99.56860    3.06480    3.34530    3.82960    3.34530    -999.25    0.23450    0.18210    2.43810    -999.25    -999.25  -13.48210   -8.88680    3.82960
 4350.00000   17.39790   17.39790    -999.25  390.42670    0.11450    0.11450    2.37430    -999.25    0.15090    0.19630    2.56130   91.09180   91.09180   97.24120    -999.25   97.24120    2.56130    2.59870    3.29010    2.59870    -999.25    0.26330    0.21070    2.37430    -999.25    -999.25  -11.47350   -6.24440    3.29010
 4400.00000   17.42090   17.42090    -999.25  303.68370    0.08230    0.08230    2.54310    -999.25    0.09710    0.09760    3.29290   87.66790   87.66790  101.46630    -999.25  101.46630    3.29290    3.38500    4.13990    3.38500    -999.25    0.22980    0.17750    2.54310    -999.25    -999.25  -13.85650   -7.99360    4.13990
 4450.00000   17.40760   17.40760    -999.25  227.23140    0.15530    0.15530    2.53330    -999.25    0.08450    0.10330    4.40080   81.07680   81.07680   96.33250    -999.25   96.33250    4.40080    4.46390    4.97700    4.46390    -999.25    0.17100    0.12260    2.53330    -999.25    -999.25  -15.79930   -9.30260    4.97700
