~Version ---------------------------------------------------
VERS. 2.0 : CWLS log ASCII Standard -VERSION 2.0
WRAP. YES : MULTIPLE LINES PER DEPTH STEP
~Well ------------------------------------------------------
STRT.FT                    700.0 : START DEPTH
STOP.FT                   6350.0 : STOP DEPTH
STEP.FT                 50.00000 : STEP LENGTH
NULL.                    -999.25 : NULL VALUE
COMP. TEXLARK EXPLORATION CO INC : COMPANY
WELL.            V. STAVINOHA #1 : WELL
FLD .                  CINDY ANN : FIELD
LOC .                            : LOCATION
CNTY.                     WILSON : COUNTY
STAT.                      TEXAS : STATE
CTRY.   UNITED STATES OF AMERICA : COUNTRY
SRVC.                   Gearhart : SERVICE COMPANY
DATE.                31-Mar-1982 : LOGDATE
API .             42493310750000 : API NUMBER
UWI .             42493310750000 : UNIQUE WELL ID
SLAT.WGS84         29.1162057424 : SURFACE LATITUDE
SLON.WGS84        -98.0533635571 : SURFACE LONGITUDE
~Curve Information -----------------------------------------
DEPT   .FT    : DEPTH FEET
CALWS  .IN    : CALIPER [CALXRED]
CALXDED.IN    : CALIPER X FROM DENSITY LOG
CALXRED.IN    : CALIPER X FROM RESISTIVITY LOG
CALYDED.IN    : CALIPER Y FROM DENSITY LOG
CDLSSED.V/V   : COMPENSATED DENSITY POROSITY SANDSTONE FROM DENSITY LOG
CNSSSED.V/V   : COMPENSATED NEUTRON POROSITY SANDSTONE FROM DENSITY LOG
CONDWS .MMHO  : CONDUCTIVITY [1000/DRESWS]
DCORWS .G/C3  : DENSITY CORRECTION [DRHOED]
DENWS  .G/C3  : BULK DENSITY [M=2.65 F=1.0] [RHOBED]
DPOWS  .V/V   : DENSITY POROSITY [M=2.65 F=1.0] [CALCULATED FROM DENWS]
DRESWS .OHMM  : DEEP RESISTIVITY [RILDED]
DRHOED .G/C3  : DENSITY CORRECTION FROM DENSITY LOG
DTED   .US/F  : DELTA TIME FROM SONIC LOG
DTWS   .US/F  : DELTA TIME [DTED]
GRDED  .GAPI  : GAMMA RAY FROM DENSITY LOG
GRNED  .GAPI  : GAMMA RAY FROM NEUTRON LOG [ADJ TO GRRED]
GRRED  .GAPI  : GAMMA RAY FROM RESISTIVITY LOG
GRWS   .GAPI  : GAMMA RAY [SPL GRRED <6056F> GRNED, CSG ABOVE 732F ALSO CASED HOLE DATA FROM 6056-BOTTOM AND BULK SHIFTED +20GAPI]
MRESWS .OHMM  : MEDIUM RESISTIVITY [RILMED]
NEUTED .NAPI  : NEUTRON FROM NEUTRON LOG [ADJ TO GRRED]
NEUTWS .NAPI  : NEUTRON [NEUTED]
NPOWS  .V/V   : NEUTRON POROSITY SANDSTONE [CNSSSED]
RHOBED .G/C3  : BULK DENSITY FROM DENSITY LOG
RILDED .OHMM  : INDUCTION LOG DEEP RESISTIVITY
RILMED .OHMM  : INDUCTION LOG MEDIUM RESISTIVITY
RLLED  .OHMM  : LATEROLOG RESISTIVITY
SPRED  .MV    : SPONTANEOUS POTENTIAL FROM RESISTIVITY LOG
SPWS   .MV    : SPONTANEOUS POTENTIAL [BASELINE 0 MV] [SPRED]
SRESWS .OHMM  : SHALLOW RESISTIVITY [RLLED]
TENDED .LBF   : TENSION FROM DENSITY LOG
TENRED .LBF   : TENSION FROM RESISTIVITY LOG
~Params ----------------------------------------------------
PD  .                     GL : PERMANENT DATUM
EPD .FT                416.4 : ELEVATION PERMANENT DATUM
LMF .                    TKB : LOG MEASURED FROM
DAPD.FT                 13.9 : FEET ABOVE PERMANENT DATUM
DMF .                    TKB : DRILLING MEASURED FROM
EKB .FT                430.3 : KELLY BUSHING
EDF .FT                429.3 : DRILLING FLOOR
EGL .FT                416.4 : GROUND LEVEL
DATE.               03/31/82 : RUN DATE
RUN .                      1 : RUN NUMBER
DD  .FT                 6068 : DEPTH DRILLER
DL  .FT                 6105 : DEPTH LOGGER
BLI .FT                 6104 : BOTTOM LOG INTERVAL
TLI .FT                  675 : TOP LOG INTERVAL
CS  .IN                8.625 : CASING SIZE
CBD .FT                  732 : CASING BOTTOM DRILLER
CBL .FT                  732 : CASING BOTTOM LOGGER
BS  .IN                7.875 : BIT SIZE
BSD .FT                 6068 : BIT SIZE AT DEPTH
DFT .         LIGNOSULFONATE : DRILLING FLUID TYPE
DFD .                    9.8 : DRILLING FLUID DENSITY
DFV .                     75 : DRILLING FLUID VISCOSITY
DFPH.                   10.5 : DRILLING FLUID PH
DFL .                    8.0 : DRILLING FLUID LOSS
MSS .               FLOWLINE : MUD SAMPLE SOURCE
RMS .OHMM                2.3 : RESISTIVITY MUD SAMPLE
MST .DEGF                 75 : MUD SAMPLE TEMPERATURE
RMF .OHMM                2.1 : RESISTIVITY MUD FILTRATE SAMPLE
MFST.DEGF                 75 : MUD FILTRATE SAMPLE TEMPERATURE
RMC .OHMM                2.4 : RESISTIVITY MUD CAKE
MCST.DEGF                 75 : MUD CAKE SAMPLE TEMPERATURE
MFSS.                      M : MUD FILTRATE SAMPLE SOURCE
MCSS.                      C : MUD CAKE SAMPLE SOURCE
RMB .OHMM               1.17 : RESISTIVITY MUD AT BHT
TCS .HRS                1400 : TIME CIRCULATED STOPPED
TLAB.HRS                  30 : TIME LOGGER AT BOTTOM
LUN .                   7506 : LOGGING UNIT NUMBER
LUL .                     CC : LOGGING UNIT LOCATION
ENGI.                  DEPUR : RECORDING ENGINEER
CLNT.                A2DTECH : CLIENT CODE
ORIG.               5" PRINT : ORIGIN OF DATA
UWI .         42493310750000 : UNIQUE WELL ID
DICO. A2D Technologies, Inc. : DIGITIZING COMPANY
~Other -----------------------------------------------------
~ASCII -----------------------------------------------------
# ...
 5300.00000    7.94340    -999.25    7.94340    -999.25    -999.25    -999.25  619.11830    -999.25    -999.25    -999.25    1.61520    -999.25   91.09920   91.09920    -999.25    -999.25   81.95640   81.95640    1.90430    -999.25    -999.25    -999.25    -999.25    1.61520    1.90430    2.09250    7.69760   -4.06100    2.09250    -999.25  972.68740
 5350.00000    7.94650    -999.25    7.94650    -999.25    -999.25    -999.25  515.14530    -999.25    -999.25    -999.25    1.94120    -999.25   87.90640   87.90640    -999.25    -999.25   70.75990   70.75990    2.08920    -999.25    -999.25    -999.25    -999.25    1.94120    2.08920    2.34020   11.02120   -2.00140    2.34020    -999.25  806.91350
 5400.00000    7.97750    -999.25    7.97750    -999.25    -999.25    -999.25  625.66480    -999.25    -999.25    -999.25    1.59830    -999.25   93.51710   93.51710    -999.25    -999.25   83.08190   83.08190    1.90000    -999.25    -999.25    -999.25    -999.25    1.59830    1.90000    2.14770   10.64120   -3.64540    2.14770    -999.25  948.29830
 5450.00000    8.54620    -999.25    8.54620    -999.25    -999.25    -999.25 1389.66090    -999.25    -999.25    -999.25    0.71960    -999.25  100.47700  100.47700    -999.25    -999.25  103.79250  103.79250    0.79130    -999.25    -999.25    -999.25    -999.25    0.71960    0.79130    1.17540   15.14960   -0.40100    1.17540    -999.25  963.95450
 5500.00000    8.62970    -999.25    8.62970    -999.25    -999.25    -999.25  652.14550    -999.25    -999.25    -999.25    1.53340    -999.25   94.57490   94.57490    -999.25    -999.25   82.28980   82.28980    1.71950    -999.25    -999.25    -999.25    -999.25    1.53340    1.71950    1.89830   12.19970   -4.61490    1.89830    -999.25  924.04770
 5550.00000    9.14310    -999.25    9.14310    -999.25    -999.25    -999.25  503.39790    -999.25    -999.25    -999.25    1.98650    -999.25   89.12010   89.12010    -999.25    -999.25   70.84770   70.84770    2.12770    -999.25    -999.25    -999.25    -999.25    1.98650    2.12770    2.34770    9.97930   -8.09930    2.34770    -999.25  973.90330
 5600.00000    9.19190    -999.25    9.19190    -999.25    -999.25    -999.25  576.96750    -999.25    -999.25    -999.25    1.73320    -999.25   89.23950   89.23950    -999.25    -999.25   84.39470   84.39470    2.03060    -999.25    -999.25    -999.25    -999.25    1.73320    2.03060    2.24200   14.90450   -4.43810    2.24200    -999.25  923.35980
 5650.00000    9.89270    9.81540    9.89270    9.43270    0.13940    0.22470 1021.97240    0.12860    2.42000    0.13940    0.97850    0.12860  103.89720  103.89720   88.03560    -999.25   88.36030   88.36030    1.11880    -999.25    -999.25    0.22470    2.42000    0.97850    1.11880    1.40140   17.90180   -2.68050    1.40140  974.85950  957.23770
 5700.00000    9.66100    9.50530    9.66100    9.17900    0.06850    0.20600  555.61720    0.07710    2.53700    0.06850    1.79980    0.07710   87.36080   87.36080   78.63900    -999.25   78.83840   78.83840    2.05780    -999.25    -999.25    0.20600    2.53700    1.79980    2.05780    2.20670   17.01810   -4.78410    2.20670  951.11290  903.53850
 5750.00000    9.58320    9.57390    9.58320    8.68120    0.08450    0.23380  558.00460    0.02650    2.51050    0.08450    1.79210    0.02650   90.13230   90.13230   77.99610    -999.25   78.18820   78.18820    2.01050    -999.25    -999.25    0.23380    2.51050    1.79210    2.01050    2.28300   18.65400   -4.36800    2.28300  948.70010  985.83520
 5800.00000    8.92330    8.90060    8.92330    8.74360    0.08040    0.19480  453.39140   -0.00580    2.51740    0.08040    2.20560   -0.00580   90.78080   90.78080   78.56490   50.09000   77.65820   77.65820    2.33190  177.65700  177.65700    0.19480    2.51740    2.20560    2.33190    2.67450   18.94620   -5.29570    2.67450  973.03860  983.14510
 5850.00000    9.78350    9.76930    9.78350    9.33500    0.18270    0.34680  870.01920    0.09650    2.34860    0.18270    1.14940    0.09650   98.61790   98.61790   88.44610   66.43930   88.11740   88.11740    1.28100  108.29950  108.29950    0.34680    2.34860    1.14940    1.28100    1.82000   21.83160   -3.63020    1.82000  970.53640  921.06030
 5900.00000    8.50490    8.95660    8.50490    8.92750    0.02880    0.15490  374.05550    0.01090    2.60290    0.02850    2.67340    0.01090   80.81270   80.81270   56.01600   35.54590   55.92930   55.92930    2.85410  180.73190  180.73190    0.15490    2.60290    2.67340    2.85410    3.38640   25.84610   -0.83560    3.38640  943.51230  912.34080
 5950.00000    9.16710    8.70700    9.16710    8.45670    0.03260    0.14220  274.99730   -0.00510    2.59620    0.03260    3.63640   -0.00510   77.15850   77.15850   55.61810   40.97470   55.73890   55.73890    3.87050  212.63560  212.63560    0.14220    2.59620    3.63640    3.87050    4.30020   27.16280   -1.98800    4.30020  941.68660  959.71000
 6000.00000    9.22700    9.29840    9.22700    8.95070    0.04930    0.18060  436.70030    0.01040    2.56870    0.04930    2.28990    0.01040   84.54700   84.54700   70.22110   37.23360   69.95140   69.95140    2.56400  149.24980  149.24980    0.18060    2.56870    2.28990    2.56400    3.09120   30.69350   -0.95200    3.09120  941.55650  963.62930
 6050.00000    8.32720    7.92920    8.32720    7.75460    0.04300    0.12250  200.18420    0.04110    2.57920    0.04290    4.99540    0.04110   73.32690   73.32690   39.69910   28.85860   39.78700   39.78700    5.37090  132.45640  132.45640    0.12250    2.57920    4.99540    5.37090    5.79770   26.25490   -5.74540    5.79770  952.29070  981.67600
 6100.00000    -999.25    -999.25    -999.25    7.63300    0.08240    -999.25    -999.25    0.05030    2.51780    0.08010    -999.25    0.05030    -999.25    -999.25    -999.25   12.66460    -999.25   32.66460    -999.25  343.96060  343.96060    -999.25    2.51780    -999.25    -999.25   37.77780    -999.25    -999.25   37.77780 1005.94810 1005.79970
 6150.00000    -999.25    -999.25    -999.25    -999.25    -999.25    -999.25    -999.25    -999.25    -999.25    -999.25    -999.25    -999.25    -999.25    -999.25    -999.25   22.73110    -999.25   42.73110    -999.25  467.64590  467.64590    -999.25    -999.25    -999.25    -999.25    -999.25    -999.25    -999.25    -999.25    -999.25    -999.25
 6200.00000    -999.25    -999.25    -999.25    -999.25    -999.25    -999.25    -999.25    -999.25    -999.25    -999.25    -999.25    -999.25    -999.25    -999.25    -999.25   28.89910    -999.25   48.89910    -999.25  752.03460  752.03460    -999.25    -999.25    -999.25    -999.25    -999.25    -999.25    -999.25    -999.25    -999.25    -999.25
 6250.00000    -999.25    -999.25    -999.25    -999.25    -999.25    -999.25    -999.25    -999.25    -999.25    -999.25    -999.25    -999.25    -999.25    -999.25    -999.25   38.37490    -999.25   58.37490    -999.25  536.54140  536.54140    -999.25    -999.25    -999.25    -999.25    -999.25    -999.25    -999.25    -999.25    -999.25    -999.25
 6300.00000    -999.25    -999.25    -999.25    -999.25    -999.25    -999.25    -999.25    -999.25    -999.25    -999.25    -999.25    -999.25    -999.25    -999.25    -999.25   56.36940    -999.25   76.36940    -999.25  258.14380  258.14380    -999.25    -999.25    -999.25    -999.25    -999.25    -999.25    -999.25    -999.25    -999.25    -999.25
 6350.00000    -999.25    -999.25    -999.25    -999.25    -999.25    -999.25    -999.25    -999.25    -999.25    -999.25    -999.25    -999.25    -999.25    -999.25    -999.25   17.10800    -999.25   37.10800    -999.25  935.03610  935.03610    -999.25    -999.25    -999.25    -999.25    -999.25    -999.25    -999.25    -999.25    -999.25    -999.25
