~Version ---------------------------------------------------
VERS.      2.0 : CWLS log ASCII Standard -VERSION 2.0
WRAP.      YES : Multiple lines per depth step
CREA. 08/01/20 : LAS Creation Date
~Well ------------------------------------------------------
STRT.FT                       3500.0 : START DEPTH
STOP.FT                       9850.0 : STOP DEPTH
STEP.FT                     50.00000 : STEP LENGTH
NULL.                        -999.25 : NULL VALUE
COMP. INTERNATIONAL DRILLING SYSTEMS : COMPANY
WELL.                        COOK #1 : WELL
FLD .                         KURTEN : FIELD
LOC .                                : LOCATION
CNTY.                         BRAZOS : COUNTY
STAT.                          TEXAS : STATE
CTRY.       UNITED STATES OF AMERICA : COUNTRY
SRVC.                   Schlumberger : SERVICE COMPANY
DATE.                    18-Apr-1986 : LOGDATE
API .                 42041313380000 : API NUMBER
UWI .                 42041313380000 : UNIQUE WELL ID
SLAT.WGS84             30.6850268218 : SURFACE LATITUDE
SLON.WGS84            -96.2700084962 : SURFACE LONGITUDE
~Curve Information -----------------------------------------
DEPT    .FT    : DEPTH FEET
BITSED  .IN    : BIT SIZE
CALWS   .IN    : CALIPER [DCALRED+BITS]
CILDED  .MMHO  : CONDUCTIVITY FROM DIL-SFL-CDL-CNL LOG FROM 2" SECTION
CONDWS  .MMHO  : CONDUCTIVITY [1000/DRESWS]
DCALRED .IN    : DIFFERENTIAL CALIPER FROM DIL-SFL-CDL-CNL LOG
DCORWS  .G/C3  : DENSITY CORRECTION [DRHOED]
DENWS   .G/C3  : FORMATION BULK DENSITY [CALC. DPOLSWS M=2.71, F=1.0]
DPHILSED.V/V   : DENSITY POROSITY LIMESTONE [ M=2.71,F=1.0] FROM DIL-SFL-CDL-CNL LOG
DPHISSED.V/V   : DENSITY POROSITY SANDSTONE [ M=2.68,F=1.0] FROM DIL-SFL-CDL-CNL LOG
DPOLSWS .V/V   : DENSITY POROSITY LIMESTONE [TOP DPHILSED 9130' DPHISSED CONVERTED TO LIMESTONE MATRIX M=2.71,F=1.0, SPL. TO 9741' DPHILSED TD]
DRESWS  .OHMM  : DEEP RESISTIVITY [ILDED]
DRHOED  .G/C3  : BULK DENSITY CORRECTION FROM DIL-SFL-CDL-CNL LOG
GRRED   .GAPI  : GAMMA RAY FROM DIL-SFL-CDL-CNL LOG
GRWS    .GAPI  : GAMMA RAY [GRRED]
ILD1ED  .OHMM  : DEEP INDUCTION RESISTIVITY FROM DIL-SFL-CDL-CNL LOG FROM 2" SECTION
ILDED   .OHMM  : DEEP INDUCTION RESISTIVITY FROM DIL-SFL-CDL-CNL LOG
ILMED   .OHMM  : MEDIUM INDUCTION RESISTIVITY FROM DIL-SFL-CDL-CNL LOG
MRESWS  .OHMM  : MEDIUM RESISTIVITY [ILMED]
NPHILSED.V/V   : NEUTRON POROSITY LIMESTONE FROM DIL-SFL-CDL-CNL LOG
NPHISSED.V/V   : NEUTRON POROSITY SANDSTONE FROM DIL-SFL-CDL-CNL LOG
NPOLSWS .V/V   : NEUTRON POROSITY LIMESTONE [TOP NPHILSED 9125' MATRIX CONVERSION FOR LIMESTONE (SLB-CNL) SPL. TO 9741' NPHILSED TD]
PEED    .B/E   : PHOTO ELECTRIC CROSS SECTION FROM DIL-SFL-CDL-CNL LOG
PEFWS   .B/E   : PHOTO ELECTRIC FACTOR [PEED]
SFLAED  .OHMM  : SPHERICALLY FOCUSED LOG RESISTIVITY FROM DIL-SFL-CDL-CNL LOG FROM 2" SECTION
SFLED   .OHMM  : SPHERICALLY FOCUSED LOG RESISTIVITY FROM DIL-SFL-CDL-CNL LOG
SPRED   .MV    : SPONTANEOUS POTENTIAL FROM DIL-SFL-CDL-CNL LOG
SPWS    .MV    : SPONTANEOUS POTENTIAL [BASELINE 0MV, SPRED]
SRESWS  .OHMM  : SHALLOW RESISTIVITY [SFLED]
TENRED  .LBF   : TENSION  FROM DIL-SFL-CDL-CNL LOG
~Params ----------------------------------------------------
PD  .                     GL : PERMANENT DATUM
EPD .FT                  300 : ELEVATION PERMANENT DATUM
LMF .                     KB : LOG MEASURED FROM
DAPD.FT                 18.6 : FEET ABOVE PERMANENT DATUM
DMF .                     KB : DRILLING MEASURED FROM
EKB .FT                318.6 : KELLY BUSHING
EDF .FT                317.6 : DRILLING FLOOR
EGL .FT                  300 : GROUND LEVEL
DATE.               04/18/86 : RUN DATE
RUN .                      1 : RUN NUMBER
DD  .FT                 9899 : DEPTH DRILLER
DL  .FT                 9877 : DEPTH LOGGER
BLI .FT                 9871 : BOTTOM LOG INTERVAL
TLI .FT                 3533 : TOP LOG INTERVAL
CS  .IN                9.625 : CASING SIZE
CBD .FT                 3532 : CASING BOTTOM DRILLER
CBL .FT                 3533 : CASING BOTTOM LOGGER
BS  .IN                 8.75 : BIT SIZE
BSD .FT                 9899 : BIT SIZE AT DEPTH
DFT .                  BENEX : DRILLING FLUID TYPE
DFD .                    9.2 : DRILLING FLUID DENSITY
DFV .                     44 : DRILLING FLUID VISCOSITY
DFPH.                      9 : DRILLING FLUID PH
DFL .                    5.8 : DRILLING FLUID LOSS
MSS .              CIRC TANK : MUD SAMPLE SOURCE
RMS .OHMM               3.66 : RESISTIVITY MUD SAMPLE
MST .DEGF                 96 : MUD SAMPLE TEMPERATURE
RMF .OHMM               2.67 : RESISTIVITY MUD FILTRATE SAMPLE
MFST.DEGF                 80 : MUD FILTRATE SAMPLE TEMPERATURE
RMC .OHMM               5.49 : RESISTIVITY MUD CAKE
MCST.DEGF                 96 : MUD CAKE SAMPLE TEMPERATURE
MFSS.                  PRESS : MUD FILTRATE SAMPLE SOURCE
MCSS.                  CHART : MUD CAKE SAMPLE SOURCE
RMB .OHMM               1.77 : RESISTIVITY MUD AT BHT
TCS .HRS                 600 : TIME CIRCULATED STOPPED
TLAB.HRS                1100 : TIME LOGGER AT BOTTOM
LUN .                   8137 : LOGGING UNIT NUMBER
LUL .                BRENHAM : LOGGING UNIT LOCATION
ENGI.                   ONEY : RECORDING ENGINEER
WITN.                MITCHAM : WITNESSED BY
CLNT.                A2DTECH : CLIENT CODE
ORIG.         1" 2" 5" PRINT : ORIGIN OF DATA
UWI .         42041313380000 : UNIQUE WELL ID
DICO. A2D Technologies, Inc. : DIGITIZING COMPANY
~Other -----------------------------------------------------
DIL-SFL-CDL-CNL LOG RUN.
SFLA_1,ILD_1,CILD VERYFIED FROM 2" LINEAR SECTION.
~ASCII -----------------------------------------------------
 3500.00000    -999.25    -999.25    -999.25    -999.25    -999.25    -999.25    -999.25    -999.25    -999.25    -999.25    -999.25    -999.25   37.76790   37.76790    -999.25    -999.25    -999.25    -999.25    -999.25    -999.25    -999.25    -999.25    -999.25    -999.25    -999.25    -999.25    -999.25    -999.25    -999.25
 3550.00000    8.75000   12.48770  185.33940  182.58170    3.73770    -999.25    -999.25    -999.25    -999.25    -999.25    5.47700    -999.25   42.46380   42.46380    5.41290    5.47700    6.67450    6.67450    -999.25    -999.25    -999.25    -999.25    -999.25    7.23820    6.73390  -46.36750  -44.36470    6.73390 2715.01970
 3600.00000    8.75000   13.27440  145.10700  144.62990    4.52440    -999.25    -999.25    -999.25    -999.25    -999.25    6.91420    -999.25   51.09310   51.09310    7.03000    6.91420    9.24140    9.24140    -999.25    -999.25    -999.25    -999.25    -999.25   11.72240   11.69180  -45.35600  -43.93290   11.69180 2758.63480
 3650.00000    8.75000   15.17360  189.50710  212.88830    6.42360    -999.25    -999.25    -999.25    -999.25    -999.25    4.69730    -999.25   41.47780   41.47780    4.25970    4.69730    5.65340    5.65340    -999.25    -999.25    -999.25    -999.25    -999.25    7.01200    7.09430  -42.00650  -41.16310    7.09430 2653.41150
 3700.00000    8.75000   16.77100  164.89800  168.74790    8.02100    -999.25    -999.25    -999.25    -999.25    -999.25    5.92600    -999.25   67.89190   67.89190    5.95190    5.92600    7.19070    7.19070    -999.25    -999.25    -999.25    -999.25    -999.25    8.47990    8.58170  -43.86350  -43.59990    8.58170 2671.55850
 3750.00000    8.75000   15.58100  172.82670  169.88600    6.83100    -999.25    -999.25    -999.25    -999.25    -999.25    5.88630    -999.25   53.31350   53.31350    5.93970    5.88630    8.18520    8.18520    -999.25    -999.25    -999.25    -999.25    -999.25   10.69850   10.49780  -50.30170  -50.61780   10.49780 2693.83460
 3800.00000    8.75000   16.82700  233.10400  230.78170    8.07700    -999.25    -999.25    -999.25    -999.25    -999.25    4.33310    -999.25   48.72280   48.72280    4.22640    4.33310    5.27860    5.27860    -999.25    -999.25    -999.25    -999.25    -999.25    7.33770    7.00270  -43.18130  -44.07720    7.00270 2930.05470
 3850.00000    8.75000   15.72770  195.88110  198.88620    6.97770    -999.25    -999.25    -999.25    -999.25    -999.25    5.02800    -999.25   47.46760   47.46760    5.02850    5.02800    7.26450    7.26450    -999.25    -999.25    -999.25    -999.25    -999.25    9.40960    9.58590  -54.34580  -56.60410    9.58590 2873.98350
 3900.00000    8.75000   14.25980  176.76110  180.46310    5.50980    -999.25    -999.25    -999.25    -999.25    -999.25    5.54130    -999.25   65.41410   65.41410    5.59430    5.54130    7.79190    7.79190    -999.25    -999.25    -999.25    -999.25    -999.25    9.93730   10.36070  -50.39980  -54.34020   10.36070 2869.52330
 3950.00000    8.75000   11.20450  180.11200  192.48540    2.45450    -999.25    -999.25    -999.25    -999.25    -999.25    5.19520    -999.25   66.14810   66.14810    5.32550    5.19520    7.52310    7.52310    -999.25    -999.25    -999.25    -999.25    -999.25   11.10540   10.90950  -42.23500  -47.85750   10.90950 2937.67140
 4000.00000    8.75000    9.43050  186.56050  188.51210    0.68050    -999.25    -999.25    -999.25    -999.25    -999.25    5.30470    -999.25   64.49990   64.49990    5.33950    5.30470    6.90890    6.90890    -999.25    -999.25    -999.25    -999.25    -999.25    8.99280    8.84660  -37.86640  -45.17100    8.84660 3289.03390
 4050.00000    8.75000   10.79160  266.13600  259.80770    2.04160    -999.25    -999.25    -999.25    -999.25    -999.25    3.84900    -999.25   50.40880   50.40880    3.81250    3.84900    5.51130    5.51130    -999.25    -999.25    -999.25    -999.25    -999.25    9.31200    9.22000  -51.76360  -60.75030    9.22000 3147.24170
 4100.00000    8.75000   14.03380  316.24710  313.80420    5.28380    -999.25    -999.25    -999.25    -999.25    -999.25    3.18670    -999.25  110.58060  110.58060    3.26210    3.18670    3.10800    3.10800    -999.25    -999.25    -999.25    -999.25    -999.25    2.93070    2.99200    1.35560   -9.31330    2.99200 3124.67420
 4150.00000    8.75000   12.87090  343.74840  348.57780    4.12090    -999.25    -999.25    -999.25    -999.25    -999.25    2.86880    -999.25   75.11770   75.11770    3.06750    2.86880    3.89310    3.89310    -999.25    -999.25    -999.25    -999.25    -999.25    6.67320    6.20460  -47.13060  -58.03440    6.20460 3093.73920
 4200.00000    8.75000   16.93380  152.26030  161.93550    8.18380    -999.25    -999.25    -999.25    -999.25    -999.25    6.17530    -999.25   51.98330   51.98330    7.01230    6.17530    8.33730    8.33730    -999.25    -999.25    -999.25    -999.25    -999.25    9.34460   10.65450  -14.20570  -25.23550   10.65450 3162.48040
 4250.00000    8.75000   11.83350  361.99680  358.82160    3.08350    -999.25    -999.25    -999.25    -999.25    -999.25    2.78690    -999.25   62.23220   62.23220    2.75610    2.78690    4.57240    4.57240    -999.25    -999.25    -999.25    -999.25    -999.25    8.62380    8.82550  -58.18550  -69.34130    8.82550 3222.05820
 4300.00000    8.75000   14.70330  234.44020  248.59540    5.95330    -999.25    -999.25    -999.25    -999.25    -999.25    4.02260    -999.25   94.27770   94.27770    4.10260    4.02260    4.57210    4.57210    -999.25    -999.25    -999.25    -999.25    -999.25    5.28500    5.33100  -18.77040  -30.05220    5.33100 3055.95020
 4350.00000    8.75000   12.69650  443.30340  445.73210    3.94650    -999.25    -999.25    -999.25    -999.25    -999.25    2.24350    -999.25   61.90920   61.90920    2.34950    2.24350    3.31650    3.31650    -999.25    -999.25    -999.25    -999.25    -999.25    7.16510    6.65230  -67.38100  -78.78880    6.65230 3077.51490
 4400.00000    8.75000   11.22610  460.72850  459.91810    2.47610    -999.25    -999.25    -999.25    -999.25    -999.25    2.17430    -999.25   62.22920   62.22920    2.18430    2.17430    3.41990    3.41990    -999.25    -999.25    -999.25    -999.25    -999.25    7.69230    7.41360  -72.25020  -83.78400    7.41360 2918.15330
 4450.00000    8.75000   10.56010  375.34940  370.06880    1.81010    -999.25    -999.25    -999.25    -999.25    -999.25    2.70220    -999.25   62.63550   62.63550    2.66710    2.70220    3.59990    3.59990    -999.25    -999.25    -999.25    -999.25    -999.25    6.45820    5.50400  -55.71200  -67.37180    5.50400 2865.35440
 4500.00000    8.75000    9.38790  568.60530  575.34090    0.63790    -999.25    -999.25    -999.25    -999.25    -999.25    1.73810    -999.25   61.92060   61.92060    1.73740    1.73810    2.88040    2.88040    -999.25    -999.25    -999.25    -999.25    -999.25    7.49090    7.94610  -74.45900  -86.24480    7.94610 2948.69260
 4550.00000    8.75000    8.88030  593.74530  588.23530    0.13030    -999.25    -999.25    -999.25    -999.25    -999.25    1.70000    -999.25   58.14130   58.14130    1.65170    1.70000    2.82160    2.82160    -999.25    -999.25    -999.25    -999.25    -999.25    8.09510    8.16420  -74.92780  -86.83960    8.16420 3092.85990
 4600.00000    8.75000   10.01720  625.72290  616.78900    1.26720    -999.25    -999.25    -999.25    -999.25    -999.25    1.62130    -999.25   61.23660   61.23660    1.60790    1.62130    2.68020    2.68020    -999.25    -999.25    -999.25    -999.25    -999.25    7.81740    7.63380  -74.64050  -86.67830    7.63380 3075.77310
 4650.00000    8.75000    9.28050 1012.42180  986.97200    0.53050    -999.25    -999.25    -999.25    -999.25    -999.25    1.01320    -999.25   53.32170   53.32170    0.93700    1.01320    1.32640    1.32640    -999.25    -999.25    -999.25    -999.25    -999.25    1.74840    2.16080  -54.76170  -66.92550    2.16080 3188.87690
 4700.00000    8.75000    8.77130  669.09450  676.13250    0.02130    -999.25    -999.25    -999.25    -999.25    -999.25    1.47900    -999.25   54.85600   54.85600    1.43260    1.47900    2.46040    2.46040    -999.25    -999.25    -999.25    -999.25    -999.25    7.48890    7.49340  -77.66940  -89.95920    7.49340 3020.13190
