~Version ---------------------------------------------------
VERS. 2.0 : CWLS log ASCII Standard -VERSION 2.0
WRAP.  NO : ONE LINE PER DEPTH STEP
~Well ------------------------------------------------------
STRT.F                    3500.0 : START DEPTH
STOP.F                    8250.0 : STOP DEPTH
STEP.F                  50.00000 : STEP LENGTH
NULL.                    -999.25 : NULL VALUE
COMP. CHAMPLIN PETROLEUM COMPANY : COMPANY
WELL.     RUFFINO PRESTON JR. #1 : WELL
FLD .                      BRYAN : FIELD
LOC .                            : LOCATION
CNTY.                     BRAZOS : COUNTY
STAT.                      TEXAS : STATE
CTRY.   UNITED STATES OF AMERICA : COUNTRY
SRVC.              Dresser Atlas : SERVICE COMPANY
DATE.                14-Jan-1980 : LOGDATE
API .             42041304690000 : API NUMBER
UWI .             42041304690000 : UNIQUE WELL ID
SLAT.WGS84         30.7616045344 : SURFACE LATITUDE
SLON.WGS84        -96.3855613874 : SURFACE LONGITUDE
~Curve Information -----------------------------------------
DEPT.F                 : 
GRR .GAPI 07 310 01 00 : GAMMA RAY FROM RESISTIVITY LOG
SPR .MV   07 010 01 00 : SPONTANEOUS POTENTIAL FROM RESISTIVITY LOG
ILD .OHMM 07 120 46 00 : INDUCTION DEEP RESISTIVITY
ILM .OHMM 07 120 44 00 : INDUCTION MEDIUM RESISTIVITY
SFL .OHMM 07 220 01 00 : SPHERICALLY FOCUSED LOG
DT  .US/F 60 500 00 00 : DELTA-T (INTERVAL TRANSIT TIME)
DPHI.DEC  45 890 10 00 : DENSITY POROSITY
NPHI.DEC  42 890 01 00 : NEUTRON POROSITY
RHOB.G/C3 45 350 01 00 : BULK DENSITY
DRHO.G/C3 45 356 01 00 : BULK DENSITY CORRECTION
CALD.IN   45 280 60 00 : CALIPER FROM DENSITY LOG
GRD .GAPI 45 310 01 00 : GAMMA RAY FROM DENSITY LOG
~Params ----------------------------------------------------
PD  .                     GL : PERMANENT DATUM
EPD .FT                342.0 : ELEVATION PERMANENT DATUM
LMF .                     KB : LOG MEASURED FROM
DMF .                     KB : DRILLING MEASURED FROM
EGL .FT                342.0 : GROUND LEVEL
DATE.               01/14/80 : RUN DATE
RUN .                      1 : RUN NUMBER
DD  .FT                 8300 : DEPTH DRILLER
DL  .FT                 8286 : DEPTH LOGGER
BLI .FT                 8284 : BOTTOM LOG INTERVAL
TLI .FT                 8100 : TOP LOG INTERVAL
BS  .IN                 4.75 : BIT SIZE
BSD .FT                 8300 : BIT SIZE AT DEPTH
DFT .              SALTWATER : DRILLING FLUID TYPE
DFD .                    9.6 : DRILLING FLUID DENSITY
TCS .HRS                   3 : TIME CIRCULATED STOPPED
LUN .                   6139 : LOGGING UNIT NUMBER
LUL .                  BRYAN : LOGGING UNIT LOCATION
ENGI.                 POWELL : RECORDING ENGINEER
WITN.                FARNHAM : WITNESSED BY
CLNT.                A2DTECH : CLIENT CODE
ORIG.            2" 5" PRINT : ORIGIN OF DATA
UWI .         42041304690000 : UNIQUE WELL ID
DICO. A2D Technologies, Inc. : DIGITIZING COMPANY
~Other -----------------------------------------------------
~ASCII -----------------------------------------------------
 3500.00000    -999.25  -34.05670    9.46720    8.52240   11.23190   95.60490    0.23780    0.29770    2.29690   -0.01630    9.35460   61.17740
 3550.00000    -999.25  -39.25270    6.12810    6.71650    7.69430   99.99700    0.24520    0.35550    2.26460    0.01540    9.46420   74.74070
 3600.00000    -999.25  -37.86260    4.50430    5.06870    6.88660  102.35590    0.29130    0.37090    2.19110   -0.00570    8.73580   72.47160
 3650.00000    -999.25  -35.88800    4.29620    4.39550    4.77390  101.02760    0.23730    0.31900    2.28350   -0.00160    8.80020   82.38950
 3700.00000    -999.25  -44.71180    3.55960    4.07470    5.42680  103.82900    0.30740    0.37480    2.16950    0.01260    8.62310   52.81760
 3750.00000    -999.25  -40.03570    3.85190    4.45560    5.81160  101.32800    0.30280    0.37360    2.16890    0.00110    8.44380   74.33650
 3800.00000    -999.25  -44.45560    3.54760    3.80060    5.29570  100.43390    0.31770    0.35670    2.15040    0.00620    8.52220   63.96130
 3850.00000    -999.25  -29.41220    4.23820    4.59660    6.54900   85.14360    0.20670    0.27810    2.33180   -0.00480    8.81310   73.82650
 3900.00000    -999.25  -18.01550    2.41710    2.47260    2.59960   99.62300    0.19430    0.39590    2.35370    0.03910    9.50780   91.87740
 3950.00000    -999.25  -15.07700    2.32660    2.36950    2.55890   97.79700    0.15980    0.33590    2.40490    0.02140    9.39390   81.55360
 4000.00000    -999.25  -13.79940    2.12720    2.16440    2.28330  102.48050    0.17710    0.35180    2.38470    0.02910   10.12080   87.23630
 4050.00000    -999.25  -15.59170    2.56550    2.61070    3.03700   95.09550    0.19140    0.31940    2.36110    0.00810    9.98320   86.45700
 4100.00000    -999.25  -14.38500    2.40860    2.45090    2.57340   98.48590    0.16430    0.35180    2.41310    0.03600   10.71820   89.14030
 4150.00000    -999.25  -15.07460    2.49690    2.54070    2.88250   99.54910    0.17940    0.33700    2.38310    0.00810    9.99540   79.69040
 4200.00000    -999.25  -12.91080    2.29140    2.33370    2.56500   98.93860    0.14160    0.32910    2.44870    0.05050    9.89860   88.34290
 4250.00000    -999.25  -10.74090    2.19060    2.23800    2.49540   97.92170    0.14470    0.32550    2.43890    0.02580   10.42260   94.62110
 4300.00000    -999.25  -10.10010    1.83750    1.89550    2.17280  100.98020    0.14380    0.33490    2.43810    0.02540   11.04830   92.66090
 4350.00000    -999.25   -9.68350    1.51060    1.54430    1.80060  107.21830    0.16280    0.39280    2.41160    0.06240   10.70220   88.80580
 4400.00000    -999.25  -11.45310    1.50220    1.53440    1.75610  107.55200    0.16470    0.39330    2.40760    0.03410   10.34730   90.28010
 4450.00000    -999.25  -12.70700    1.37520    1.40470    1.63790  108.22080    0.15990    0.41920    2.40720    0.09820   10.72170   92.11190
 4500.00000    -999.25  -13.81800    1.94820    1.99070    2.27320  100.70970    0.13590    0.33820    2.45410    0.02680   10.28550   99.76510
 4550.00000    -999.25  -13.78300    2.06390    2.10880    2.18900  103.51400    0.15880    0.37710    2.41230    0.03200   11.33950  103.80570
 4600.00000    -999.25  -10.92960    0.85410    0.89910    1.00200  124.09150    0.32800    0.53010    2.13140    0.07540   11.08330  101.83750
 4650.00000    -999.25  -11.40070    1.65040    1.71770    2.10390   92.48280    0.16240    0.29180    2.40920    0.01150    9.81990   76.19040
 4700.00000    -999.25   -9.46740    1.24040    1.27490    1.49860  104.53050    0.19270    0.32240    2.36530    0.03600    9.84790   79.59590
 4750.00000    -999.25   -8.75090    1.00510    1.06150    1.21790  109.79380    0.19620    0.35790    2.35860    0.04750   10.73650   80.28200
 4800.00000    -999.25   -8.53150    1.12290    1.21230    1.37540  107.04080    0.17700    0.35250    2.38800    0.02850   11.00070   78.43430
 4850.00000    -999.25   -8.16350    1.43120    1.50640    1.72470   99.51910    0.15760    0.29390    2.41800    0.00200   10.98270   73.86820
 4900.00000    -999.25   -9.07930    1.35090    1.39370    1.71930  105.93290    0.15950    0.35180    2.41330    0.01590   11.70640   91.77310
 4950.00000    -999.25  -12.48840    1.58880    1.64390    1.79660  106.78070    0.15710    0.38130    2.41800    0.07120   12.51020   81.52860
 5000.00000    -999.25  -14.67070    1.60910    1.77380    1.94380  103.81050    0.18290    0.40930    2.37390    0.03600   11.84720   81.74450
 5050.00000    -999.25  -13.81790    1.17640    1.21030    1.44040  111.43230    0.16680    0.39180    2.40730    0.03410   11.80610   84.96010
 5100.00000    -999.25  -11.60810    1.05300    1.12280    1.31290  114.20530    0.17810    0.38580    2.38400    0.03870   10.99280   87.56970
 5150.00000    -999.25  -11.34640    1.38360    1.47050    1.70240  105.22460    0.15030    0.37980    2.43110    0.06960   10.87970   86.77540
 5200.00000    -999.25  -11.66880    0.98640    1.05130    1.28070  114.10380    0.19720    0.46780    2.34990    0.07980   11.66140   78.59300
 5250.00000    -999.25  -15.28950    1.59310    1.71970    1.97210  107.11360    0.12070    0.40080    2.50130    0.01380   10.52000   79.14170
 5300.00000    -999.25  -15.35660    1.76600    1.81510    2.22850  101.40810    0.13920    0.32000    2.45280    0.00960    9.85610   75.47040
 5350.00000    -999.25  -18.73300    1.45190    1.52660    1.91510  106.26050    0.15400    0.37150    2.42310    0.08920    9.76620   76.11150
 5400.00000    -999.25  -16.70680    1.74850    1.79810    2.19620  101.21230    0.12430    0.31470    2.47190    0.02670    9.19770   67.63960
 5450.00000    -999.25  -16.71050    3.20370    3.32640    3.78910   84.88050    0.07940    0.24220    2.54410   -0.00170    9.24220   54.64890
 5500.00000    -999.25  -15.23010    2.65650    2.70710    3.04320   89.73400    0.11250    0.24430    2.49230   -0.00270    9.34690   63.54690
 5550.00000    -999.25  -10.28190    0.98220    1.02790    1.11110  105.23170    0.19650    0.33950    2.34570    0.02970    9.96540   92.11870
 5600.00000    -999.25  -10.82570    1.08880    1.17400    1.28550  113.86050    0.22720    0.44850    2.30450    0.02910   10.20700  113.03910
 5650.00000    -999.25  -10.63340    1.28150    1.35880    1.50830  100.38730    0.15860    0.36590    2.42120    0.06580   10.71220   93.21810
 5700.00000    -999.25  -12.65620    1.53430    1.63650    1.89710   95.16970    0.14760    0.32830    2.43340    0.01660   10.50580   87.81510
 5750.00000    -999.25  -10.84170    1.17280    1.25680    1.56870   98.78360    0.15930    0.34790    2.41370    0.00690   10.31580  108.82330
 5800.00000    -999.25  -10.10770    1.08730    1.16910    1.36110  103.95020    0.18660    0.35690    2.36950    0.04390   10.33270   89.89690
 5850.00000    -999.25   -9.42940    1.00430    1.05910    1.32500  107.29570    0.18820    0.39350    2.36670    0.06710   10.75120   88.24890
 5900.00000    -999.25   -8.39560    1.50240    1.58690    1.79030   97.52750    0.15150    0.35280    2.43020    0.03160   11.40380   95.61620
 5950.00000    -999.25   -9.07950    1.51010    1.62440    1.90510   95.54010    0.15270    0.32600    2.43150    0.04720   10.57130   87.81370
 6000.00000    -999.25   -9.22600    1.61990    1.70900    2.01480   96.72980    0.12440    0.30650    2.46580    0.02460    9.32370   83.97930
 6050.00000    -999.25   -9.72200    1.93220    2.00970    2.35270   93.45390    0.10560    0.27920    2.50190   -0.00430    9.24450   83.36200
 6100.00000    -999.25  -12.70040    1.55170    1.67610    1.91830   98.10990    0.14720    0.35990    2.43640    0.04000    9.74730   91.53560
 6150.00000    -999.25  -12.81990    1.50320    1.63930    1.82910   99.01450    0.13440    0.33700    2.45790    0.04970   10.12410   96.05850
 6200.00000    -999.25  -11.56310    1.49900    1.62960    1.91520   96.22200    0.13980    0.30530    2.44600    0.01530   10.25550   94.75730
 6250.00000    -999.25   -9.31820    1.05820    1.15550    1.38830  106.88000    0.17630    0.33290    2.38860    0.01580   10.26090  101.36230
