~Version ---------------------------------------------------
VERS. 2.0 : CWLS log ASCII Standard -VERSION 2.0
WRAP. YES : MULTIPLE LINES PER DEPTH STEP
~Well ------------------------------------------------------
STRT.FT                   2500.0 : START DEPTH
STOP.FT                  13000.0 : STOP DEPTH
STEP.FT                 50.00000 : STEP LENGTH
NULL.                    -999.25 : NULL VALUE
COMP. DORCHESTER EXPLORATION INC : COMPANY
WELL.      S. C. WILSON ET AL #1 : WELL
FLD .                    WILDCAT : FIELD
LOC .                            : LOCATION
CNTY.                    MADISON : COUNTY
STAT.                      TEXAS : STATE
CTRY.   UNITED STATES OF AMERICA : COUNTRY
SRVC.                            : SERVICE COMPANY
DATE.                            : LOGDATE
API .             42313302910000 : API NUMBER
UWI .             42313302910000 : UNIQUE WELL ID
SLAT.WGS84          30.919898434 : SURFACE LATITUDE
SLON.WGS84        -95.6430029646 : SURFACE LONGITUDE
~Curve Information -----------------------------------------
DEPT    .FT    : DEPTH FEET
CALDED  .IN    : CALIPER FROM DENSITY LOG
CALWS   .IN    : CALIPER [CALDED]
CONDWS  .MMHO  : CONDUCTIVITY [1000/DRESWS]
DCORWS  .G/C3  : DENSITY CORRECTION [DRHOED]
DENWS   .G/C3  : BULK DENSITY [M=2.71 F=1.0] [CALCULATED FROM DPHILSED]
DPHILSED.V/V   : DENSITY POROSITY LIMESTONE FROM DENSITY LOG
DPOWS   .V/V   : DENSITY POROSITY [M=2.71 F=1.0] [DPHILSED]
DRESWS  .OHMM  : DEEP RESISTIVITY [ILDED]
DRHOED  .G/C3  : DENSITY CORRECTION FROM DENSITY LOG
DTED    .US/F  : DELTA TIME FROM SONIC LOG
DTWS    .US/F  : DELTA TIME [DTED]
GRDED   .GAPI  : GAMMA RAY FROM DENSITY LOG
GRWS    .GAPI  : GAMMA RAY [GRDED]
ILDED   .OHMM  : INDUCTION LOG DEEP RESISTIVITY
ILMED   .OHMM  : INDUCTION LOG MEDIUM RESISTIVITY
MRESWS  .OHMM  : MEDIUM RESISTIVITY [ILMED]
NPHILSED.V/V   : NEUTRON POROSITY LIMESTONE FROM DENSITY LOG
NPOWS   .V/V   : NEUTRON POROSITY LIMESTONE [NPHILSED]
RHOBED  .G/C3  : BULK DENSITY FROM DENSITY LOG [NOT USED FOR WSR]
SFLUED  .OHMM  : SPHERICALLY FOCUSED LOG RESISTIVITY
SPRED   .MV    : SPONTANEOUS POTENTIAL FROM RESISTIVITY LOG
SPWS    .MV    : SPONTANEOUS POTENTIAL [BASELINE 0 MV] [SPRED]
SRESWS  .OHMM  : SHALLOW RESISTIVITY [SFLUED]
TENDED  .LBF   : TENSION FROM DENSITY LOG
TENRED  .LBF   : TENSION FROM RESISTIVITY LOG
~Params ----------------------------------------------------
PD  .                     GL : PERMANENT DATUM
EPD .FT                  154 : ELEVATION PERMANENT DATUM
LMF .                    RKB : LOG MEASURED FROM
DAPD.FT                22.75 : FEET ABOVE PERMANENT DATUM
DMF .                     KB : DRILLING MEASURED FROM
EKB .FT               176.75 : KELLY BUSHING
EDF .FT               175.75 : DRILLING FLOOR
EGL .FT                  154 : GROUND LEVEL
DATE.               01/13/81 : RUN DATE
RUN .                      1 : RUN NUMBER
DD  .FT                13006 : DEPTH DRILLER
DL  .FT                12992 : DEPTH LOGGER
BLI .FT                12989 : BOTTOM LOG INTERVAL
TLI .FT                 2500 : TOP LOG INTERVAL
CS  .IN                9.625 : CASING SIZE
CBD .FT                 2505 : CASING BOTTOM DRILLER
CBL .FT                 2500 : CASING BOTTOM LOGGER
BS  .IN                 8.75 : BIT SIZE
BSD .FT                13006 : BIT SIZE AT DEPTH
DFT .                    LNS : DRILLING FLUID TYPE
DFD .                    9.9 : DRILLING FLUID DENSITY
DFV .                     76 : DRILLING FLUID VISCOSITY
DFPH.                    9.5 : DRILLING FLUID PH
DFL .                    2.4 : DRILLING FLUID LOSS
MSS .               FLOWLINE : MUD SAMPLE SOURCE
RMS .OHMM              0.806 : RESISTIVITY MUD SAMPLE
MST .DEGF                 75 : MUD SAMPLE TEMPERATURE
RMF .OHMM              0.638 : RESISTIVITY MUD FILTRATE SAMPLE
MFST.DEGF                 75 : MUD FILTRATE SAMPLE TEMPERATURE
RMC .OHMM               1.06 : RESISTIVITY MUD CAKE
MCST.DEGF                 75 : MUD CAKE SAMPLE TEMPERATURE
MFSS.                      M : MUD FILTRATE SAMPLE SOURCE
MCSS.                      C : MUD CAKE SAMPLE SOURCE
RMB .OHMM              0.244 : RESISTIVITY MUD AT BHT
TCS .HRS                1600 : TIME CIRCULATED STOPPED
TLAB.HRS                 200 : TIME LOGGER AT BOTTOM
LUN .                   8066 : LOGGING UNIT NUMBER
LUL .                 DAYTON : LOGGING UNIT LOCATION
ENGI.               HARFISON : RECORDING ENGINEER
WITN.                  CLARK : WITNESSED BY
CLNT.                A2DTECH : CLIENT CODE
ORIG.               5" PRINT : ORIGIN OF DATA
UWI .         42313302910000 : UNIQUE WELL ID
DICO. A2D Technologies, Inc. : DIGITIZING COMPANY
~Other -----------------------------------------------------
~ASCII -----------------------------------------------------
# ...
 10900.00000    9.88380    9.88380   22.15880    0.03250    2.70470    0.00310    0.00310   45.12880    0.03250   51.15630   51.15630   16.64570   16.64570   45.12880   27.53820   27.53820    0.00800    0.00800    2.70880   98.97020  -41.05090  -24.84010   98.97020 4911.44970 4847.79000
 10950.00000    9.73090    9.73090   23.99030    0.05710    2.70620    0.00220    0.00220   41.68360    0.05710   52.45870   52.45870   20.86300   20.86300   41.68360   38.93740   38.93740    0.01010    0.01010    2.70820   57.56120  -41.54010  -25.54730   57.56120 4855.19630 4847.77150
 11000.00000   10.55650   10.55650   10.17040    0.11350    2.74130   -0.01830   -0.01830   98.32450    0.11350   50.49760   50.49760   16.15670   16.15670   98.32450   54.72170   54.72170    0.00520    0.00520    2.74180  150.54130  -65.48940  -49.71460  150.54130 4868.36040 4870.54000
 11050.00000   10.43930   10.43930   16.58750    0.10110    2.68780    0.01300    0.01300   60.28650    0.10110   50.75170   50.75170   13.28020   13.28020   60.28650   49.76300   49.76300    0.00450    0.00450    2.69840  121.04560  -55.14420  -39.58740  121.04560 4928.81840 4886.16110
 11100.00000    9.39600    9.39600   16.74380    0.03760    2.71310   -0.00180   -0.00180   59.72360    0.03760   50.96040   50.96040   10.52620   10.52620   59.72360   53.48470   53.48470    0.00660    0.00660    2.71380   85.70220  -80.45630  -65.11750   85.70220 4934.87400 4891.43550
 11150.00000   11.44270   11.44270   28.12690    0.12390    2.79690   -0.05080   -0.05080   35.55310    0.12390   51.61390   51.61390   18.34670   18.34670   35.55310   38.38170   38.38170    0.00290    0.00290    2.79530   79.61420  -61.09630  -45.97550   79.61420 4923.37700 4944.08500
 11200.00000   10.13510   10.13510   15.96250    0.09580    2.72490   -0.00870   -0.00870   62.64690    0.09580   51.21490   51.21490   21.35570   21.35570   62.64690   71.19440   71.19440    0.00980    0.00980    2.72770   71.82810  -66.75860  -51.85580   71.82810 4931.83840 4986.98830
 11250.00000    9.51680    9.51680  152.58560    0.18550    2.34030    0.21620    0.21620    6.55370    0.18550   63.89700   63.89700   64.63160   64.63160    6.55370    5.89420    5.89420    0.13860    0.13860    2.34630   13.04440  -17.96780   -3.28300   13.04440 4982.17530 4952.03520
 11300.00000    9.38120    9.38120  109.11550    0.01990    2.71380   -0.00220   -0.00220    9.16460    0.01990   55.90760   55.90760   42.04440   42.04440    9.16460   10.63050   10.63050    0.01660    0.01660    2.72220   38.32020  -25.51730  -10.44310   38.32020 5059.98140 4970.57520
 11350.00000    9.66350    9.66350   33.95360    0.08510    2.74760   -0.02200   -0.02200   29.45200    0.08510   51.98490   51.98490   44.35850   44.35850   29.45200   35.12620   35.12620    0.00870    0.00870    2.74970   71.07960  -72.70240  -57.18600   71.07960 4991.02100 4996.46970
 11400.00000    9.53860    9.53860   71.89330    0.12130    2.78300   -0.04270   -0.04270   13.90950    0.12130   55.58310   55.58310   43.29390   43.29390   13.90950   17.50140   17.50140    0.04600    0.04600    2.78740   18.15560  -60.12190  -44.16330   18.15560 4987.97020 4993.02640
 11450.00000    9.42180    9.42180   10.08820    0.12060    2.70180    0.00480    0.00480   99.12550    0.12060   50.60680   50.60680   16.58380   16.58380   99.12550  155.08060  155.08060    0.00960    0.00960    2.70280  198.17290  -86.52110  -70.12030  198.17290 4968.48730 5016.64450
 11500.00000   10.12300   10.12300  129.61090    0.07790    2.45880    0.14690    0.14690    7.71540    0.07790   75.47410   75.47410   56.03000   56.03000    7.71540    9.89000    9.89000    0.22380    0.22380    2.48580    6.77510  -18.33710   -1.49410    6.77510 5169.43020 5024.52340
 11550.00000    9.41250    9.41250   58.59470    0.00480    2.71140   -0.00080   -0.00080   17.06640    0.00480   58.43700   58.43700   34.58620   34.58620   17.06640   19.51650   19.51650    0.03850    0.03850    2.71460   30.00920  -30.07530  -14.26670   30.00920 5112.68070 5032.44920
 11600.00000    9.34260    9.34260   77.78770    0.00490    2.72180   -0.00690   -0.00690   12.85550    0.00490   58.45100   58.45100   38.88490   38.88490   12.85550   14.01830   14.01830    0.04590    0.04590    2.72560   22.21800  -21.15850   -6.39930   22.21800 5089.94870 5031.44430
 11650.00000    9.54100    9.54100   85.66630    0.00470    2.69530    0.00860    0.00860   11.67320    0.00470   57.93040   57.93040   35.71080   35.71080   11.67320   13.41490   13.41490    0.04060    0.04060    2.69880   25.00220  -18.38780   -4.67790   25.00220 5132.94090 5086.17770
 11700.00000   10.54300   10.54300  233.17630    0.20720    2.68860    0.01250    0.01250    4.28860    0.20720   68.49850   68.49850   44.86460   44.86460    4.28860    5.18390    5.18390    0.11500    0.11500    2.69600    7.92460  -16.31260   -3.65200    7.92460 5158.41500 5133.89450
 11750.00000   10.68840   10.68840  382.01470    0.18610    2.59200    0.06900    0.06900    2.61770    0.18610   71.18170   71.18170   56.43340   56.43340    2.61770    3.32280    3.32280    0.12330    0.12330    2.60670    8.04340  -17.29900   -5.68780    8.04340 5129.13040 5139.92290
 11800.00000   10.15620   10.15620  327.66470    0.12040    2.65660    0.03120    0.03120    3.05190    0.12040   64.24590   64.24590   45.32540   45.32540    3.05190    4.21280    4.21280    0.13410    0.13410    2.66390    8.61650  -17.52550   -6.09340    8.61650 5170.51370 5153.31050
 11850.00000    9.61160    9.61160   87.79090    0.01600    2.74110   -0.01820   -0.01820   11.39070    0.01600   58.09520   58.09520   37.23110   37.23110   11.39070   13.91790   13.91790    0.04200    0.04200    2.74640   20.31730  -19.31860   -7.00210   20.31730 5204.98240 5208.58110
 11900.00000    9.56930    9.56930   68.39760    0.00880    2.73330   -0.01360   -0.01360   14.62040    0.00880   57.73070   57.73070   35.42320   35.42320   14.62040   15.30210   15.30210    0.04390    0.04390    2.73720   20.60480  -23.81600  -10.61520   20.60480 5223.29050 5228.31930
 11950.00000    9.62850    9.62850   33.84340    0.03920    2.74040   -0.01780   -0.01780   29.54790    0.03920   55.03680   55.03680   29.56500   29.56500   29.54790   30.70100   30.70100    0.02370    0.02370    2.74190   39.74560  -30.06630  -15.98110   39.74560 5196.86770 5244.38770
 12000.00000    9.40520    9.40520   17.16380    0.01030    2.75890   -0.02860   -0.02860   58.26230    0.01030   50.28410   50.28410   38.59150   38.59150   58.26230  108.42600  108.42600    0.00790    0.00790    2.76320  288.79970  -34.65200  -19.68240  288.79970 5229.49070 5258.69530
 12050.00000    9.34350    9.34350  202.95910    0.09130    2.61000    0.05850    0.05850    4.92710    0.09130   77.94320   77.94320   60.65080   60.65080    4.92710    5.76750    5.76750    0.26280    0.26280    2.60780    7.02230  -22.71690   -7.15110    7.02230 5211.98540 5289.40040
 12100.00000    9.26970    9.26970   36.48740    0.01510    2.73450   -0.01430   -0.01430   27.40670    0.01510   54.32930   54.32930   32.89770   32.89770   27.40670   31.05400   31.05400    0.02200    0.02200    2.73670   51.77410  -27.72200  -11.82590   51.77410 5252.50290 5300.54690
 12150.00000    9.35720    9.35720   69.45600    0.06800    2.74780   -0.02210   -0.02210   14.39760    0.06800   59.56470   59.56470   45.02540   45.02540   14.39760   19.93920   19.93920    0.04410    0.04410    2.75000   37.99910  -20.03650   -3.78440   37.99910 5288.00440 5313.85640
 12200.00000    9.18810    9.18810   74.41640    0.02510    2.72210   -0.00710   -0.00710   13.43790    0.02510   62.01780   62.01780   50.37270   50.37270   13.43790   14.33930   14.33930    0.07770    0.07770    2.72950   22.98320  -31.01030  -14.34770   22.98320 5294.76420 5356.01460
 12250.00000    9.05790    9.05790   71.35980    0.00970    2.73670   -0.01560   -0.01560   14.01350    0.00970   58.89260   58.89260   43.88440   43.88440   14.01350   15.96380   15.96380    0.06350    0.06350    2.73940   21.84650  -33.26170  -16.18850   21.84650 5320.51120 5356.30960
