~Version ---------------------------------------------------
VERS. 2.0 : CWLS log ASCII Standard -VERSION 2.0
WRAP.  NO : ONE LINE PER DEPTH STEP
~Well ------------------------------------------------------
STRT.F                  1500.0 : START DEPTH
STOP.F                  8300.0 : STOP DEPTH
STEP.F                50.00000 : STEP LENGTH
NULL.                  -999.25 : NULL VALUE
COMP.   FIELD DRILLING COMPANY : COMPANY
WELL.        CAPT AND BERRY #1 : WELL
FLD .                       WC : FIELD
LOC .                          : LOCATION
CNTY.                   DIMMIT : COUNTY
STAT.                    TEXAS : STATE
CTRY. UNITED STATES OF AMERICA : COUNTRY
SRVC.             Schlumberger : SERVICE COMPANY
DATE.              07-Jun-1978 : LOGDATE
API .           42127317020000 : API NUMBER
UWI .           42127317020000 : UNIQUE WELL ID
SLAT.WGS84       28.5833203887 : SURFACE LATITUDE
SLON.WGS84      -99.6338956289 : SURFACE LONGITUDE
~Curve Information -----------------------------------------
DEPT.F                 : 
DPHI.DEC  45 890 12 00 : DENSITY POROSITY SANDSTONE
NPHI.DEC  42 890 01 00 : NEUTRON POROSITY SANDSTONE
CALD.IN   45 280 60 00 : CALIPER FROM DENSITY LOG
GRD .GAPI 45 310 01 00 : GAMMA RAY FROM DENSITY LOG
CORR.G/C3 45 356 01 00 : DENSITY CORRECTION
RHOB.G/C3 45 350 01 00 : BULK DENSITY
SPR .MV   07 010 01 00 : SPONTANEOUS POTENTIAL
DT  .US/F 60 520 00 00 : INTERVAL TRANSIT TIME
LL8 .OHMM 07 220 08 00 : LATEROLOG8- RES.
ILM .OHMM 07 120 44 00 : INDUCTION LOG MEDIUM
ILD .OHMM 07 120 46 00 : INDUCTION LOG DEEP
~Params ----------------------------------------------------
PD  .                     GL : PERMANENT DATUM
EPD .FT                551.5 : ELEVATION PERMANENT DATUM
LMF .                     KB : LOG MEASURED FROM
DAPD.FT                 14.5 : FEET ABOVE PERMANENT DATUM
DMF .                     KB : DRILLING MEASURED FROM
EKB .FT                  556 : KELLY BUSHING
EDF .FT                  555 : DRILLING FLOOR
EGL .FT                551.5 : GROUND LEVEL
DATE.               06/07/78 : RUN DATE
RUN .                      1 : RUN NUMBER
DD  .FT                 8330 : DEPTH DRILLER
DL  .FT                 8334 : DEPTH LOGGER
BLI .FT                 8328 : BOTTOM LOG INTERVAL
TLI .FT                 1543 : TOP LOG INTERVAL
CS  .IN                10.75 : CASING SIZE
CBD .FT                 1538 : CASING BOTTOM DRILLER
CBL .FT                 1543 : CASING BOTTOM LOGGER
BS  .IN                9.875 : BIT SIZE
BSD .FT                 8330 : BIT SIZE AT DEPTH
DFT .              LIGNOSULF : DRILLING FLUID TYPE
DFD .                    9.6 : DRILLING FLUID DENSITY
DFV .                     51 : DRILLING FLUID VISCOSITY
DFPH.                    9.5 : DRILLING FLUID PH
DFL .                    7.8 : DRILLING FLUID LOSS
MSS .                   CIRC : MUD SAMPLE SOURCE
RMS .OHMM               0.64 : RESISTIVITY MUD SAMPLE
MST .FT                   90 : MUD SAMPLE TEMPERATURE
RMF .OHMM              0.495 : RESISTIVITY MUD FILTRATE SAMPLE
MFST.FT                   90 : MUD FILTRATE SAMPLE TEMPERATURE
RMC .OHMM               0.55 : RESISTIVITY MUD CAKE
MCST.FT                   90 : MUD CAKE SAMPLE TEMPERATURE
MFSS.                      M : MUD FILTRATE SAMPLE SOURCE
MCSS.                      C : MUD CAKE SAMPLE SOURCE
RMB .OHMM              0.305 : RESISTIVITY MUD AT BHT
TCS .HRS                2200 : TIME CURCULATED STOPPED
TLAB.HRS                 600 : TIME LOGGER AT BOTTOM
LUN .                   7769 : LOGGING UNIT NUMBER
LUL .                 LAREDO : LOGGING UNIT LOCATION
ENGI.                 SPAETH : RECORDING ENGINEER
WITN.          LYONS/JOHNSON : WITNESSED BY
CLNT.                A2DTECH : CLIENT CODE
ORIG.            2" 5" PRINT : ORIGIN OF DATA
UWI .         42127317020000 : UNIQUE WELL ID
DICO. A2D Technologies, Inc. : DIGITIZING COMPANY
~Other -----------------------------------------------------
~ASCII -----------------------------------------------------
 1500.00000    -999.25    -999.25    -999.25   22.73440    -999.25    -999.25    -999.25    -999.25    -999.25    -999.25    -999.25
 1550.00000    0.60130    0.51640    8.02080   34.82480    0.03720    1.51040   -9.86550  112.64870    4.62600    3.91300    4.42910
 1600.00000    0.27360    0.31650   10.41310   28.58220    0.08110    2.29060   -9.26560   98.80940    7.96200    8.11710    8.93810
 1650.00000    0.23590    0.36780   10.71030   51.03970    0.05060    2.25340  -18.38520   99.70290    7.69300    7.84250    8.69540
 1700.00000    0.25840    0.34960   11.43830   48.71780    0.04460    2.27770  -17.93720   97.91670    8.70630    9.12480    9.84250
 1750.00000    0.26020    0.35130   11.28970   49.67510    0.03910    2.28870  -18.53360  100.48210    7.08390    6.97970    7.21470
 1800.00000    0.25130    0.34510   11.33430   50.06440    0.06080    2.28360  -14.05040   98.95830    8.12800    8.87690   10.11730
 1850.00000    0.22800    0.33740   11.30460   53.04660    0.02330    2.33370  -20.32810   97.47020    6.84480    7.22050    7.62950
 1900.00000    0.27030    0.32540   10.68080   30.84470    0.00370    2.19840  -23.16890   95.83300    7.38220    7.62950    7.84230
 1950.00000    0.22980    0.33040   10.72520   40.78750    0.03430    2.29280  -23.31740   99.10710    5.64650    5.63570    5.87340
 2000.00000    0.19670    0.34090   11.64800   60.77260    0.06470    2.36380  -19.88040  101.48810    3.79010    3.67800    3.83300
 2050.00000    0.25780    0.31290   11.32010   37.22030    0.01260    2.20040  -24.36450   96.13100    5.64650    5.71400    5.87340
 2100.00000    0.21000    0.35710   13.93470   64.06740    0.06400    2.33830  -17.93800  103.42260    2.76270    2.67970    2.75450
 2150.00000    0.20590    0.29510   11.67610   42.24230    0.04540    2.35670  -25.85950   92.41050    5.41490    5.33380    5.71400
 2200.00000    0.22530    0.37540   14.14260   65.75070    0.14880    2.31540  -19.28250  102.52790    3.00020    3.09650    3.40970
 2250.00000    0.29740    0.32220   10.84400   36.00130    0.02310    2.19230  -14.94770   94.64270    6.52350    6.97630    7.17120
 2300.00000    0.26420    0.33040   11.05200   49.83400    0.03200    2.23400  -16.89040   96.27980    7.38230    7.22070    7.73520
 2350.00000    0.20030    0.32880   11.03870   59.95510    0.03870    2.29810  -20.32880   92.41070    7.90760    6.78690    6.69400
 2400.00000    0.25840    0.42650   13.01000   62.07230    0.07590    2.27200  -18.98360  113.24400    2.32650    2.51870    2.41680
 2450.00000    0.20560    0.29030   11.46770   24.55950    0.02730    2.28610  -18.38610   89.28620    5.27130    5.52060    5.29720
 2500.00000    0.25270    0.34510   14.26140   71.32240    0.16000    2.26380  -20.47830   95.38720    3.53810    3.45700    3.57800
 2550.00000    0.19220    0.31650   15.13820   75.22250    0.06700    2.40760  -20.17910   95.08930    4.20160    4.13450    4.33860
 2600.00000    0.20070    0.37590   16.20800   71.99180    0.06180    2.35320  -19.13300  106.69640    2.09850    2.09150    2.20350
 2650.00000    0.18650    0.35440   15.79200   76.00260    0.03270    2.36660  -17.63880  108.63900    1.81650    1.79760    1.89940
 2700.00000    0.14360    0.33170   15.30150   61.73870    0.14350    2.46910  -18.08630  110.71430    1.76720    2.19490    2.51880
 2750.00000    0.18690    0.36510   15.68470   65.30460    0.00150    2.35740  -18.38500  106.10120    1.91920    1.99320    2.10600
 2800.00000    0.14650    0.27590   14.00890   59.02110    0.07810    2.41800  -20.02990   91.36900    2.93900    2.85100    3.07530
 2850.00000    0.23750    0.28400   15.25690   52.80510    0.22460    2.27740  -19.87940   95.38690    2.63290    2.68830    2.75440
 2900.00000    0.23860    0.40860   13.77120   66.02080    0.04320    2.27120  -18.83480  127.82740    1.21920    1.26540    1.30970
 2950.00000    0.11610    0.28480   13.47400   50.84910    0.13710    2.32410  -23.91550   89.88110    3.02090    3.55350    3.80680
 3000.00000    0.11500    0.20460   14.08320   31.42640    0.00430    2.51040  -26.00850   76.78570    7.43330    7.27090    7.27060
 3050.00000    0.12130    0.21290   13.69690   31.09190    0.03570    2.50750  -28.55010   75.44630    7.28180    6.51250    6.24890
 3100.00000    0.08750    0.17410   13.25110   31.72000    0.00070    2.52020  -26.00870   75.84120    8.58750    8.28650    8.93830
 3150.00000    0.08630    0.19280   12.71620   36.55260    0.00770    2.54690  -24.36470   78.27380    7.28160    7.07310    7.52520
 3200.00000    0.12360    0.25230   12.91750   49.47920    0.10420    2.46440  -19.73090   85.02240    4.06830    3.71950    3.99460
 3250.00000    0.08900    0.25940   13.22400   49.80460    0.01410    2.56780  -20.02270   85.99350    4.71790    4.63770    4.73460
 3300.00000    0.07040    0.10980   12.40780   23.93700    0.03790    2.55380  -27.80270   67.81580   15.12900    9.83210    9.21560
 3350.00000    0.10810    0.31260   13.44920   51.55350    0.05210    2.50820  -18.53510   93.55480    3.10920    3.27900    3.30820
 3400.00000    0.09560    0.26490   12.61210   55.49780    0.01120    2.54440  -18.53510   76.22960    7.67120    4.72930    5.22710
 3450.00000    0.14480    0.36290   13.54830   55.72070    0.03320    2.41610  -18.53540   99.62740    2.59600    2.39270    2.42990
 3500.00000    0.11300    0.27150   12.84690   51.26300    0.02500    2.50930  -18.25880   87.55590    3.67230    3.66550    3.77120
 3550.00000    0.10050    0.22230   11.95840   45.46810    0.05730    2.54140  -18.97700   79.95530    5.85200    5.32330    5.36010
 3600.00000    0.08400    0.25130   11.97330   51.03240    0.00630    2.55410  -19.27850   87.55590    3.93050    4.04040    4.09720
 3650.00000    0.06790    -999.25   11.09660   55.49740    0.11740    2.56600  -18.98060   86.36360    3.95310    4.09340    4.15330
 3700.00000    -999.25    -999.25    -999.25    -999.25    -999.25    -999.25  -18.83410   92.02680    3.03510    3.01420    2.96730
 3750.00000    -999.25    -999.25    -999.25    -999.25    -999.25    -999.25  -17.93720  101.46510    2.02810    1.91890    1.98630
 3800.00000    -999.25    -999.25    -999.25    -999.25    -999.25    -999.25  -17.04160  105.43960    1.89600    1.69500    1.67380
 3850.00000    -999.25    -999.25    -999.25    -999.25    -999.25    -999.25  -17.63640   90.98360    4.18210    2.91330    3.00890
 3900.00000    -999.25    -999.25    -999.25    -999.25    -999.25    -999.25  -18.23620   96.34870    2.84260    2.67160    2.62260
 3950.00000    -999.25    -999.25    -999.25    -999.25    -999.25    -999.25  -17.36490   98.28610    2.67160    2.55910    2.52830
 4000.00000    -999.25    -999.25    -999.25    -999.25    -999.25    -999.25  -17.78770   89.49330    3.23530    3.00380    2.98320
 4050.00000    -999.25    -999.25    -999.25    -999.25    -999.25    -999.25  -17.48880   91.70030    3.21660    2.95300    2.85400
 4100.00000    -999.25    -999.25    -999.25    -999.25    -999.25    -999.25  -18.08670   75.51560    6.72940    6.37280    6.24240
 4150.00000    -999.25    -999.25    -999.25    -999.25    -999.25    -999.25  -18.53510   82.93590    3.90350    3.93530    3.93280
 4200.00000    0.19870    0.31100   14.16970   56.40920    0.07120    2.36640  -18.08670   91.21490    2.73700    3.19620    3.18080
 4250.00000    0.12780    0.29530   11.57400   37.61890    0.08110    2.43660  -23.16890   85.75530    3.47180    4.16280    4.09640
 4300.00000    0.20710    0.44160   12.64690   71.17680    0.07810    2.35000  -15.84450  116.46800    1.57120    1.68550    1.88760
 4350.00000    0.13260    0.29920   12.20540   67.34590    0.12970    2.49610  -15.54560   88.18860    4.19520    3.44200    3.35230
 4400.00000    0.20830    0.24030   10.98100   29.73170    0.05730    2.34850  -51.86850   84.12820    4.80040    3.19440    2.36000
 4450.00000    0.22990    0.26850   11.87870   34.87330    0.05190    2.30300  -52.54080   89.79110    3.90350    2.96510    2.29730
 4500.00000    0.09370    0.22060   12.67450   43.59130    0.00860    2.53210  -17.92620   76.50320    6.19510    5.83740    5.70320
