~Version ---------------------------------------------------
VERS. 2.0 : CWLS log ASCII Standard -VERSION 2.0
WRAP.  NO : ONE LINE PER DEPTH STEP
~Well ------------------------------------------------------
STRT.F                   300.0 : START DEPTH
STOP.F                 13300.0 : STOP DEPTH
STEP.F                50.00000 : STEP LENGTH
NULL.                  -999.25 : NULL VALUE
COMP.         DALECO RESOURCES : COMPANY
WELL.                 OLSON #1 : WELL
FLD .               CLAY CREEK : FIELD
LOC .                          : LOCATION
CNTY.               WASHINGTON : COUNTY
STAT.                    TEXAS : STATE
CTRY. UNITED STATES OF AMERICA : COUNTRY
SRVC.             Schlumberger : SERVICE COMPANY
DATE.              06-Jan-1984 : LOGDATE
API .           42477305280000 : API NUMBER
UWI .           42477305280000 : UNIQUE WELL ID
SLAT.WGS84           30.312105 : SURFACE LATITUDE
SLON.WGS84          -96.369064 : SURFACE LONGITUDE
~Curve Information -----------------------------------------
DEPT   .F                 : 
DCALR  .IN   07 280 01 00 : DIFFERENTIAL CALIPER FROM RESISTIVITY LOG
DPHI_LS.DEC  45 890 10 00 : DENSITY POROSITY LIMESTONE
DPHI_SS.DEC  45 890 12 00 : DENSITY POROSITY SANDSTONE
DRHO   .G/C3 45 356 01 00 : BULK DENSITY CORRECTION
GRR    .GAPI 07 310 01 00 : GAMMA RAY FROM RESISTIVITY LOG
ILD    .OHMM 07 120 46 00 : INDUCTION DEEP RESISTIVITY
ILM    .OHMM 07 120 44 00 : INDUCTION MEDIUM RESISTIVITY
NPHI_LS.DEC  42 890 01 00 : NEUTRON POROSITY LIMESTONE
NPHI_SS.DEC  42 890 03 00 : NEUTRON POROSITY SANDSTONE
SFLU   .OHMM 07 220 01 00 : SHALLOW FOCUSED RESISTIVITY (UNAVERAGED)
SPR    .MV   07 010 01 00 : SPONTANEOUS POTENTIAL FROM RESISTIVITY LOG
~Params ----------------------------------------------------
PD  .                     GL : PERMANENT DATUM
EPD .FT                  390 : ELEVATION PERMANENT DATUM
LMF .                     KB : LOG MEASURED FROM
DAPD.FT                   23 : MEASUREMENT ABOVE PERMANENT DATUM
DMF .                     KB : DRILLING MEASURED FROM
EKB .FT                  413 : KELLY BUSHING
EDF .FT                  412 : DRILLING FLOOR
EGL .FT                  390 : GROUND LEVEL
DATE.               01/06/84 : RUN DATE
RUN .                      3 : RUN NUMBER
DD  .FT                13320 : DEPTH DRILLER
DL  .FT                13323 : DEPTH LOGGER
BLI .FT                13317 : BOTTOM LOG INTERVAL
TLI .FT                11306 : TOP LOG INTERVAL
CS  .IN                7.625 : CASING SIZE
CBD .FT                11309 : CASING BOTTOM DRILLER
CBL .FT                11306 : CASING BOTTOM LOGGER
BS  .IN                  6.5 : BIT SIZE
BSD .FT                13320 : BIT SIZE AT DEPTH
DFT .                    LSN : DRILLING FLUID TYPE
DFD .                   10.4 : DRILLING FLUID DENSITY
DFV .                     45 : DRILLING FLUID VISCOSITY
DFPH.                      9 : DRILLING FLUID PH
DFL .                      4 : DRILLING FLUID LOSS
MSS .                   TANK : MUD SAMPLE SOURCE
RMS .OHMM               5.27 : RESISTIVITY MUD SAMPLE
MST .DEGF                107 : MUD SAMPLE TEMPERATURE
RMF .OHMM               3.95 : RESISTIVITY MUD FILTRATE SAMPLE
MFST.DEGF                107 : MUD FILTRATE SAMPLE TEMPERATURE
RMC .OHMM                7.9 : RESISTIVITY MUD CAKE
MCST.DEGF                107 : MUD CAKE SAMPLE TEMPERATURE
MFSS.                      C : MUD FILTRATE SAMPLE SOURCE
MCSS.                      C : MUD CAKE SAMPLE SOURCE
RMB .OHMM              2.513 : RESISTIVITY MUD AT BHT
TCS .HRS                1300 : TIME CIRCULATED STOPPED
TLAB.HRS                1930 : TIME LOGGER AT BOTTOM
LUN .                   8227 : LOGGING UNIT NUMBER
LUL .                BRENHAM : LOGGING UNIT LOCATION
ENGI.               BERDINIS : RECORDING ENGINEER
WITN.      ELLIS NORTH FILGO : WITNESSED BY
CLNT.                A2DTECH : CLIENT CODE
ORIG.            1" 5" PRINT : ORIGIN OF DATA
UWI .         42477305280000 : UNIQUE WELL ID
DICO. A2D Technologies, Inc. : DIGITIZING COMPANY
~Other -----------------------------------------------------
~ASCII -----------------------------------------------------
  300.00000    0.02480    -999.25    0.48590    0.01940   57.18450    1.81430    1.79820    -999.25    0.57120    1.89540  -20.54640
  350.00000    3.42190    -999.25    0.60090    0.06050   48.79980    2.25090    2.03770    -999.25    0.60190    2.26410  -19.23640
  400.00000    1.71290    -999.25    0.41030    0.06860   68.81450    3.10420    2.84760    -999.25    0.55110    2.85080  -16.58980
  450.00000    1.39930    -999.25    0.41230    0.04380   49.48550    2.79760    2.59120    -999.25    0.48170    2.48930  -16.18660
  500.00000    0.96610    -999.25    0.44890    0.09620   56.10840   11.30540    8.89080    -999.25    0.49630    7.06440  -30.36120
  550.00000    2.38440    -999.25    0.50850    0.00570   85.13830    8.04480    7.55660    -999.25    0.54830    6.97360  -28.62830
  600.00000    7.22680    -999.25    -999.25    0.00370   60.36370    2.09840    1.99020    -999.25    0.52510    2.17550  -18.25470
  650.00000    3.39000    -999.25    0.43800    0.08850   73.37160    2.43220    2.44060    -999.25    0.57330    2.41560  -17.97990
  700.00000    1.22180    -999.25    0.40250    0.02310   82.40290    2.70370    2.63630    -999.25    0.48970    2.80310  -16.50890
  750.00000    0.83730    -999.25    0.31080    0.04580   70.97390    3.91410    4.19850    -999.25    0.41020    6.48650  -15.60540
  800.00000    0.13640    -999.25    0.37350    0.03150   84.08280    8.67110    7.66760    -999.25    0.49360    6.62010  -23.74430
  850.00000    0.68400    -999.25    0.34840    0.07950   79.08010    9.05980    7.46610    -999.25    0.46780    9.35960  -26.40280
  900.00000    0.71140    -999.25    0.39650    0.05800   83.38920    2.11140    2.06790    -999.25    0.53350    2.45490  -19.18570
  950.00000    1.93110    -999.25    0.39330    0.07870   96.42080    3.29340    3.20260    -999.25    0.47180    3.21980  -12.52190
 1000.00000    0.51050    -999.25    0.34200    0.03020   78.75200    2.95150    3.17750    -999.25    0.44930    3.32360  -12.77910
 1050.00000    1.73920    -999.25    0.37940    0.03290   64.41900    7.85740    7.37060    -999.25    0.45730    7.11680  -19.13190
 1100.00000    1.08670    -999.25    0.38300    0.04340   70.53410    5.03880    4.92960    -999.25    0.46800    5.23400  -17.29100
 1150.00000    2.27540    -999.25    0.39680    0.01480   63.22120    6.61930    5.66100    -999.25    0.37990    7.27430  -17.98320
 1200.00000    1.95720    -999.25    0.34360    0.02930   74.00980    7.09020    6.49630    -999.25    0.34260    8.26600  -15.24510
 1250.00000    0.89510    -999.25    0.35220    0.02010   83.63850    5.52550    5.21170    -999.25    0.38350    4.58090  -10.57460
 1300.00000    1.60530    -999.25    0.38670    0.04800   85.11930    2.24970    1.93920    -999.25    0.48820    2.14670   -7.79080
 1350.00000    1.10880    -999.25    0.38770    0.04290   86.83550    1.24920    1.30170    -999.25    0.52170    1.52430   -6.79850
 1400.00000    0.88100    -999.25    0.35160    0.04860  104.60980    1.61280    1.67680    -999.25    0.46260    1.70360   -4.19170
 1450.00000    1.06640    -999.25    0.40140    0.02150   90.80680    1.33270    1.36250    -999.25    0.55950    1.46840   -4.11270
 1500.00000    3.81420    -999.25    0.37620    0.02770   46.51600    7.39360    7.36050    -999.25    0.40930    6.87810  -26.91540
 1550.00000    1.87850    -999.25    0.35260    0.03720   75.16710    1.40670    1.46510    -999.25    0.52070    1.87620   -2.31890
 1600.00000    1.63970    -999.25    0.39300    0.01260   87.80500    1.56780    1.60410    -999.25    0.51280    1.79840   -0.24660
 1650.00000    1.66270    -999.25    0.35220    0.03140   68.56510    3.05090    3.02660    -999.25    0.43450    3.12090   -3.79020
 1700.00000    1.83420    -999.25    0.35710    0.02410   74.28230    1.66960    1.70410    -999.25    0.48190    2.52270    1.54600
 1750.00000    2.14400    -999.25    0.35780    0.01410   77.04780    1.28860    1.33900    -999.25    0.52140    1.68620    4.10850
 1800.00000    2.69270    -999.25    0.35120    0.04860   59.25690    2.43610    2.49440    -999.25    0.38100    2.89480   -4.75340
 1850.00000    1.44350    -999.25    0.31510    0.03350   82.07780    1.54740    1.57460    -999.25    0.48400    1.66420    5.14860
 1900.00000    1.67040    -999.25    0.35960    0.03320   92.27550    0.85100    0.92550    -999.25    0.53630    1.11640  -33.27840
 1950.00000    2.45540    -999.25    0.32200    0.03150   81.78660    1.13960    1.17220    -999.25    0.52280    1.33890  -53.95770
 2000.00000    0.69550    -999.25    0.36270    0.01930   42.30000    4.90660    5.02180    -999.25    0.48840    5.31120  -68.79880
 2050.00000    0.96510    -999.25    0.32600    0.02560   70.95400    2.55100    2.58780    -999.25    0.44210    2.99960  -54.56740
 2100.00000    1.37140    -999.25    0.33230    0.03160   93.49360    1.30720    1.33330    -999.25    0.47710    1.46630  -49.24220
 2150.00000    1.50430    -999.25    0.30290    0.05010   85.04990    1.58690    1.66330    -999.25    0.52150    1.76760  -49.08150
 2200.00000    2.99430    -999.25    0.28510    0.03630   78.99150    2.12140    2.15890    -999.25    0.40620    2.69450  -49.34280
 2250.00000    2.24260    -999.25    0.28670    0.03600   93.83720    1.50950    1.55780    -999.25    0.44840    1.66210  -45.31740
 2300.00000    1.50150    -999.25    0.29680    0.06430   85.92100    2.05770    2.19660    -999.25    0.50860    2.26570  -44.63780
 2350.00000   -0.42490    -999.25    0.35480    0.04430   53.06570    3.27530    3.35350    -999.25    0.49060    3.35810  -53.99600
 2400.00000   -0.15700    -999.25    0.32520    0.06240   60.27080    2.49180    2.62570    -999.25    0.58260    2.55350  -47.07740
 2450.00000    0.09120    -999.25    0.30220    0.05030   69.89510    2.29320    2.41800    -999.25    0.51250    2.30180  -43.74770
 2500.00000    0.82740    -999.25    0.33370    0.05900   76.12550    1.72260    1.74470    -999.25    0.54970    1.85770  -38.15010
 2550.00000    0.89170    -999.25    0.29630    0.02700   70.52420    2.21100    2.31180    -999.25    0.44090    2.34100  -42.83470
 2600.00000    0.24490    -999.25    0.36720    0.02370   54.66120    3.06700    3.11760    -999.25    0.52060    3.34280  -45.79230
 2650.00000    1.01500    -999.25    0.30730    0.05810   75.23040    1.80290    1.88590    -999.25    0.48900    1.99050  -34.33830
 2700.00000    0.94870    -999.25    0.37580    0.01290   63.07630    2.20040    2.28210    -999.25    0.50150    2.55020  -36.89710
 2750.00000    0.19790    -999.25    0.30300    0.04250   65.12630    1.53340    1.66250    -999.25    0.42990    2.41360  -30.88040
 2800.00000    0.51040    -999.25    0.27810    0.09830   66.68830    1.86000    1.83550    -999.25    0.43090    1.88360  -29.75220
 2850.00000    0.01960    -999.25    0.33420    0.05620   63.29410    0.86770    0.93280    -999.25    0.51140    1.12850  -26.23170
 2900.00000    4.06170    -999.25    0.36530    0.06000   71.15660    3.86160    4.17320    -999.25    0.39400    5.45290  -43.67670
 2950.00000    0.12020    -999.25    0.34350    0.02920   52.04610    3.96100    3.99230    -999.25    0.38220    4.76920  -45.08950
 3000.00000    0.65760    -999.25    0.30640    0.03930   58.74080    3.51360    3.66150    -999.25    0.42690    3.50210  -37.32940
 3050.00000    1.65790    -999.25    0.27040    0.01990   79.75730    1.82800    1.86320    -999.25    0.48500    1.80010  -28.21090
 3100.00000    0.39330    -999.25    0.27290    0.00270   51.63070    2.40850    2.62200    -999.25    0.47340    2.59120  -34.67340
 3150.00000   -0.15590    -999.25    0.27650    0.05650   64.24660    1.27310    1.41850    -999.25    0.54820    1.19190  -30.16660
 3200.00000   -0.59990    -999.25    0.30960    0.08290   65.09170    1.45150    1.52660    -999.25    0.50800    2.39060  -24.98180
 3250.00000    1.41920    -999.25    0.22740    0.09530   89.61590    1.00600    1.07470    -999.25    0.51180    1.29540  -24.13010
 3300.00000    1.57970    -999.25    0.21530    0.06050   81.05170    1.17830    1.24510    -999.25    0.48490    1.38750  -26.87370
