~Version ---------------------------------------------------
VERS.      2.0 : CWLS log ASCII Standard -VERSION 2.0
WRAP.      YES : Multiple lines per depth step
CREA. 03/30/13 : LAS Creation Date
~Well ------------------------------------------------------
STRT.FT                 1500.0 : START DEPTH
STOP.FT                10200.0 : STOP DEPTH
STEP.FT               50.00000 : STEP LENGTH
NULL.                  -999.25 : NULL VALUE
COMP.     MARATHON OIL COMPANY : COMPANY
WELL.   MARATHON MARSHALL A #7 : WELL
FLD .               BEAR GRASS : FIELD
LOC .                          : LOCATION
CNTY.                     LEON : COUNTY
STAT.                    TEXAS : STATE
CTRY. UNITED STATES OF AMERICA : COUNTRY
SRVC.             Schlumberger : SERVICE COMPANY
DATE.              17-Feb-1998 : LOGDATE
API .           42289312850000 : API NUMBER
UWI .           42289312850000 : UNIQUE WELL ID
SLAT.WGS84       31.3583372232 : SURFACE LATITUDE
SLON.WGS84      -96.2380251185 : SURFACE LONGITUDE
~Curve Information -----------------------------------------
DEPT    .FT    : DEPTH FEET
AHT10ED .OHMM  : 10 INCH RESISTIVITY TWO FOOT RESOLUTION FROM RESISTIVITY LOG
AHT20ED .OHMM  : 20 INCH RESISTIVITY TWO FOOT RESOLUTION FROM RESISTIVITY LOG
AHT30ED .OHMM  : 30 INCH RESISTIVITY TWO FOOT RESOLUTION FROM RESISTIVITY LOG
AHT60ED .OHMM  : 60 INCH RESISTIVITY TWO FOOT RESOLUTION FROM RESISTIVITY LOG
AHT90ED .OHMM  : 90 INCH RESISTIVITY TWO FOOT RESOLUTION FROM RESISTIVITY LOG
CALWS   .IN    : CALIPER [DCALRED+BITS]
CONDWS  .MMHO  : CONDUCTIVITY [1000/DRESWS]
DCALRED .IN    : DIFFERENTIAL CALIPER FROM RESISTIVITY LOG
DCORWS  .G/C3  : DENSITY CORRECTION [HDRAED]
DENWS   .G/C3  : FORMATION BULK DENSITY [CALC FROM DPOWS, M=2.71,F=1.0]
DPHZLSED.V/V   : DENSITY POROSITY LIMESTONE [M=2.71,F=1.0] FROM DENSITY LOG
DPOWS   .V/V   : DENSITY POROSITY LIMESTONE [DPHZLSED]
DRESWS  .OHMM  : DEEP RESISTIVITY [AHT90ED]
DTED    .US/F  : DELTA TIME FROM SONIC LOG
DTWS    .US/F  : COMPRESSIONAL SONIC [DTED]
GRMED   .GAPI  : GAMMA RAY FROM MICROLOG
GRRED   .GAPI  : GAMMA RAY FROM RESISTIVITY LOG
GRWS    .GAPI  : GAMMA RAY [GRRED SPL. TO GRMED @ 4602']
HDRAED  .G/C3  : DENSITY CORRECTION FROM DENSITY LOG
MCALED  .IN    : CALIPER FROM MICROLOG
MRESWS  .OHMM  : MEDIUM RESISTIVITY [AHT30ED]
NPHILSED.V/V   : NEUTRON POROSITY LIMESTONE FROM DENSITY LOG
NPOWS   .V/V   : NEUTRON POROSITY LIMESTONE [NPHILSED]
SPRED   .MV    : SPONTANEOUS POTENTIAL FROM RESISTIVITY LOG
SPWS    .MV    : SPONTANEOUS POTENTIAL [BASELINE 0 MV, SPRED]
SRESWS  .OHMM  : SHALLOW RESISTIVITY [AHT10ED]
TENRED  .LBF   : TENSION FROM RESISTIVITY LOG
~Params ----------------------------------------------------
PD  .                     GL : PERMANENT DATUM
EPD .FT                  472 : ELEVATION PERMANENT DATUM
LMF .                     KB : LOG MEASURED FROM
DAPD.FT                   17 : FEET ABOVE PERMANENT DATUM
DMF .                     KB : DRILLING MEASURED FROM
EKB .FT                  489 : KELLY BUSHING
EDF .FT                  488 : DRILLING FLOOR
EGL .FT                  472 : GROUND LEVEL
DATE.               02/17/98 : RUN DATE
RUN .                      1 : RUN NUMBER
DD  .FT                10250 : DEPTH DRILLER
DL  .FT                10240 : DEPTH LOGGER
BLI .FT                10240 : BOTTOM LOG INTERVAL
TLI .FT                 1610 : TOP LOG INTERVAL
MST .DEGF                110 : MUD SAMPLE TEMPERATURE
MFST.DEGF                109 : MUD FILTRATE SAMPLE TEMPERATURE
MCST.DEGF                109 : MUD CAKE SAMPLE TEMPERATURE
MFSS.                   CALC : MUD FILTRATE SAMPLE SOURCE
MCSS.                   CALC : MUD CAKE SAMPLE SOURCE
CLNT.                A2DTECH : CLIENT CODE
ORIG.         1" 2" 5" PRINT : ORIGIN OF DATA
UWI .         42289312850000 : UNIQUE WELL ID
DICO. A2D Technologies, Inc. : DIGITIZING COMPANY
~Other -----------------------------------------------------
AIT & LDT-CNL & BHC & ML RUN IN COMBO
~ASCII -----------------------------------------------------
# ...
 8000.00000   41.79150   30.84900   25.85630   21.94750   18.36460   10.16040   54.45260    2.28540    0.03790    2.71700   -0.00410   -0.00410   18.36460   54.50470   54.50470   45.52200   46.57250   45.52200    0.03790   10.09280   25.85630    0.02760    0.02760  -53.14220  -12.32320   41.79150 3561.78150
 8050.00000   77.51860   38.66090   35.84520   26.54290   22.08640    9.89210   45.27670    2.01710    0.02640    2.70520    0.00280    0.00280   22.08640   54.56240   54.56240   25.98600   25.04310   25.98600    0.02640    9.82820   35.84520    -999.25    -999.25  -83.32000  -43.40890   77.51860 3610.59500
 8100.00000    3.38140    4.22890   15.20920   16.97070   17.61630    9.73950   56.76560    1.86450    0.00630    2.69360    0.00960    0.00960   17.61630   58.50220   58.50220   50.59100   50.49990   50.59100    0.00630    9.69550   15.20920    0.06100    0.06100  -52.60420  -13.47040    3.38140 3626.10820
 8150.00000  137.93550   47.10240   70.08740   62.95880   54.96840   10.06340   18.19230    2.18840    0.01290    2.69100    0.01110    0.01110   54.96840   56.50800   56.50800   49.34030   50.30590   49.34030    0.01290   10.01500   70.08740    0.04760    0.04760  -50.05960  -11.70310  137.93550 3617.25200
 8200.00000  941.33030  528.30380  447.98010  321.19250  238.74800    9.97760    4.18850    2.10260    0.01950    3.15080   -0.25780   -0.25780  238.74800   49.62580   49.62580   12.08310   12.05790   12.08310    0.01950   10.01770  447.98010   -0.00110   -0.00110  -45.75190  -10.00780  941.33030 3608.77120
 8250.00000    8.00500    7.11660    6.72540    6.32960    6.14360    9.67160  162.77100    1.79660    0.02470    2.70610    0.00230    0.00230    6.14360   66.12680   66.12680   54.11890   54.32090   54.11890    0.02470    9.57170    6.72540    0.13450    0.13450  -28.18670   -2.20680    8.00500 3616.84690
 8300.00000  192.19960   82.89070   66.77960   58.96740  116.87990   10.16760    8.55580    2.29260    0.03440    2.70660    0.00200    0.00200  116.87990   53.81310   53.81310   39.80920   39.97620   39.80920    0.03440   10.11960   66.77960    0.03830    0.03830  -45.82180  -20.68610  192.19960 3672.13130
 8350.00000   14.41800    6.72360    3.81750    1.84930    1.50340    9.04600  665.15900    1.17100    0.04560    2.40750    0.17690    0.17690    1.50340   67.79690   67.79690   13.00810   18.85840   13.00810    0.04560    9.03650    3.81750    0.16120    0.16120 -172.87430 -148.58280   14.41800 3633.21750
 8400.00000   58.49220   68.95100   89.43220  127.22290  136.99010    9.64080    7.29980    1.76580    0.03090    2.68420    0.01510    0.01510  136.99010   51.24830   51.24830   29.20380   28.70750   29.20380    0.03090    9.61810   89.43220    0.02810    0.02810  -81.10320  -57.65590   58.49220 3608.95260
 8450.00000   20.09660   18.00370   16.76320   15.25880   14.44220    9.68360   69.24150    1.80860    0.00070    2.70320    0.00400    0.00400   14.44220   56.95870   56.95870   42.30190   44.02150   42.30190    0.00070    9.65890   16.76320    0.06270    0.06270  -35.36780  -12.76460   20.09660 3690.31960
 8500.00000   54.53870   48.63040   44.88090   40.57850   34.04170    9.35480   29.37570    1.47980    0.02110    2.70620    0.00220    0.00220   34.04170   53.88370   53.88370   37.67160   38.16400   37.67160    0.02110    9.32290   44.88090    0.04580    0.04580  -34.24830  -13.86110   54.53870 3738.99780
 8550.00000    2.55650    2.01580    2.80880    1.68280    1.27360    9.38010  785.17590    1.50510    0.00560    2.71000   -0.00000   -0.00000    1.27360   54.62980   54.62980   51.33090   40.22460   51.33090    0.00560    9.28520    2.80880    0.05910    0.05910  -24.75750   -6.90800    2.55650 3723.78270
 8600.00000    2.62220    2.85720    2.92530    3.01530    3.14880   13.08150  317.58130    5.20650    0.16140    2.47810    0.13560    0.13560    3.14880   85.22000   85.22000   82.56980   83.75190   82.56980    0.16140   12.80790    2.92530    0.34590    0.34590  -21.59090   -6.27910    2.62220 3813.43870
 8650.00000    2.62290    2.79030    2.83430    2.95040    3.13030   12.24550  319.45820    4.37050    0.17520    2.25460    0.26630    0.26630    3.13030   87.95130   87.95130   89.23040   89.19240   89.23040    0.17520   12.75450    2.83430    0.28610    0.28610  -18.22120   -5.44710    2.62290 3802.43770
 8700.00000    2.86720    3.07430    3.20930    3.34540    3.82990   12.48260  261.10340    4.60760    0.18030    2.47620    0.13670    0.13670    3.82990   85.65980   85.65980   89.51170   89.97150   89.51170    0.18030   12.42330    3.20930    0.30980    0.30980  -12.88830   -2.65180    2.86720 3897.43550
 8750.00000    3.67460    3.51110    3.32300    3.15410    3.01470   13.20700  331.70800    5.33200    0.15190    2.53520    0.10220    0.10220    3.01470   86.28770   86.28770   95.45080   95.67230   95.45080    0.15190   13.59520    3.32300    0.33230    0.33230  -11.91710   -4.13610    3.67460 3868.16970
 8800.00000    4.93670    5.12650    5.27160    5.58440    6.00140    9.50700  166.62780    1.63200    0.09190    2.61060    0.05810    0.05810    6.00140   73.16080   73.16080   87.98410   87.40940   87.98410    0.09190    9.44930    5.27160    0.19780    0.19780   -8.85240   -3.51230    4.93670 3856.90650
 8850.00000   13.63860   11.17470    8.99490    7.36140    6.70490    9.04730  149.14470    1.17230    0.10000    2.68110    0.01690    0.01690    6.70490   68.16160   68.16160   64.57230   63.46380   64.57230    0.10000    8.97340    8.99490    0.15260    0.15260   -9.45490   -6.55570   13.63860 3871.66380
 8900.00000    2.96270    3.29960    3.53390    3.80950    4.05020   11.97660  246.90140    4.10160    0.22660    2.43010    0.16370    0.16370    4.05020   96.12460   96.12460  103.79460  103.55720  103.79460    0.22660   11.57080    3.53390    0.35290    0.35290   -8.88830   -8.43000    2.96270 3856.29520
 8950.00000   20.97380   26.37840   14.51900   12.08060   10.10740    9.90900   98.93740    2.03400    0.09930    2.79720   -0.05100   -0.05100   10.10740   56.43060   56.43060   44.74730   44.56810   44.74730    0.09930    9.86290   14.51900    0.08700    0.08700  -11.74210  -12.96290   20.97380 3810.32670
 9000.00000   17.24780   16.82410   15.19570   13.85480   12.15580    9.59410   82.26530    1.71910    0.01510    2.71600   -0.00350   -0.00350   12.15580   56.60540   56.60540   59.28950   58.71410   59.28950    0.01510    9.56790   15.19570    0.06850    0.06850  -12.16600  -14.05610   17.24780 3844.63650
 9050.00000   17.48110   16.36720   14.62560   12.61720   11.41380    9.92120   87.61320    2.04620    0.04130    2.64720    0.03670    0.03670   11.41380   53.58600   53.58600   23.86950   23.63210   23.86950    0.04130    9.84730   14.62560    0.02630    0.02630  -92.83780  -95.39720   17.48110 3953.37280
 9100.00000  101.82950   74.61740   59.36460   55.45380   49.40780    9.35810   20.23970    1.48310    0.01120    2.70880    0.00070    0.00070   49.40780   51.19840   51.19840   41.41460   40.84130   41.41460    0.01120    9.27220   59.36460    0.02410    0.02410  -88.00530  -91.23390  101.82950 3858.30790
 9150.00000  228.33950   82.31680   80.54850   72.24270   70.96400    9.28640   14.09170    1.41140    0.02270    2.68210    0.01630    0.01630   70.96400   50.13000   50.13000   48.09750   47.80080   48.09750    0.02270    9.21950   80.54850    0.02350    0.02350  -60.73980  -64.63770  228.33950 3869.43260
 9200.00000   60.55740  103.36550   90.98800   85.32540   73.20440    9.22420   13.66040    1.34920    0.00220    2.71620   -0.00360   -0.00360   73.20440   55.89260   55.89260   43.28250   43.03520   43.28250    0.00220    9.16120   90.98800    0.04840    0.04840   -4.43430   -9.00150   60.55740 3835.27490
 9250.00000    2.85620    3.44540    3.66400    3.79760    3.86410   10.14490  258.79250    2.26990    0.24220    2.29190    0.24450    0.24450    3.86410   78.33890   78.33890   94.51960   94.38900   94.51960    0.24220   10.92920    3.66400    0.25810    0.25810  -10.53460  -15.77110    2.85620 3992.12040
