~Version ---------------------------------------------------
VERS. 2.0 : CWLS log ASCII Standard -VERSION 2.0
WRAP. YES : MULTIPLE LINES PER DEPTH STEP
~Well ------------------------------------------------------
STRT.FT                   400.0 : START DEPTH
STOP.FT                  7700.0 : STOP DEPTH
STEP.FT                50.00000 : STEP LENGTH
NULL.                   -999.25 : NULL VALUE
COMP. ENCANA OIL & GAS USA INC. : COMPANY
WELL.            BARCLAY 162 #2 : WELL
FLD .                   CHITTIM : FIELD
LOC .                           : LOCATION
CNTY.                  MAVERICK : COUNTY
STAT.                     TEXAS : STATE
CTRY.  UNITED STATES OF AMERICA : COUNTRY
SRVC.              Schlumberger : SERVICE COMPANY
DATE.               22-Oct-2006 : LOGDATE
API .            42323329160000 : API NUMBER
UWI .            42323329160000 : UNIQUE WELL ID
SLAT.WGS84        28.8174515047 : SURFACE LATITUDE
SLON.WGS84      -100.3519501945 : SURFACE LONGITUDE
~Curve Information -----------------------------------------
DEPT  .FT    : DEPTH FEET
AF10ED.OHMM  : 10 INCH ARRAY RESISTIVITY FOUR FOOT RESOLUTION
AF20ED.OHMM  : 20 INCH ARRAY RESISTIVITY FOUR FOOT RESOLUTION
AF30ED.OHMM  : 30 INCH ARRAY RESISTIVITY FOUR FOOT RESOLUTION
AF60ED.OHMM  : 60 INCH ARRAY RESISTIVITY FOUR FOOT RESOLUTION
AF90ED.OHMM  : 90 INCH ARRAY RESISTIVITY FOUR FOOT RESOLUTION
BITED .IN    : BIT SIZE FROM LOG HEADER
CALWS .IN    : CALIPER [(DCALED+BITED)]
CONDWS.MMHO  : CONDUCTIVITY [1000/DRESWS]
DCALED.IN    : DIFFERENTIAL CALIPER FROM DENSITY LOG
DCORWS.G/C3  : DENSITY CORRECTION [HDRAED]
DENWS .G/C3  : BULK DENSITY [M=2.71 F=1.0] [CALCULATED FROM DPOWS]
DPHZED.V/V   : DENSITY POROSITY [M=2.71 F=1.0] FROM DENSITY LOG
DPOWS .V/V   : DENSITY POROSITY [M=2.71 F=1.0] [DPHZED]
DRESWS.OHMM  : DEEP RESISTIVITY [AF90ED]
DT1ED .US/F  : DELTA TIME SHEAR LOWER DIPOLE FROM DIPOLE SONIC LOG
DT4PED.US/F  : DELTA TIME COMP - P & S FROM DIPOLE SONIC LOG
DTSWS .US/F  : DELTA TIME SHEAR [DT1ED]
DTWS  .US/F  : DELTA TIME [DT4PED]
GRRED .GAPI  : GAMMA RAY FROM RESISTIVITY LOG
GRWS  .GAPI  : GAMMA RAY [GRRED. CASED ABOVE 620]
HDRAED.G/C3  : DENSITY CORRECTION FROM DENSITY LOG
MRESWS.OHMM  : MEDIUM RESISTIVITY [AF30ED]
NPOWS .V/V   : NEUTRON POROSITY LIMESTONE [TNPHED. CASED ABOVE 620]
PEFWS .B/E   : PHOTOELECTRIC FACTOR [PEFZED]
PEFZED.B/E   : PHOTOELECTRIC FACTOR STANDARD RESOLUTION FROM DENSITY LOG
SPHIED.V/V   : SONIC POROSITY FROM SONIC LOG
SPOWS .V/V   : SONIC POROSITY [SPHIED]
SPRED .MV    : SPONTANEOUS POTENTIAL FROM RESISTIVITY LOG
SPWS  .MV    : SPONTANEOUS POTENTIAL [BASELINE 0 MV] [SPRED]
SRESWS.OHMM  : SHALLOW RESISTIVITY [AF20ED]
TENRED.LBF   : TENSION FROM RESISTIVITY LOG
TNPHED.V/V   : THERMAL NEUTRON POROSITY LIMESTONE FROM DENSITY LOG
~Params ----------------------------------------------------
PD  .                           GL : PERMANENT DATUM
EPD .FT                      770.7 : ELEVATION PERMANENT DATUM
LMF .                           KB : LOG MEASURED FROM
DAPD.FT                         25 : FEET ABOVE PERMANENT DATUM
DMF .                           KB : DRILLING MEASURED FROM
EKB .FT                      795.7 : KELLY BUSHING
EDF .FT                      794.7 : DRILLING FLOOR
EGL .FT                      770.7 : GROUND LEVEL
DATE.                     10/22/08 : RUN DATE
RUN .                            2 : RUN NUMBER
DD  .FT                       7700 : DEPTH DRILLER
DL  .FT                       7716 : DEPTH LOGGER
BLI .FT                       7708 : BOTTOM LOG INTERVAL
TLI .FT                       6610 : TOP LOG INTERVAL
CS  .IN                      7.875 : CASING SIZE
CBD .FT                       6600 : CASING BOTTOM DRILLER
CBL .FT                       6610 : CASING BOTTOM LOGGER
BS  .IN                       6.75 : BIT SIZE
BSD .FT                       7700 : BIT SIZE AT DEPTH
DFT .                    FRESH MUD : DRILLING FLUID TYPE
DFD .                         16.4 : DRILLING FLUID DENSITY
DFV .                           64 : DRILLING FLUID VISCOSITY
DFPH.                         10.1 : DRILLING FLUID PH
DFL .                          5.2 : DRILLING FLUID LOSS
MSS .                    FLOW LINE : MUD SAMPLE SOURCE
RMS .OHMM                    0.425 : RESISTIVITY MUD SAMPLE
MST .DEGF                      114 : MUD SAMPLE TEMPERATURE
RMF .OHMM                    0.306 : RESISTIVITY MUD FILTRATE SAMPLE
MFST.DEGF                      114 : MUD FILTRATE SAMPLE TEMPERATURE
RMC .OHMM                     0.55 : RESISTIVITY MUD CAKE
MCST.DEGF                      114 : MUD CAKE SAMPLE TEMPERATURE
MFSS.                     COMPUTED : MUD FILTRATE SAMPLE SOURCE
MCSS.                     COMPUTED : MUD CAKE SAMPLE SOURCE
RMB .OHMM                    0.241 : RESISTIVITY MUD AT BHT
TCS .HRS                      1330 : TIME CIRCULATED STOPPED
TLAB.HRS                      2342 : TIME LOGGER AT BOTTOM
LUN .                         2024 : LOGGING UNIT NUMBER
LUL .                    LAREDO TX : LOGGING UNIT LOCATION
ENGI. CARLOS DOSTAL CURT LADBETLER : RECORDING ENGINEER
WITN.                   JEFF FABER : WITNESSED BY
CLNT.                      A2DTECH : CLIENT CODE
ORIG.               1" 2" 5" PRINT : ORIGIN OF DATA
UWI .               42323329160000 : UNIQUE WELL ID
DICO.       A2D Technologies, Inc. : DIGITIZING COMPANY
~Other -----------------------------------------------------
1. CURVE AF20ED WAS CHOSEN FOR SRESWS BECAUSE AF10ED SEEMED TO BEHAVE ERRATICALLY OVER PART OF RUN 1.
~ASCII -----------------------------------------------------
  400.00000    -999.25    -999.25    -999.25    -999.25    -999.25    -999.25    -999.25    -999.25    -999.25    -999.25    -999.25    -999.25    -999.25    -999.25    -999.25    -999.25    -999.25    -999.25   55.85210   55.85210    -999.25    -999.25    0.44650    -999.25    -999.25    -999.25    -999.25    -999.25    -999.25    -999.25    -999.25    0.44650
  450.00000    -999.25    -999.25    -999.25    -999.25    -999.25    -999.25    -999.25    -999.25    -999.25    -999.25    -999.25    -999.25    -999.25    -999.25    -999.25    -999.25    -999.25    -999.25   44.07310   44.07310    -999.25    -999.25    -999.25    -999.25    -999.25    -999.25    -999.25    -999.25    -999.25    -999.25    -999.25    -999.25
  500.00000    -999.25    -999.25    -999.25    -999.25    -999.25    -999.25    -999.25    -999.25    -999.25    -999.25    -999.25    -999.25    -999.25    -999.25    -999.25    -999.25    -999.25    -999.25   35.64650   35.64650    -999.25    -999.25    0.45200    -999.25    -999.25    -999.25    -999.25    -999.25    -999.25    -999.25    -999.25    0.45200
  550.00000    -999.25    -999.25    -999.25    -999.25    -999.25    -999.25    -999.25    -999.25    -999.25    -999.25    -999.25    -999.25    -999.25    -999.25    -999.25    -999.25    -999.25    -999.25   49.14020   49.14020    -999.25    -999.25    0.44780    -999.25    -999.25    -999.25    -999.25    -999.25    -999.25    -999.25    -999.25    0.44780
  600.00000    -999.25    -999.25    -999.25    -999.25    -999.25    -999.25    -999.25    -999.25    -999.25    -999.25    -999.25    -999.25    -999.25    -999.25    -999.25    -999.25    -999.25    -999.25   47.95810   47.95810    -999.25    -999.25    0.45270    -999.25    -999.25    -999.25    -999.25    -999.25    -999.25    -999.25    -999.25    0.45270
  650.00000    2.53640    2.71280    2.77410    3.04240    3.17840    9.87500   12.38430  314.62370    2.50930    0.19040    2.24400    0.27250    0.27250    3.17840  112.57790  112.59920  112.57790  112.59920   95.33790   95.33790    0.19040    2.77410    0.24260    7.39190    7.39190    0.45000    0.45000   11.36970   -5.20130    2.71280 1534.02380    0.24260
  700.00000    3.11610    3.37130    3.46960    3.60330    3.74400    9.87500   12.58920  267.09400    2.71420    0.22820    2.43090    0.16320    0.16320    3.74400  238.00110  103.28860  238.00110  103.28860   86.80200   86.80200    0.22820    3.46960    0.24040    5.52080    5.52080    0.39220    0.39220    8.67810   -4.96070    3.37130 1552.10140    0.24040
  750.00000    5.06770    4.48590    4.23810    3.85580    3.76590    9.87500   12.80520  265.54080    2.93020    0.14890    2.40010    0.18120    0.18120    3.76590  214.47050   97.80600  214.47050   97.80600   77.52710   77.52710    0.14890    4.23810    0.20470    5.22850    5.22850    0.35380    0.35380   10.26160   -2.76940    4.48590 1565.62260    0.20470
  800.00000    2.77540    2.66630    2.61840    2.42100    2.38970    9.87500   12.56530  418.46260    2.69030    0.20190    2.36510    0.20170    0.20170    2.38970  240.00000  112.25450  240.00000  112.25450   88.37410   88.37410    0.20190    2.61840    0.26640    6.02750    6.02750    0.45000    0.45000    9.02960   -3.65190    2.66630 1666.57800    0.26640
  850.00000    2.59400    2.50330    2.40600    2.29590    2.24440    9.87500   13.06920  445.55340    3.19420    0.20830    2.33470    0.21950    0.21950    2.24440  240.00000  114.78670  240.00000  114.78670   87.73050   87.73050    0.20830    2.40600    0.29770    6.81660    6.81660    0.45000    0.45000    7.54340   -4.78860    2.50330 1643.02640    0.29770
  900.00000    1.65640    1.74130    1.80330    1.98770    2.02100    9.87500   12.40620  494.80460    2.53120    0.10520    2.34320    0.21450    0.21450    2.02100  240.00000  119.42940  240.00000  119.42940   84.62920   84.62920    0.10520    1.80330    0.32840    5.08140    5.08140    0.45000    0.45000    8.82560   -3.15690    1.74130 1649.14160    0.32840
  950.00000    2.74210    2.84780    2.90170    3.10280    3.19300    9.87500   11.75450  313.18510    1.87950    0.04330    2.39600    0.18360    0.18360    3.19300  239.67800  105.10200  239.67800  105.10200   90.24720   90.24720    0.04330    2.90170    0.24040    3.79820    3.79820    0.40630    0.40630    9.40400   -2.22900    2.84780 1635.22690    0.24040
 1000.00000    2.41480    2.48230    2.53580    2.63700    2.68130    9.87500   12.38320  372.95340    2.50820    0.19140    2.34540    0.21320    0.21320    2.68130  240.00000  109.22130  240.00000  109.22130   80.56310   80.56310    0.19140    2.53580    0.30400    5.66380    5.66380    0.43720    0.43720    7.29820   -3.98530    2.48230 1674.56320    0.30400
 1050.00000    2.70280    2.79360    2.89290    3.02330    3.07390    9.87500   11.25270  325.31960    1.37770    0.16180    2.40850    0.17630    0.17630    3.07390  240.00000  104.58560  240.00000  104.58560   74.88350   74.88350    0.16180    2.89290    0.26750    5.14920    5.14920    0.40580    0.40580    7.16590   -3.76810    2.79360 1700.93070    0.26750
 1100.00000    4.00510    4.22410    4.31980    4.51480    4.59050    9.87500   10.65820  217.84120    0.78320    0.00690    2.45470    0.14930    0.14930    4.59050  203.63530   95.74830  203.63530   95.74830   72.64700   72.64700    0.00690    4.31980    0.22800    4.13720    4.13720    0.34090    0.34090    6.03650   -4.54800    4.22410 1735.40200    0.22800
 1150.00000    2.44630    2.59360    2.69880    2.82480    2.87210    9.87500   10.61150  348.17730    0.73650    0.12570    2.27600    0.25380    0.25380    2.87210  240.00000  107.10130  240.00000  107.10130   70.73990   70.73990    0.12570    2.69880    0.25090    7.76850    7.76850    0.42190    0.42190    8.21500   -2.01990    2.59360 1733.74550    0.25090
 1200.00000    5.39230    5.58540    5.84120    6.24090    6.34520    9.87500   10.05420  157.59940    0.17920    0.00390    2.56470    0.08500    0.08500    6.34520  174.59120   85.91310  174.59120   85.91310   45.53090   45.53090    0.00390    5.84120    0.13930    4.61870    4.61870    0.27210    0.27210    6.84550   -3.03990    5.58540 1782.83020    0.13930
 1250.00000    8.32960    7.36890    7.10210    6.90530    6.63200    9.87500   10.03350  150.78410    0.15850    0.00470    2.51490    0.11410    0.11410    6.63200  165.55220   82.37200  165.55220   82.37200   39.64610   39.64610    0.00470    7.10210    0.13650    4.97840    4.97840    0.24610    0.24610    4.80340   -4.73250    7.36890 1761.04430    0.13650
 1300.00000    4.41960    4.29710    4.20630    4.05450    3.89860    9.87500   10.09780  256.50230    0.22280    0.00330    2.54330    0.09750    0.09750    3.89860  196.15470   92.87410  196.15470   92.87410   69.38910   69.38910    0.00330    4.20630    0.17350    4.40820    4.40820    0.32440    0.32440    4.01090   -5.17550    4.29710 1797.59570    0.17350
 1350.00000    5.85470    5.68370    5.40190    5.23630    5.05710    9.87500   10.03640  197.74180    0.16140    0.00680    2.58620    0.07240    0.07240    5.05710  186.49600   87.51590  186.49600   87.51590   55.99870   55.99870    0.00680    5.40190    0.14110    4.43590    4.43590    0.27590    0.27590    3.88290   -4.95400    5.68370 1818.60290    0.14110
 1400.00000    9.36340    8.55410    7.99420    7.68060    7.34650    9.87500    9.96950  136.11920    0.09450    0.00190    2.55610    0.09000    0.09000    7.34650  152.27240   76.46960  152.27240   76.46960   32.56040   32.56040    0.00190    7.99420    0.09950    4.71820    4.71820    0.20630    0.20630    2.31960   -6.16780    8.55410 1814.51900    0.09950
 1450.00000    7.11690    6.82300    7.24960    6.91100    7.07850    9.87500   10.09250  141.27290    0.21750    0.00650    2.58620    0.07240    0.07240    7.07850  159.71470   76.61010  159.71470   76.61010   29.43920   29.43920    0.00650    7.24960    0.10200    4.68200    4.68200    0.20160    0.20160    5.84990   -2.28800    6.82300 1840.24900    0.10200
