~Version ---------------------------------------------------
VERS. 2.0 : CWLS log ASCII Standard -VERSION 2.0
WRAP.  NO : ONE LINE PER DEPTH STEP
~Well ------------------------------------------------------
STRT.F                     800.0 : START DEPTH
STOP.F                    6300.0 : STOP DEPTH
STEP.F                  50.00000 : STEP LENGTH
NULL.                    -999.25 : NULL VALUE
COMP. TEXLARK EXPLORATION CO INC : COMPANY
WELL.       ELLINGHAUSEN UNIT #1 : WELL
FLD .            MARCELINA CREEK : FIELD
LOC .                            : LOCATION
CNTY.                     WILSON : COUNTY
STAT.                      TEXAS : STATE
CTRY.   UNITED STATES OF AMERICA : COUNTRY
SRVC.              Dresser Atlas : SERVICE COMPANY
DATE.                05-Nov-1982 : LOGDATE
API .             42493311680000 : API NUMBER
UWI .             42493311680000 : UNIQUE WELL ID
SLAT.WGS84         29.0949562952 : SURFACE LATITUDE
SLON.WGS84        -98.1264651672 : SURFACE LONGITUDE
~Curve Information -----------------------------------------
DEPT.F                 : 
GRR .GAPI 07 310 01 00 : GAMMA RAY FROM RESISTIVITY LOG
CALR.IN   07 280 01 00 : CALIPER FROM RESISTIVITY LOG
RFOC.OHMM 07 220 06 00 : SHALLOW FOCUSED LOG RESISTIVITY
RILD.OHMM 07 120 46 00 : RAW DEEP INDUCTION RESISTIVITY
RILM.OHMM 07 120 44 00 : RAW MEDIUM INDUCTION RESISTIVITY
SPR .MV   07 010 01 00 : SPONTANEOUS POTENTIAL FROM RESISTIVITY LOG
PORD.DEC  45 890 00 00 : DENSITY POROSITY
CORR.G/C3 45 356 01 00 : DENSITY CORRECTION
~Params ----------------------------------------------------
PD  .                      GL : PERMANENT DATUM
EPD .FT                   445 : ELEVATION PERMANENT DATUM
LMF .                      KB : LOG MEASURED FROM
DAPD.FT                  13.7 : FEET ABOVE PERMANENT DATUM
DMF .                      KB : DRILLING MEASURED FROM
EKB .FT                 458.7 : KELLY BUSHING
EDF .FT                 457.7 : DRILLING FLOOR
EGL .FT                   445 : GROUND LEVEL
DATE.                11/05/82 : RUN DATE
RUN .                       1 : RUN NUMBER
DD  .FT                  6345 : DEPTH DRILLER
DL  .FT                  6344 : DEPTH LOGGER
BLI .FT                  6342 : BOTTOM LOG INTERVAL
TLI .FT                   778 : TOP LOG INTERVAL
CS  .IN                 8.625 : CASING SIZE
CBD .FT                   768 : CASING BOTTOM DRILLER
CBL .FT                   778 : CASING BOTTOM LOGGER
BS  .IN                 7.875 : BIT SIZE
BSD .FT                  6345 : BIT SIZE AT DEPTH
DFT .          LIGNOSULFONATE : DRILLING FLUID TYPE
DFD .                     9.2 : DRILLING FLUID DENSITY
DFV .                      41 : DRILLING FLUID VISCOSITY
DFPH.                      10 : DRILLING FLUID PH
DFL .                      10 : DRILLING FLUID LOSS
MSS .                FLOWLINE : MUD SAMPLE SOURCE
RMS .OHMM                 2.2 : RESISTIVITY MUD SAMPLE
MST .DEGF                  90 : MUD SAMPLE TEMPERATURE
RMF .OHMM                1.95 : RESISTIVITY MUD FILTRATE SAMPLE
MFST.DEGF                  75 : MUD FILTRATE SAMPLE TEMPERATURE
RMC .OHMM                3.25 : RESISTIVITY MUD CAKE
MCST.DEGF                  75 : MUD CAKE SAMPLE TEMPERATURE
MFSS.                    MEAS : MUD FILTRATE SAMPLE SOURCE
MCSS.                    MEAS : MUD CAKE SAMPLE SOURCE
RMB .OHMM                1.33 : RESISTIVITY MUD AT BHT
TCS .HRS                    3 : TIME CIRCULATED STOPPED
LUN .                    6333 : LOGGING UNIT NUMBER
LUL .                GONZALES : LOGGING UNIT LOCATION
ENGI.                WILLIAMS : RECORDING ENGINEER
WITN. WIMMER RICKAWAY KOSAREK : WITNESSED BY
CLNT.                 A2DTECH : CLIENT CODE
ORIG.             2" 5" PRINT : ORIGIN OF DATA
UWI .          42493311680000 : UNIQUE WELL ID
DICO.  A2D Technologies, Inc. : DIGITIZING COMPANY
~Other -----------------------------------------------------
~ASCII -----------------------------------------------------
  800.00000   48.96840    9.22880    4.49470    4.98060    5.55530  -33.28850    -999.25    -999.25
  850.00000   82.88730    9.35320    2.94750    3.11810    3.16190  -40.70370    -999.25    -999.25
  900.00000   66.80810    9.30990    6.18940    8.28500    8.87670  -34.99910    -999.25    -999.25
  950.00000   81.23740    9.66950    2.39990    2.12540    2.15500  -38.52290    -999.25    -999.25
 1000.00000   74.40900    9.67060    2.09100    1.77460    1.84590  -39.96390    -999.25    -999.25
 1050.00000   70.21270    8.93640    3.55740    3.76170    3.45820  -50.86920    -999.25    -999.25
 1100.00000   68.84390   10.25670    4.06650    4.74430    4.90050  -49.48550    -999.25    -999.25
 1150.00000   55.34090    9.26080    6.38110    8.76390    9.27380  -41.72480    -999.25    -999.25
 1200.00000   68.73270   10.38260    4.38910    3.95290    4.06020  -36.86950    -999.25    -999.25
 1250.00000   54.09250    8.03290    8.94530   10.49710   10.83690  -32.11200    -999.25    -999.25
 1300.00000   37.76550    7.44670   52.05700   63.22870   57.83590  -25.07230    -999.25    -999.25
 1350.00000   39.81430    7.71900   15.80110   28.95590   21.30150  -17.33050    -999.25    -999.25
 1400.00000   22.13270    8.20680   32.75990   42.83470   24.75230  -16.17720    -999.25    -999.25
 1450.00000   46.38940    7.95180   14.53900   25.39740   19.97030  -17.91260    -999.25    -999.25
 1500.00000   37.68770    9.17110   14.12910   23.89090   16.95140  -18.45440    -999.25    -999.25
 1550.00000   43.94710   10.05660   14.74960   29.64740   14.80200  -16.60040    -999.25    -999.25
 1600.00000   61.42620    7.52390   14.98400   26.05750   22.17060  -30.07300    -999.25    -999.25
 1650.00000   89.65480    9.55140    5.16740    5.90460    5.95800  -21.55870    -999.25    -999.25
 1700.00000   60.04280    7.46060   20.47480   40.18660   26.08270  -26.59310    -999.25    -999.25
 1750.00000   65.65220    7.42920   15.82460   31.65680   23.97430  -21.11190    -999.25    -999.25
 1800.00000   22.03740    7.39970   16.57890   31.56880   25.56620   -9.64630    -999.25    -999.25
 1850.00000   68.83290    7.98580   15.31490   30.80550   21.06340  -16.16450    -999.25    -999.25
 1900.00000   54.71930    7.75650   11.44030   17.48090   15.35190  -20.36390    -999.25    -999.25
 1950.00000   62.29360    7.49410   10.36770   15.28020   14.55830  -21.86070    -999.25    -999.25
 2000.00000   50.66570    7.69170   12.04480   24.97950   17.49260  -12.04760    -999.25    -999.25
 2050.00000   66.80680    7.43500    7.23540    9.46220    9.31090  -25.20720    -999.25    -999.25
 2100.00000   81.34300    7.60360    6.65050    8.45060    8.09900  -26.84320    -999.25    -999.25
 2150.00000   97.21060    8.74630    2.68250    1.98290    2.02840  -21.29530    -999.25    -999.25
 2200.00000   85.81370    7.63400    6.93340    9.72280    9.43130  -28.30500    -999.25    -999.25
 2250.00000   73.97610    8.05930    3.98730    3.26110    3.58210  -30.53880    -999.25    -999.25
 2300.00000   81.97370    8.33000    3.16230    2.92210    3.00130  -29.66710    -999.25    -999.25
 2350.00000   98.61640    8.43050    3.47900    3.45540    3.41500  -27.89860    -999.25    -999.25
 2400.00000   86.85410    8.68000    2.53860    2.37060    2.41960  -27.77320    -999.25    -999.25
 2450.00000   88.45700    8.33940    2.08370    1.83810    1.89750  -27.54700    -999.25    -999.25
 2500.00000   89.33710    8.41040    2.84420    2.79790    3.30480  -26.18220    -999.25    -999.25
 2550.00000   65.53950    7.94110    5.18580    5.29450    5.46110  -29.26480    -999.25    -999.25
 2600.00000   69.94300    8.12240    4.91040    4.32350    5.53020  -30.92390    -999.25    -999.25
 2650.00000   92.70680    8.62260    3.22990    3.52100    3.34160  -24.71100    -999.25    -999.25
 2700.00000   62.67180    8.35120    7.36360    9.98730   10.19270  -28.09010    -999.25    -999.25
 2750.00000   92.09560    9.07140    3.14390    3.31830    3.40770  -26.48540    -999.25    -999.25
 2800.00000   68.81330    7.85720    7.39940   10.59780   10.03350  -28.71680    -999.25    -999.25
 2850.00000   54.48170   11.26820    7.05440    9.93120   10.13560  -31.16130    -999.25    -999.25
 2900.00000   93.61920    8.03800    4.75660    4.43970    5.26230  -27.11950    -999.25    -999.25
 2950.00000   61.05390    7.99640    5.30070    6.32970    6.52270  -26.63160    -999.25    -999.25
 3000.00000   54.46000    8.01590    7.44810   10.01090   10.21640  -22.87050    -999.25    -999.25
 3050.00000   85.79400    8.35950    4.19770    3.39710    3.49970  -30.12400    -999.25    -999.25
 3100.00000   68.92130    7.83560    3.95740    4.31970    4.41690  -26.49420    -999.25    -999.25
 3150.00000   38.04080    7.62520    7.33630   10.27610    9.89150  -16.16330    -999.25    -999.25
 3200.00000   55.48990    7.75050    6.04640    7.71940    7.87840  -20.80090    0.25390    0.05160
 3250.00000   44.26470    7.59270    6.63630    8.85750    9.03950  -17.99410    0.33850    0.04760
 3300.00000   58.98210    7.61100    4.05300    3.88930    3.97750  -23.10740    0.28100    0.07110
 3350.00000   44.32120    7.75960    7.09780    8.83190    8.81710  -17.88180    0.32560    0.04180
 3400.00000   57.19060    7.66220    5.08450    6.58020    6.85480  -19.41430    0.30090    0.06140
 3450.00000   67.16650    8.03890    7.82090    9.36210    9.55550  -19.56610    0.33730    0.04460
 3500.00000   51.18130    8.24930    6.86000    7.87780    8.28370  -18.88060    0.30850    0.01550
 3550.00000  103.21480    8.45290    1.81240    1.48100    1.63000  -17.07730    0.25640    0.18530
 3600.00000   90.60280    8.15500    3.48450    2.78160    2.75490  -20.90540    0.25760    0.06000
 3650.00000   88.91750    9.29610    2.17250    1.74100    1.78280  -17.80030    0.31460    0.10670
 3700.00000  102.67990    8.62640    2.30850    2.13630    2.18010  -19.81200    0.23650    0.18670
 3750.00000   83.75260    8.53830    3.59790    2.93930    3.02500  -19.64430    0.13310    0.09490
 3800.00000  103.12850    8.67850    2.45880    2.23220    2.28450  -18.14190    0.15920    0.12840
 3850.00000  100.90080    8.51780    2.43520    2.33670    2.38810  -19.17350    0.16590    0.10970
 3900.00000  102.72770    8.54180    1.97190    1.82990    1.86750  -18.82650    0.22460    0.15430
 3950.00000   95.95070    9.17960    2.41860    2.47720    2.64240  -18.97710    0.14400    0.10090
 4000.00000   94.69610    9.53220    2.06200    1.99540    2.03640  -20.89300    0.14780    0.08740
 4050.00000   97.50380   10.06920    2.03230    1.89390    1.93290  -21.09740    -999.25    -999.25
 4100.00000  106.88100   10.77350    1.57200    1.31480    1.36660  -20.71760    -999.25    -999.25
 4150.00000  100.77030    9.58900    1.60580    1.31310    1.37930  -21.06120    -999.25    -999.25
 4200.00000   98.77720   10.40350    1.48910    1.24740    1.27480  -21.41500    -999.25    -999.25
 4250.00000  101.35890   10.67940    1.38340    1.13530    1.19800  -21.68680    -999.25    -999.25
 4300.00000  109.37540   11.87630    1.37180    1.24330    1.26930  -21.72690    -999.25    -999.25
 4350.00000   98.53890   10.72110    1.07500    0.89220    0.91470  -18.72320    0.34730    0.14280
 4400.00000   86.35740    8.90300    1.82270    1.69890    1.73540  -20.11380    0.14970    0.12210
 4450.00000   72.70900    8.85670    2.15770    2.27130    2.21590  -21.77000    0.14210    0.06010
 4500.00000   88.79260    8.87190    1.59030    1.44140    1.47150  -20.39150    0.20180    0.18650
 4550.00000   81.42070   10.93010    1.49440    1.25780    1.39010  -25.04770    0.33670    0.21760
 4600.00000   77.91780    9.13490    1.68680    1.56620    1.62900  -22.83700    -999.25    -999.25
 4650.00000   78.14510    8.91150    1.63030    1.40800    1.49050  -22.12470    -999.25    -999.25
 4700.00000   81.40530   11.19130    1.34040    1.12400    1.14870  -22.81970    -999.25    -999.25
 4750.00000   93.19990    9.34540    1.24600    0.98670    1.04050  -22.58010    -999.25    -999.25
