~Version ---------------------------------------------------
VERS. 2.0 : CWLS log ASCII Standard -VERSION 2.0
WRAP.  NO : ONE LINE PER DEPTH STEP
~Well ------------------------------------------------------
STRT.F                   300.0 : START DEPTH
STOP.F                 12800.0 : STOP DEPTH
STEP.F                50.00000 : STEP LENGTH
NULL.                  -999.25 : NULL VALUE
COMP.     SUNDANCE OIL COMPANY : COMPANY
WELL.          BEDDINGFIELD #1 : WELL
FLD .                  WILDCAT : FIELD
LOC .                          : LOCATION
CNTY.                LIMESTONE : COUNTY
STAT.                    TEXAS : STATE
CTRY. UNITED STATES OF AMERICA : COUNTRY
SRVC.                          : SERVICE COMPANY
DATE.                          : LOGDATE
API .           42293305010000 : API NUMBER
UWI .           42293305010000 : UNIQUE WELL ID
SLAT.WGS84       31.4226953394 : SURFACE LATITUDE
SLON.WGS84      -96.2909180391 : SURFACE LONGITUDE
~Curve Information -----------------------------------------
DEPT.F                 : 
SP  .MV   07 010 01 00 : SPONTANEOUS POTENTIAL
SFLU.OHMM 99 000 00 00 : 
ILD .OHMM 07 120 46 00 : ILD
ILM .OHMM 07 120 44 00 : ILM
GR  .GAPI 45 310 01 00 : GAMMA RAY
CALI.IN   45 280 60 00 : CALIPER
RHOB.G/C3 45 350 01 00 : BULK DENSITY  G/C3
DRHO.G/C3 45 356 01 00 : DENSITY CORRECTION
NPHI.DEC  42 890 00 00 : NPHI DEC
~Params ----------------------------------------------------
EKB .F                   405.0 : KELLY BUSHING
EGL .F                     390 : ELEVATION GROUND LEVEL
EDF .F                     404 : ELEVATION DERRICK FLOOR
EPD .                      390 : ELEVATION PERMANENT DATUM
TD  .F                 12817.0 : TOTAL DEPTH
DATE.              08-AUG-1980 : DATE LOGGED
CLNT.                  A2DTECH : CLIENT CODE
SL  . 8500' FNEL & 19000' FNWL : SURFACE LOCATION
PD  .                       GL : PERMANENT DATUM
LMF .                      TKB : LOG MEASURED FROM
DMF .                      TKB : DRILLING MEASURED FROM
DAPD.F                      15 : FEET ABOVE PERMANENT DATUM
DD  .F                   12817 : DEPTH DRILLER
DL  .F                   12816 : DEPTH LOGGER
BLI .F                   12814 : BOTTOM LOG INTERVAL
TLI .F                    5379 : TOP LOG INTERVAL
CS1 .IN                  9.625 : CASING SIZE
CBD1.           9.625" @ 5385' : CASING DRILLER 1
CBL1.F                    5379 : CASING LOGGER 1
BS1 .IN                   8.75 : BIT SIZE
BSD1.F                   12817 : DEPTH DRILLED WITH BIT1
DFT .            WATERBASE MUD : TYPE FLUID IN HOLE
DFD .                     11.1 : DENSITY
DFV .                       43 : VISCOSITY
DFPH.                       11 : PH
MSS .                      PIT : SOURCE OF SAMPLE
RMS .OHMM                 1.52 : RM
RMF .OHMM                 1.14 : RMF
RMC .OHMM                  1.9 : RMC
MFSS.                     MEAS : SOURCE RMF.
MCSS.                     MEAS : SOURCE RMC.
RMB .OHMM                 0.43 : RM. AT BHT
BHT .F                     265 : BHT.
TCS .HRS                   6.5 : TIME CIRC. STOPPED
LUN .                     1903 : LOGGING UNIT NUMBER
LUL .                    TYLER : LOGGING UNIT LOCATION
ENGI.                    EYLEY : RECORDED BY
WITN.        MR. WALKER/HUGHES : WITNESSED BY
ORIG.               2.5" PRINT : ORIGIN OF DATA
UWI .           42293305010000 : UNIQUE WELL ID
DICO.   A2D TECHNOLOGIES, INC. : DIGITIZING COMPANY
~Other -----------------------------------------------------
~ASCII -----------------------------------------------------
# ...
 7600.00000  -36.02100   14.93800    5.43500    8.33400    -999.25    -999.25    -999.25    -999.25    -999.25
 7650.00000  -38.39700   73.56600   11.63100   17.60300    -999.25    -999.25    -999.25    -999.25    -999.25
 7700.00000  -36.25800   10.78900    6.22400    8.01900    -999.25    -999.25    -999.25    -999.25    -999.25
 7750.00000  -36.61200   17.14000    8.27200   10.00100   21.09500   10.28900    2.62000    0.07000    0.07700
 7800.00000  -37.43400   16.66600    7.51600    7.89000   28.91700   10.36700    2.65400    0.05600    0.09600
 7850.00000  -58.32900   27.77200    6.80000   11.08700   20.92000   11.03600    2.62800    0.06000    0.03000
 7900.00000  -29.22600   20.67600    6.70000   13.14800   27.18300   10.35800    2.63100    0.05200    0.06100
 7950.00000  -56.37150   31.55400   10.08300   14.44800   23.36600   10.28900    2.56900    0.00800    0.02000
 8000.00000  -44.23650   35.37400   10.67300   15.26700   25.13400   10.25700    2.67500    0.05600    0.03800
 8050.00000 -109.33350   41.26400    8.92400   15.28900    8.40800   10.22700    2.64500    0.05700    0.00300
 8100.00000  -43.44150   45.86100   10.54800   14.87400   19.54800   10.13000    2.63300    0.04300    0.03400
 8150.00000  -31.89900   29.64400   10.41500   13.63600    -999.25    -999.25    -999.25    -999.25    -999.25
 8200.00000  -26.15400    9.32300    5.42200    7.20200    -999.25    -999.25    -999.25    -999.25    -999.25
 8250.00000  -28.30500   12.10600    4.54600    8.29300    -999.25    -999.25    -999.25    -999.25    -999.25
 8300.00000  -25.99200    3.44200    2.98300    2.79000    -999.25    -999.25    -999.25    -999.25    -999.25
 8350.00000  -22.72650    3.70700    3.44300    3.90200    -999.25    -999.25    -999.25    -999.25    -999.25
 8400.00000  -23.34150    4.28300    3.97100    4.64900    -999.25    -999.25    -999.25    -999.25    -999.25
 8450.00000  -23.51250   18.49900    7.96400    9.58400    -999.25    -999.25    -999.25    -999.25    -999.25
 8500.00000  -23.25300   10.70000    5.62700    6.65800    -999.25    -999.25    -999.25    -999.25    -999.25
 8550.00000  -24.32100    3.86200    3.38700    3.25100    -999.25    -999.25    -999.25    0.11270    -999.25
 8600.00000  -38.36550   45.43500   10.06800   13.27700   22.49600   10.74100    2.63000    0.07050   -0.01800
 8650.00000  -36.70650   46.30000   11.87200   14.66800   20.17400   11.04300    2.69800    0.07900    0.01200
 8700.00000  -75.87900   38.65500   14.40400   16.43800   32.41200   11.13800    2.64800    0.04140    0.03200
 8750.00000  -44.94300   43.74900   16.67800   19.65400   20.12600   10.70200    2.62300    0.08200    0.05100
 8800.00000  -30.82200   11.85400    8.63300    7.47500   27.14900   10.49400    2.62300    0.04400    0.01700
 8850.00000  -54.78600   17.60300    8.48500   10.14100  144.77400    9.48500    2.57500    0.09800    0.15500
 8900.00000  -31.70850   19.86000   12.86600   15.01500   33.61700   10.45800    2.61600    0.03400    0.18700
 8950.00000  -57.82050    4.13000    2.68200    3.05300  126.94800   10.29800    2.56500    0.09700    0.25300
 9000.00000  -78.46350    6.76700    4.22600    4.62200   47.47500   10.10700    2.50100    0.08500    0.18300
 9050.00000  -38.92500    7.66400    5.04900    5.75400   45.28000   10.32000    2.63400    0.05600    0.23300
 9100.00000  -76.42350    7.92900    4.40300    4.92500  220.66400    9.56400    2.52400    0.05980    0.16800
 9150.00000  -44.56800    5.74300    4.25200    4.40200   77.75500   10.23800    2.49300    0.06980    0.25700
 9200.00000  -37.47150    4.73900    3.88200    4.26700   70.49000   10.85600    2.51400    0.06750    0.25300
 9250.00000  -36.14250    4.11300    3.37900    3.71500   70.99400   10.68000    2.56800    0.10500    0.25100
 9300.00000  -62.81400    7.81400    4.40200    5.75200   54.48500    9.41600    2.61200    0.10300    0.15700
 9350.00000  -41.52750   15.21300    7.47000    9.82000   69.81200    9.08200    2.50000    0.03800    0.19100
 9400.00000  -68.91300   20.63100    7.41400    9.64300   34.59100    8.86900    2.52800    0.07000    0.10600
 9450.00000  -69.41700   18.69100    7.68300   11.78500   40.25000    9.18600    2.61100    0.11200    0.06100
 9500.00000  -56.38500   10.75800    6.99900    8.18300   52.08300    9.13300    2.63500    0.09800    0.12900
 9550.00000  -92.63250   21.51400    6.73600   10.61900   50.37000    8.90300    2.61500    0.12700    0.10000
 9600.00000  -90.63000   31.95000    9.23300   15.05500   44.94400    9.03600    2.56200    0.08400    0.11400
 9650.00000  -48.30600   20.36800    9.82000   14.80800   58.19600    8.99600    2.63400    0.10600    0.13000
 9700.00000  -61.65750   21.20400   10.02900   15.14600   36.44700    9.03500    2.63900    0.08900    0.06500
 9750.00000  -31.51350   16.29200   10.84400   11.57600   95.13300    9.03000    2.32900    0.10400    0.26000
 9800.00000  -61.24200   39.27300   13.77300   20.36800   44.73600    8.75800    2.54400    0.04400    0.05100
 9850.00000  -75.23700   32.74600   13.55000   19.63900   39.55700    8.60300    2.57700    0.07800    0.04100
 9900.00000  -75.47250   44.32400   14.40100   22.98100   33.73600    8.79600    2.52200    0.05000    0.05700
 9950.00000  -88.11900   46.53000   11.68400   18.58600   31.25800    8.70400    2.57700    0.08500    0.03200
 10000.00000  -74.47800   31.65600   14.31600   20.00900   35.58600    8.75300    2.53000    0.05300    0.04500
 10050.00000  -62.30700   12.44800    8.00500   10.66200   51.47400    8.85400    2.50900    0.03600    0.10800
 10100.00000  -57.40350   27.30700   12.44800   17.11200   51.76500    8.98200    2.59200    0.08700    0.09500
 10150.00000  -59.00400   29.87400   14.40300   19.65800   35.68500    9.07900    2.55600    0.07800    0.06400
 10200.00000  -75.58050   42.24600   14.79600   18.59300   58.14900    8.98600    2.55800    0.07700    0.05100
 10250.00000  -80.87550   44.36600   15.00800   24.17400   32.26400    9.23400    2.58200    0.08200    0.07600
 10300.00000  -65.33700   33.08600    9.42200   17.19400   32.03800    9.02200    2.58800    0.10700    0.04600
 10350.00000 -100.47600   17.06400    4.06000    7.13700   30.92100    8.91700    2.50300    0.05300    0.08800
 10400.00000  -69.05700   40.60600   10.28100   18.55600   40.07300    9.10000    2.44700    0.05100    0.08800
 10450.00000  -72.95550   30.98300   10.22700   16.06900   45.67600    9.13400    2.57400    0.07300    0.06100
 10500.00000  -54.20400   91.36400   11.66500   28.80400   39.42300    9.11500    2.60400    0.08900    0.02700
 10550.00000  -64.63650   41.90200   10.91300   19.27500   31.31800    9.07200    2.51000    0.05500    0.06200
 10600.00000  -60.17700   31.55400   10.12000   14.66800   66.61900    8.97400    2.62200    0.10100    0.07700
 10650.00000  -28.34700   25.40000    8.48000   13.88700   81.20400    9.04700    2.64900    0.08900    0.15600
 10700.00000  -58.81950   64.66500   11.35800   19.36400   47.23400    8.63400    2.57000    0.08100    0.02500
 10750.00000  -74.27250   55.33900   11.81900   16.73100   38.59500    8.55800    2.60500    0.08100    0.02900
 10800.00000  -66.80250   34.76900   11.64200   15.82000   43.12000    8.72600    2.58300    0.10300    0.02300
 10850.00000  -39.24000   21.92700   10.88600   19.28400  105.72100    8.95600    2.59300    0.08800    0.19700
 10900.00000  -56.43450   39.27300   12.02900   16.01000   76.10100    8.78900    2.59200    0.09200    0.07300
 10950.00000  -67.64250   27.34100   10.00100   13.44600   62.72600    8.73300    2.61000    0.15400    0.04000
 11000.00000  -70.99050   56.20100   13.79300   20.01400   60.39100    8.95700    2.62300    0.12100    0.03200
 11050.00000  -83.07900    8.64300    5.28400    7.00300   63.51600    9.17700    2.47800    0.09100    0.10400
 11100.00000  -28.32450   20.03800    8.03500   11.85200  109.98400    9.37300    2.67100    0.12400    0.16000
 11150.00000  -90.65100   25.16300    6.75500   10.53400   60.47000    9.51500    2.55800    0.10100    0.06500
