~Version ---------------------------------------------------
VERS. 2.0 : CWLS log ASCII Standard -VERSION 2.0
WRAP. YES : MULTIPLE LINES PER DEPTH STEP
~Well ------------------------------------------------------
STRT.FT                   400.0 : START DEPTH
STOP.FT                  7700.0 : STOP DEPTH
STEP.FT                50.00000 : STEP LENGTH
NULL.                   -999.25 : NULL VALUE
COMP. ENCANA OIL & GAS USA INC. : COMPANY
WELL.            BARCLAY 162 #2 : WELL
FLD .                   CHITTIM : FIELD
LOC .                           : LOCATION
CNTY.                  MAVERICK : COUNTY
STAT.                     TEXAS : STATE
CTRY.  UNITED STATES OF AMERICA : COUNTRY
SRVC.              Schlumberger : SERVICE COMPANY
DATE.               22-Oct-2006 : LOGDATE
API .            42323329160000 : API NUMBER
UWI .            42323329160000 : UNIQUE WELL ID
SLAT.WGS84        28.8174515047 : SURFACE LATITUDE
SLON.WGS84      -100.3519501945 : SURFACE LONGITUDE
~Curve Information -----------------------------------------
DEPT  .FT    : DEPTH FEET
AF10ED.OHMM  : 10 INCH ARRAY RESISTIVITY FOUR FOOT RESOLUTION
AF20ED.OHMM  : 20 INCH ARRAY RESISTIVITY FOUR FOOT RESOLUTION
AF30ED.OHMM  : 30 INCH ARRAY RESISTIVITY FOUR FOOT RESOLUTION
AF60ED.OHMM  : 60 INCH ARRAY RESISTIVITY FOUR FOOT RESOLUTION
AF90ED.OHMM  : 90 INCH ARRAY RESISTIVITY FOUR FOOT RESOLUTION
BITED .IN    : BIT SIZE FROM LOG HEADER
CALWS .IN    : CALIPER [(DCALED+BITED)]
CONDWS.MMHO  : CONDUCTIVITY [1000/DRESWS]
DCALED.IN    : DIFFERENTIAL CALIPER FROM DENSITY LOG
DCORWS.G/C3  : DENSITY CORRECTION [HDRAED]
DENWS .G/C3  : BULK DENSITY [M=2.71 F=1.0] [CALCULATED FROM DPOWS]
DPHZED.V/V   : DENSITY POROSITY [M=2.71 F=1.0] FROM DENSITY LOG
DPOWS .V/V   : DENSITY POROSITY [M=2.71 F=1.0] [DPHZED]
DRESWS.OHMM  : DEEP RESISTIVITY [AF90ED]
DT1ED .US/F  : DELTA TIME SHEAR LOWER DIPOLE FROM DIPOLE SONIC LOG
DT4PED.US/F  : DELTA TIME COMP - P & S FROM DIPOLE SONIC LOG
DTSWS .US/F  : DELTA TIME SHEAR [DT1ED]
DTWS  .US/F  : DELTA TIME [DT4PED]
GRRED .GAPI  : GAMMA RAY FROM RESISTIVITY LOG
GRWS  .GAPI  : GAMMA RAY [GRRED. CASED ABOVE 620]
HDRAED.G/C3  : DENSITY CORRECTION FROM DENSITY LOG
MRESWS.OHMM  : MEDIUM RESISTIVITY [AF30ED]
NPOWS .V/V   : NEUTRON POROSITY LIMESTONE [TNPHED. CASED ABOVE 620]
PEFWS .B/E   : PHOTOELECTRIC FACTOR [PEFZED]
PEFZED.B/E   : PHOTOELECTRIC FACTOR STANDARD RESOLUTION FROM DENSITY LOG
SPHIED.V/V   : SONIC POROSITY FROM SONIC LOG
SPOWS .V/V   : SONIC POROSITY [SPHIED]
SPRED .MV    : SPONTANEOUS POTENTIAL FROM RESISTIVITY LOG
SPWS  .MV    : SPONTANEOUS POTENTIAL [BASELINE 0 MV] [SPRED]
SRESWS.OHMM  : SHALLOW RESISTIVITY [AF20ED]
TENRED.LBF   : TENSION FROM RESISTIVITY LOG
TNPHED.V/V   : THERMAL NEUTRON POROSITY LIMESTONE FROM DENSITY LOG
~Params ----------------------------------------------------
PD  .                           GL : PERMANENT DATUM
EPD .FT                      770.7 : ELEVATION PERMANENT DATUM
LMF .                           KB : LOG MEASURED FROM
DAPD.FT                         25 : FEET ABOVE PERMANENT DATUM
DMF .                           KB : DRILLING MEASURED FROM
EKB .FT                      795.7 : KELLY BUSHING
EDF .FT                      794.7 : DRILLING FLOOR
EGL .FT                      770.7 : GROUND LEVEL
DATE.                     10/22/08 : RUN DATE
RUN .                            2 : RUN NUMBER
DD  .FT                       7700 : DEPTH DRILLER
DL  .FT                       7716 : DEPTH LOGGER
BLI .FT                       7708 : BOTTOM LOG INTERVAL
TLI .FT                       6610 : TOP LOG INTERVAL
CS  .IN                      7.875 : CASING SIZE
CBD .FT                       6600 : CASING BOTTOM DRILLER
CBL .FT                       6610 : CASING BOTTOM LOGGER
BS  .IN                       6.75 : BIT SIZE
BSD .FT                       7700 : BIT SIZE AT DEPTH
DFT .                    FRESH MUD : DRILLING FLUID TYPE
DFD .                         16.4 : DRILLING FLUID DENSITY
DFV .                           64 : DRILLING FLUID VISCOSITY
DFPH.                         10.1 : DRILLING FLUID PH
DFL .                          5.2 : DRILLING FLUID LOSS
MSS .                    FLOW LINE : MUD SAMPLE SOURCE
RMS .OHMM                    0.425 : RESISTIVITY MUD SAMPLE
MST .DEGF                      114 : MUD SAMPLE TEMPERATURE
RMF .OHMM                    0.306 : RESISTIVITY MUD FILTRATE SAMPLE
MFST.DEGF                      114 : MUD FILTRATE SAMPLE TEMPERATURE
RMC .OHMM                     0.55 : RESISTIVITY MUD CAKE
MCST.DEGF                      114 : MUD CAKE SAMPLE TEMPERATURE
MFSS.                     COMPUTED : MUD FILTRATE SAMPLE SOURCE
MCSS.                     COMPUTED : MUD CAKE SAMPLE SOURCE
RMB .OHMM                    0.241 : RESISTIVITY MUD AT BHT
TCS .HRS                      1330 : TIME CIRCULATED STOPPED
TLAB.HRS                      2342 : TIME LOGGER AT BOTTOM
LUN .                         2024 : LOGGING UNIT NUMBER
LUL .                    LAREDO TX : LOGGING UNIT LOCATION
ENGI. CARLOS DOSTAL CURT LADBETLER : RECORDING ENGINEER
WITN.                   JEFF FABER : WITNESSED BY
CLNT.                      A2DTECH : CLIENT CODE
ORIG.               1" 2" 5" PRINT : ORIGIN OF DATA
UWI .               42323329160000 : UNIQUE WELL ID
DICO.       A2D Technologies, Inc. : DIGITIZING COMPANY
~Other -----------------------------------------------------
1. CURVE AF20ED WAS CHOSEN FOR SRESWS BECAUSE AF10ED SEEMED TO BEHAVE ERRATICALLY OVER PART OF RUN 1.
~ASCII -----------------------------------------------------
# ...
 1500.00000   13.99430   10.67000   10.34260    9.52670    9.25390    9.87500    9.95150  108.06260    0.07650   -0.00250    2.57320    0.08000    0.08000    9.25390  143.11070   71.61890  143.11070   71.61890   35.93040   35.93040   -0.00250   10.34260    0.10300    4.89470    4.89470    0.16790    0.16790    2.74960   -5.03880   10.67000 1939.33280    0.10300
 1550.00000   11.74560   10.48980    9.73870    9.33430    9.04470    9.87500    9.99810  110.56200    0.12310    0.02620    2.61010    0.05840    0.05840    9.04470  150.29570   72.18620  150.29570   72.18620   23.54970   23.54970    0.02620    9.73870    0.08970    5.08100    5.08100    0.16690    0.16690    2.23980   -5.19910   10.48980 1901.93140    0.08970
 1600.00000    7.21390    6.86100    6.57040    6.30200    6.10800    9.87500    9.87790  163.71970    0.00290    0.00740    2.59920    0.06480    0.06480    6.10800  157.46430   77.40680  157.46430   77.40680   39.21850   39.21850    0.00740    6.57040    0.10510    4.79240    4.79240    0.20850    0.20850    2.29410   -4.79530    6.86100 1961.70780    0.10510
 1650.00000    2.22500    2.48690    2.68660    3.08410    3.18930    9.87500    9.91750  313.54840    0.04250    0.04660    2.47850    0.13540    0.13540    3.18930  116.57980   74.07470  116.57980   74.07470   53.15310   53.15310    0.04660    2.68660    0.13770    6.37360    6.37360    0.16520    0.16520    2.13800   -4.60180    2.48690 1969.81590    0.13770
 1700.00000    2.23770    2.36320    2.42940    2.57770    2.62220    9.87500   10.15200  381.35920    0.27700    0.05440    2.30930    0.23430    0.23430    2.62220   81.61880   60.90270   81.61880   60.90270   58.86340   58.86340    0.05440    2.42940    0.19810    6.88170    6.88170    0.09540    0.09540    1.28620   -5.03450    2.36320 1983.97160    0.19810
 1750.00000    3.05400    3.09770    3.24700    3.37520    3.51420    9.87500    9.84700  284.55980   -0.02800    0.02490    2.21790    0.28780    0.28780    3.51420  187.05100   70.21170  187.05100   70.21170   28.69180   28.69180    0.02490    3.24700    0.16570    6.80830    6.80830    0.16290    0.16290    0.08320   -5.72980    3.09770 1997.36940    0.16570
 1800.00000   20.69530   14.01850   12.33080   13.29730   13.84980    9.87500    9.88070   72.20320    0.00570    0.00040    2.51220    0.11570    0.11570   13.84980  131.45230   70.07700  131.45230   70.07700   28.63010   28.63010    0.00040   12.33080    0.10870    4.87380    4.87380    0.15910    0.15910   -1.57110   -6.87630   14.01850 2004.10280    0.10870
 1850.00000    4.26780    3.95180    3.56560    3.72320    3.79340    9.87500    9.88680  263.61580    0.01180    0.04310    2.41790    0.17080    0.17080    3.79340  181.87600   72.13990  181.87600   72.13990   41.48380   41.48380    0.04310    3.56560    0.13450    6.09740    6.09740    0.16420    0.16420   -0.13940   -4.93690    3.95180 2018.55540    0.13450
 1900.00000    6.87750    6.60960    5.74990    6.13090    6.34830    9.87500    9.88680  157.52250    0.01180    0.00550    2.53200    0.10410    0.10410    6.34830  163.78700   80.16650  163.78700   80.16650   33.12720   33.12720    0.00550    5.74990    0.13270    4.71490    4.71490    0.22320    0.22320   -4.05410   -8.34380    6.60960 2049.66210    0.13270
 1950.00000    6.22090    6.57350    6.70550    7.09320    7.59130    9.87500    9.89120  131.72970    0.01620    0.00280    2.45790    0.14740    0.14740    7.59130  139.90900   75.89490  139.90900   75.89490   23.42460   23.42460    0.00280    6.70550    0.13130    4.26090    4.26090    0.20170    0.20170   -5.11400   -8.89600    6.57350 2071.41240    0.13130
 2000.00000   10.17870    8.84400    7.33560    7.95000    8.27950    9.87500    9.86030  120.78020   -0.01470    0.00560    2.47280    0.13870    0.13870    8.27950  151.92770   80.34550  151.92770   80.34550   32.07060   32.07060    0.00560    7.33560    0.14770    4.54920    4.54920    0.23500    0.23500   -7.07730  -10.35150    8.84400 2090.59500    0.14770
 2050.00000   16.21300   10.88330    9.55360   10.23430   10.66050    9.87500    9.96980   93.80420    0.09480   -0.00190    2.45490    0.14920    0.14920   10.66050  138.91380   75.15300  138.91380   75.15300   29.04020   29.04020   -0.00190    9.55360    0.14480    4.83200    4.83200    0.19450    0.19450  -10.24360  -13.01010   10.88330 2113.67720    0.14480
 2100.00000    7.54510    6.70910    5.72280    5.84730    6.35560    9.87500   10.14280  157.34160    0.26780    0.00040    2.50240    0.12140    0.12140    6.35560  149.80190   79.53550  149.80190   79.53550   30.67000   30.67000    0.00040    5.72280    0.15410    4.73810    4.73810    0.22060    0.22060   -8.08790  -10.34660    6.70910 2072.57230    0.15410
 2150.00000   22.24720   13.58090   11.96010   12.64750   13.34250    9.87500   10.06110   74.94850    0.18610    0.00080    2.48550    0.13130    0.13130   13.34250  132.63090   72.18840  132.63090   72.18840   26.47030   26.47030    0.00080   11.96010    0.13470    4.86500    4.86500    0.17200    0.17200   -8.34130  -10.09230   13.58090 2090.30440    0.13470
 2200.00000   28.76050   14.37200   12.34920   12.95120   13.84350    9.87500    9.96930   72.23610    0.09430   -0.00320    2.49680    0.12470    0.12470   13.84350  132.84120   72.27290  132.84120   72.27290   45.41950   45.41950   -0.00320   12.34920    0.13320    4.95970    4.95970    0.17780    0.17780   -9.04320  -10.28640   14.37200 2108.70430    0.13320
 2250.00000   24.53970   13.28440   11.40680   11.86530   12.94460    9.87500    9.89980   77.25230    0.02480    0.00720    2.53780    0.10070    0.10070   12.94460  134.15360   71.71510  134.15360   71.71510   45.59640   45.59640    0.00720   11.40680    0.11190    5.01600    5.01600    0.16700    0.16700  -12.55580  -13.29130   13.28440 2162.40090    0.11190
 2300.00000  126.43680   30.36110   23.12630   24.41680   27.49650    9.87500    9.90480   36.36830    0.02980    0.00260    2.54870    0.09430    0.09430   27.49650  124.61270   67.79290  124.61270   67.79290   54.96370   54.96370    0.00260   23.12630    0.10370    4.90870    4.90870    0.14460    0.14460  -13.89620  -14.12390   30.36110 2174.68040    0.10370
 2350.00000  323.53590   29.61420   24.69870   25.81740   28.07640    9.87500    9.97170   35.61710    0.09670    0.01270    2.50600    0.11930    0.11930   28.07640  123.53170   68.06260  123.53170   68.06260   50.80250   50.80250    0.01270   24.69870    0.12380    5.08280    5.08280    0.14360    0.14360  -22.12370  -21.84370   29.61420 2172.20310    0.12380
 2400.00000  144.82930   56.22240   43.70910   46.35030   54.42840    9.87500    9.90870   18.37280    0.03370    0.00910    2.58840    0.07110    0.07110   54.42840  125.70700   66.14560  125.70700   66.14560   50.52660   50.52660    0.00910   43.70910    0.06410    4.82200    4.82200    0.13630    0.13630  -10.13040   -9.34260   56.22240 2152.92970    0.06410
 2450.00000 1973.83450   38.60670   30.16910   35.35420   37.64210    9.87500    9.94140   26.56600    0.06640    0.00510    2.55490    0.09070    0.09070   37.64210  134.51600   73.98960  134.51600   73.98960   56.52930   56.52930    0.00510   30.16910    0.11580    4.88210    4.88210    0.18670    0.18670  -14.27820  -12.98270   38.60670 2203.81400    0.11580
 2500.00000   24.28460   15.10240   12.85660   13.44980   14.29790    9.87500   10.11870   69.94030    0.24370    0.00540    2.54020    0.09930    0.09930   14.29790  155.34580   82.78310  155.34580   82.78310   66.34730   66.34730    0.00540   12.85660    0.17300    4.26990    4.26990    0.25120    0.25120   -9.20760   -7.40430   15.10240 2205.93820    0.17300
 2550.00000  162.75690   30.99660   24.49650   28.84770   30.64790    9.87500    9.97440   32.62870    0.09940    0.00940    2.58690    0.07200    0.07200   30.64790  128.16730   68.04050  128.16730   68.04050   39.09010   39.09010    0.00940   24.49650    0.09240    4.75930    4.75930    0.14770    0.14770   -7.40830   -5.09730   30.99660 2242.28960    0.09240
