~Version ---------------------------------------------------
VERS. 2.0 : CWLS log ASCII Standard -VERSION 2.0
WRAP. YES : MULTIPLE LINES PER DEPTH STEP
~Well ------------------------------------------------------
STRT.FT                  3250.0 : START DEPTH
STOP.FT                  7950.0 : STOP DEPTH
STEP.FT                50.00000 : STEP LENGTH
NULL.                   -999.25 : NULL VALUE
COMP. EVERGREEN OIL CORPORATION : COMPANY
WELL.           HAMILTON R C #1 : WELL
FLD .                      COST : FIELD
LOC .                           : LOCATION
CNTY.                  GONZALES : COUNTY
STAT.                     TEXAS : STATE
CTRY.  UNITED STATES OF AMERICA : COUNTRY
SRVC.              Schlumberger : SERVICE COMPANY
DATE.               15-Dec-1980 : LOGDATE
API .            42177307020000 : API NUMBER
UWI .            42177307020000 : UNIQUE WELL ID
SLAT.WGS84        29.2306839754 : SURFACE LATITUDE
SLON.WGS84       -97.6857640562 : SURFACE LONGITUDE
~Curve Information -----------------------------------------
DEPT    .FT    : DEPTH FEET
CALDED  .IN    : CALIPER FROM DENSITY LOG
CALWS   .IN    : CALIPER [CALDED]
CONDWS  .MMHO  : CONDUCTIVITY [1000/DRESWS]
DCALED  .IN    : DIFFERENTIAL CALIPER FROM DENSITY LOG
DCORWS  .G/C3  : DENSITY CORRECTION [DRHOED]
DENWS   .G/C3  : BULK DENSITY [M=2.71 F=1.0] [RHOBED]
DPHILSED.V/V   : DENSITY POROSITY [M=2.71 F=1.0] FROM DENSITY LOG
DPHISSED.V/V   : DENSITY POROSITY [M=2.68 F=1.0] FROM DENSITY LOG
DPOLSWS .V/V   : DENSITY POROSITY [M=2.71 F=1.0] [CAL FR DENWS]
DRESWS  .OHMM  : DEEP RESISTIVITY [ILDED IS PATCHED TO REMOVE DUBIOUS SPIKES]
DRHOED  .G/C3  : DENSITY CORRECTION FROM DENSITY LOG
GRDED   .GAPI  : GAMMA RAY FROM DENSITY LOG
GRRED   .GAPI  : GAMMA RAY FROM RESISTIVITY LOG
GRWS    .GAPI  : GAMMA RAY [3234 GRDED 7734 GRRED]
ILDED   .OHMM  : INDUCTION LOG DEEP RESISTIVITY
ILMED   .OHMM  : INDUCTION LOG MEDIUM RESISTIVITY
MRESWS  .OHMM  : MEDIUM RESISTIVITY [ILMED IS PATCHED TO REMOVE DUBIOUS SPIKES]
NPHILSED.V/V   : NEUTRON POROSITY LIMESTONE FROM DENSITY LOG
NPHISSED.V/V   : NEUTRON POROSITY SANDSTONE FROM DENSITY LOG
NPOLSWS .V/V   : NEUTRON POROSITY LIMESTONE [3234 NPHILS_CAL 7394.5 NPHILSED][NPHISSED IS CONVERTED TO NPHILS_CAL USING POWERLOG MODULE]
RHOBED  .G/C3  : BULK DENSITY FROM DENSITY LOG [SOME PEAKS ARE DEPTH MATCHED TO DPHIED]
SFLUED  .OHMM  : SPHERICALLY FOCUSED LOG RESISTIVITY
SPRED   .MV    : SPONTANEOUS POTENTIAL FROM RESISTIVITY LOG
SPWS    .MV    : SPONTANEOUS POTENTIAL [BASELINE 0 MV] [SPRED]
SRESWS  .OHMM  : SHALLOW RESISTIVITY [SFLUED]
TENRED  .LBF   : TENSION FROM RESISTIVITY LOG
~Params ----------------------------------------------------
PD  .                     GL : PERMANENT DATUM
EPD .FT                  262 : ELEVATION PERMANENT DATUM
LMF .                     KB : LOG MEASURED FROM
DAPD.FT                   15 : FEET ABOVE PERMANENT DATUM
DMF .                     KB : DRILLING MEASURED FROM
EKB .FT                  277 : KELLY BUSHING
EDF .FT                  276 : DRILLING FLOOR
EGL .FT                  262 : GROUND LEVEL
DATE.               12/15/80 : RUN DATE
RUN .                      1 : RUN NUMBER
DD  .FT                 7980 : DEPTH DRILLER
DL  .FT                 7972 : DEPTH LOGGER
BLI .FT                 7966 : BOTTOM LOG INTERVAL
TLI .FT                 3249 : TOP LOG INTERVAL
CS  .IN                8.625 : CASING SIZE
CBD .FT                 2258 : CASING BOTTOM DRILLER
CBL .FT                 3249 : CASING BOTTOM LOGGER
BS  .IN                7.875 : BIT SIZE
BSD .FT                 7980 : BIT SIZE AT DEPTH
DFD .                    9.5 : DRILLING FLUID DENSITY
DFV .                     54 : DRILLING FLUID VISCOSITY
DFPH.                      9 : DRILLING FLUID PH
DFL .                    8.0 : DRILLING FLUID LOSS
MSS .               FLOWLINE : MUD SAMPLE SOURCE
RMS .OHMM               2.65 : RESISTIVITY MUD SAMPLE
MST .FT                   75 : MUD SAMPLE TEMPERATURE
RMF .OHMM               2.61 : RESISTIVITY MUD FILTRATE SAMPLE
MFST.FT                   75 : MUD FILTRATE SAMPLE TEMPERATURE
RMC .OHMM               3.97 : RESISTIVITY MUD CAKE
MCST.FT                   75 : MUD CAKE SAMPLE TEMPERATURE
MFSS.                      M : MUD FILTRATE SAMPLE SOURCE
MCSS.                      C : MUD CAKE SAMPLE SOURCE
RMB .OHMM                1.0 : RESISTIVITY MUD AT BHT
TCS .HRS                2400 : TIME CURCULATED STOPPED
TLAB.HRS                 600 : TIME LOGGER AT BOTTOM
LUN .                   8011 : LOGGING UNIT NUMBER
LUL .               VICTORIA : LOGGING UNIT LOCATION
ENGI.              PISHVAVOV : RECORDING ENGINEER
WITN.                 GERJES : WITNESSED BY
CLNT.                A2DTECH : CLIENT CODE
ORIG.            1" 5" PRINT : ORIGIN OF DATA
UWI .         42177307020000 : UNIQUE WELL ID
DICO. A2D Technologies, Inc. : DIGITIZING COMPANY
~Other -----------------------------------------------------
~ASCII -----------------------------------------------------
 3250.00000   11.71120   11.71120    -999.25    3.87050    0.03950    2.22360    -999.25    0.25280    0.28440    -999.25    0.03950   63.75070   68.76430   63.75070    -999.25    -999.25    -999.25    -999.25    0.40490    0.36210    2.22360    -999.25   -6.83140   -8.58000    -999.25 1121.01120
 3300.00000   11.55480   11.55480  158.30050    3.69530    0.03000    2.16970    -999.25    0.31640    0.31600    6.31710    0.03000   65.97770   69.56760   65.97770    6.31710    6.41960    6.41960    -999.25    0.33820    0.29440    2.16970    6.85130   -4.66510   -6.55840    6.85130 1145.68680
 3350.00000   12.72830   12.72830  378.42950    4.94030    0.07610    2.11690    -999.25    0.34410    0.34680    2.64250    0.07610   86.33680   98.98070   86.33680    2.64250    2.59460    2.59460    -999.25    0.44250    0.40060    2.11690    2.74680   -0.16180   -2.35640    2.74680 1122.48770
 3400.00000   11.98970   11.98970  237.04550    4.11060    0.10650    2.25830    -999.25    0.26810    0.26420    4.21860    0.10650   78.08940   87.33160   78.08940    4.21860    4.48610    4.48610    -999.25    0.33210    0.28830    2.25830    5.98050   -0.34100   -2.83700    5.98050 1134.27920
 3450.00000   11.50420   11.50420  117.51990    3.71540    0.00900    2.12770    -999.25    0.33950    0.34050    8.50920    0.00900   71.19020   76.81880   71.19020    8.50920    8.91930    8.91930    -999.25    0.29760    0.25360    2.12770    9.22790   -6.55390   -9.53050    9.22790 1167.06040
 3500.00000   11.19890   11.19890  120.18650    3.45580    0.02040    2.17830    -999.25    0.30960    0.31090    8.32040    0.02040   66.78920   70.91280   66.78920    8.32040    8.51240    8.51240    -999.25    0.33100    0.28720    2.17830    8.62420   -7.14940  -10.66320    8.62420 1188.93800
 3550.00000   10.69740   10.69740  126.46540    2.81180   -0.00030    2.15300    -999.25    0.32610    0.32570    7.90730   -0.00030   59.24330   60.51250   59.24330    7.90730    8.06850    8.06850    -999.25    0.29620    0.25220    2.15300    8.66260   -5.33110   -9.38220    8.66260 1202.68010
 3600.00000   11.19690   11.19690  189.52320    3.36780    0.00210    2.19740    -999.25    0.29980    0.29980    5.27640    0.00210   67.95500   71.47550   67.95500    5.27640    4.89240    4.89240    -999.25    0.33580    0.29200    2.19740    6.31940   -6.10160  -10.68990    6.31940 1233.17610
 3650.00000   12.88900   12.88900  390.22870    5.17190    0.02560    2.01000    -999.25    0.39860    0.40940    2.56260    0.02560   86.24690  100.09990   86.24690    2.56260    2.67100    2.67100    -999.25    0.45610    0.41440    2.01000    2.60250   -1.92070   -7.04630    2.60250 1243.95030
 3700.00000   10.87920   10.87920  103.86700    2.99840    0.00560    2.19880    -999.25    0.30470    0.29890    9.62770    0.00560   59.11670   61.18920   59.11670    9.62770   10.68120   10.68120    -999.25    0.30760    0.26360    2.19880   10.10280   -9.27520  -14.93800   10.10280 1251.40650
 3750.00000   12.64040   12.64040  456.26680    4.81210    0.03070    2.24800    -999.25    0.28100    0.27020    2.19170    0.03070   89.83040  103.73680   89.83040    2.19170    2.29810    2.29810    -999.25    0.39150    0.34850    2.24800    2.97600   -1.82710   -8.02710    2.97600 1291.87410
 3800.00000    9.61730    9.61730  136.42380    1.76810    0.01040    2.16200    -999.25    0.32080    0.32050    7.33010    0.01040   63.83280   62.23470   63.83280    7.33010    7.70620    7.70620    -999.25    0.33150    0.28770    2.16200    8.06610   -2.91580   -8.51440    8.06610 1264.01950
 3850.00000   12.58090   12.58090  278.94000    4.59490    0.05270    2.10240    -999.25    0.36850    0.35530    3.58500    0.05270   79.71900   90.45490   79.71900    3.58500    3.69250    3.69250    -999.25    0.40160    0.35880    2.10240    3.80370    3.24710   -1.10960    3.80370 1300.19070
 3900.00000    9.54550    9.54550  174.37400    1.75470    0.02250    2.24040    -999.25    0.27510    0.27460    5.73480    0.02250   88.79700   85.66310   88.79700    5.73480    5.87340    5.87340    -999.25    0.32330    0.27940    2.24040    5.99720   -1.45920   -5.35690    5.99720 1323.45890
 3950.00000   10.06080   10.06080  126.19410    2.23240    0.04980    2.20050    -999.25    0.29890    0.29800    7.92430    0.04980   53.00080   52.62910   53.00080    7.92430    7.33970    7.33970    -999.25    0.27270    0.22870    2.20050    8.98750   -6.37890   -9.92440    8.98750 1329.93980
 4000.00000   10.02330   10.02330  138.34510    2.15260    0.00450    2.17760    -999.25    0.31040    0.31130    7.22830    0.00450   58.09520   57.18320   58.09520    7.22830    7.99490    7.99490    -999.25    0.27680    0.23280    2.17760    9.38150   -8.66040  -11.85370    9.38150 1357.76230
 4050.00000   10.12280   10.12280  120.72050    2.30090    0.01770    2.19450    -999.25    0.29770    0.30150    8.28360    0.01770   57.97220   57.68570   57.97220    8.28360    9.04440    9.04440    -999.25    0.26950    0.22550    2.19450    9.27870   -6.88910   -9.73010    9.27870 1343.60850
 4100.00000    9.87750    9.87750  161.71290    2.06170    0.00510    2.21230    -999.25    0.28950    0.29110    6.18380    0.00510   58.42740   55.89030   58.42740    6.18380    7.29080    7.29080    -999.25    0.27050    0.22650    2.21230    7.74710   -6.34270   -8.83150    7.74710 1354.49830
 4150.00000   11.02670   11.02670  317.04770    2.97190    0.02600    2.24600    -999.25    0.26600    0.27130    3.15410    0.02600   74.21510   79.34640   74.21510    3.15410    3.50700    3.50700    -999.25    0.30240    0.25840    2.24600    3.46860   -1.86170   -3.91300    3.46860 1384.88370
 4200.00000    9.21760    9.21760  109.44630    1.37130    0.00800    2.21170    -999.25    0.28950    0.29140    9.13690    0.00800   54.14190   50.49710   54.14190    9.13690    9.75740    9.75740    -999.25    0.29510    0.25110    2.21170   10.46960  -12.35820  -13.86770   10.46960 1394.73060
 4250.00000    9.33430    9.33430  179.94020    1.47120    0.00320    2.14940    -999.25    0.32510    0.32780    5.55740    0.00320   48.48890   45.86030   48.48890    5.55740    6.82550    6.82550    -999.25    0.32300    0.27910    2.14940    8.61770   -9.34170  -10.30940    8.61770 1418.47940
 4300.00000   12.28250   12.28250  244.93600    4.56980    0.08900    2.23240    -999.25    0.27560    0.27930    4.08270    0.08900   76.28640   84.42240   76.28640    4.08270    3.13220    3.13220    -999.25    0.31190    0.26800    2.23240    3.28590   -2.53840   -2.96430    3.28590 1432.38150
 4350.00000    9.55670    9.55670  146.86440    1.68950    0.00210    2.17330    -999.25    0.31430    0.31390    6.80900    0.00210   37.60240   35.47200   37.60240    6.80900    7.94500    7.94500    -999.25    0.27130    0.22730    2.17330    8.83650  -15.03780  -15.13680    8.83650 1441.00400
 4400.00000   10.15580   10.15580  159.50490    2.20090    0.01070    2.29500    -999.25    0.24010    0.24270    6.26940    0.01070   54.73980   53.51130   54.73980    6.26940    6.92670    6.92670    -999.25    0.29020    0.24620    2.29500    8.23450   -8.49980   -8.29070    8.23450 1439.10770
 4450.00000    9.54580    9.54580  281.00150    1.69580    0.00710    2.21280    -999.25    0.28900    0.29080    3.55870    0.00710   55.40090   53.64740   55.40090    3.55870    4.43200    4.43200    -999.25    0.34320    0.29950    2.21280    6.26020  -11.32180  -10.80170    6.26020 1476.24870
 4500.00000   10.40480   10.40480  318.33950    2.74540    0.03150    2.13360    -999.25    0.32510    0.33710    3.14130    0.03150   67.81460   71.18260   67.81460    3.14130    3.91400    3.91400    -999.25    0.33290    0.28910    2.13360    4.35840   -6.79330   -5.95400    4.35840 1492.65520
 4550.00000    9.53600    9.53600  284.84350    1.73500    0.00700    2.21650    -999.25    0.28910    0.28860    3.51070    0.00700   57.31040   55.81880   57.31040    3.51070    4.33170    4.33170    -999.25    0.33830    0.29450    2.21650    6.39710  -10.76170   -9.60320    6.39710 1500.51870
