~Version ---------------------------------------------------
VERS. 2.0 : CWLS log ASCII Standard -VERSION 2.0
WRAP. YES : MULTIPLE LINES PER DEPTH STEP
~Well ------------------------------------------------------
STRT.FT                    700.0 : START DEPTH
STOP.FT                   6350.0 : STOP DEPTH
STEP.FT                 50.00000 : STEP LENGTH
NULL.                    -999.25 : NULL VALUE
COMP. TEXLARK EXPLORATION CO INC : COMPANY
WELL.            V. STAVINOHA #1 : WELL
FLD .                  CINDY ANN : FIELD
LOC .                            : LOCATION
CNTY.                     WILSON : COUNTY
STAT.                      TEXAS : STATE
CTRY.   UNITED STATES OF AMERICA : COUNTRY
SRVC.                   Gearhart : SERVICE COMPANY
DATE.                31-Mar-1982 : LOGDATE
API .             42493310750000 : API NUMBER
UWI .             42493310750000 : UNIQUE WELL ID
SLAT.WGS84         29.1162057424 : SURFACE LATITUDE
SLON.WGS84        -98.0533635571 : SURFACE LONGITUDE
~Curve Information -----------------------------------------
DEPT   .FT    : DEPTH FEET
CALWS  .IN    : CALIPER [CALXRED]
CALXDED.IN    : CALIPER X FROM DENSITY LOG
CALXRED.IN    : CALIPER X FROM RESISTIVITY LOG
CALYDED.IN    : CALIPER Y FROM DENSITY LOG
CDLSSED.V/V   : COMPENSATED DENSITY POROSITY SANDSTONE FROM DENSITY LOG
CNSSSED.V/V   : COMPENSATED NEUTRON POROSITY SANDSTONE FROM DENSITY LOG
CONDWS .MMHO  : CONDUCTIVITY [1000/DRESWS]
DCORWS .G/C3  : DENSITY CORRECTION [DRHOED]
DENWS  .G/C3  : BULK DENSITY [M=2.65 F=1.0] [RHOBED]
DPOWS  .V/V   : DENSITY POROSITY [M=2.65 F=1.0] [CALCULATED FROM DENWS]
DRESWS .OHMM  : DEEP RESISTIVITY [RILDED]
DRHOED .G/C3  : DENSITY CORRECTION FROM DENSITY LOG
DTED   .US/F  : DELTA TIME FROM SONIC LOG
DTWS   .US/F  : DELTA TIME [DTED]
GRDED  .GAPI  : GAMMA RAY FROM DENSITY LOG
GRNED  .GAPI  : GAMMA RAY FROM NEUTRON LOG [ADJ TO GRRED]
GRRED  .GAPI  : GAMMA RAY FROM RESISTIVITY LOG
GRWS   .GAPI  : GAMMA RAY [SPL GRRED <6056F> GRNED, CSG ABOVE 732F ALSO CASED HOLE DATA FROM 6056-BOTTOM AND BULK SHIFTED +20GAPI]
MRESWS .OHMM  : MEDIUM RESISTIVITY [RILMED]
NEUTED .NAPI  : NEUTRON FROM NEUTRON LOG [ADJ TO GRRED]
NEUTWS .NAPI  : NEUTRON [NEUTED]
NPOWS  .V/V   : NEUTRON POROSITY SANDSTONE [CNSSSED]
RHOBED .G/C3  : BULK DENSITY FROM DENSITY LOG
RILDED .OHMM  : INDUCTION LOG DEEP RESISTIVITY
RILMED .OHMM  : INDUCTION LOG MEDIUM RESISTIVITY
RLLED  .OHMM  : LATEROLOG RESISTIVITY
SPRED  .MV    : SPONTANEOUS POTENTIAL FROM RESISTIVITY LOG
SPWS   .MV    : SPONTANEOUS POTENTIAL [BASELINE 0 MV] [SPRED]
SRESWS .OHMM  : SHALLOW RESISTIVITY [RLLED]
TENDED .LBF   : TENSION FROM DENSITY LOG
TENRED .LBF   : TENSION FROM RESISTIVITY LOG
~Params ----------------------------------------------------
PD  .                     GL : PERMANENT DATUM
EPD .FT                416.4 : ELEVATION PERMANENT DATUM
LMF .                    TKB : LOG MEASURED FROM
DAPD.FT                 13.9 : FEET ABOVE PERMANENT DATUM
DMF .                    TKB : DRILLING MEASURED FROM
EKB .FT                430.3 : KELLY BUSHING
EDF .FT                429.3 : DRILLING FLOOR
EGL .FT                416.4 : GROUND LEVEL
DATE.               03/31/82 : RUN DATE
RUN .                      1 : RUN NUMBER
DD  .FT                 6068 : DEPTH DRILLER
DL  .FT                 6105 : DEPTH LOGGER
BLI .FT                 6104 : BOTTOM LOG INTERVAL
TLI .FT                  675 : TOP LOG INTERVAL
CS  .IN                8.625 : CASING SIZE
CBD .FT                  732 : CASING BOTTOM DRILLER
CBL .FT                  732 : CASING BOTTOM LOGGER
BS  .IN                7.875 : BIT SIZE
BSD .FT                 6068 : BIT SIZE AT DEPTH
DFT .         LIGNOSULFONATE : DRILLING FLUID TYPE
DFD .                    9.8 : DRILLING FLUID DENSITY
DFV .                     75 : DRILLING FLUID VISCOSITY
DFPH.                   10.5 : DRILLING FLUID PH
DFL .                    8.0 : DRILLING FLUID LOSS
MSS .               FLOWLINE : MUD SAMPLE SOURCE
RMS .OHMM                2.3 : RESISTIVITY MUD SAMPLE
MST .DEGF                 75 : MUD SAMPLE TEMPERATURE
RMF .OHMM                2.1 : RESISTIVITY MUD FILTRATE SAMPLE
MFST.DEGF                 75 : MUD FILTRATE SAMPLE TEMPERATURE
RMC .OHMM                2.4 : RESISTIVITY MUD CAKE
MCST.DEGF                 75 : MUD CAKE SAMPLE TEMPERATURE
MFSS.                      M : MUD FILTRATE SAMPLE SOURCE
MCSS.                      C : MUD CAKE SAMPLE SOURCE
RMB .OHMM               1.17 : RESISTIVITY MUD AT BHT
TCS .HRS                1400 : TIME CIRCULATED STOPPED
TLAB.HRS                  30 : TIME LOGGER AT BOTTOM
LUN .                   7506 : LOGGING UNIT NUMBER
LUL .                     CC : LOGGING UNIT LOCATION
ENGI.                  DEPUR : RECORDING ENGINEER
CLNT.                A2DTECH : CLIENT CODE
ORIG.               5" PRINT : ORIGIN OF DATA
UWI .         42493310750000 : UNIQUE WELL ID
DICO. A2D Technologies, Inc. : DIGITIZING COMPANY
~Other -----------------------------------------------------
~ASCII -----------------------------------------------------
# ...
 1850.00000    8.13690    -999.25    8.13690    -999.25    -999.25    -999.25   32.14230    -999.25    -999.25    -999.25   31.11170    -999.25  118.53790  118.53790    -999.25    -999.25   50.81110   50.81110   27.28040    -999.25    -999.25    -999.25    -999.25   31.11170   27.28040   23.05270  -42.97670   -6.53450   23.05270    -999.25  952.27770
 1900.00000    7.87370    -999.25    7.87370    -999.25    -999.25    -999.25   31.90810    -999.25    -999.25    -999.25   31.34000    -999.25  104.90770  104.90770    -999.25    -999.25   45.13060   45.13060   27.72220    -999.25    -999.25    -999.25    -999.25   31.34000   27.72220   22.36860  -42.04780   -6.02940   22.36860    -999.25  953.99980
 1950.00000    8.64200    -999.25    8.64200    -999.25    -999.25    -999.25   28.34320    -999.25    -999.25    -999.25   35.28180    -999.25  110.88990  110.88990    -999.25    -999.25   51.65120   51.65120   33.03260    -999.25    -999.25    -999.25    -999.25   35.28180   33.03260   27.68250  -45.39990   -9.80520   27.68250    -999.25  968.16330
 2000.00000    7.89120    -999.25    7.89120    -999.25    -999.25    -999.25  150.29680    -999.25    -999.25    -999.25    6.65350    -999.25  119.04000  119.04000    -999.25    -999.25   67.45110   67.45110    6.89690    -999.25    -999.25    -999.25    -999.25    6.65350    6.89690    9.11790  -43.35790   -8.18690    9.11790    -999.25  947.22800
 2050.00000    7.75770    -999.25    7.75770    -999.25    -999.25    -999.25  188.44460    -999.25    -999.25    -999.25    5.30660    -999.25  122.05920  122.05920    -999.25    -999.25   65.69950   65.69950    6.01030    -999.25    -999.25    -999.25    -999.25    5.30660    6.01030    7.00740  -44.56320   -9.81590    7.00740    -999.25  962.90150
 2100.00000    7.88150    7.89830    7.88150    7.51860    0.29220    0.35290  141.71130    0.10590    2.17440    0.28820    7.05660    0.10590  121.16320  121.16320   54.05660    -999.25   54.04670   54.04670    7.40120    -999.25    -999.25    0.35290    2.17440    7.05660    7.40120    7.44410  -44.89940  -10.57590    7.44410  983.73110  963.15400
 2150.00000    9.57180    9.80050    9.57180    8.25140    0.27630    0.34650  250.67050    0.12360    2.19410    0.27630    3.98930    0.12360  125.12820  125.12820   80.35900    -999.25   80.84330   80.84330    3.81710    -999.25    -999.25    0.34650    2.19410    3.98930    3.81710    3.53530  -35.82860   -1.92880    3.53530  893.87190  973.13790
 2200.00000   10.25520   11.02930   10.25520    8.79660    0.37560    0.35610  419.58630    0.17140    2.03020    0.37560    2.38330    0.17140  126.73240  126.73240   75.58600    -999.25   75.92080   75.92080    2.55640    -999.25    -999.25    0.35610    2.03020    2.38330    2.55640    3.54970  -33.86400   -0.38790    3.54970  896.30320  978.20070
 2250.00000    8.19740    8.27840    8.19740    7.18110    0.28280    0.36760  193.02410    0.05730    2.18340    0.28280    5.18070    0.05730  116.10200  116.10200   73.40120    -999.25   72.73120   72.73120    4.32230    -999.25    -999.25    0.36760    2.18340    5.18070    4.32230    5.68680  -42.77910   -9.72670    5.68680  983.21830 1055.29940
 2300.00000    9.07510    9.21830    9.07510    7.28380    0.23820    0.30330  275.08800    0.13490    2.25700    0.23820    3.63520    0.13490  105.44010  105.44010   67.54020    -999.25   67.46970   67.46970    3.84360    -999.25    -999.25    0.30330    2.25700    3.63520    3.84360    4.07150  -43.47880  -10.85020    4.07150  893.17960  961.97750
 2350.00000    9.14440    9.34180    9.14440    7.38670    0.30310    0.35930  313.70580    0.10970    2.14990    0.30310    3.18770    0.10970  127.54020  127.54020   76.09160    -999.25   74.97600   74.97600    3.32250    -999.25    -999.25    0.35930    2.14990    3.18770    3.32250    3.66710  -40.98170   -8.77680    3.66710  905.02810  976.08920
 2400.00000    9.62510    9.87170    9.62510    7.82360    0.23450    0.33140  277.72380    0.13370    2.26300    0.23450    3.60070    0.13370  112.85710  112.85710   81.14710    -999.25   81.48900   81.48900    3.74000    -999.25    -999.25    0.33140    2.26300    3.60070    3.74000    3.98670  -38.66130   -6.88010    3.98670  986.89020  974.29470
 2450.00000    9.40400    9.55210    9.40400    7.85580    0.28190    0.36370  406.37190    0.11160    2.18490    0.28190    2.46080    0.11160  125.81680  125.81680   78.57270    -999.25   78.49240   78.49240    2.80870    -999.25    -999.25    0.36370    2.18490    2.46080    2.80870    2.97860  -36.96360   -5.60610    2.97860  858.94330  983.88010
 2500.00000    9.79260   10.01880    9.79260    7.76260    0.21760    0.26990  376.76140    0.08250    2.27580    0.22680    2.65420    0.08250  107.30190  107.30190   69.25040    -999.25   69.93230   69.93230    2.86710    -999.25    -999.25    0.26990    2.27580    2.65420    2.86710    3.14520  -36.91180   -5.83580    3.14520  939.14000  840.64370
 2550.00000    9.26110    9.43510    9.26110    7.67050    0.28410    0.32140  312.09040    0.09370    2.15140    0.30220    3.20420    0.09370  118.15460  118.15460   80.53830    -999.25   80.65950   80.65950    3.39980    -999.25    -999.25    0.32140    2.15140    3.20420    3.39980    3.79060  -39.44240   -8.59240    3.79060  984.91850 1007.93970
 2600.00000    8.56170    8.55920    8.56170    7.79420    0.22660    0.31790  257.81170    0.12860    2.27610    0.22660    3.87880    0.12860  111.91700  111.91700   74.14550    -999.25   73.88770   73.88770    4.09920    -999.25    -999.25    0.31790    2.27610    3.87880    4.09920    4.31770  -42.63430  -12.29420    4.31770  864.38540  775.46970
 2650.00000    7.56720    -999.25    7.56720    -999.25    -999.25    -999.25  141.34680    -999.25    -999.25    -999.25    7.07480    -999.25  109.60200  109.60200    -999.25    -999.25   69.75490   69.75490    7.52840    -999.25    -999.25    -999.25    -999.25    7.07480    7.52840    8.13230  -46.97820  -17.14790    8.13230    -999.25  972.96440
 2700.00000    7.96480    -999.25    7.96480    -999.25    -999.25    -999.25   53.53630    -999.25    -999.25    -999.25   18.67890    -999.25   70.35790   70.35790    -999.25    -999.25   47.00680   47.00680   37.70480    -999.25    -999.25    -999.25    -999.25   18.67890   37.70480  102.11740  -46.15790  -16.83750  102.11740    -999.25  967.35730
 2750.00000    8.06010    -999.25    8.06010    -999.25    -999.25    -999.25  273.98010    -999.25    -999.25    -999.25    3.64990    -999.25  105.49700  105.49700    -999.25    -999.25   72.86240   72.86240    4.55090    -999.25    -999.25    -999.25    -999.25    3.64990    4.55090    6.57300  -33.46510   -4.65460    6.57300    -999.25  974.87160
 2800.00000    7.70860    -999.25    7.70860    -999.25    -999.25    -999.25  153.70190    -999.25    -999.25    -999.25    6.50610    -999.25  110.77760  110.77760    -999.25    -999.25   65.85260   65.85260    7.94350    -999.25    -999.25    -999.25    -999.25    6.50610    7.94350   10.75300  -39.71770  -11.41710   10.75300    -999.25  947.98930
 2850.00000    7.87440    -999.25    7.87440    -999.25    -999.25    -999.25  103.40410    -999.25    -999.25    -999.25    9.67080    -999.25  108.11040  108.11040    -999.25    -999.25   55.47200   55.47200   11.73320    -999.25    -999.25    -999.25    -999.25    9.67080   11.73320   12.57980  -44.41870  -16.62800   12.57980    -999.25  953.74700
 2900.00000    8.08290    -999.25    8.08290    -999.25    -999.25    -999.25  177.73350    -999.25    -999.25    -999.25    5.62640    -999.25  111.02760  111.02760    -999.25    -999.25   69.99400   69.99400    6.16770    -999.25    -999.25    -999.25    -999.25    5.62640    6.16770    6.48480  -40.88760  -13.60680    6.48480    -999.25  882.84570
 2950.00000    8.31280    -999.25    8.31280    -999.25    -999.25    -999.25  123.47970    -999.25    -999.25    -999.25    8.09850    -999.25  111.44040  111.44040    -999.25    -999.25   57.05380   57.05380   10.26090    -999.25    -999.25    -999.25    -999.25    8.09850   10.26090   11.03510  -44.65150  -17.88060   11.03510    -999.25  936.65820
