~Version ---------------------------------------------------
VERS. 2.0 : CWLS log ASCII Standard -VERSION 2.0
WRAP. YES : MULTIPLE LINES PER DEPTH STEP
~Well ------------------------------------------------------
STRT.FT                 3650.0 : START DEPTH
STOP.FT                 8050.0 : STOP DEPTH
STEP.FT               50.00000 : STEP LENGTH
NULL.                  -999.25 : NULL VALUE
COMP.      SAGE ENERGY COMPANY : COMPANY
WELL.                 ABNER #1 : WELL
FLD .             CALDWELL, NE : FIELD
LOC .                          : LOCATION
CNTY.                 BURLESON : COUNTY
STAT.                    TEXAS : STATE
CTRY. UNITED STATES OF AMERICA : COUNTRY
SRVC.            Dresser Atlas : SERVICE COMPANY
DATE.              30-Nov-1984 : LOGDATE
API .           42051327840000 : API NUMBER
UWI .           42051327840000 : UNIQUE WELL ID
SLAT.WGS84       30.5666622913 : SURFACE LATITUDE
SLON.WGS84      -96.5965383506 : SURFACE LONGITUDE
~Curve Information -----------------------------------------
DEPT    .FT    : DEPTH FEET
CALRED  .IN    : CALIPER FROM RESISTIVITY LOG
CALWS   .IN    : CALIPER [CALRED]
CONDWS  .MMHO  : CONDUCTIVITY [1000/DRESWS]
CORRED  .G/C3  : DENSITY CORRECTION FROM DENSITY LOG
DCORWS  .G/C3  : DENSITY CORRECTION [CORRED]
DENWS   .G/C3  : BULK DENSITY [SPL CALCULATED PORDSSED <7361> PORDLSED]
DPOWS   .V/V   : DENSITY POROSITY [M=2.71 F=1.0] [CALCULATED FROM DENWS]
DRESWS  .OHMM  : DEEP RESISTIVITY [RILDED]
GRNED   .CU    : GAMMA RAY FROM NEUTRON LOG [ADJ TO GRRED]
GRRED   .GAPI  : GAMMA RAY FROM RESISTIVITY LOG
GRWS    .GAPI  : GAMMA RAY [SPL GRRED <8022> GRNED, CASED HOLE DATA BELOW 80522F]
MRESWS  .OHMM  : MEDIUM RESISTIVITY [RILMED]
NEUTED  .CU    : NEUTRON FROM NEUTRON LOG [ADJ TO GRRED]
NEUTWS  .CU    : NEUTRON [NEUTED]
PORDLSED.V/V   : DENSITY POROSITY [M=2.71 F=1.0] FROM DENSITY LOG
PORDSSED.V/V   : DENSITY POROSITY [M=2.65 F=1.0] FROM DENSITY LOG
RFOCED  .OHMM  : FOCUSED RESISTIVITY
RILDED  .OHMM  : INDUCTION LOG DEEP RESISTIVITY
RILMED  .OHMM  : INDUCTION LOG MEDIUM RESISTIVITY
SPRED   .MV    : SPONTANEOUS POTENTIAL FROM RESISTIVITY LOG
SPWS    .MV    : SPONTANEOUS POTENTIAL [BASELINE 0 MV] [SPRED]
SRESWS  .OHMM  : SHALLOW RESISTIVITY [RFOCED]
TENRED  .LBF   : TENSION FROM RESISTIVITY LOG
~Params ----------------------------------------------------
PD  .                     GL : PERMANENT DATUM
EPD .FT                  336 : ELEVATION PERMANENT DATUM
LMF .                     KB : LOG MEASURED FROM
DAPD.FT                   16 : FEET ABOVE PERMANENT DATUM
DMF .                     KB : DRILLING MEASURED FROM
EKB .FT                  352 : KELLY BUSHING
EDF .FT                  351 : DRILLING FLOOR
EGL .FT                  336 : GROUND LEVEL
DATE.               11/30/84 : RUN DATE
RUN .                      1 : RUN NUMBER
DD  .FT                  810 : DEPTH DRILLER
DL  .FT                 8072 : DEPTH LOGGER
BLI .FT                 8070 : BOTTOM LOG INTERVAL
TLI .FT                 3662 : TOP LOG INTERVAL
CS  .IN                8.625 : CASING SIZE
CBD .FT                 3400 : CASING BOTTOM DRILLER
CBL .FT                 3662 : CASING BOTTOM LOGGER
BS  .IN                7.875 : BIT SIZE
BSD .FT                 8100 : BIT SIZE AT DEPTH
DFT .         LIGNOSULFONATE : DRILLING FLUID TYPE
DFD .                    9.4 : DRILLING FLUID DENSITY
DFV .                     48 : DRILLING FLUID VISCOSITY
DFPH.                    9.5 : DRILLING FLUID PH
DFL .                    6.8 : DRILLING FLUID LOSS
MSS .               FLOWLINE : MUD SAMPLE SOURCE
RMS .OHMM                3.3 : RESISTIVITY MUD SAMPLE
MST .DEGF                 75 : MUD SAMPLE TEMPERATURE
RMF .OHMM               2.45 : RESISTIVITY MUD FILTRATE SAMPLE
MFST.DEGF                 75 : MUD FILTRATE SAMPLE TEMPERATURE
RMC .OHMM               4.12 : RESISTIVITY MUD CAKE
MCST.DEGF                 75 : MUD CAKE SAMPLE TEMPERATURE
MFSS.               MEASURED : MUD FILTRATE SAMPLE SOURCE
MCSS.             CALCULATED : MUD CAKE SAMPLE SOURCE
RMB .OHMM               1.34 : RESISTIVITY MUD AT BHT
TCS .HRS                  12 : TIME CIRCULATED STOPPED
LUN .                HL 6304 : LOGGING UNIT NUMBER
LUL .                  BRYAN : LOGGING UNIT LOCATION
ENGI.            STEIGERWALD : RECORDING ENGINEER
WITN.                  BAKER : WITNESSED BY
CLNT.                A2DTECH : CLIENT CODE
ORIG.            2" 5" PRINT : ORIGIN OF DATA
UWI .         42051327840000 : UNIQUE WELL ID
DICO. A2D Technologies, Inc. : DIGITIZING COMPANY
~Other -----------------------------------------------------
~ASCII -----------------------------------------------------
# ...
 5200.00000    9.38450    9.38450 1071.00780    -999.25    -999.25    -999.25    -999.25    0.93370    -999.25   82.56280   82.56280    0.97930    -999.25    -999.25    -999.25    -999.25    1.58950    0.93370    0.97930   -0.89570   -7.95210    1.58950    0.00000
 5250.00000    8.51100    8.51100  613.45930    -999.25    -999.25    -999.25    -999.25    1.63010    -999.25   73.68970   73.68970    1.70530    -999.25    -999.25    -999.25    -999.25    2.08620    1.63010    1.70530   -1.77800   -8.78660    2.08620    0.00000
 5300.00000    8.37570    8.37570  273.83760    -999.25    -999.25    -999.25    -999.25    3.65180    -999.25   54.91140   54.91140    3.49630    -999.25    -999.25    -999.25    -999.25    2.90970    3.65180    3.49630   -1.28980   -8.25060    2.90970    0.00000
 5350.00000    8.54680    8.54680  732.06440    0.11180    0.11180    2.38750    0.18860    1.36600    -999.25   83.34690   83.34690    1.43820    -999.25    -999.25    -999.25    0.15910    1.82580    1.36600    1.43820   -0.12640   -7.03940    1.82580    0.00000
 5400.00000    8.38540    8.38540  714.18370    0.13210    0.13210    2.35070    0.21010    1.40020    -999.25   80.86190   80.86190    1.49870    -999.25    -999.25    -999.25    0.18140    1.84840    1.40020    1.49870    0.48350   -6.38170    1.84840    0.00000
 5450.00000    8.44760    8.44760  841.60910    0.13270    0.13270    2.44330    0.15600    1.18820    -999.25   92.31000   92.31000    1.24700    -999.25    -999.25    -999.25    0.12530    1.71560    1.18820    1.24700   -0.10090   -6.91820    1.71560    0.00000
 5500.00000    8.73470    8.73470  982.22170    0.14480    0.14480    2.31540    0.23080    1.01810    -999.25   94.12360   94.12360    1.06430    -999.25    -999.25    -999.25    0.20280    1.51700    1.01810    1.06430    3.86540   -2.90410    1.51700    0.00000
 5550.00000    9.97900    9.97900  838.50410    0.18340    0.18340    2.30280    0.23810    1.19260    -999.25   96.54210   96.54210    1.25120    -999.25    -999.25    -999.25    0.21040    1.65880    1.19260    1.25120    2.24800   -4.47370    1.65880    0.00000
 5600.00000   10.79810   10.79810  883.78260    -999.25    -999.25    -999.25    -999.25    1.13150    -999.25   87.95700   87.95700    1.20140    -999.25    -999.25    -999.25    -999.25    1.59220    1.13150    1.20140    1.33870   -5.33520    1.59220    7.81690
 5650.00000   10.12720   10.12720 1152.87060    -999.25    -999.25    -999.25    -999.25    0.86740    -999.25  104.54160  104.54160    0.92080    -999.25    -999.25    -999.25    -999.25    1.38560    0.86740    0.92080    1.81550   -4.81060    1.38560   15.77040
 5700.00000    9.39650    9.39650  653.03990    -999.25    -999.25    -999.25    -999.25    1.53130    -999.25   95.03150   95.03150    1.63980    -999.25    -999.25    -999.25    -999.25    1.84810    1.53130    1.63980    2.44110   -4.53140    1.84810    6.48360
 5750.00000    8.93260    8.93260  567.34370    -999.25    -999.25    -999.25    -999.25    1.76260    -999.25   86.48220   86.48220    1.89240    -999.25    -999.25    -999.25    -999.25    2.17800    1.76260    1.89240    3.18380   -4.22750    2.17800    0.00000
 5800.00000    8.48660    8.48660  635.56630    -999.25    -999.25    -999.25    -999.25    1.57340    -999.25   82.73680   82.73680    1.68070    -999.25    -999.25    -999.25    -999.25    2.01460    1.57340    1.68070    2.25740   -5.59280    2.01460    0.00000
 5850.00000    9.15350    9.15350  623.28590    -999.25    -999.25    -999.25    -999.25    1.60440    -999.25   81.86210   81.86210    1.67960    -999.25    -999.25    -999.25    -999.25    2.01500    1.60440    1.67960    2.76820   -5.52090    2.01500    0.00000
 5900.00000    9.55280    9.55280  738.11630    -999.25    -999.25    -999.25    -999.25    1.35480    -999.25   92.68160   92.68160    1.45220    -999.25    -999.25    -999.25    -999.25    1.89620    1.35480    1.45220    4.53140   -4.19650    1.89620    0.00000
 5950.00000    9.53150    9.53150  711.23750    -999.25    -999.25    -999.25    -999.25    1.40600    -999.25  102.22730  102.22730    1.49820    -999.25    -999.25    -999.25    -999.25    1.89830    1.40600    1.49820    8.58760   -0.57920    1.89830    0.00000
 6000.00000    9.55550    9.55550  684.97840    -999.25    -999.25    -999.25    -999.25    1.45990    -999.25   84.96100   84.96100    1.52670    -999.25    -999.25    -999.25    -999.25    1.92080    1.45990    1.52670    6.88180   -2.72390    1.92080    0.00000
 6050.00000    9.51910    9.51910  903.91390    -999.25    -999.25    -999.25    -999.25    1.10630    -999.25  115.93910  115.93910    1.15650    -999.25    -999.25    -999.25    -999.25    1.66040    1.10630    1.15650    6.66210   -3.38240    1.66040    0.00000
 6100.00000    9.38090    9.38090  936.06670    -999.25    -999.25    -999.25    -999.25    1.06830    -999.25  114.54700  114.54700    1.16360    -999.25    -999.25    -999.25    -999.25    1.69890    1.06830    1.16360    7.22040   -3.18570    1.69890    8.39530
 6150.00000    9.05430    9.05430  715.15410    -999.25    -999.25    -999.25    -999.25    1.39830    -999.25   77.20820   77.20820    1.46410    -999.25    -999.25    -999.25    -999.25    1.87600    1.39830    1.46410    5.62430   -5.10360    1.87600   16.31010
 6200.00000    8.36440    8.36440  438.36580    -999.25    -999.25    -999.25    -999.25    2.28120    -999.25   55.59540   55.59540    2.47780    -999.25    -999.25    -999.25    -999.25    2.69310    2.28120    2.47780    6.85270   -4.19700    2.69310   15.48740
 6250.00000    8.38150    8.38150  359.06640    -999.25    -999.25    -999.25    -999.25    2.78500    -999.25   47.44780   47.44780    2.92460    -999.25    -999.25    -999.25    -999.25    3.10230    2.78500    2.92460    5.41020   -5.96130    3.10230   14.66470
 6300.00000    8.40730    8.40730  386.68260    -999.25    -999.25    -999.25    -999.25    2.58610    -999.25   59.18220   59.18220    2.70360    -999.25    -999.25    -999.25    -999.25    2.93920    2.58610    2.70360    9.41540   -2.27790    2.93920   13.84200
 6350.00000    8.56640    8.56640  489.52420    -999.25    -999.25    -999.25    -999.25    2.04280    -999.25   83.62220   83.62220    2.17670    -999.25    -999.25    -999.25    -999.25    2.60040    2.04280    2.17670   10.16720   -1.84790    2.60040   13.01940
 6400.00000    8.37830    8.37830  420.71610    -999.25    -999.25    -999.25    -999.25    2.37690    -999.25   81.24430   81.24430    2.51580    -999.25    -999.25    -999.25    -999.25    2.78930    2.37690    2.51580    8.31850   -4.01840    2.78930   11.62350
 6450.00000    8.32930    8.32930  423.54930    -999.25    -999.25    -999.25    -999.25    2.36100    -999.25   84.91670   84.91670    2.51550    -999.25    -999.25    -999.25    -999.25    2.65560    2.36100    2.51550    9.73510   -2.46550    2.65560    6.07420
 6500.00000    8.33950    8.33950  351.58040    -999.25    -999.25    -999.25    -999.25    2.84430    -999.25   77.95510   77.95510    2.97460    -999.25    -999.25    -999.25    -999.25    3.04060    2.84430    2.97460    6.36860   -4.32160    3.04060    0.52490
 6550.00000    8.36170    8.36170  430.58900    -999.25    -999.25    -999.25    -999.25    2.32240    -999.25   81.19560   81.19560    2.51720    -999.25    -999.25    -999.25    -999.25    2.77230    2.32240    2.51720    5.50050   -3.67920    2.77230    0.00000
 6600.00000    8.49900    8.49900  489.69200    -999.25    -999.25    -999.25    -999.25    2.04210    -999.25   80.70280   80.70280    2.26260    -999.25    -999.25    -999.25    -999.25    2.62360    2.04210    2.26260    5.72870   -1.37530    2.62360    0.00000
 6650.00000    9.02020    9.02020  624.53160    -999.25    -999.25    -999.25    -999.25    1.60120    -999.25   81.90740   81.90740    1.70770    -999.25    -999.25    -999.25    -999.25    2.11610    1.60120    1.70770    1.26090   -2.38340    2.11610    1.26330
 6700.00000    9.18520    9.18520  718.39080    -999.25    -999.25    -999.25    -999.25    1.39200    -999.25  102.33990  102.33990    1.50300    -999.25    -999.25    -999.25    -999.25    2.11650    1.39200    1.50300   -3.32520   -3.60680    2.11650    0.00000
