~Version ---------------------------------------------------
VERS. 2.0 : CWLS log ASCII Standard -VERSION 2.0
WRAP. YES : MULTIPLE LINES PER DEPTH STEP
~Well ------------------------------------------------------
STRT.FT                   2500.0 : START DEPTH
STOP.FT                  13000.0 : STOP DEPTH
STEP.FT                 50.00000 : STEP LENGTH
NULL.                    -999.25 : NULL VALUE
COMP. DORCHESTER EXPLORATION INC : COMPANY
WELL.      S. C. WILSON ET AL #1 : WELL
FLD .                    WILDCAT : FIELD
LOC .                            : LOCATION
CNTY.                    MADISON : COUNTY
STAT.                      TEXAS : STATE
CTRY.   UNITED STATES OF AMERICA : COUNTRY
SRVC.                            : SERVICE COMPANY
DATE.                            : LOGDATE
API .             42313302910000 : API NUMBER
UWI .             42313302910000 : UNIQUE WELL ID
SLAT.WGS84          30.919898434 : SURFACE LATITUDE
SLON.WGS84        -95.6430029646 : SURFACE LONGITUDE
~Curve Information -----------------------------------------
DEPT    .FT    : DEPTH FEET
CALDED  .IN    : CALIPER FROM DENSITY LOG
CALWS   .IN    : CALIPER [CALDED]
CONDWS  .MMHO  : CONDUCTIVITY [1000/DRESWS]
DCORWS  .G/C3  : DENSITY CORRECTION [DRHOED]
DENWS   .G/C3  : BULK DENSITY [M=2.71 F=1.0] [CALCULATED FROM DPHILSED]
DPHILSED.V/V   : DENSITY POROSITY LIMESTONE FROM DENSITY LOG
DPOWS   .V/V   : DENSITY POROSITY [M=2.71 F=1.0] [DPHILSED]
DRESWS  .OHMM  : DEEP RESISTIVITY [ILDED]
DRHOED  .G/C3  : DENSITY CORRECTION FROM DENSITY LOG
DTED    .US/F  : DELTA TIME FROM SONIC LOG
DTWS    .US/F  : DELTA TIME [DTED]
GRDED   .GAPI  : GAMMA RAY FROM DENSITY LOG
GRWS    .GAPI  : GAMMA RAY [GRDED]
ILDED   .OHMM  : INDUCTION LOG DEEP RESISTIVITY
ILMED   .OHMM  : INDUCTION LOG MEDIUM RESISTIVITY
MRESWS  .OHMM  : MEDIUM RESISTIVITY [ILMED]
NPHILSED.V/V   : NEUTRON POROSITY LIMESTONE FROM DENSITY LOG
NPOWS   .V/V   : NEUTRON POROSITY LIMESTONE [NPHILSED]
RHOBED  .G/C3  : BULK DENSITY FROM DENSITY LOG [NOT USED FOR WSR]
SFLUED  .OHMM  : SPHERICALLY FOCUSED LOG RESISTIVITY
SPRED   .MV    : SPONTANEOUS POTENTIAL FROM RESISTIVITY LOG
SPWS    .MV    : SPONTANEOUS POTENTIAL [BASELINE 0 MV] [SPRED]
SRESWS  .OHMM  : SHALLOW RESISTIVITY [SFLUED]
TENDED  .LBF   : TENSION FROM DENSITY LOG
TENRED  .LBF   : TENSION FROM RESISTIVITY LOG
~Params ----------------------------------------------------
PD  .                     GL : PERMANENT DATUM
EPD .FT                  154 : ELEVATION PERMANENT DATUM
LMF .                    RKB : LOG MEASURED FROM
DAPD.FT                22.75 : FEET ABOVE PERMANENT DATUM
DMF .                     KB : DRILLING MEASURED FROM
EKB .FT               176.75 : KELLY BUSHING
EDF .FT               175.75 : DRILLING FLOOR
EGL .FT                  154 : GROUND LEVEL
DATE.               01/13/81 : RUN DATE
RUN .                      1 : RUN NUMBER
DD  .FT                13006 : DEPTH DRILLER
DL  .FT                12992 : DEPTH LOGGER
BLI .FT                12989 : BOTTOM LOG INTERVAL
TLI .FT                 2500 : TOP LOG INTERVAL
CS  .IN                9.625 : CASING SIZE
CBD .FT                 2505 : CASING BOTTOM DRILLER
CBL .FT                 2500 : CASING BOTTOM LOGGER
BS  .IN                 8.75 : BIT SIZE
BSD .FT                13006 : BIT SIZE AT DEPTH
DFT .                    LNS : DRILLING FLUID TYPE
DFD .                    9.9 : DRILLING FLUID DENSITY
DFV .                     76 : DRILLING FLUID VISCOSITY
DFPH.                    9.5 : DRILLING FLUID PH
DFL .                    2.4 : DRILLING FLUID LOSS
MSS .               FLOWLINE : MUD SAMPLE SOURCE
RMS .OHMM              0.806 : RESISTIVITY MUD SAMPLE
MST .DEGF                 75 : MUD SAMPLE TEMPERATURE
RMF .OHMM              0.638 : RESISTIVITY MUD FILTRATE SAMPLE
MFST.DEGF                 75 : MUD FILTRATE SAMPLE TEMPERATURE
RMC .OHMM               1.06 : RESISTIVITY MUD CAKE
MCST.DEGF                 75 : MUD CAKE SAMPLE TEMPERATURE
MFSS.                      M : MUD FILTRATE SAMPLE SOURCE
MCSS.                      C : MUD CAKE SAMPLE SOURCE
RMB .OHMM              0.244 : RESISTIVITY MUD AT BHT
TCS .HRS                1600 : TIME CIRCULATED STOPPED
TLAB.HRS                 200 : TIME LOGGER AT BOTTOM
LUN .                   8066 : LOGGING UNIT NUMBER
LUL .                 DAYTON : LOGGING UNIT LOCATION
ENGI.               HARFISON : RECORDING ENGINEER
WITN.                  CLARK : WITNESSED BY
CLNT.                A2DTECH : CLIENT CODE
ORIG.               5" PRINT : ORIGIN OF DATA
UWI .         42313302910000 : UNIQUE WELL ID
DICO. A2D Technologies, Inc. : DIGITIZING COMPANY
~Other -----------------------------------------------------
~ASCII -----------------------------------------------------
# ...
 12300.00000    8.81240    8.81240  103.57010    0.20010    2.78420   -0.04340   -0.04340    9.65530    0.20010   66.17630   66.17630   50.94060   50.94060    9.65530   11.45020   11.45020    0.12540    0.12540    2.78380   22.53690  -23.63190   -6.14810   22.53690 5317.59330 5359.41990
 12350.00000    9.17010    9.17010   68.04900    0.03620    2.73920   -0.01710   -0.01710   14.69530    0.03620   59.18200   59.18200   53.16100   53.16100   14.69530   16.96980   16.96980    0.09140    0.09140    2.74320   26.24000  -29.33780  -11.89830   26.24000 5397.91700 5389.49410
 12400.00000    9.12860    9.12860   92.88670    0.04090    2.75840   -0.02830   -0.02830   10.76580    0.04090   59.39940   59.39940   42.56370   42.56370   10.76580   13.56760   13.56760    0.08910    0.08910    2.77170   27.29810  -29.90740  -12.64060   27.29810 5397.18950 5412.79300
 12450.00000    9.13880    9.13880   25.15890    0.00650    2.75090   -0.02390   -0.02390   39.74730    0.00650   52.24350   52.24350   34.75910   34.75910   39.74730   57.60160   57.60160    0.01330    0.01330    2.75640  140.97440  -30.37560  -13.28140  140.97440 5371.72170 5418.37790
 12500.00000    9.10070    9.10070   80.33610    0.02050    2.72590   -0.00930   -0.00930   12.44770    0.02050   62.41640   62.41640   50.38340   50.38340   12.44770   13.44920   13.44920    0.11320    0.11320    2.72910   21.65890  -23.24210   -6.32050   21.65890 5399.76030 5447.08690
 12550.00000    9.04490    9.04490   21.69260    0.05060    2.77740   -0.03940   -0.03940   46.09870    0.05060   51.58170   51.58170   32.60980   32.60980   46.09870   44.24010   44.24010    0.01040    0.01040    2.78460  218.84610  -40.41860  -21.21180  218.84610 5432.64500 5459.27930
 12600.00000    9.02590    9.02590  117.37090    0.01110    2.73870   -0.01680   -0.01680    8.52000    0.01110   65.81650   65.81650   68.61460   68.61460    8.52000    9.23360    9.23360    0.11510    0.11510    2.74090   14.93160  -25.36190   -2.01590   14.93160 5510.92240 5476.46390
 12650.00000    9.09780    9.09780   48.72460    0.02300    2.72350   -0.00790   -0.00790   20.52350    0.02300   56.84930   56.84930   31.26760   31.26760   20.52350   24.21610   24.21610    0.03990    0.03990    2.72750   43.34590  -29.70120   -4.70490   43.34590 5520.57810 5503.27540
 12700.00000    9.11080    9.11080   16.33490    0.03350    2.75740   -0.02770   -0.02770   61.21870    0.03350   51.45760   51.45760   27.60320   27.60320   61.21870   69.24990   69.24990    0.01110    0.01110    2.76010  228.61370  -37.93160  -11.31020  228.61370 5500.21480 5513.04300
 12750.00000    9.11650    9.11650   32.24630    0.03530    2.77000   -0.03510   -0.03510   31.01130    0.03530   52.87860   52.87860   29.09290   29.09290   31.01130   45.43650   45.43650    0.02070    0.02070    2.76700  153.21250  -33.84150   -5.59500  153.21250 5524.32520 5521.29690
 12800.00000    8.93940    8.93940   15.66350    0.03770    2.75690   -0.02740   -0.02740   63.84280    0.03770   49.64590   49.64590   20.73250   20.73250   63.84280   81.49670   81.49670    0.00770    0.00770    2.76200  319.86380 -109.42100  -70.70920  319.86380 5545.02250 5570.65040
 12850.00000    8.88930    8.88930   12.47390    0.04330    2.76570   -0.03260   -0.03260   80.16730    0.04330   49.93880   49.93880   17.14040   17.14040   80.16730   57.82300   57.82300    0.00700    0.00700    2.76870  213.64780  -95.03090  -44.41480  213.64780 5633.61180 5565.58010
 12900.00000    8.86190    8.86190   12.84250    0.04140    2.76200   -0.03040   -0.03040   77.86650    0.04140   50.90290   50.90290   28.14670   28.14670   77.86650   67.16440   67.16440    0.02450    0.02450    2.76310  239.98990  -67.41240   -4.89190  239.98990 5641.18210 5545.21780
 12950.00000    8.83200    8.83200   18.92540    0.03210    2.76010   -0.02930   -0.02930   52.83900    0.03210   48.99800   48.99800   13.29470   13.29470   52.83900   66.49570   66.49570    0.00710    0.00710    2.76500  324.49080  -90.64400  -27.29020  324.49080 5654.79150 5585.63670
 13000.00000    -999.25    -999.25    -999.25    -999.25    -999.25    -999.25    -999.25    -999.25    -999.25    -999.25    -999.25    -999.25    -999.25    -999.25    -999.25    -999.25    -999.25    -999.25    -999.25    -999.25    -999.25    -999.25    -999.25 4898.72950 4886.70800
