~Version ---------------------------------------------------
VERS. 2.0 : CWLS log ASCII Standard -VERSION 2.0
WRAP.  NO : ONE LINE PER DEPTH STEP
~Well ------------------------------------------------------
STRT.F                           1350.0 : START DEPTH
STOP.F                           6900.0 : STOP DEPTH
STEP.F                         50.00000 : STEP LENGTH
NULL.                           -999.25 : NULL VALUE
COMP. TEXAS GAS EXPLORATION CORPORATION : COMPANY
WELL.                  SANDERS L. J. #1 : WELL
FLD .                          GIDDINGS : FIELD
LOC .                                   : LOCATION
CNTY.                          BURLESON : COUNTY
STAT.                             TEXAS : STATE
CTRY.          UNITED STATES OF AMERICA : COUNTRY
SRVC.                      Schlumberger : SERVICE COMPANY
DATE.                       20-Nov-1979 : LOGDATE
API .                    42051304680000 : API NUMBER
UWI .                    42051304680000 : UNIQUE WELL ID
SLAT.WGS84                30.5210748848 : SURFACE LATITUDE
SLON.WGS84               -96.8097668075 : SURFACE LONGITUDE
~Curve Information -----------------------------------------
DEPT .F                 : 
GRR  .GAPI 07 310 01 00 : GAMMA RAY FROM RESISTIVITY LOG
CORR .G/C3 45 356 01 00 : DENSITY CORRECTION
DPHI .DEC  45 890 10 00 : DENSITY POROSITY
ILD  .OHMM 07 120 46 00 : INDUCTION DEEP RESISTIVITY
ILM  .OHMM 07 120 44 00 : INDUCTION MEDIUM RESISTIVITY
SFL  .OHMM 07 220 06 00 : SPHERICALLY FOCUSED LOG
SPR  .MV   07 010 01 00 : SPONTANEOUS POTENTIAL FROM RESISTIVITY LOG
GRT  .GAPI 80 310 01 00 : THERMAL GAMMA RAY
RATIO.CMP  80 420 00 00 : RATIO
SIGM .CU   99 400 00 00 : NEUTRON CAPTURE CROSS SECTION
DCAL .IN   07 280 30 00 : DIFFERENTIAL CALIPER
~Params ----------------------------------------------------
PD  .                     GL : PERMANENT DATUM
EPD .FT                  500 : ELEVATION PERMANENT DATUM
LMF .                     KB : LOG MEASURED FROM
DAPD.FT                    4 : FEET ABOVE PERMANENT DATUM
DMF .                     KB : DRILLING MEASURED FROM
EKB .FT                  504 : KELLY BUSHING
EDF .FT                  503 : DRILLING FLOOR
EGL .FT                  500 : GROUND LEVEL
DATE.               11-20-79 : RUN DATE
RUN .                      1 : RUN NUMBER
DD  .FT                 6945 : DEPTH DRILLER
DL  .FT                 6934 : DEPTH LOGGER
BLI .FT                 6931 : BOTTOM LOG INTERVAL
TLI .FT                 5969 : TOP LOG INTERVAL
CS  .IN                    7 : CASING SIZE
CBD .FT                 5991 : CASING BOTTOM DRILLER
CBL .FT                 5969 : CASING BOTTOM LOGGER
BS  .IN                6.125 : BIT SIZE
BSD .FT                 6945 : BIT SIZE AT DEPTH
DFT .              MAXIDRILL : DRILLING FLUID TYPE
DFD .                    9.2 : DRILLING FLUID DENSITY
DFV .                     28 : DRILLING FLUID VISCOSITY
MSS .                    PIT : MUD SAMPLE SOURCE
RMS .OHMM               0.08 : RESISTIVITY MUD SAMPLE
MST .DEGF                 75 : MUD SAMPLE TEMPERATURE
RMF .OHMM               0.06 : RESISTIVITY MUD FILTRATE SAMPLE
MFST.DEGF                 75 : MUD FILTRATE SAMPLE TEMPERATURE
RMC .OHMM               0.12 : RESISTIVITY MUD CAKE
MCST.DEGF                 75 : MUD CAKE SAMPLE TEMPERATURE
MFSS.                      M : MUD FILTRATE SAMPLE SOURCE
MCSS.                      C : MUD CAKE SAMPLE SOURCE
RMB .OHMM               0.03 : RESISTIVITY MUD AT BHT
TCS .HRS                1400 : TIME CIRCULATED STOPPED
TLAB.HRS                2300 : TIME LOGGER AT BOTTOM
LUN .                   8138 : LOGGING UNIT NUMBER
LUL .                BRENHAM : LOGGING UNIT LOCATION
ENGI.               CRAWFORD : RECORDING ENGINEER
WITN.                 DETMAR : WITNESSED BY
CLNT.                A2DTECH : CLIENT CODE
ORIG.               5" PRINT : ORIGIN OF DATA
UWI .         42051304680000 : UNIQUE WELL ID
DICO. A2D Technologies, Inc. : DIGITIZING COMPANY
~Other -----------------------------------------------------
~ASCII -----------------------------------------------------
# ...
 4400.00000    -999.25    -999.25    -999.25    0.96610    1.00150    1.00810  -30.17590   73.81120    4.39700   17.99740    -999.25
 4450.00000    -999.25    -999.25    -999.25    1.12280    1.16070    1.25860  -32.81290   74.03750    4.64250   18.07020    -999.25
 4500.00000    -999.25    -999.25    -999.25    1.37980    1.42680    1.47510  -29.53450   68.29340    3.98180   15.79320    -999.25
 4550.00000    -999.25    -999.25    -999.25    1.66090    1.71690    1.72560  -28.16270    -999.25    -999.25    -999.25    -999.25
 4600.00000    -999.25    -999.25    -999.25    1.55590    1.60840    1.93210  -34.50290    -999.25    -999.25    -999.25    -999.25
 4650.00000    -999.25    -999.25    -999.25    0.99830    1.04040    1.24400  -26.88830    -999.25    -999.25    -999.25    -999.25
 4700.00000    -999.25    -999.25    -999.25    1.47180    1.50260    1.80260  -34.28530    -999.25    -999.25    -999.25    -999.25
 4750.00000    -999.25    -999.25    -999.25    1.10370    1.14330    1.20390  -27.92980    -999.25    -999.25    -999.25    -999.25
 4800.00000    -999.25    -999.25    -999.25    1.61380    1.67340    1.72170  -32.05950    -999.25    -999.25    -999.25    -999.25
 4850.00000    -999.25    -999.25    -999.25    1.55900    1.61230    1.70800  -28.44880    -999.25    -999.25    -999.25    -999.25
 4900.00000    -999.25    -999.25    -999.25    1.46170    1.51100    1.61920  -27.79400    -999.25    -999.25    -999.25    -999.25
 4950.00000    -999.25    -999.25    -999.25    1.41800    1.46670    1.60950  -32.40150    -999.25    -999.25    -999.25    -999.25
 5000.00000    -999.25    -999.25    -999.25    1.18360    1.22440    1.41410  -33.06830    -999.25    -999.25    -999.25    -999.25
 5050.00000    -999.25    -999.25    -999.25    1.15300    1.22380    1.28950  -49.61580    -999.25    -999.25    -999.25    -999.25
 5100.00000    -999.25    -999.25    -999.25    1.19990    1.24220    1.37460  -45.25650    -999.25    -999.25    -999.25    -999.25
 5150.00000    -999.25    -999.25    -999.25    1.28110    1.33180    1.49510  -42.49780    -999.25    -999.25    -999.25    -999.25
 5200.00000    -999.25    -999.25    -999.25    1.29990    1.34390    1.49710  -50.47250    -999.25    -999.25    -999.25    -999.25
 5250.00000    -999.25    -999.25    -999.25    1.18940    1.22970    1.42740  -43.78080    -999.25    -999.25    -999.25    -999.25
 5300.00000    -999.25    -999.25    -999.25    1.47930    1.56260    1.76450  -42.22040    -999.25    -999.25    -999.25    -999.25
 5350.00000    -999.25    -999.25    -999.25    3.09640    3.20960    3.44710  -42.03660    -999.25    -999.25    -999.25    -999.25
 5400.00000    -999.25    -999.25    -999.25    2.26620    2.35210    2.73400  -37.14220    -999.25    -999.25    -999.25    -999.25
 5450.00000    -999.25    -999.25    -999.25    3.32160    3.51930    4.34220  -42.67080    -999.25    -999.25    -999.25    -999.25
 5500.00000    -999.25    -999.25    -999.25    1.60500    1.69730    1.85090  -35.74640    -999.25    -999.25    -999.25    -999.25
 5550.00000    -999.25    -999.25    -999.25    2.27910    2.44790    3.19020  -40.72630    -999.25    -999.25    -999.25    -999.25
 5600.00000    -999.25    -999.25    -999.25    2.01090    2.08430    2.29980  -38.03970    -999.25    -999.25    -999.25    -999.25
 5650.00000    -999.25    -999.25    -999.25    2.19530    2.26950    2.51740  -35.32980    -999.25    -999.25    -999.25    -999.25
 5700.00000    -999.25    -999.25    -999.25    1.76190    1.82310    2.18580  -35.34110    -999.25    -999.25    -999.25    -999.25
 5750.00000    -999.25    -999.25    -999.25    1.73750    1.76710    2.00540  -32.98700    -999.25    -999.25    -999.25    -999.25
 5800.00000    -999.25    -999.25    -999.25    1.53850    1.59490    1.89650  -37.51480    -999.25    -999.25    -999.25    -999.25
 5850.00000    -999.25    -999.25    -999.25    1.69110    1.74860    2.06590  -34.16130    -999.25    -999.25    -999.25    -999.25
 5900.00000    -999.25    -999.25    -999.25    1.69880    1.75930    2.12690  -36.22330    -999.25    -999.25    -999.25    -999.25
 5950.00000   29.34370    -999.25    -999.25    3.18520    3.31070    3.95290  -33.13420    -999.25    -999.25    -999.25    -999.25
 6000.00000   18.48850   -0.00640    0.08840    4.16400    4.07680    4.90520  -34.96620    -999.25    -999.25    -999.25    3.36970
 6050.00000   13.67330    0.00330    0.05720    6.01940    6.58050    6.84130  -42.15020    -999.25    -999.25    -999.25    1.59000
 6100.00000   42.21660    0.02210    0.08710    2.89180    2.15630    4.75170  -41.83620    -999.25    -999.25    -999.25    1.37560
 6150.00000   36.98810   -0.00940    0.20180    4.39620   26.20580    3.38180  -40.04770    -999.25    -999.25    -999.25    1.33880
 6200.00000   22.28630   -0.00050    0.04410   12.85800   15.48970   13.70630  -40.10200    -999.25    -999.25    -999.25    0.98500
 6250.00000   22.23460    0.00330    0.05590    7.21780    7.89740    9.57740  -39.28460    -999.25    -999.25    -999.25    0.97200
 6300.00000   23.39200   -0.00420    0.07340    5.15730    5.31640    5.86110  -37.70520    -999.25    -999.25    -999.25    1.05440
 6350.00000   30.59880    0.01060    0.05700    5.11110    5.23240    5.68100  -37.19370    -999.25    -999.25    -999.25    1.00810
 6400.00000   30.45800    0.01340    0.08930    6.24190    6.68440    5.88570  -35.62810    -999.25    -999.25    -999.25    0.81920
 6450.00000   34.12650    -999.25    0.28980   10.29760   11.34680   10.29050  -34.56660    -999.25    -999.25    -999.25    1.17870
 6500.00000   18.33240    0.01340    0.10900    6.61110    6.71760    8.01590  -32.14030    -999.25    -999.25    -999.25    0.87470
 6550.00000   36.76700    0.04660    0.12120    9.03170    8.27670   10.50450  -30.67540    -999.25    -999.25    -999.25    1.10110
 6600.00000   19.44560   -0.00030    0.11010    6.39910    6.94600    7.75520  -28.44420    -999.25    -999.25    -999.25    0.80790
 6650.00000   95.95610    0.01780    0.11990    1.70810    1.75710    2.52090  -29.61490    -999.25    -999.25    -999.25    1.10860
 6700.00000   73.81250    0.00480    0.15930    5.04650    5.16960    7.89540  -30.93690    -999.25    -999.25    -999.25    0.66550
 6750.00000   92.30320    0.00210    0.18670    6.26640    6.47300   11.21310  -31.81290    -999.25    -999.25    -999.25    0.82480
 6800.00000   87.39290    0.07270    0.15110    1.52940    1.69000    1.94570  -27.82610    -999.25    -999.25    -999.25    2.23770
 6850.00000   43.93670    0.00610    0.04040    3.48270    3.70200    5.63210  -31.37130    -999.25    -999.25    -999.25    0.62650
 6900.00000  129.57460    0.01520    0.03170   15.43670   18.53490   16.54530  -31.07310    -999.25    -999.25    -999.25    0.07360
