~Version ---------------------------------------------------
VERS.      2.0 : CWLS log ASCII Standard -VERSION 2.0
WRAP.      YES : Multiple lines per depth step
CREA. 10/16/20 : LAS Creation Date
~Well ------------------------------------------------------
STRT.FT                   3800.0 : START DEPTH
STOP.FT                   8250.0 : STOP DEPTH
STEP.FT                 50.00000 : STEP LENGTH
NULL.                    -999.25 : NULL VALUE
COMP. CHAMPLIN PETROLEUM COMPANY : COMPANY
WELL.        EMAGENE R. PITTS #1 : WELL
FLD .                   GIDDINGS : FIELD
LOC .                            : LOCATION
CNTY.                   BURLESON : COUNTY
STAT.                      TEXAS : STATE
CTRY.   UNITED STATES OF AMERICA : COUNTRY
SRVC.               Schlumberger : SERVICE COMPANY
DATE.                03-Jul-1980 : LOGDATE
API .             42051307530000 : API NUMBER
UWI .             42051307530000 : UNIQUE WELL ID
SLAT.WGS84         30.4281479846 : SURFACE LATITUDE
SLON.WGS84        -96.7120434342 : SURFACE LONGITUDE
~Curve Information -----------------------------------------
DEPT    .FT    : DEPTH FEET
BITSED  .IN    : BIT SIZE
CALDED  .IN    : CALIPER FROM FDC-CNL LOG [DSH. TO GRRED]
CALSED  .IN    : CALIPER FROM CDL-SONIC LOG [DSH. TO GRRED]
CALWS   .IN    : CALIPER [CALDED]
CONDWS  .MMHO  : CONDUCTIVITY [1000/DRESWS]
DCORWS  .G/C3  : DENSITY CORRECTION [DRHOED]
DENWS   .G/C3  : FORMATION BULK DENSITY [RHOBED]
DPHIED  .V/V   : DENSITY POROSITY FROM CDL-SONIC LOG [DSH. TO GRRED]
DPHISSED.V/V   : DENSITY POROSITY SANDSTONE [M=2.65,F=1.0] FROM FDC-CNL LOG [DSH. TO GRRED]
DPOSSWS .V/V   : DENSITY POROSITY SANDSTONE [CALC. FROM DENWS M=2.65,F=1.0]
DRESWS  .OHMM  : DEEP RESISTIVITY [ILDED]
DRHOED  .G/C3  : DENSITY CORRECTION FROM FDC-CNL LOG [DSH. TO GRRED]
DTED    .US/F  : DELTA TIME FROM DIL-SFL-SONIC LOG
DTWS    .US/F  : COMPRESSIONAL SONIC [DTED]
GRDED   .GAPI  : GAMMA RAY FROM FDC-CNL LOG [DSH. TO GRRED]
GRED    .GAPI  : GAMMA RAY FROM SGR LOG [DSH. TO GRRED]
GRRED   .GAPI  : GAMMA RAY FROM DIL-SFL-SONIC LOG
GRSED   .GAPI  : GAMMA RAY FROM CDL-SONIC LOG [DSH. TO GRRED]
GRWS    .GAPI  : GAMMA RAY [TOP GRRED 8226' GRDED TD]
ILDED   .OHMM  : DEEP INDUCTION RESISTIVITY FROM DIL-SFL-SONIC LOG
ILMED   .OHMM  : MEDIUM INDUCTION RESISTIVITY FROM DIL-SFL-SONIC LOG
MRESWS  .OHMM  : MEDIUM RESISTIVITY [ILMED]
NPHISSED.V/V   : NEUTRON POROSITY SANDSTONE FROM FDC-CNL LOG [DSH. TO GRRED]
NPOSSWS .V/V   : NEUTRON POROSITY SANDSTONE [NPHILSED]
POTAED  .PCT   : POTASSIUM CONCENTRATION FROM SGR LOG [DSH. TO GRRED]
RHOBED  .G/C3  : BULK DENSITY FROM FDC-CNL LOG [DSH. TO GRRED]
SFLUED  .OHMM  : SPHERICALLY FOCUSED LOG RESISTIVITY FROM DIL-SFL-SONIC LOG
SPHIED  .V/V   : SONIC POROSITY FROM CDL-SONIC LOG [DSH. TO GRRED]
SPOLSWS .V/V   : SONIC POROSITY LIMESTONE [CALC. FROM DTWS DTM=56,DTF=189,Cp=1.0 (WYLLIE)]
SPRED   .MV    : SPONTANEOUS POTENTIAL FROM DIL-SFL-SONIC LOG
SPWS    .MV    : SPONTANEOUS POTENTIAL [BASELINE 0MV,SPRED]
SRESWS  .OHMM  : SHALLOW RESISTIVITY [SFLED]
THORED  .PPM   : THORIUM CONCENTRATION FROM SGR LOG [DSH. TO GRRED]
URANED  .PPM   : URANIUM CONCENTRATION FROM SGR LOG [DSH. TO GRRED]
~Params ----------------------------------------------------
PD  .                     GL : PERMANENT DATUM
EPD .FT                  345 : ELEVATION PERMANENT DATUM
LMF .                     KB : LOG MEASURED FROM
DAPD.FT                   16 : FEET ABOVE PERMANENT DATUM
DMF .                     KB : DRILLING MEASURED FROM
EKB .FT                  361 : KELLY BUSHING
EDF .FT                  360 : DRILLING FLOOR
EGL .FT                  345 : GROUND LEVEL
DATE.               07/03/80 : RUN DATE
RUN .                      1 : RUN NUMBER
DD  .FT                 8300 : DEPTH DRILLER
DL  .FT                 8283 : DEPTH LOGGER
BLI .FT                 8276 : BOTTOM LOG INTERVAL
TLI .FT                 3807 : TOP LOG INTERVAL
CS  .IN                9.625 : CASING SIZE
CBD .FT                 3810 : CASING BOTTOM DRILLER
CBL .FT                 3807 : CASING BOTTOM LOGGER
BS  .IN                 8.75 : BIT SIZE
BSD .FT                 8300 : BIT SIZE AT DEPTH
DFT .                   BENX : DRILLING FLUID TYPE
DFD .                    9.3 : DRILLING FLUID DENSITY
DFV .                     48 : DRILLING FLUID VISCOSITY
DFPH.                    9.5 : DRILLING FLUID PH
DFL .                      6 : DRILLING FLUID LOSS
MSS .               MUD TANK : MUD SAMPLE SOURCE
RMS .OHMM               1.69 : RESISTIVITY MUD SAMPLE
MST .DEGF                 85 : MUD SAMPLE TEMPERATURE
RMF .OHMM               1.26 : RESISTIVITY MUD FILTRATE SAMPLE
MFST.DEGF                 85 : MUD FILTRATE SAMPLE TEMPERATURE
RMC .OHMM               2.53 : RESISTIVITY MUD CAKE
MCST.DEGF                 85 : MUD CAKE SAMPLE TEMPERATURE
MFSS.                   CALC : MUD FILTRATE SAMPLE SOURCE
MCSS.                   CALC : MUD CAKE SAMPLE SOURCE
RMB .OHMM              0.736 : RESISTIVITY MUD AT BHT
TCS .HRS                 700 : TIME CIRCULATED STOPPED
TLAB.HRS                1100 : TIME LOGGER AT BOTTOM
LUN .                        : LOGGING UNIT NUMBER
LUL .                BRENHAM : LOGGING UNIT LOCATION
ENGI.              ALEXANDER : RECORDING ENGINEER
WITN.                 SCHELL : WITNESSED BY
CLNT.                A2DTECH : CLIENT CODE
ORIG.          1" 2.5" PRINT : ORIGIN OF DATA
UWI .         42051307530000 : UNIQUE WELL ID
DICO. A2D Technologies, Inc. : DIGITIZING COMPANY
OS  .                        : OTHER SERVICES
PWI .                        : PRIMARY WELL IDENTIFIER
R1  .                        : REMARKS 1
R2  .                        : REMARKS 2
LSRV.                        : LOG MNEMONIC
~Other -----------------------------------------------------
DIL-SFL-SONIC-FDC-CNL-CDL TOOL RUN.
~ASCII -----------------------------------------------------
 3800.00000    -999.25    -999.25    -999.25    -999.25    -999.25    -999.25    -999.25    -999.25    -999.25    -999.25    -999.25    -999.25    -999.25    -999.25   32.75990    -999.25   36.89440    -999.25   36.89440    -999.25    -999.25    -999.25    0.48200    0.48200    -999.25    -999.25    -999.25    -999.25    -999.25    -999.25    -999.25    -999.25    -999.25    -999.25
 3850.00000    8.75000   10.18220    -999.25   10.18220   96.79610   -0.00340    2.14120    -999.25    0.30960    0.30840   10.33100   -0.00340  107.15630  107.15630   36.24810    -999.25   41.03190    -999.25   41.03190   10.33100   11.18770   11.18770    0.34280    0.34280    -999.25    2.14120    9.97430    -999.25    0.38460  -25.45910  -18.55770    9.97430    -999.25    -999.25
 3900.00000    8.75000   11.38700    -999.25   11.38700  422.08340    0.06830    1.90590    -999.25    0.45580    0.45100    2.36920    0.06830  139.19880  139.19880  101.53610    -999.25  110.90130    -999.25  110.90130    2.36920    2.53270    2.53270    0.53100    0.53100    -999.25    1.90590    2.24450    -999.25    0.62560   -5.88080   -1.92720    2.24450    -999.25    -999.25
 3950.00000    8.75000    9.09580    -999.25    9.09580  130.53980   -0.00970    2.24400    -999.25    0.24410    0.24610    7.66050   -0.00970   97.44760   97.44760   72.61270    -999.25   83.50980    -999.25   83.50980    7.66050    8.62160    8.62160    0.36230    0.36230    -999.25    2.24400    7.45370    -999.25    0.31160  -29.45790  -27.85490    7.45370    -999.25    -999.25
 4000.00000    8.75000    8.83500    -999.25    8.83500  148.97800   -0.00250    2.21110    -999.25    0.26540    0.26600    6.71240   -0.00250   96.73340   96.73340   75.86000    -999.25   82.41220    -999.25   82.41220    6.71240    8.64310    8.64310    0.35830    0.35830    -999.25    2.21110   10.06830    -999.25    0.30630  -37.94540  -37.29950   10.06830    -999.25    -999.25
 4050.00000    8.75000   11.40100    -999.25   11.40100  173.50270    0.07330    2.32690    -999.25    0.19640    0.19580    5.76360    0.07330   97.27580   97.27580   80.70800    -999.25   87.52930    -999.25   87.52930    5.76360    6.07040    6.07040    0.34170    0.34170    -999.25    2.32690    6.07080    -999.25    0.31030  -15.40650  -15.71770    6.07080    -999.25    -999.25
 4100.00000    8.75000    8.79040    -999.25    8.79040  161.94860   -0.00470    2.17290    -999.25    0.28930    0.28920    6.17480   -0.00470  101.81630  101.81630   57.03340    -999.25   55.94620    -999.25   55.94620    6.17480    6.79160    6.79160    0.38070    0.38070    -999.25    2.17290    8.17050    -999.25    0.34450  -33.97160  -35.23990    8.17050    -999.25    -999.25
 4150.00000    8.75000    9.03540    -999.25    9.03540  215.58690    0.02090    2.30390    -999.25    0.20920    0.20980    4.63850    0.02090   97.72150   97.72150   79.94920    -999.25   85.59380    -999.25   85.59380    4.63850    4.96230    4.96230    0.36190    0.36190    -999.25    2.30390    4.95100    -999.25    0.31370  -17.33980  -19.13450    4.95100    -999.25    -999.25
 4200.00000    8.75000    8.73630    -999.25    8.73630  253.03640    0.01900    2.20860    -999.25    0.26690    0.26750    3.95200    0.01900   97.78760   97.78760   67.29140    -999.25   71.48160    -999.25   71.48160    3.95200    4.28150    4.28150    0.36980    0.36980    -999.25    2.20860    7.50990    -999.25    0.31420  -40.72210  -42.15240    7.50990    -999.25    -999.25
 4250.00000    8.75000    8.77010    -999.25    8.77010  243.39190    0.04680    2.35170    -999.25    0.18010    0.18080    4.10860    0.04680   95.75050   95.75050   91.59500    -999.25   87.32630    -999.25   87.32630    4.10860    4.44500    4.44500    0.37760    0.37760    -999.25    2.35170    4.92320    -999.25    0.29890  -16.09440  -15.50010    4.92320    -999.25    -999.25
 4300.00000    8.75000    9.13460    -999.25    9.13460  328.51510    0.05890    2.38420    -999.25    0.16220    0.16110    3.04400    0.05890  100.68030  100.68030   97.76710    -999.25   89.23140    -999.25   89.23140    3.04400    3.19550    3.19550    0.36850    0.36850    -999.25    2.38420    3.97300    -999.25    0.33590   -3.47910   -2.42330    3.97300    -999.25    -999.25
 4350.00000    8.75000    9.56380    -999.25    9.56380  437.88590    0.03050    2.39200    -999.25    0.15570    0.15630    2.28370    0.03050  102.36280  102.36280  102.81980    -999.25  104.20930    -999.25  104.20930    2.28370    2.42340    2.42340    0.41080    0.41080    -999.25    2.39200    2.35140    -999.25    0.34860   -1.73250   -2.99420    2.35140    -999.25    -999.25
 4400.00000    8.75000    9.55190    -999.25    9.55190  417.74580    0.05940    2.37750    -999.25    0.16570    0.16520    2.39380    0.05940   97.79220   97.79220   86.97610    -999.25   84.98000    -999.25   84.98000    2.39380    2.54180    2.54180    0.36670    0.36670    -999.25    2.37750    2.60430    -999.25    0.31420   -2.50040   -2.47630    2.60430    -999.25    -999.25
 4450.00000    8.75000    9.71200    -999.25    9.71200  331.27940    0.00700    2.35900    -999.25    0.17700    0.17640    3.01860    0.00700   96.14130   96.14130   85.33960    -999.25   90.07570    -999.25   90.07570    3.01860    3.20270    3.20270    0.35360    0.35360    -999.25    2.35900    3.41280    -999.25    0.30180   -5.99860   -6.44250    3.41280    -999.25    -999.25
 4500.00000    8.75000    9.90160    -999.25    9.90160  351.69160    0.02690    2.36200    -999.25    0.17360    0.17450    2.84340    0.02690   94.87580   94.87580   88.80220    -999.25   93.41730    -999.25   93.41730    2.84340    3.01720    3.01720    0.33400    0.33400    -999.25    2.36200    3.73790    -999.25    0.29230   -5.90150   -6.84200    3.73790    -999.25    -999.25
 4550.00000    8.75000   10.16980    -999.25   10.16980  382.26300    0.05720    2.37950    -999.25    0.16680    0.16390    2.61600    0.05720   94.38680   94.38680   86.15270    -999.25   92.23510    -999.25   92.23510    2.61600    2.77610    2.77610    0.31480    0.31480    -999.25    2.37950    3.01370    -999.25    0.28860   -1.89460   -3.33170    3.01370    -999.25    -999.25
 4600.00000    8.75000   11.08620    -999.25   11.08620  526.64840    0.03570    2.42150    -999.25    0.13820    0.13850    1.89880    0.03570   99.97360   99.97360   98.74170    -999.25  109.42870    -999.25  109.42870    1.89880    2.00340    2.00340    0.33000    0.33000    -999.25    2.42150    2.19140    -999.25    0.33060   -1.33340   -3.26710    2.19140    -999.25    -999.25
 4650.00000    8.75000   12.29980    -999.25   12.29980  596.16070    0.02870    2.42950    -999.25    0.13540    0.13360    1.67740    0.02870  101.94930  101.94930  102.47240    -999.25  103.76110    -999.25  103.76110    1.67740    1.78170    1.78170    0.36950    0.36950    -999.25    2.42950    1.99300    -999.25    0.34550   -2.15100   -4.58130    1.99300    -999.25    -999.25
 4700.00000    8.75000   12.16800    -999.25   12.16800  493.63210    0.00690    2.46340    -999.25    0.11420    0.11310    2.02580    0.00690   97.29140   97.29140   95.56620    -999.25   94.90660    -999.25   94.90660    2.02580    2.16790    2.16790    0.33180    0.33180    -999.25    2.46340    2.27570    -999.25    0.31050   -0.30230   -3.22930    2.27570    -999.25    -999.25
 4750.00000    8.75000   10.32580    -999.25   10.32580  506.61130    0.02700    2.42020    -999.25    0.13770    0.13930    1.97390    0.02700   98.54970   98.54970   93.87360    -999.25   89.96950    -999.25   89.96950    1.97390    2.09530    2.09530    0.36310    0.36310    -999.25    2.42020    2.07380    -999.25    0.31990   -0.00960   -3.43320    2.07380    -999.25    -999.25
 4800.00000    8.75000   10.52550    -999.25   10.52550  615.83940    0.03620    2.43360    -999.25    0.13230    0.13120    1.62380    0.03620  101.27880  101.27880   96.95950    -999.25   86.50820    -999.25   86.50820    1.62380    1.69080    1.69080    0.38300    0.38300    -999.25    2.43360    1.87340    -999.25    0.34040    0.27470   -3.44660    1.87340    -999.25    -999.25
