~Version ---------------------------------------------------
VERS. 2.0 : CWLS log ASCII Standard -VERSION 2.0
WRAP.  NO : One line per depth step
~Well ------------------------------------------------------
STRT.FT                                1700.0 : START DEPTH
STOP.FT                                7850.0 : STOP DEPTH
STEP.FT                              50.00000 : STEP LENGTH
NULL.                                 -999.25 : NULL VALUE
COMP. MGF OIL CORPORATION & J. FRANK STRINGER : COMPANY
WELL.                             N C KING #6 : WELL
FLD .                                 EDWARDS : FIELD
LOC .                                         : LOCATION
CNTY.                                  DIMMIT : COUNTY
STAT.                                   TEXAS : STATE
CTRY.                UNITED STATES OF AMERICA : COUNTRY
SRVC.                                         : SERVICE COMPANY
DATE.                                         : LOGDATE
API .                          42127309400000 : API NUMBER
UWI .                          42127309400000 : UNIQUE WELL ID
SLAT.WGS84                      28.4912534265 : SURFACE LATITUDE
SLON.WGS84                     -99.6338349296 : SURFACE LONGITUDE
~Curve Information -----------------------------------------
DEPT  .FT    : DEPTH
ILDED .OHMM  : DEEP INDUCTION RESISTIVITY
SNED  .OHMM  : SHORT NORMAL 16 IN.
GRWS  .GAPI  : GAMMA RAY [GRSED]
SPWS  .MV    : SPONTANEOUS POTENTIAL  BASELINE 0 MV
GRSED .GAPI  : GAMMA RAY FROM SONIC LOG
CALSED.IN    : CALIPER FROM SONIC LOG
DTED  .US/F  : DELTA TIME
CILDED.MMHO  : CONDUCTIVITY FROM LOG
CALWS .IN    : CALIPER
GRNED .GAPI  : GRN
NEUTED.NAPI  : NEUTRON
SPED  .MV    : SPONTANEOUS POTENTIAL
DRESWS.OHMM  : DEEP RESISTIVITY [ILDED]
SRESWS.OHMM  : SHALLOW RESISTIVITY [SNED]
CONDWS.MMHO  : CONDUCTIVITY FROM DEEP RESISTIVITY
DTWS  .US/F  : DELTA TIME
NEUTWS.CU    : NEUTRON
~Params ----------------------------------------------------
EKB .F                 491.0 : Kelly bushing
EGL .F                 481.0 : Ground level
EDF .F                 490.0 : Drilling floor
EPD .F                 481.0 : Permanent datum
TD  .F                7874.0 : Total depth
DATE.            22-SEP-1975 : DATE LOGGED
CLNT.                A2DTECH : CLIENT CODE
PD  .                     GL : PERMANENT DATUM
LMF .                    TKB : LOG MEASURED FROM
DMF .                    TKB : DRILLING MEASURED FROM
DAPD.F                    10 : FEET ABOVE PERMANENT DATUM
DD  .F                  7848 : DEPTH DRILLER
DL  .F                  7874 : DEPTH LOGGER
BLI .F                  7858 : BOTTOM LOG INTERVAL
TLI .F                  2580 : TOP LOG INTERVAL
CS1 .IN                8.625 : CASING SIZE
CBD1.         8.625" @ 1650' : CASING DRILLER 1
CBL1.F                  1650 : CASING LOGGER 1
BS1 .IN                7.875 : BIT SIZE
BSD1.F                  7848 : DEPTH DRILLED WITH BIT1
DFT .        WATER BASED MUD : TYPE FLUID IN HOLE
DFD .                   10.4 : DENSITY
DFV .                     68 : VISCOSITY
DFPH.                    9.0 : PH
MSS .                MUD PIT : SOURCE OF SAMPLE
RMS .OHMM               0.89 : RM
RMF .OHMM               0.64 : RMF
RMC .OHMM               1.13 : RMC
MFSS.                   MEAS : SOURCE RMF.
MCSS.                   MEAS : SOURCE RMC.
RMB .OHMM               0.31 : RM. AT BHT
BHT .F                   218 : BHT.
TCS .HRS                   3 : TIME CIRC. STOPPED
LUN .                   9684 : LOGGING UNIT NUMBER
LUL .                  ALICE : LOGGING UNIT LOCATION
ENGI.                 HASSAN : RECORDED BY
WITN.                 GUYTON : WITNESSED BY
ORIG.               5" PRINT : ORIGIN OF DATA
UWI .         42127309400000 : UNIQUE WELL ID
DICO. A2D TECHNOLOGIES, INC. : DIGITIZING COMPANY
~Other -----------------------------------------------------
~ASCII -----------------------------------------------------
# ...
 3750.00000    3.06900    3.46500    -999.25   -6.44200    -999.25    -999.25    -999.25  367.26550    -999.25    -999.25    -999.25   -6.44200    3.06900    3.46500  325.83900    -999.25    -999.25
 3800.00000    2.98000    3.24700    -999.25   -9.14100    -999.25    -999.25    -999.25  368.38000    -999.25    -999.25    -999.25   -9.14100    2.98000    3.24700  335.57050    -999.25    -999.25
 3850.00000    2.70400    3.11600    -999.25   -5.64870    -999.25    -999.25    -999.25  419.91020    -999.25    -999.25    -999.25   -5.64870    2.70400    3.11600  369.82250    -999.25    -999.25
 3900.00000    3.28200    3.45600   72.19060   -4.70440   72.19060    8.15610   93.47770  414.67070    8.15610    -999.25    -999.25   -4.70440    3.28200    3.45600  304.69230   93.47770    -999.25
 3950.00000    2.86500    3.14000   69.76510   -3.77350   69.76510    8.21800   98.84460  412.54400    8.21800    -999.25    -999.25   -3.77350    2.86500    3.14000  349.04010   98.84460    -999.25
 4000.00000    4.65300    5.43100   60.92540   -5.96020   60.92540    7.63060   77.17140  236.02790    7.63060    -999.25    -999.25   -5.96020    4.65300    5.43100  214.91510   77.17140    -999.25
 4050.00000    4.65900    5.64800   65.69450   -3.93290   65.69450    7.66120   79.21020  224.87520    7.66120    -999.25    -999.25   -3.93290    4.65900    5.64800  214.63830   79.21020    -999.25
 4100.00000    3.83600    4.37700   69.87640   -6.15770   69.87640    7.74270   84.28130  302.91250    7.74270    -999.25    -999.25   -6.15770    3.83600    4.37700  260.68820   84.28130    -999.25
 4150.00000    2.21500    2.75700   87.93230   -4.39380   87.93230    8.38020  159.13960  476.97980    8.38020    -999.25    -999.25   -4.39380    2.21500    2.75700  451.46730  159.13960    -999.25
 4200.00000    3.35500    5.25000   56.91330  -36.43480   56.91330    7.70840   81.65380  290.47790    7.70840    -999.25    -999.25  -36.43480    3.35500    5.25000  298.06260   81.65380    -999.25
 4250.00000    4.33500    6.38500   46.88270  -19.47550   46.88270    8.20290   77.72860  219.81040    8.20290    -999.25    -999.25  -19.47550    4.33500    6.38500  230.68050   77.72860    -999.25
 4300.00000    3.08100    4.72600   42.09900  -52.66070   42.09900    8.02040   80.27720  359.67690    8.02040    -999.25    -999.25  -52.66070    3.08100    4.72600  324.56990   80.27720    -999.25
 4350.00000    3.18800    3.85000   35.15420  -27.28380   35.15420    7.93870   83.06160  397.14330    7.93870    -999.25    -999.25  -27.28380    3.18800    3.85000  313.67630   83.06160    -999.25
 4400.00000    2.66500    3.31400   29.29000   -7.67860   29.29000    8.18700   91.54530  425.78630    8.18700    -999.25    -999.25   -7.67860    2.66500    3.31400  375.23450   91.54530    -999.25
 4450.00000    2.44800    2.63300   77.28460   -7.49970   77.28460    9.03410  101.82330  600.29940    9.03410    -999.25    -999.25   -7.49970    2.44800    2.63300  408.49670  101.82330    -999.25
 4500.00000    3.26900    3.53700   53.20940  -10.02290   53.20940    7.44510   84.04950  332.57500    7.44510    -999.25    -999.25  -10.02290    3.26900    3.53700  305.90390   84.04950    -999.25
 4550.00000    2.13100    2.47500    -999.25   -1.65590    -999.25    -999.25    -999.25  684.57980    -999.25    -999.25    -999.25   -1.65590    2.13100    2.47500  469.26320    -999.25    -999.25
 4600.00000    2.65700    2.70000    -999.25   -4.99820    -999.25    -999.25    -999.25  552.15870    -999.25    -999.25    -999.25   -4.99820    2.65700    2.70000  376.36430    -999.25    -999.25
 4650.00000    3.26700    3.80900    -999.25   -5.72980    -999.25    -999.25    -999.25  377.74450    -999.25    -999.25    -999.25   -5.72980    3.26700    3.80900  306.09120    -999.25    -999.25
 4700.00000    2.67700    2.89200    -999.25   -2.86550    -999.25    -999.25    -999.25  378.95970    -999.25    -999.25    -999.25   -2.86550    2.67700    2.89200  373.55250    -999.25    -999.25
 4750.00000    3.11400    3.47300    -999.25   -9.26330    -999.25    -999.25    -999.25  403.44310    -999.25    -999.25    -999.25   -9.26330    3.11400    3.47300  321.13040    -999.25    -999.25
 4800.00000    2.66500    2.84800    -999.25   -7.24140    -999.25    -999.25    -999.25  427.57820    -999.25    -999.25    -999.25   -7.24140    2.66500    2.84800  375.23450    -999.25    -999.25
 4850.00000    3.22100    3.46600    -999.25   -6.72050    -999.25    -999.25    -999.25  414.47480    -999.25    -999.25    -999.25   -6.72050    3.22100    3.46600  310.46260    -999.25    -999.25
 4900.00000    3.11200    3.19700   55.05400   -4.85970   55.05400    8.79320   87.51920  385.68480    8.79320    -999.25    -999.25   -4.85970    3.11200    3.19700  321.33680   87.51920    -999.25
 4950.00000    3.03700    3.41000   76.56820   -7.06080   76.56820    8.87040   90.24590  407.41850    8.87040    -999.25    -999.25   -7.06080    3.03700    3.41000  329.27230   90.24590    -999.25
 5000.00000    3.43700    3.55000   73.29160   -3.21800   73.29160    8.12660   85.89180  356.36940    8.12660    -999.25    -999.25   -3.21800    3.43700    3.55000  290.95140   85.89180    -999.25
 5050.00000    3.26700    3.52900   92.14860   -3.79110   92.14860    8.87030   89.91860  371.75570    8.87030    -999.25    -999.25   -3.79110    3.26700    3.52900  306.09120   89.91860    -999.25
 5100.00000    3.46500    4.09000   69.93380  -18.60500   69.93380    7.80560   82.66090  315.48670    7.80560    -999.25    -999.25  -18.60500    3.46500    4.09000  288.60030   82.66090    -999.25
 5150.00000    3.66400    3.71700   79.93820   -7.45020   79.93820    7.86510   84.81500  333.83230    7.86510    -999.25    -999.25   -7.45020    3.66400    3.71700  272.92580   84.81500    -999.25
 5200.00000    3.46600    3.84100   83.18620   -3.93850   83.18620    7.85190   87.89630  326.84630    7.85190    -999.25    -999.25   -3.93850    3.46600    3.84100  288.51700   87.89630    -999.25
 5250.00000    3.86100    3.99300   63.55460   -6.93450   63.55460    7.69750   83.87550  311.09210    7.69750    -999.25    -999.25   -6.93450    3.86100    3.99300  259.00020   83.87550    -999.25
 5300.00000    3.86100    4.25700   72.20970   -6.11510   72.20970    8.53840   86.27880  326.21600    8.53840    -999.25    -999.25   -6.11510    3.86100    4.25700  259.00020   86.27880    -999.25
 5350.00000    3.86100    4.32400   76.88690   -3.50720   76.88690    8.87040   87.44190  308.06570    8.87040    -999.25    -999.25   -3.50720    3.86100    4.32400  259.00020   87.44190    -999.25
 5400.00000    4.25100    4.60300   66.49150  -11.04330   66.49150    9.45950   85.73640  273.94100    9.45950    -999.25    -999.25  -11.04330    4.25100    4.60300  235.23880   85.73640    -999.25
 5450.00000    3.66300    3.86300    -999.25   -4.46090    -999.25    7.89810    -999.25  331.83630    7.89810    -999.25    -999.25   -4.46090    3.66300    3.86300  273.00030    -999.25    -999.25
 5500.00000    2.93600    3.05500    -999.25   -7.23360    -999.25    -999.25    -999.25  425.22600    -999.25    -999.25    -999.25   -7.23360    2.93600    3.05500  340.59950    -999.25    -999.25
 5550.00000    3.06300    3.09400    -999.25   -6.24180    -999.25    -999.25    -999.25  399.01000    -999.25    -999.25    -999.25   -6.24180    3.06300    3.09400  326.47730    -999.25    -999.25
 5600.00000    3.39300    3.81900    -999.25   -7.08840    -999.25    -999.25    -999.25  337.43370    -999.25    -999.25    -999.25   -7.08840    3.39300    3.81900  294.72450    -999.25    -999.25
 5650.00000    3.48100    3.29000    -999.25   -4.47500    -999.25    -999.25    -999.25  363.79620    -999.25    -999.25    -999.25   -4.47500    3.48100    3.29000  287.27380    -999.25    -999.25
 5700.00000    4.44900    4.84800    -999.25   -4.15370    -999.25    -999.25    -999.25  220.82130    -999.25    -999.25    -999.25   -4.15370    4.44900    4.84800  224.76960    -999.25    -999.25
 5750.00000    7.52600    8.32400    -999.25  -10.09490    -999.25    -999.25    -999.25  122.59490    -999.25    -999.25    -999.25  -10.09490    7.52600    8.32400  132.87270    -999.25    -999.25
