~Version ---------------------------------------------------
VERS. 2.0 : CWLS log ASCII Standard -VERSION 2.0
WRAP.  NO : ONE LINE PER DEPTH STEP
~Well ------------------------------------------------------
STRT.F                                 1650.0 : START DEPTH
STOP.F                                 7900.0 : STOP DEPTH
STEP.F                               50.00000 : STEP LENGTH
NULL.                                 -999.25 : NULL VALUE
COMP. MGF OIL CORPORATION & J. FRANK STRINGER : COMPANY
WELL.                           N. C. KING #4 : WELL
FLD .                           JPS (EDWARDS) : FIELD
LOC .                                         : LOCATION
CNTY.                                  DIMMIT : COUNTY
STAT.                                   TEXAS : STATE
CTRY.                UNITED STATES OF AMERICA : COUNTRY
SRVC.                                   Welex : SERVICE COMPANY
DATE.                             18-Aug-1975 : LOGDATE
API .                          42127308630000 : API NUMBER
UWI .                          42127308630000 : UNIQUE WELL ID
SLAT.WGS84                      28.4776440277 : SURFACE LATITUDE
SLON.WGS84                      -99.645495277 : SURFACE LONGITUDE
~Curve Information -----------------------------------------
DEPT .F                  : 
CILD .MMHO  05 110 46 00 : CONDUCTIVITY INDUCTION LOG DEEP
CALS .IN    60 280 50 00 : CALIPER
DT   .US/FT 60 520 42 00 : INTERVAL TRANSIT TIME
NEUT .NAPI  35 330 01 00 : NEUTRON
GRR  .GAPI  05 310 01 00 : GAMMA RAY FROM RES.
SPR  .MV    05 010 01 00 : SPONTANEOUS POTENTIAL FROM RES.
ILD  .OHMM  05 120 46 00 : INDUCTION LOG DEEP
SN   .OHMM  05 040 16 00 : SHORT NORMAL 16"
TGAS .UNITS 91 830 01 00 : TOTAL GAS UNIT
ROP  .FT/HR 91 810 01 00 : RAT OF DRILLING PENETRATION
TGAS1.UNITS 91 830 01 00 : TOTAL GAS UNIT
C1   .PPM   91 831 01 00 : METHANE
~Params ----------------------------------------------------
PD  .                     GL : PERMANENT DATUM
EPD .F                   518 : ELEVATION PERMANENT DATUM
LMF .                     KB : LOG MEASURED FROM
DAPD.F                    10 : FEET ABOVE PERMANENT DATUM
DMF .                     KB : DRILLING MEASURED FROM
EKB .F                   528 : KELLING BUSHING
EDF .F                   527 : DRILLING FLOOR
EGL .F                   518 : GROUND LEVEL
DATE.              8-18-1975 : RUN DATE
RUN .                      1 : RUN NUMBER
DD  .F                  7925 : DEPTH DRILLER
DL  .F                  7922 : DEPTH LOGGER
BLI .F                  7916 : BOTTOM LOG INTERVAL
TLI .F                  2700 : TOP LOG INTERVAL
CS  .IN                8.625 : CASING SIZE
CBD .F                  1640 : CASING BOTTOM DRILLER
BS  .IN                7.875 : BIT SIZE
BSD .F                  7925 : BIT SIZE AT DEPTH
DFT .         WATER BASE MUD : DRILLING FLUID TYPE
DFD .                   10.6 : DRILLING FLUID DENSITY
DFV .                     72 : DRILLING FLUID VISCOSITY
DFPH.                    9.5 : DRILLING FLUID PH
DFL .                    4.8 : DRILLING FLUID LOSS
MSS .                    PIT : MUD SAMPLE SOURCE
RMS .OHMM               0.85 : RESISTIVITY MUD SAMPLE
MST .F                    75 : MUD SAMPLE TEMPERATURE
RMF .OHMM                0.5 : RESISTIVITY MUD FILTRATE SAMPLE
MFST.F                    75 : MUD FILTRATE SAMPLE TEMPERATURE
RMC .OHMM               0.96 : RESISTIVITY MUD CAKE
MCST.F                    75 : MUD CAKE SAMPLE TEMPERATURE
MFSS.                   MEAS : MUD FILTRATE SAMPLE SOURCE
MCSS.                   MEAS : MUD CAKE SAMPLE SOURCE
RMB .OHMM               0.28 : RESISTIVITY MUD AT BHT
TCS .HRS                   4 : TIME CURCULATED STOPPED
LUN .                   9684 : LOGGING UNIT NUMBER
LUL .                  ALICE : LOGGING UNIT LOCATION
ENGI.                 HASSAN : RECORDING ENGINEER
WITN.             MR. GUYTON : WITNESSED BY
CLNT.                A2DTECH : CLIENT CODE
ORIG.            2" 5" PRINT : ORIGIN OF DATA
UWI .         42127308630000 : UNIQUE WELL ID
DICO. A2D Technologies, Inc. : DIGITIZING COMPANY
~Other -----------------------------------------------------
~ASCII -----------------------------------------------------
# ...
 4450.00000  216.33890    -999.25    -999.25    -999.25  149.75940  -50.66600    5.20000    4.77500    0.74840   29.86840   20.59550    -999.25
 4500.00000  262.10290    -999.25    -999.25    -999.25  151.83830  -49.43700    4.23500    4.23900    0.42920   15.26320   18.36230    -999.25
 4550.00000  425.48720    -999.25    -999.25    -999.25  149.81590  -48.02700    2.81900    2.74700    0.31050   21.97370   15.38460    -999.25
 4600.00000  249.50180    -999.25    -999.25    -999.25  153.52760  -49.61200    4.44700    3.92700    0.30260   16.57890   15.79140    -999.25
 4650.00000  241.67930    -999.25    -999.25    -999.25  172.76070  -49.32500    4.51200    4.64200    0.20700   17.46030   15.13650    -999.25
 4700.00000  195.28490    -999.25    -999.25    -999.25  155.43970  -50.32400    4.94300    5.01700    0.19160   15.93560   12.96840    -999.25
 4750.00000  250.37570    -999.25    -999.25    -999.25  169.04750  -50.31700    4.47800    4.23900    0.15920   15.60850   12.90320    -999.25
 4800.00000  302.94780    -999.25    -999.25    -999.25  166.23760  -49.10500    3.61600    3.17500    0.28630   12.96300   10.87800    -999.25
 4850.00000  260.21290    -999.25    -999.25    -999.25  169.16170  -49.32500    4.44600    3.91800    0.84390    6.34920   14.64020    -999.25
 4900.00000  234.86840    -999.25    -999.25    -999.25  181.53380  -49.65000    4.17200    3.88800    0.63500   11.32210   12.86850    -999.25
 4950.00000  293.87590    -999.25    -999.25    -999.25  199.97940  -49.33400    3.83300    3.48000    0.23890    9.87660    7.69150    -999.25
 5000.00000  222.93460    -999.25    -999.25    -999.25  175.12270  -49.88400    4.38600    4.47200    0.36620   10.97400   12.40790    -999.25
 5050.00000  239.69900    -999.25    -999.25    -999.25  174.11120  -49.66900    4.36800    4.33700    0.38220   11.84240    6.45160    -999.25
 5100.00000  193.60900    -999.25    -999.25    -999.25  171.18610  -52.16400    4.91500    4.95600    0.33280   16.97370   10.87320    -999.25
 5150.00000  197.74660    -999.25    -999.25    -999.25  166.91170  -52.74800    5.21300    5.00800    0.27870   17.08330   11.41440    -999.25
 5200.00000  250.00000    -999.25    -999.25    -999.25  178.72240  -49.49800    4.64300    4.32400    0.54330   13.30700   16.86180    -999.25
 5250.00000  179.62190    -999.25    -999.25    -999.25  163.93120  -51.18200    5.57800    5.46000    0.47770   18.23190   13.15140    -999.25
 5300.00000  193.75860    -999.25    -999.25    -999.25  168.03680  -50.86500    5.43500    5.53500    0.39810   14.15340   12.85910    -999.25
 5350.00000  182.70680    -999.25    -999.25    -999.25  171.86120  -50.26200    5.44000    5.54100    0.31850   12.50000   10.67000    -999.25
 5400.00000  195.87060    -999.25    -999.25    -999.25  166.01230  -51.53700    5.32800    5.07900    0.55630   14.73680    9.90130    -999.25
 5450.00000  162.93200    -999.25    -999.25    -999.25  178.49730  -48.89000    5.67100    5.56900    0.31050    9.99980   11.91070    -999.25
 5500.00000  237.96990    -999.25    -999.25    -999.25  178.15950  -60.95400    4.24900    4.08200    0.28750   10.13160    9.42930    -999.25
 5550.00000  270.75280    -999.25    -999.25    -999.25  173.21040  -59.54000    4.84200    4.37800    0.33440   11.05260   11.41440    -999.25
 5600.00000  185.78770    8.40940   79.90280  387.06320  174.24850  -58.88600    5.43400    6.71500    0.63470   10.65790    6.42510    -999.25
 5650.00000  215.48870    8.52980   80.16420  382.82750  154.59610  -58.43300    4.41000    7.53100    0.41400    9.52380   10.67000    -999.25
 5700.00000  118.42110    8.56580   68.91710  436.07130  157.79400  -50.10800    9.64800   14.58400    0.31850    7.40740   11.91070    -999.25
 5750.00000  120.30080    8.51500   73.13490  507.89530  153.52800  -52.33000    8.49800   16.04500    0.49360    8.73020   19.10670    -999.25
 5800.00000   74.06380    8.60060   67.83020  549.99580  151.16560  -53.67400   10.59100   24.16300    0.57350   23.54500   17.40170    -999.25
 5850.00000  153.00750    8.58950   66.75770  555.59210  169.21780  -51.61400    9.06900   18.12100    0.58120   13.29370   13.64760    -999.25
 5900.00000  172.70750    8.45780   77.43460  368.71960  157.68920  -49.79600    5.63500   10.94900    0.65290   13.62500   13.89530    -999.25
 5950.00000  178.87730    8.51120   78.27610  402.22930  162.07560  -47.19400    4.99600   10.24700    0.54940   11.37540    9.42930    -999.25
 6000.00000  102.17640    8.51860   72.57290  508.20910  154.53940  -50.51000    8.41100   15.91900    0.55730    8.33300   15.88090    -999.25
 6050.00000   37.59180    8.46660   55.96930  662.68660  143.68630  -56.15000   23.57900   31.22500    0.89970    8.42750   25.80590    -999.25
 6100.00000  313.15790    8.33730   61.42880  558.46430  145.09200  -49.92400    5.13700   17.39100    1.08430    8.78530   26.79900    -999.25
 6150.00000   69.69880    8.45160   63.13050  696.82150  161.17460  -51.98800   12.85300   28.17300    1.73300    5.85530   38.95650    -999.25
 6200.00000   32.40500    8.43790   66.44020  719.40300  148.46630  -60.17400   16.85200   31.71500    1.64070    7.36840   26.79950    -999.25
 6250.00000   81.57890    9.07750   61.05510  623.25900  149.75990  -55.16200   11.84300   23.46100    1.75160    8.68420   31.76180    -999.25
 6300.00000   52.25750    9.05140   62.47630  705.97030  145.09470  -61.50000   16.94000   34.38700    1.79940    8.42110   30.30310    -999.25
 6350.00000   67.81940    8.99430   63.41060  699.62650  144.64220  -59.48200   14.51400   26.29000    1.64810   14.80260   30.02480    -999.25
 6400.00000   69.70190    9.00550   69.58790  651.92780  146.66700  -59.10400   12.57000   23.75800    2.13470    9.73680   41.92950    -999.25
 6450.00000   44.36090    8.94340   64.43910  714.92060  156.78950  -63.81600   20.54900   34.21000    1.42520   14.55030   42.67990    -999.25
 6500.00000   32.55590    8.96950   63.29840  702.11510  158.58900  -62.62800   32.78700   52.95500    2.62740   18.26030   69.47890    -999.25
 6550.00000    5.26540    9.01790   61.21660  716.41800  159.60150  -76.38400   90.71100   90.71100    3.82960   17.70060   87.84120    -999.25
 6600.00000   23.68790    8.92850   67.45100  602.92360  156.45200  -61.06800   41.62500   66.54100    4.15290   19.97380   89.10150    -999.25
 6650.00000   60.75000    8.76450   77.13540  461.75300  167.36200  -50.79400   17.98200   33.00400    3.71820   19.97350   86.35240    -999.25
 6700.00000   41.12790    8.77920   77.30370  433.20830  167.13680  -57.45000   24.27800   44.13300    3.85350   24.47090   82.92500    -999.25
 6750.00000   45.11280    8.73470   82.29620  409.70240  177.99130  -59.95000   22.52700   50.57500    3.93310   29.56350   85.11090    -999.25
 6800.00000   39.47370    8.73470   91.12200  328.60590  183.44620  -58.22800   26.05800   55.29500    4.49040   39.81480  108.65820    -999.25
 6850.00000   24.66170    8.58070   72.90940  461.93610  179.00200  -59.92000   52.53100   72.72700    4.01010   19.84000   91.06620    -999.25
 6900.00000   12.40600    8.57080   54.77280  776.68160  139.01840  -76.31200   99.01200   88.32800    2.89340   14.17960   73.85080    -999.25
 6950.00000    1.05260    8.13850   55.66940  782.09520  140.93060  -79.53600    -999.25    -999.25    2.03290   13.16140   50.86850    -999.25
 7000.00000  206.07420    7.55730   69.02030  494.76900  180.18330  -39.84800    5.12800   10.21000    1.86030   14.68170   47.07380    0.30790
 7050.00000  517.66620    7.56730   95.01140  308.20900  184.45790  -40.44600    2.68600    4.22700    1.42520   14.41800   37.96530    0.32910
 7100.00000  422.18340    7.65670   81.26830  358.96420  182.43350  -40.54600    3.52800    5.76700    1.24200   12.83120   35.23570    0.36120
 7150.00000   30.60110    7.59460   54.27330  785.81860  143.40490  -32.10400   35.31800   63.83400    1.12530    3.50530   21.58780    0.44040
 7200.00000   26.09080    7.72750   60.70560  651.87300  140.93020  -58.80800   42.79400   62.34600    1.25540    9.53880   20.84370    0.53830
