~Version ---------------------------------------------------
VERS. 2.0 : CWLS log ASCII Standard -VERSION 2.0
WRAP.  NO : One line per depth step
~Well ------------------------------------------------------
STRT.FT                                1700.0 : START DEPTH
STOP.FT                                7850.0 : STOP DEPTH
STEP.FT                              50.00000 : STEP LENGTH
NULL.                                 -999.25 : NULL VALUE
COMP. MGF OIL CORPORATION & J. FRANK STRINGER : COMPANY
WELL.                             N C KING #6 : WELL
FLD .                                 EDWARDS : FIELD
LOC .                                         : LOCATION
CNTY.                                  DIMMIT : COUNTY
STAT.                                   TEXAS : STATE
CTRY.                UNITED STATES OF AMERICA : COUNTRY
SRVC.                                         : SERVICE COMPANY
DATE.                                         : LOGDATE
API .                          42127309400000 : API NUMBER
UWI .                          42127309400000 : UNIQUE WELL ID
SLAT.WGS84                      28.4912534265 : SURFACE LATITUDE
SLON.WGS84                     -99.6338349296 : SURFACE LONGITUDE
~Curve Information -----------------------------------------
DEPT  .FT    : DEPTH
ILDED .OHMM  : DEEP INDUCTION RESISTIVITY
SNED  .OHMM  : SHORT NORMAL 16 IN.
GRWS  .GAPI  : GAMMA RAY [GRSED]
SPWS  .MV    : SPONTANEOUS POTENTIAL  BASELINE 0 MV
GRSED .GAPI  : GAMMA RAY FROM SONIC LOG
CALSED.IN    : CALIPER FROM SONIC LOG
DTED  .US/F  : DELTA TIME
CILDED.MMHO  : CONDUCTIVITY FROM LOG
CALWS .IN    : CALIPER
GRNED .GAPI  : GRN
NEUTED.NAPI  : NEUTRON
SPED  .MV    : SPONTANEOUS POTENTIAL
DRESWS.OHMM  : DEEP RESISTIVITY [ILDED]
SRESWS.OHMM  : SHALLOW RESISTIVITY [SNED]
CONDWS.MMHO  : CONDUCTIVITY FROM DEEP RESISTIVITY
DTWS  .US/F  : DELTA TIME
NEUTWS.CU    : NEUTRON
~Params ----------------------------------------------------
EKB .F                 491.0 : Kelly bushing
EGL .F                 481.0 : Ground level
EDF .F                 490.0 : Drilling floor
EPD .F                 481.0 : Permanent datum
TD  .F                7874.0 : Total depth
DATE.            22-SEP-1975 : DATE LOGGED
CLNT.                A2DTECH : CLIENT CODE
PD  .                     GL : PERMANENT DATUM
LMF .                    TKB : LOG MEASURED FROM
DMF .                    TKB : DRILLING MEASURED FROM
DAPD.F                    10 : FEET ABOVE PERMANENT DATUM
DD  .F                  7848 : DEPTH DRILLER
DL  .F                  7874 : DEPTH LOGGER
BLI .F                  7858 : BOTTOM LOG INTERVAL
TLI .F                  2580 : TOP LOG INTERVAL
CS1 .IN                8.625 : CASING SIZE
CBD1.         8.625" @ 1650' : CASING DRILLER 1
CBL1.F                  1650 : CASING LOGGER 1
BS1 .IN                7.875 : BIT SIZE
BSD1.F                  7848 : DEPTH DRILLED WITH BIT1
DFT .        WATER BASED MUD : TYPE FLUID IN HOLE
DFD .                   10.4 : DENSITY
DFV .                     68 : VISCOSITY
DFPH.                    9.0 : PH
MSS .                MUD PIT : SOURCE OF SAMPLE
RMS .OHMM               0.89 : RM
RMF .OHMM               0.64 : RMF
RMC .OHMM               1.13 : RMC
MFSS.                   MEAS : SOURCE RMF.
MCSS.                   MEAS : SOURCE RMC.
RMB .OHMM               0.31 : RM. AT BHT
BHT .F                   218 : BHT.
TCS .HRS                   3 : TIME CIRC. STOPPED
LUN .                   9684 : LOGGING UNIT NUMBER
LUL .                  ALICE : LOGGING UNIT LOCATION
ENGI.                 HASSAN : RECORDED BY
WITN.                 GUYTON : WITNESSED BY
ORIG.               5" PRINT : ORIGIN OF DATA
UWI .         42127309400000 : UNIQUE WELL ID
DICO. A2D TECHNOLOGIES, INC. : DIGITIZING COMPANY
~Other -----------------------------------------------------
~ASCII -----------------------------------------------------
# ...
 5800.00000    7.60600    9.28300    -999.25   -8.38290    -999.25    -999.25    -999.25  120.91010    -999.25   45.25300  508.73420   -8.38290    7.60600    9.28300  131.47520    -999.25  508.73420
 5850.00000    7.91400    9.12300    -999.25   -6.41410    -999.25    -999.25    -999.25  122.47730    -999.25   55.74160  415.68090   -6.41410    7.91400    9.12300  126.35840    -999.25  415.68090
 5900.00000    5.05500    5.69900   61.84640   -2.22030   61.84640    8.12950   75.15080  213.57290    8.12950   67.51230  191.53070   -2.22030    5.05500    5.69900  197.82390   75.15080  191.53070
 5950.00000    4.34300    5.07100   61.84590  -13.22120   61.84590    8.27140   77.74250  336.14020    8.27140   67.26660  183.78780  -13.22120    4.34300    5.07100  230.25560   77.74250  183.78780
 6000.00000    5.92200    7.32000   56.52120   -7.96690   56.52120    8.25310   75.84710  210.81940    8.25310   66.96470  176.66530   -7.96690    5.92200    7.32000  168.86190   75.84710  176.66530
 6050.00000    7.53900   11.33500   37.68790  -11.28270   37.68790    8.16320   60.18490  136.18220    8.16320   23.02450  392.77390  -11.28270    7.53900   11.33500  132.64360   60.18490  392.77390
 6100.00000    5.82600    9.31200   39.58390   -8.01950   39.58390    8.14520   70.87650  142.21560    8.14520   37.77350  520.97900   -8.01950    5.82600    9.31200  171.64430   70.87650  520.97900
 6150.00000    7.56800   10.93600   41.53860   -2.99680   41.53860    8.31490   60.62400  130.23950    8.31490   36.90880  551.91580   -2.99680    7.56800   10.93600  132.13530   60.62400  551.91580
 6200.00000   10.00200   16.77700   36.83980   -7.35880   36.83980    8.32730   61.22970  109.26230    8.32730   20.40510  551.28200   -7.35880   10.00200   16.77700   99.98000   61.22970  551.28200
 6250.00000    6.30900    9.97000   31.07630   -5.79680   31.07630    8.26850   58.05910  147.20560    8.26850   30.85400  504.76430   -5.79680    6.30900    9.97000  158.50370   58.05910  504.76430
 6300.00000    8.79100   16.49400   30.76900   -7.50380   30.76900    8.20270   58.91900  120.25950    8.20270   25.49410  452.11850   -7.50380    8.79100   16.49400  113.75270   58.91900  452.11850
 6350.00000    6.52800   11.09500   31.99950   -8.31480   31.99950    8.17590   61.60480  153.62130    8.17590   21.54900  537.28750   -8.31480    6.52800   11.09500  153.18630   61.60480  537.28750
 6400.00000    7.15400   10.30500   42.23160   -9.71980   42.23160    8.25320   64.09140  147.39300    8.25320   30.78860  403.67390   -9.71980    7.15400   10.30500  139.78190   64.09140  403.67390
 6450.00000    7.29200   14.73700   39.38890   -8.26780   39.38890    8.62430   62.90800  129.50770    8.62430   31.95410  482.82950   -8.26780    7.29200   14.73700  137.13660   62.90800  482.82950
 6500.00000    8.06700   15.39500   55.38460  -12.27530   55.38460    8.56540   65.67380  131.23750    8.56540   45.10390  462.65850  -12.27530    8.06700   15.39500  123.96180   65.67380  462.65850
 6550.00000   11.94300   40.52400   43.61850  -16.87220   43.61850    9.39510   59.83760   78.50960    9.39510   40.08080  514.90110  -16.87220   11.94300   40.52400   83.73110   59.83760  514.90110
 6600.00000   10.49600   29.76000   52.68410    0.03470   52.68410    8.04380   70.47290   86.32730    8.04380   35.98890  378.71280    0.03470   10.49600   29.76000   95.27440   70.47290  378.71280
 6650.00000    9.17000   18.41600   44.90060   -4.50410   44.90060    6.52470   70.98710  112.37610    6.52470   51.03770  336.76850   -4.50410    9.17000   18.41600  109.05130   70.98710  336.76850
 6700.00000    9.72700   20.78100   47.38430   -5.07080   47.38430    7.89810   70.99310  102.78400    7.89810   33.08850  337.63760   -5.07080    9.72700   20.78100  102.80660   70.99310  337.63760
 6750.00000    8.06000   15.78700   62.42890   -5.70450   62.42890    8.10360   80.56480  118.26350    8.10360   66.88750  205.04660   -5.70450    8.06000   15.78700  124.06950   80.56480  205.04660
 6800.00000   10.08800   20.51800   61.99040   -4.75710   61.99040    7.55860   82.26590   96.65090    7.55860  106.88060  171.16880   -4.75710   10.08800   20.51800   99.12770   82.26590  171.16880
 6850.00000    9.26700   24.34600   67.88400   -4.66980   67.88400    7.99680   74.84150  106.28740    7.99680   99.80110  327.06600   -4.66980    9.26700   24.34600  107.90980   74.84150  327.06600
 6900.00000   11.41200   38.83800   40.49610   -5.62940   40.49610    6.61490   52.94810   83.08110    6.61490   41.65030  870.55210   -5.62940   11.41200   38.83800   87.62710   52.94810  870.55210
 6950.00000   11.71700   46.45800   43.54750   -6.15110   43.54750    6.91040   53.41850   81.73020    6.91040   52.92580  747.40870   -6.15110   11.71700   46.45800   85.34610   53.41850  747.40870
 7000.00000    4.31100    5.31800   71.84620   -4.23870   71.84620    7.86930   72.36640  297.39830    7.86930  112.98310  205.37930   -4.23870    4.31100    5.31800  231.96480   72.36640  205.37930
 7050.00000    3.37600    3.06800   97.60400   -3.88840   97.60400    8.14500   95.49110  448.16150    8.14500  126.02500  130.92460   -3.88840    3.37600    3.06800  296.20850   95.49110  130.92460
 7100.00000    2.99800    4.51500   78.30730   -3.78310   78.30730    8.00620   84.66180  212.75210    8.00620  113.70970  113.83060   -3.78310    2.99800    4.51500  333.55570   84.66180  113.83060
 7150.00000   16.44100   20.71200   67.35310   -1.03720   67.35310    7.82260   54.81050   58.40170    7.82260   67.10340  398.07160   -1.03720   16.44100   20.71200   60.82360   54.81050  398.07160
 7200.00000   13.80000   19.21000   58.76970   -0.46520   58.76970    7.51230   56.92070   65.03670    7.51230   45.85810  400.28340   -0.46520   13.80000   19.21000   72.46380   56.92070  400.28340
 7250.00000   23.18100   30.61600   58.76970   -0.84110   58.76970    8.12520   58.54560   45.65870    8.12520   47.52010  544.15780   -0.84110   23.18100   30.61600   43.13880   58.54560  544.15780
 7300.00000   17.02200   27.27200   60.76750   -0.50190   60.76750    8.03690   51.63920   49.19210    8.03690   54.05160  551.28200   -0.50190   17.02200   27.27200   58.74750   51.63920  551.28200
 7350.00000   20.47100   25.68900   62.49070   -2.12330   62.49070    7.97290   50.24740   43.81240    7.97290   64.35520  395.13700   -2.12330   20.47100   25.68900   48.84960   50.24740  395.13700
 7400.00000   24.36500   42.87400   65.95660   -3.51140   65.95660    8.36040   50.66950   35.53690    8.36040   59.69730  495.29880   -3.51140   24.36500   42.87400   41.04250   50.66950  495.29880
 7450.00000   26.86700   30.02200   60.30770   -1.75650   60.30770    7.86730   52.10360   33.61460    7.86730   61.72690  445.61000   -1.75650   26.86700   30.02200   37.22040   52.10360  445.61000
 7500.00000   17.96700   39.56600   57.23050   -0.28890   57.23050    8.03560   52.25810   55.38920    8.03560   47.23510  550.29200   -0.28890   17.96700   39.56600   55.65760   52.25810  550.29200
 7550.00000   30.11800   75.96500   49.51310   -3.93350   49.51310    8.00620   51.94910   30.96750    8.00620   38.01820  679.55000   -3.93350   30.11800   75.96500   33.20270   51.94910  679.55000
 7600.00000   29.82200   42.99900   54.05180   -8.11800   54.05180    7.75910   53.16250   28.44310    7.75910   53.89510  392.07180   -8.11800   29.82200   42.99900   33.53230   53.16250  392.07180
 7650.00000   19.12100   25.05300   64.61560   -3.44320   64.61560    7.76350   52.05430   47.10390    7.76350   68.20550  379.67170   -3.44320   19.12100   25.05300   52.29850   52.05430  379.67170
 7700.00000   20.04400   13.61100   53.99940  -13.26110   53.99940    7.91360   52.53950   44.41120    7.91360   70.08810  358.47930  -13.26110   20.04400   13.61100   49.89020   52.53950  358.47930
 7750.00000   36.74900   53.27200   56.76920  -10.07950   56.76920    7.82100   55.19730   23.34220    7.82100   57.20070  473.30530  -10.07950   36.74900   53.27200   27.21160   55.19730  473.30530
 7800.00000   37.61900   37.33500   59.38560   -3.42070   59.38560    9.02010   44.07260   40.26950    9.02010   59.89040  219.16650   -3.42070   37.61900   37.33500   26.58230   44.07260  219.16650
