~Version ---------------------------------------------------
VERS. 2.0 : CWLS log ASCII Standard -VERSION 2.0
WRAP. YES : MULTIPLE LINES PER DEPTH STEP
~Well ------------------------------------------------------
STRT.FT                  300.0 : START DEPTH
STOP.FT                14400.0 : STOP DEPTH
STEP.FT               50.00000 : STEP LENGTH
NULL.                  -999.25 : NULL VALUE
COMP.              CONOCO INC. : COMPANY
WELL.       JACQUELYN WOODS #1 : WELL
FLD .                  WILDCAT : FIELD
LOC .                          : LOCATION
CNTY.                ROBERTSON : COUNTY
STAT.                    TEXAS : STATE
CTRY. UNITED STATES OF AMERICA : COUNTRY
SRVC.                          : SERVICE COMPANY
DATE.                          : LOGDATE
API .           42395302880000 : API NUMBER
UWI .           42395302880000 : UNIQUE WELL ID
SLAT.WGS84       31.0997639251 : SURFACE LATITUDE
SLON.WGS84      -96.4923364329 : SURFACE LONGITUDE
~Curve Information -----------------------------------------
DEPT  .FT    : DEPTH
ACED  .US/F  : DELTA TIME
CALRED.IN    : CALIPER FROM RESISTIVITY LOG
RILMED.OHMM  : MEDIUM INDUCTION RESISTIVITY
RFOCED.OHMM  : SHALLOW FOCUSED RESISTIVITY
RILDED.OHMM  : DEEP INDUCTION RESISTIVITY
GRRED .GAPI  : GAMMA RAY FROM RESISTIVITY LOG
TENRED.LBS   : TENSION FROM RESISTIVITY LOG
SFLUED.OHMM  : SPHERICALLY FOCUSED RESISTIVITY
GRDED .GAPI  : GAMMA RAY FROM DENSITY LOG
CALDED.IN    : CALIPER FROM DENSITY LOG
DRHOED.G/C3  : DENSITY CORRECTION
NPHIED.V/V   : NEUTRON POROSITY
RHOBED.G/C3  : BULK DENSITY
TENDED.LBS   : TENSION FROM DENSITY LOG
SRESWS.OHMM  : SHALLOW RESISTIVITY (RFOC+SFLU)
CALWS .IN    : CALIPER
SPED  .MV    : SPONTANEOUS POTENTIAL (BASELINE -10 MV)
SPWS  .MV    : SPONTANEOUS POTENTIAL (BASELINE -10 MV)
DCORWS.G/C3  : DENSITY CORRECTION
GRWS  .GAPI  : GAMMA RAY
DRESWS.OHMM  : DEEP RESISTIVITY (RILD)
MRESWS.OHMM  : MEDIUM RESISTIVITY (RILM)
CONDWS.MMHO  : CONDUCTIVITY FROM DEEP RESISTIVITY
DENWS .G/C3  : BULK DENSITY
DPOWS .V/V   : DENSITY POROSITY (M=2.71 F=1)
NPOWS .V/V   : NEUTRON POROSITY
DTWS  .V/V   : DELTA TIME
~Params ----------------------------------------------------
EKB .F                 513.38 : KELLY BUSHING
EGL .F                 483.38 : ELEVATION GROUND LEVEL
EDF .F                 512.38 : ELEVATION DERRICK FLOOR
EPD .F                 483.38 : ELEVATION PERMANENT DATUM
TD  .F                12197.0 : TOTAL DEPTH
DATE.             17-MAR-1984 : DATE LOGGED
CLNT.                 A2DTECH : CLIENT CODE
SL  . 3400' FNEL & 3500' FNWL : SURFACE LOCATION
PD  .                      GL : PERMANENT DATUM
LMF .                      KB : LOG MEASURED FROM
DMF .                      KB : DRILLING MEASURED FROM
DAPD.F                     30 : FEET ABOVE PERMANENT DATUM
DD  .F                  12195 : DEPTH DRILLER
DL  .F                  12197 : DEPTH LOGGER
BLI .F                  12195 : BOTTOM LOG INTERVAL
TLI .F                  11950 : TOP LOG INTERVAL
CS1 .IN                13.375 : CASING SIZE
CBD1.         13.375" @ 5096' : CASING DRILLER 1
BS1 .IN                 12.25 : BIT SIZE
BSD1.F                  12195 : DEPTH DRILLED WITH BIT1
DFT .             GEL/CAUSTIC : TYPE FLUID IN HOLE
DFD .                     9.8 : DENSITY
DFV .                      44 : VISCOSITY
DFPH.                      11 : PH
DFL .                    11.2 : FLUID LOSS
MSS .                    TANK : SOURCE OF SAMPLE
RMS .OHMM                1.95 : RM
RMF .OHMM                1.35 : RMF
RMC .OHMM                2.53 : RMC
MFSS.                    MEAS : SOURCE RMF.
MCSS.                    MEAS : SOURCE RMC.
RMB .OHMM                0.59 : RM. AT BHT
BHT .F                    246 : BHT.
TCS .HRS                    6 : TIME CIRC. STOPPED
TLAB.HRS                    - : TIME LOGGER AT BOTTOM
LUN .                 HL 6304 : LOGGING UNIT NUMBER
LUL .                   BRYAN : LOGGING UNIT LOCATION
ENGI.               R.R. KIRK : RECORDED BY
WITN.            GALE CLAYTOR : WITNESSED BY
ORIG.                5" PRINT : ORIGIN OF DATA
UWI .          42395302880000 : UNIQUE WELL ID
DICO.  A2D TECHNOLOGIES, INC. : DIGITIZING COMPANY
~Other -----------------------------------------------------
# NPHI 890 01 (LIMESTONE)
~ASCII -----------------------------------------------------
# ...
 5500.00000   77.44400   15.07600    2.60800    4.13400    2.48700   23.29000    0.00000    -999.25   36.55800   17.84800   -0.02500    0.14600    2.48600    -999.25    4.13400   17.84800  -15.56510  -15.56510   -0.02500   23.29000    2.48700    2.60800  402.09090    2.48600    0.13100    0.14600   77.44400
 5550.00000   57.25400   14.74300   12.12300   10.85200   10.85200   10.80600    0.00000    -999.25   17.50500   17.98900    0.10800    0.08700    2.57600    -999.25   10.85200   17.98900  -37.12510  -37.12510    0.10800   10.80600   10.85200   12.12300   92.14890    2.57600    0.07840    0.08700   57.25400
 5600.00000   60.09300   14.76700    7.60900    8.13400    6.59600   15.54000    0.00000    -999.25   20.79700   16.39000    0.03800    0.08700    2.61100    -999.25    8.13400   16.39000  -24.21700  -24.21700    0.03800   15.54000    6.59600    7.60900  151.60700    2.61100    0.05790    0.08700   60.09300
 5650.00000   57.01800   14.67000   11.61700   12.52800    9.54200   13.43100    0.00000    -999.25   19.17900   16.41400   -0.00400    0.08460    2.60900    -999.25   12.52800   16.41400  -28.37400  -28.37400   -0.00400   13.43100    9.54200   11.61700  104.79980    2.60900    0.05910    0.08460   57.01800
 5700.00000   57.25100   14.59500   12.75200   15.52100   13.92200   15.21400    0.00000    -999.25   20.17500   16.44800   -0.00500    0.07100    2.51300    -999.25   15.52100   16.44800  -24.04900  -24.04900   -0.00500   15.21400   13.92200   12.75200   71.82880    2.51300    0.11520    0.07100   57.25100
 5750.00000   64.05400   15.11600    6.34300    6.42400    6.74000   19.98400    0.00000    -999.25   29.74700   17.05500   -0.04900    0.11200    2.56400    -999.25    6.42400   17.05500  -20.86090  -20.86090   -0.04900   19.98400    6.74000    6.34300  148.36800    2.56400    0.08540    0.11200   64.05400
 5800.00000   62.95800   14.82900    8.28700    7.49900    8.47100   20.83000    0.00000    -999.25   28.40400   16.81300    0.12600    0.14100    2.32300    -999.25    7.49900   16.81300  -27.08290  -27.08290    0.12600   20.83000    8.47100    8.28700  118.04980    2.32300    0.22630    0.14100   62.95800
 5850.00000   71.49800   15.09000    7.23400   11.51400    5.11100   35.64800    0.00000    -999.25   58.03300   15.41500    0.01800    0.31400    2.25200    0.00000   11.51400   15.41500  -36.12980  -36.12980    0.01800   35.64800    5.11100    7.23400  195.65640    2.25200    0.26780    0.31400   71.49800
 5900.00000   54.57900   14.52000   19.47400   19.96200   18.99100   25.69000    0.00000    -999.25   29.15300   15.11500   -0.03000    0.06040    2.62700    0.00000   19.96200   15.11500  -25.37480  -25.37480   -0.03000   25.69000   18.99100   19.47400   52.65650    2.62700    0.04850    0.06040   54.57900
 5950.00000   58.19300   14.29900   11.68300   11.90200   10.73300   24.00500    0.00000    -999.25   37.23000   14.94600    0.07700    0.08040    2.63300    0.00000   11.90200   14.94600  -14.33380  -14.33380    0.07700   24.00500   10.73300   11.68300   93.17060    2.63300    0.04500    0.08040   58.19300
 6000.00000   55.69100   14.12200   19.40900   18.04400   16.90000   32.82200    0.00000    -999.25   38.73600   14.78200   -0.00900    0.04550    2.58900    1.50900   18.04400   14.78200  -26.72770  -26.72770   -0.00900   32.82200   16.90000   19.40900   59.17160    2.58900    0.07080    0.04550   55.69100
 6050.00000   64.41600   14.45300    7.43600    8.17700    6.99700   45.70800    0.00000    -999.25   57.80000   14.68900   -0.06400    0.14300    2.52100   22.93700    8.17700   14.68900  -14.85370  -14.85370   -0.06400   45.70800    6.99700    7.43600  142.91840    2.52100    0.11050    0.14300   64.41600
 6100.00000   61.21300   14.88800    7.25100    7.41000    6.92000   32.16000    0.00000    -999.25   47.75500   15.52800   -0.08500    0.11700    2.55500   12.25700    7.41000   15.52800  -11.75470  -11.75470   -0.08500   32.16000    6.92000    7.25100  144.50870    2.55500    0.09060    0.11700   61.21300
 6150.00000   89.34000   15.07600    2.31100    2.71400    2.22400   45.30100    0.00000    -999.25   62.59900   17.48800    0.21600    0.38200    2.37100    0.01170    2.71400   17.48800  -10.34560  -10.34560    0.21600   45.30100    2.22400    2.31100  449.64030    2.37100    0.19820    0.38200   89.34000
 6200.00000   61.29800   14.71600    9.51400    8.51700    8.56700   27.02700    0.00000    -999.25   41.09600   15.43400    0.00400    0.12160    2.50500    0.09180    8.51700   15.43400  -15.10960  -15.10960    0.00400   27.02700    8.56700    9.51400  116.72700    2.50500    0.11990    0.12160   61.29800
 6250.00000   56.50400   14.39400   16.46400   14.11700   14.11700   25.78400    0.00000    -999.25   34.52800   15.24200    0.07500    0.10270    2.63600    0.17200   14.11700   15.24200  -20.25450  -20.25450    0.07500   25.78400   14.11700   16.46400   70.83660    2.63600    0.04330    0.10270   56.50400
 6300.00000   85.07000   15.13800    2.36700    3.50700    2.40000   30.42600    0.00000    -999.25   46.87500   18.35400    0.13700    0.30180    2.31200    0.25210    3.50700   18.35400  -13.18450  -13.18450    0.13700   30.42600    2.40000    2.36700  416.66670    2.31200    0.23270    0.30180   85.07000
 6350.00000  106.23500   15.15300    1.89700    2.27100    1.87100   31.72600    0.00000    -999.25   47.29100   19.88700   -0.01700    0.41080    2.23600    0.33230    2.27100   19.88700  -13.99950  -13.99950   -0.01700   31.72600    1.87100    1.89700  534.47350    2.23600    0.27720    0.41080  106.23500
 6400.00000   85.59100   15.11100    1.85200    2.63300    1.74500   36.40200    0.00000    -999.25   53.13500   18.57600    0.05900    0.40250    2.04500    0.41240    2.63300   18.57600  -15.40960  -15.40960    0.05900   36.40200    1.74500    1.85200  573.06590    2.04500    0.38890    0.40250   85.59100
 6450.00000   73.93700   14.98600    3.30700    4.07100    3.06600   28.32900    0.00000    -999.25   44.74300   17.02700    0.06100    0.18690    2.63800    0.49260    4.07100   17.02700  -15.88570  -15.88570    0.06100   28.32900    3.06600    3.30700  326.15790    2.63800    0.04210    0.18690   73.93700
 6500.00000   58.83300   14.51200   10.44400    8.69100    9.23600   20.83100    0.00000    -999.25   33.37700   15.33700   -0.11300    0.08700    2.50600    0.57280    8.69100   15.33700  -15.41290  -15.41290   -0.11300   20.83100    9.23600   10.44400  108.27200    2.50600    0.11930    0.08700   58.83300
 6550.00000   57.59700   14.60000   12.99100   11.62900   10.20800   21.32200    0.00000    -999.25   31.80600   15.97500    0.08400    0.08300    2.61200    0.65290   11.62900   15.97500  -17.64810  -17.64810    0.08400   21.32200   10.20800   12.99100   97.96240    2.61200    0.05730    0.08300   57.59700
 6600.00000   56.28200   14.95700   21.39100   16.21200   19.84100   33.02700    0.00000    -999.25   46.08300   16.21200    0.01400    0.07100    2.62800    0.73310   16.21200   16.21200  -21.57020  -21.57020    0.01400   33.02700   19.84100   21.39100   50.40070    2.62800    0.04800    0.07100   56.28200
 6650.00000   58.33800   14.83500    8.82500   14.11700    7.86800   29.96200    0.00000    -999.25   40.42700   16.48800    0.02300    0.11580    2.59900    0.81320   14.11700   16.48800  -17.83340  -17.83340    0.02300   29.96200    7.86800    8.82500  127.09710    2.59900    0.06490    0.11580   58.33800
 6700.00000   80.00700   15.10200    6.25600    9.06400    6.06900   26.48000    0.00000    -999.25   37.99100   16.43600    0.10900    0.14520    2.58100    0.89340    9.06400   16.43600  -16.48960  -16.48960    0.10900   26.48000    6.06900    6.25600  164.77180    2.58100    0.07540    0.14520   80.00700
 6750.00000   55.66100   14.76900   16.69800   24.55900   14.51300   35.94700    0.00000    -999.25   47.25100   15.40700    0.00600    0.12930    -999.25    0.97350   24.55900   15.40700  -17.25670  -17.25670    0.00600   35.94700   14.51300   16.69800   68.90370    -999.25    -999.25    0.12930   55.66100
