~Version ---------------------------------------------------
VERS. 2.0 : CWLS log ASCII Standard -VERSION 2.0
WRAP.  NO : ONE LINE PER DEPTH STEP
~Well ------------------------------------------------------
STRT.F                        3750.0 : START DEPTH
STOP.F                        8350.0 : STOP DEPTH
STEP.F                      50.00000 : STEP LENGTH
NULL.                        -999.25 : NULL VALUE
COMP. COLUMBIA GAS DEVELOPMENT CORP. : COMPANY
WELL.              RAYMOND ZGABAY #2 : WELL
FLD .                       GIDDINGS : FIELD
LOC .                                : LOCATION
CNTY.                       BURLESON : COUNTY
STAT.                          TEXAS : STATE
CTRY.       UNITED STATES OF AMERICA : COUNTRY
SRVC.                       Gearhart : SERVICE COMPANY
DATE.                    02-Jan-1980 : LOGDATE
API .                 42051305380000 : API NUMBER
UWI .                 42051305380000 : UNIQUE WELL ID
SLAT.WGS84             30.3532804636 : SURFACE LATITUDE
SLON.WGS84            -96.7541649546 : SURFACE LONGITUDE
~Curve Information -----------------------------------------
DEPT.F    0   1   0  0 : 1 MEASURED DEPTH
CALX.IN   45 280 13 00 : CALIPER FROM X AXIS OF X-Y CALIPER(S)
DEN .G/C3 45 350 01 00 : COMPENSATED BULK DENSITY
GRD .GAPI 45 310 01 00 : GAMMA RAY FROM DENSITY LOG
DT  .US/F 60 500 00 00 : DELTA-T (INTERVAL TRANSIT TIME)
RILD.OHMM 07 120 46 00 : RAW DEEP INDUCTION RESISTIVITY
RILM.OHMM 07 120 44 00 : RAW MEDIUM INDUCTION RESISTIVITY
RLL .OHMM 07 220 04 00 : RAW LATEROLOG COUNT RATE
SPR .MV   07 010 01 00 : SPONTANEOUS POTENTIAL FROM RESISTIVITY LOG
GR  .GAPI 30 310 01 00 : GAMMA RAY
~Params ----------------------------------------------------
PD  .                      GL : PERMANENT DATUM
EPD .FT                   288 : ELEVATION PERMANENT DATUM
LMF .                      KB : LOG MEASURED FROM
DAPD.FT                    15 : FEET ABOVE PERMANENT DATUM
DMF .                      KB : DRILLING MEASURED FROM
EKB .FT                   303 : KELLY BUSHING
EDF .FT                   302 : DRILLING FLOOR
EGL .FT                   288 : GROUND LEVEL
DATE.                01/12/80 : RUN DATE
RUN .                       2 : RUN NUMBER
DD  .FT                  8380 : DEPTH DRILLER
DL  .FT                  8380 : DEPTH LOGGER
BLI .FT                  8374 : BOTTOM LOG INTERVAL
TLI .FT                  7422 : TOP LOG INTERVAL
CS  .IN                     7 : CASING SIZE
CBD .FT                  7421 : CASING BOTTOM DRILLER
CBL .FT                  7422 : CASING BOTTOM LOGGER
BS  .IN                 6.125 : BIT SIZE
BSD .FT                  8380 : BIT SIZE AT DEPTH
DFT .             BRINE WATER : DRILLING FLUID TYPE
DFD .                     9.6 : DRILLING FLUID DENSITY
DFV .                      30 : DRILLING FLUID VISCOSITY
MSS .                 MUD PIT : MUD SAMPLE SOURCE
RMS .OHMM                0.05 : RESISTIVITY MUD SAMPLE
MST .DEGF                  61 : MUD SAMPLE TEMPERATURE
RMF .OHMM                0.04 : RESISTIVITY MUD FILTRATE SAMPLE
MFST.DEGF                  61 : MUD FILTRATE SAMPLE TEMPERATURE
RMC .OHMM                0.08 : RESISTIVITY MUD CAKE
MCST.DEGF                  61 : MUD CAKE SAMPLE TEMPERATURE
MFSS.                       C : MUD FILTRATE SAMPLE SOURCE
MCSS.                       C : MUD CAKE SAMPLE SOURCE
RMB .OHMM                0.02 : RESISTIVITY MUD AT BHT
TCS .HRS                  200 : TIME CIRCULATED STOPPED
TLAB.HRS                 1000 : TIME LOGGER AT BOTTOM
LUN .                    7547 : LOGGING UNIT NUMBER
LUL .                  CONROE : LOGGING UNIT LOCATION
ENGI. ROSE WRIGHT FREEDENBERG : RECORDING ENGINEER
WITN.     DAUGHERTY KOWALCZYK : WITNESSED BY
CLNT.                 A2DTECH : CLIENT CODE
ORIG.             2" 5" PRINT : ORIGIN OF DATA
UWI .          42051305380000 : UNIQUE WELL ID
DICO.  A2D Technologies, Inc. : DIGITIZING COMPANY
~Other -----------------------------------------------------
~ASCII -----------------------------------------------------
 3750.00000    -999.25    -999.25    -999.25   91.29700    6.51700    9.20730   11.72520  -49.28980    -999.25
 3800.00000    -999.25    -999.25    -999.25   93.59770    5.93000    7.33810   13.40690  -63.87630    -999.25
 3850.00000    -999.25    -999.25    -999.25  140.61170    4.03380    3.06140    6.91930  -34.84250    -999.25
 3900.00000    -999.25    -999.25    -999.25   97.54140    4.41740    5.54610   10.78310  -63.48830    -999.25
 3950.00000    -999.25    -999.25    -999.25  109.89730    3.06510    3.52180    6.35690  -28.34560    -999.25
 4000.00000    -999.25    -999.25    -999.25   92.16870    5.05580    5.38920    6.77640  -40.33730    -999.25
 4050.00000    -999.25    -999.25    -999.25   87.79820    4.46060    5.29450    6.82050  -39.55640    -999.25
 4100.00000    -999.25    -999.25    -999.25   89.52040    5.54860    7.04380   12.37680  -58.24410    -999.25
 4150.00000    -999.25    -999.25    -999.25   87.12110    4.26870    5.02930    6.55450  -27.15580    -999.25
 4200.00000    -999.25    -999.25    -999.25   90.26990    4.36170    5.55300   10.57270  -62.34780    -999.25
 4250.00000    -999.25    -999.25    -999.25   88.14790    5.85530    7.74440   13.22790  -64.03920    -999.25
 4300.00000    -999.25    -999.25    -999.25   70.13710    5.72710    7.93840   22.55050  -42.48070    -999.25
 4350.00000    -999.25    -999.25    -999.25   53.90630    6.95870   12.83810  116.75210  -63.04060    -999.25
 4400.00000    -999.25    -999.25    -999.25   88.20730    3.86470    4.43650    6.70770  -43.58880    -999.25
 4450.00000    -999.25    -999.25    -999.25   83.43090    3.62010    4.73610    7.86140  -43.46270    -999.25
 4500.00000    -999.25    -999.25    -999.25   91.79430    2.49810    2.62120    3.48570  -24.27200    -999.25
 4550.00000    -999.25    -999.25    -999.25   83.50110    2.98240    3.14620    4.21760  -34.24000    -999.25
 4600.00000    -999.25    -999.25    -999.25   87.17950    2.71970    2.93970    4.09990  -36.42090    -999.25
 4650.00000    -999.25    -999.25    -999.25   85.03510    2.58850    2.78350    3.53850  -28.78240    -999.25
 4700.00000    -999.25    -999.25    -999.25   86.46220    2.92310    3.04580    3.48220  -28.21440    -999.25
 4750.00000    -999.25    -999.25    -999.25   86.51790    2.17490    2.34330    2.87780  -25.03860    -999.25
 4800.00000    -999.25    -999.25    -999.25   87.49190    2.04510    2.17290    2.61050  -25.18030    -999.25
 4850.00000    -999.25    -999.25    -999.25   90.61740    1.54940    1.61100    2.04430  -25.30860    -999.25
 4900.00000    -999.25    -999.25    -999.25   86.64630    1.82450    1.96930    2.34790  -25.18630    -999.25
 4950.00000    -999.25    -999.25    -999.25   88.42800    1.78620    1.85500    2.33150  -28.93780    -999.25
 5000.00000    -999.25    -999.25    -999.25   89.81850    1.53170    1.59240    1.95450  -28.49690    -999.25
 5050.00000    -999.25    -999.25    -999.25   93.37020    1.35310    1.40510    1.81840  -28.70200    -999.25
 5100.00000    -999.25    -999.25    -999.25   93.30380    1.33220    1.38360    1.70470  -29.51140    -999.25
 5150.00000    -999.25    -999.25    -999.25   89.48310    1.46230    1.51930    1.82750  -27.79810    -999.25
 5200.00000    -999.25    -999.25    -999.25   87.95340    1.39540    1.52070    1.84000  -31.51790    -999.25
 5250.00000    -999.25    -999.25    -999.25   91.55120    1.13860    1.21210    1.35140  -25.42270    -999.25
 5300.00000    -999.25    -999.25    -999.25   86.34420    1.63630    1.71910    1.80910  -28.19710    -999.25
 5350.00000    -999.25    -999.25    -999.25   81.71500    1.85100    1.94460    2.26020  -28.19820    -999.25
 5400.00000    -999.25    -999.25    -999.25   91.18760    1.48730    1.36950    1.86870  -43.81340    -999.25
 5450.00000    -999.25    -999.25    -999.25   96.59000    0.99880    1.04530    1.20000  -28.93660    -999.25
 5500.00000    -999.25    -999.25    -999.25   73.90590    2.22220    2.35050    2.49550  -32.63740    -999.25
 5550.00000    -999.25    -999.25    -999.25   82.31710    1.71010    1.83530    2.26840  -27.95320    -999.25
 5600.00000    -999.25    -999.25    -999.25   81.01580    1.75650    1.85930    2.24340  -28.45340    -999.25
 5650.00000    -999.25    -999.25    -999.25   85.06700    1.46810    1.53590    1.85090  -33.50020    -999.25
 5700.00000    -999.25    -999.25    -999.25   93.36340    1.01210    1.08820    1.35790  -29.52430    -999.25
 5750.00000    -999.25    -999.25    -999.25   93.80730    1.01860    1.08020    1.31170  -29.77930    -999.25
 5800.00000    -999.25    -999.25    -999.25   99.36030    0.91050    0.95470    1.18260  -24.01770    -999.25
 5850.00000    -999.25    -999.25    -999.25   93.57170    1.23790    1.34580    1.56350  -23.80820    -999.25
 5900.00000    -999.25    -999.25    -999.25   82.74020    1.43260    1.48820    1.71000  -25.38640    -999.25
 5950.00000    -999.25    -999.25    -999.25   81.83200    1.40980    1.47320    1.67800  -21.92020    -999.25
 6000.00000    -999.25    -999.25    -999.25   87.80520    1.12170    1.20290    1.28850  -20.65300    -999.25
 6050.00000    -999.25    -999.25    -999.25   83.10350    1.41440    1.49420    1.61330  -22.38400    -999.25
 6100.00000    -999.25    -999.25    -999.25   91.26210    1.03600    1.08980    1.32360  -22.53090    -999.25
 6150.00000    -999.25    -999.25    -999.25   86.33260    1.12890    1.23630    1.47390  -25.83970    -999.25
 6200.00000    -999.25    -999.25    -999.25   86.84390    1.23260    1.29050    1.57420  -23.22780    -999.25
 6250.00000    -999.25    -999.25    -999.25   89.13010    1.17840    1.24730    1.52800  -23.95700    -999.25
 6300.00000    -999.25    -999.25    -999.25   92.00390    1.06110    1.11040    1.32750  -24.00850    -999.25
 6350.00000    -999.25    -999.25    -999.25   87.12770    1.21040    1.26680    1.55810  -24.30630    -999.25
 6400.00000    -999.25    -999.25    -999.25   80.06250    1.63460    1.71160    1.99200  -21.04490    -999.25
 6450.00000    -999.25    -999.25    -999.25   82.80860    1.57040    1.64580    2.00520  -22.04380    -999.25
 6500.00000    -999.25    -999.25    -999.25   82.55970    1.58320    1.65630    2.07490  -22.89660   69.04860
 6550.00000    -999.25    -999.25    -999.25   89.18160    1.29090    1.35060    1.73130  -24.68190   73.66610
 6600.00000    -999.25    -999.25    -999.25   88.92250    1.29250    1.35230    1.70410  -26.52770   69.16620
 6650.00000    -999.25    -999.25    -999.25   89.51230    1.28180    1.34640    1.56270  -32.94880   85.20530
 6700.00000    -999.25    -999.25    -999.25   79.80760    1.63860    1.77480    2.16570  -23.97200   66.12270
 6750.00000    -999.25    -999.25    -999.25   66.66280    3.61600    4.59730    6.17020  -27.17740   31.68480
 6800.00000    -999.25    -999.25    -999.25   67.70270    3.57610    3.93980    5.10590  -28.82460   24.44150
 6850.00000    -999.25    -999.25    -999.25   70.97990    3.19890    3.46100    4.82980  -23.85970   51.85020
 6900.00000    -999.25    -999.25    -999.25   75.06830    2.31500    2.52300    3.29170  -22.37590   68.23390
 6950.00000    -999.25    -999.25    -999.25   73.58650    2.21500    2.67670    3.88510  -23.08480   72.86950
 7000.00000    -999.25    -999.25    -999.25   78.12500    2.02170    2.11520    2.67680  -21.26450   60.54820
 7050.00000    -999.25    -999.25    -999.25   78.01130    2.10420    2.20730    2.84370  -21.19170   72.09400
 7100.00000    -999.25    -999.25    -999.25   74.38270    2.42860    2.54280    3.38800  -20.54300   57.34120
 7150.00000    -999.25    -999.25    -999.25   81.89240    1.68910    1.84510    2.48320  -21.77070   44.50940
 7200.00000    -999.25    -999.25    -999.25   83.91190    1.52530    1.63120    2.39220  -25.03880   51.69740
 7250.00000    -999.25    -999.25    -999.25   83.54230    1.59970    1.66240    2.27350  -24.85890   52.74940
 7300.00000    -999.25    -999.25    -999.25   78.14610    2.02720    2.17900    2.97520  -20.07450   55.74490
 7350.00000    -999.25    -999.25    -999.25   76.71340    2.27130    2.51410    3.43420  -22.12180   58.67060
