~Version ---------------------------------------------------
VERS.      2.0 : CWLS log ASCII Standard -VERSION 2.0
WRAP.      YES : Multiple lines per depth step
CREA. 07/19/18 : LAS Creation Date
~Well ------------------------------------------------------
STRT.FT                           3800.0 : START DEPTH
STOP.FT                          13600.0 : STOP DEPTH
STEP.FT                         50.00000 : STEP LENGTH
NULL.                            -999.25 : NULL VALUE
COMP. TEXSTAR NORTH AMERICA INCORPORATED : COMPANY
WELL.                  BERRY GAS UNIT #1 : WELL
FLD .                 SW KENEDY PROSPECT : FIELD
LOC .                                    : LOCATION
CNTY.                             KARNES : COUNTY
STAT.                              TEXAS : STATE
CTRY.           UNITED STATES OF AMERICA : COUNTRY
SRVC.                       Schlumberger : SERVICE COMPANY
DATE.                        16-Mar-1988 : LOGDATE
API .                     42255311960000 : API NUMBER
UWI .                     42255311960000 : UNIQUE WELL ID
SLAT.WGS84                 28.7645998907 : SURFACE LATITUDE
SLON.WGS84                -97.8956197689 : SURFACE LONGITUDE
~Curve Information -----------------------------------------
DEPT    .FT    : DEPTH FEET
CALWS   .IN    : CALIPER [DCALDED+BIT]
CONDWS  .MMHO  : DEEP CONDUCTIVITY [1000/DRESWS]
DCALDED .IN    : DIFFERENTIAL CALIPER FROM LDT-CNT LOG [DSH. TO RESISTIVITY]
DCORWS  .G/C3  : DENSITY CORRECTION [DRHOED]
DENWS   .G/C3  : BULK DENSITY [CALC. FROM DPOLSWS]
DPHILSED.V/V   : DENSITY POROSITY (LS) [M=2.71 F=1.00] FROM LDT-CNT LOG [DSH. TO RESISTIVITY]
DPOLSWS .V/V   : DENSITY POROSITY (LS) [M=2.71 F=1.00] [DPHILSED]
DRESWS  .OHMM  : DEEP RESISTIVITY [ILDED]
DRHOED  .G/C3  : DENSITY CORRECTION FROM LDT-CNT LOG [DSH. TO RESISTIVITY]
DTED    .US/F  : DELTA TIME FROM DISFL-SONIC LOG [DSH. TO RES LOG]
DTLED   .US/F  : DELTA TIME LONG SPACING FROM DISFL-SONIC LOG [DSH. TO RESISTIVITY]
DTWS    .US/F  : DELTA TIME COMPRESSIONAL [DTED]
GRDED   .GAPI  : GAMMA RAY FROM LDT-CNT LOG [DSH. TO RESISTIVITY]
GRRED   .GAPI  : GAMMA RAY FROM DISFL-SONIC LOG [DSH. TO RESISTIVITY]
GRWS    .GAPI  : GAMMA RAY [GRRED]
ILDED   .OHMM  : DEEP INDUCTION RESISTIVITY
ILMED   .OHMM  : MEDIUM INDUCTION RESISTIVITY
MRESWS  .OHMM  : MEDIUM RESISTIVITY [ILMED]
NPHILSED.V/V   : NEUTRON POROSITY LIMESTONE FROM LDT-CNT LOG [DSH. TO RESISTIVITY]
NPOLSWS .V/V   : NEUTRON POROSITY LIMESTONE [NPHILSED]
PEFED   .B/E   : PHOTOELECTRIC FACTOR FROM LDT-CNT LOG [DSH. TO RESISTIVITY]
PEFWS   .B/E   : PHOTOELECTRIC FACTOR [PEFED]
SFLUED  .OHMM  : SPHERICALLY FOCUSED LOG RESISTIVITY
SPHILSED.V/V   : SONIC POROSITY (LS) FROM DISFL-SONIC LOG [DSH. TO RESISTIVITY]
SPOLSWS .V/V   : SONIC POROSITY (LS) [SPHILSED]
SPRED   .MV    : SPONTANEOUS POTENTIAL FROM DISFL-SONIC LOG
SPWS    .MV    : SPONTANEOUS POTENTIAL [BASELINE 0 MV] [SPRED]
SRESWS  .OHMM  : SHALLOW RESISTIVITY [SFLUED]
TENDED  .LBF   : TENSION FROM LDT-CNT LOG [DSH. TO RES LOG]
TENRED  .LBF   : TENSION FROM DISFL-SONIC LOG
~Params ----------------------------------------------------
PD  .                     GL : PERMANENT DATUM
EPD .FT                399.7 : ELEVATION PERMANENT DATUM
LMF .                     KB : LOG MEASURED FROM
DAPD.FT                   13 : FEET ABOVE PERMANENT DATUM
DMF .                     KB : DRILLING MEASURED FROM
EKB .FT                412.7 : KELLY BUSHING
EDF .FT                411.7 : DRILLING FLOOR
EGL .FT                399.7 : GROUND LEVEL
DATE.               03/16/88 : RUN DATE
RUN .                      1 : RUN NUMBER
DD  .FT                13841 : DEPTH DRILLER
DL  .FT                13632 : DEPTH LOGGER
BLI .FT                13626 : BOTTOM LOG INTERVAL
TLI .FT                 3814 : TOP LOG INTERVAL
CS  .IN                8.625 : CASING SIZE
CBD .FT                 3815 : CASING BOTTOM DRILLER
CBL .FT                 3814 : CASING BOTTOM LOGGER
BS  .IN                  8.5 : BIT SIZE
BSD .FT                13841 : BIT SIZE AT DEPTH
DFT .              DURA HOLE : DRILLING FLUID TYPE
DFD .                   11.1 : DRILLING FLUID DENSITY
DFV .                     46 : DRILLING FLUID VISCOSITY
DFPH.                   10.5 : DRILLING FLUID PH
DFL .                      6 : DRILLING FLUID LOSS
MSS .               MUD TNAK : MUD SAMPLE SOURCE
RMS .OHMM              0.601 : RESISTIVITY MUD SAMPLE
MST .DEGF                110 : MUD SAMPLE TEMPERATURE
RMF .OHMM               0.81 : RESISTIVITY MUD FILTRATE SAMPLE
MFST.DEGF                 89 : MUD FILTRATE SAMPLE TEMPERATURE
RMC .OHMM                0.9 : RESISTIVITY MUD CAKE
MCST.DEGF                110 : MUD CAKE SAMPLE TEMPERATURE
MFSS.                   MEAS : MUD FILTRATE SAMPLE SOURCE
MCSS.                   CALC : MUD CAKE SAMPLE SOURCE
RMB .OHMM              0.236 : RESISTIVITY MUD AT BHT
TCS .HRS                2100 : TIME CIRCULATED STOPPED
TLAB.HRS                 612 : TIME LOGGER AT BOTTOM
LUN .                   8268 : LOGGING UNIT NUMBER
LUL .             PLEASANTON : LOGGING UNIT LOCATION
ENGI.                  WILKE : RECORDING ENGINEER
WITN.  REQUAETH  NOVAK GIBBS : WITNESSED BY
CLNT.                A2DTECH : CLIENT CODE
ORIG.               5" PRINT : ORIGIN OF DATA
UWI .         42255311960000 : UNIQUE WELL ID
DICO. A2D Technologies, Inc. : DIGITIZING COMPANY
~Other -----------------------------------------------------
GRDED GAPS 12180-12250' DUE TO STICKING TOOL.
LDT-CNT PULLED TIGHT AT SEVERAL DEPTHS FROM AROUND 13000' UP. THIS MAY AFFECT LOG QUALITY.
~ASCII -----------------------------------------------------
# ...
 6200.00000    -999.25  728.22600    -999.25    -999.25    -999.25    -999.25    -999.25    1.37320    -999.25   89.27710    -999.25   89.27710    -999.25   44.48330   44.48330    1.37320    1.78540    1.78540    -999.25    -999.25    -999.25    -999.25    2.57640    0.27020    0.27020  -61.90930  -48.42540    2.57640    -999.25 2312.53320
 6250.00000    -999.25  925.15500    -999.25    -999.25    -999.25    -999.25    -999.25    1.08090    -999.25   87.44350    -999.25   87.44350    -999.25   51.58530   51.58530    1.08090    1.42460    1.42460    -999.25    -999.25    -999.25    -999.25    1.68580    0.26120    0.26120  -73.78270  -61.11630    1.68580    -999.25 2272.82520
 6300.00000    -999.25  645.28620    -999.25    -999.25    -999.25    -999.25    -999.25    1.54970    -999.25   88.40510    -999.25   88.40510    -999.25   62.97780   62.97780    1.54970    1.87270    1.87270    -999.25    -999.25    -999.25    -999.25    2.38810    0.26300    0.26300  -52.68220  -40.83330    2.38810    -999.25 2240.59620
 6350.00000    -999.25  821.28780    -999.25    -999.25    -999.25    -999.25    -999.25    1.21760    -999.25   89.48090    -999.25   89.48090    -999.25   56.28580   56.28580    1.21760    1.64480    1.64480    -999.25    -999.25    -999.25    -999.25    1.77350    0.26680    0.26680  -70.95960  -59.92820    1.77350    -999.25 2188.26440
 6400.00000    -999.25  543.33060    -999.25    -999.25    -999.25    -999.25    -999.25    1.84050    -999.25   73.41000    -999.25   73.41000    -999.25   53.63400   53.63400    1.84050    2.35220    2.35220    -999.25    -999.25    -999.25    -999.25    3.07860    0.22320    0.22320  -49.23260  -39.01860    3.07860    -999.25 2336.89750
 6450.00000    -999.25  402.93340    -999.25    -999.25    -999.25    -999.25    -999.25    2.48180    -999.25   87.22780    -999.25   87.22780    -999.25   92.08730   92.08730    2.48180    2.96340    2.96340    -999.25    -999.25    -999.25    -999.25    3.78890    0.25910    0.25910  -60.43160  -50.22160    3.78890    -999.25 2344.73410
 6500.00000    -999.25  528.93260    -999.25    -999.25    -999.25    -999.25    -999.25    1.89060    -999.25   82.33840    -999.25   82.33840    -999.25   72.33730   72.33730    1.89060    2.35050    2.35050    -999.25    -999.25    -999.25    -999.25    3.34020    0.23410    0.23410  -38.26380  -27.58010    3.34020    -999.25 2321.31470
 6550.00000    -999.25 1036.48420    -999.25    -999.25    -999.25    -999.25    -999.25    0.96480    -999.25   88.41410    -999.25   88.41410    -999.25   46.35520   46.35520    0.96480    1.09280    1.09280    -999.25    -999.25    -999.25    -999.25    1.73960    0.26150    0.26150  -72.19020  -65.68460    1.73960    -999.25 2308.23630
 6600.00000    -999.25  863.48330    -999.25    -999.25    -999.25    -999.25    -999.25    1.15810    -999.25   86.58050    -999.25   86.58050    -999.25   49.98260   49.98260    1.15810    1.43190    1.43190    -999.25    -999.25    -999.25    -999.25    2.52010    0.25810    0.25810  -59.30980  -57.07720    2.52010    -999.25 2359.22000
 6650.00000    -999.25  769.76370    -999.25    -999.25    -999.25    -999.25    -999.25    1.29910    -999.25   80.41520    -999.25   80.41520    -999.25   78.42640   78.42640    1.29910    1.40860    1.40860    -999.25    -999.25    -999.25    -999.25    2.06800    0.22790    0.22790  -24.16980  -26.21020    2.06800    -999.25 2337.50320
 6700.00000    -999.25  408.64700    -999.25    -999.25    -999.25    -999.25    -999.25    2.44710    -999.25   79.75120    -999.25   79.75120    -999.25   87.74790   87.74790    2.44710    2.51710    2.51710    -999.25    -999.25    -999.25    -999.25    3.20410    0.21270    0.21270  -11.09120   -6.01890    3.20410    -999.25 2418.47950
 6750.00000    -999.25  468.91120    -999.25    -999.25    -999.25    -999.25    -999.25    2.13260    -999.25   75.62710    -999.25   75.62710    -999.25   85.23420   85.23420    2.13260    2.09540    2.09540    -999.25    -999.25    -999.25    -999.25    2.70680    0.19930    0.19930  -18.13570  -13.08310    2.70680    -999.25 2481.53100
 6800.00000    -999.25  570.93920    -999.25    -999.25    -999.25    -999.25    -999.25    1.75150    -999.25   84.62980    -999.25   84.62980    -999.25   95.82370   95.82370    1.75150    1.66300    1.66300    -999.25    -999.25    -999.25    -999.25    2.37080    0.24490    0.24490  -12.26450   -4.17700    2.37080    -999.25 2484.07790
 6850.00000    -999.25  460.89320    -999.25    -999.25    -999.25    -999.25    -999.25    2.16970    -999.25   79.51980    -999.25   79.51980    -999.25   91.18080   91.18080    2.16970    2.18280    2.18280    -999.25    -999.25    -999.25    -999.25    3.19770    0.21810    0.21810  -16.20210   -8.57170    3.19770    -999.25 2415.87940
 6900.00000    -999.25  717.30870    -999.25    -999.25    -999.25    -999.25    -999.25    1.39410    -999.25   90.39860    -999.25   90.39860    -999.25   94.54670   94.54670    1.39410    1.34770    1.34770    -999.25    -999.25    -999.25    -999.25    1.67460    0.27070    0.27070  -10.83970   -9.56080    1.67460    -999.25 2493.25000
 6950.00000    -999.25  409.04810    -999.25    -999.25    -999.25    -999.25    -999.25    2.44470    -999.25   76.06860    -999.25   76.06860    -999.25   89.67550   89.67550    2.44470    2.60360    2.60360    -999.25    -999.25    -999.25    -999.25    3.85020    0.20480    0.20480  -27.89470  -31.80270    3.85020    -999.25 2468.49270
 7000.00000    -999.25  111.92320    -999.25    -999.25    -999.25    -999.25    -999.25    8.93470    -999.25   64.20620    -999.25   64.20620    -999.25   46.48030   46.48030    8.93470   12.26830   12.26830    -999.25    -999.25    -999.25    -999.25   36.25310    0.11560    0.11560  -31.55580  -35.12880   36.25310    -999.25 2517.45460
 7050.00000    -999.25  737.62630    -999.25    -999.25    -999.25    -999.25    -999.25    1.35570    -999.25   80.32340    -999.25   80.32340    -999.25   43.69610   43.69610    1.35570    1.91020    1.91020    -999.25    -999.25    -999.25    -999.25    3.70390    0.23240    0.23240  -61.51260  -62.91420    3.70390    -999.25 2524.31840
 7100.00000    -999.25  270.69460    -999.25    -999.25    -999.25    -999.25    -999.25    3.69420    -999.25   70.20270    -999.25   70.20270    -999.25   70.99990   70.99990    3.69420    4.14420    4.14420    -999.25    -999.25    -999.25    -999.25    8.96350    0.17080    0.17080  -13.21200  -12.48010    8.96350    -999.25 2518.15260
 7150.00000    -999.25  545.73240    -999.25    -999.25    -999.25    -999.25    -999.25    1.83240    -999.25   81.58160    -999.25   81.58160    -999.25   75.19530   75.19530    1.83240    2.53940    2.53940    -999.25    -999.25    -999.25    -999.25    4.47610    0.23380    0.23380  -57.61490  -55.05660    4.47610    -999.25 2531.03880
 7200.00000    -999.25  437.73250    -999.25    -999.25    -999.25    -999.25    -999.25    2.28450    -999.25   91.39470    -999.25   91.39470    -999.25   88.03780   88.03780    2.28450    2.21460    2.21460    -999.25    -999.25    -999.25    -999.25    2.59860    0.27040    0.27040  -13.19530   -8.81060    2.59860    -999.25 2616.36300
 7250.00000    -999.25  598.26500    -999.25    -999.25    -999.25    -999.25    -999.25    1.67150    -999.25   88.82380    -999.25   88.82380    -999.25   93.29560   93.29560    1.67150    1.61360    1.61360    -999.25    -999.25    -999.25    -999.25    1.96410    0.25910    0.25910   -8.90460   -5.14120    1.96410    -999.25 2655.61960
 7300.00000    -999.25  484.82500    -999.25    -999.25    -999.25    -999.25    -999.25    2.06260    -999.25   92.83450    -999.25   92.83450    -999.25   90.14870   90.14870    2.06260    2.02310    2.02310    -999.25    -999.25    -999.25    -999.25    2.24640    0.28050    0.28050   -8.35990   -5.29360    2.24640    -999.25 2649.27390
 7350.00000    -999.25  475.17220    -999.25    -999.25    -999.25    -999.25    -999.25    2.10450    -999.25   87.51590    -999.25   87.51590    -999.25   94.10060   94.10060    2.10450    2.01570    2.01570    -999.25    -999.25    -999.25    -999.25    2.61190    0.25170    0.25170   -9.01280   -6.64360    2.61190    -999.25 2577.14430
