~Version ---------------------------------------------------
VERS. 2.0 : CWLS log ASCII Standard -VERSION 2.0
WRAP. YES : Multiple lines per depth step
~Well ------------------------------------------------------
STRT.FT                    300.0 : START DEPTH
STOP.FT                  19600.0 : STOP DEPTH
STEP.FT                 50.00000 : STEP LENGTH
NULL.                    -999.25 : NULL VALUE
COMP. CITIES SERVICE OIL COMPANY : COMPANY
WELL.          PEELER RANCH A #1 : WELL
FLD .                    WILDCAT : FIELD
LOC .                            : LOCATION
CNTY.                   ATASCOSA : COUNTY
STAT.                      TEXAS : STATE
CTRY.   UNITED STATES OF AMERICA : COUNTRY
SRVC.               Schlumberger : SERVICE COMPANY
DATE.                12-Feb-1972 : LOGDATE
API .             42013301410000 : API NUMBER
UWI .             42013301410000 : UNIQUE WELL ID
SLAT.WGS84         28.6903618688 : SURFACE LATITUDE
SLON.WGS84        -98.4697337546 : SURFACE LONGITUDE
~Curve Information -----------------------------------------
DEPT  .FT    : DEPTH
ALL8ED.OHMM  : LATEROLOG-8 RESISTIVITY AMPLIFIED
ASNED .OHMM  : AMPLIFIED SHORT NORMAL 16 IN.
CALWS .IN    : CALIPER (CALSED)
CALSED.IN    : CALIPER FROM SONIC LOG (ADJ TO RES.)
CILDED.MMHO  : CONDUCTIVITY FROM LOG
CONDWS.MMHO  : CONDUCTIVITY (1000/DRESws)
DCORWS.G/C3  : DENSITY CORRECTION (DRHOED)
DENWS .G/C3  : BULK DENSITY  (RHOBED LS)
DPOWS .V/V   : DENSITY POROSITY (M=2.71 F=1 FROM DENws)
DRESWS.OHMM  : DEEP RESISTIVITY (IF ILDED<1, THEN 1000/CILDED)
DRHOED.G/C3  : DENSITY CORRECTION (ADJ TO RES.)
DTED  .US/F  : DELTA TIME  (ADJ TO RES.)
DTWS  .US/F  : DELTA TIME  (DTED)
GRDED .GAPI  : GAMMA RAY FROM DENSITY LOG (ADJ TO RES.)
GRWS  .GAPI  : GAMMA RAY (GRSED/GRDED @ 8498)
GRSED .GAPI  : GAMMA RAY FROM SONIC LOG (ADJ TO RES.)
ILDED .OHMM  : DEEP INDUCTION RESISTIVITY
NEUTED.CU    : NEUTRON FROM GAMMA RAY NEUTRON LOG (ADJ TO RES.)
NEUTWS.CU    : NEUTRON FROM GAMMA RAY NEUTRON LOG (NEUTED)
NPOWS .V/V   : NEUTRON POROSITY LIMESTONE (SNPED)
RHOBED.G/C3  : BULK DENSITY (ADJ TO RES.)
SNPED .V/V   : SIDEWALL NEUTRON POROSITY (ADJ TO RES.)
SPWS  .MV    : SPONTANEOUS POTENTIAL BASELINE 0 MV (SPRED)
SPRED .MMHO  : SPONTANEOUS POTENTIAL FROM RESISTIVITY
SRESWS.OHMM  : SHALLOW RESISTIVITY (ASNED/ALL8ED @ 12329)
~Params ----------------------------------------------------
PD  .                     GL : PERMANENT DATUM
EPD .F                   297 : ELEVATION PERMANENT DATUM
LMF .                     KB : LOG MEASURED FROM
DAPD.F                  30.5 : FEET ABOVE PERMANENT DATUM
DMF .                     KB : DRILLING MEASURED FROM
EKB .F                 327.5 : KELLING BUSHING
EDF .F                 326.5 : DRILLING FLOOR
EGL .F                   297 : GROUND LEVEL
DATE.             02-12-1972 : RUN DATE
RUN .                      9 : RUN NUMBER
DD  .F                 19629 : DEPTH DRILLER
DL  .F                 19635 : DEPTH LOGGER
BLI .F                 19628 : BOTTOM LOG INTERVAL
TLI .F                 19127 : TOP LOG INTERVAL
BS  .IN                  4.4 : BIT SIZE
BSD .F                 19629 : BIT SIZE AT DEPTH
DFT .       INVERMUL 43% OIL : DRILLING FLUID TYPE
DFD .                   19.1 : DRILLING FLUID DENSITY
DFV .                     88 : DRILLING FLUID VISCOSITY
TCS .HRS                  12 : TIME CURCULATED STOPPED
LUN .                   7504 : LOGGING UNIT NUMBER
LUL .                  PLEAS : LOGGING UNIT LOCATION
ENGI.               CLEMENTS : RECORDING ENGINEER
WITN.         GRIGSBY THOMAS : WITNESSED BY
CLNT.                A2DTECH : CLIENT CODE
ORIG.            2" 5" PRINT : ORIGIN OF DATA
UWI .         42013301410000 : UNIQUE WELL ID
DICO. A2D Technologies, Inc. : DIGITIZING COMPANY
~Other -----------------------------------------------------
~ASCII -----------------------------------------------------
# ...
 12900.00000   20.74300    -999.25   13.77300   13.77300   51.17350   43.71050   -0.01590    2.67010    0.02330   22.87780   -0.01590   48.13100   48.13100   21.10000   21.10000    -999.25   22.87780    -999.25    -999.25    0.00350    2.67010    0.00350  -29.96680  -42.07260   20.74300
 12950.00000   22.56200    -999.25   13.84600   13.84600   33.06770   30.99790   -0.00680    2.68020    0.01740   32.26030   -0.00680   48.72800   48.72800   25.36700   25.36700    -999.25   32.26030    -999.25    -999.25    0.02010    2.68020    0.02010  -23.77340  -35.97560   22.56200
 13000.00000   17.20220    -999.25   13.84500   13.84500   25.07510   14.46950   -0.00990    2.68940    0.01200   69.11070   -0.00990   47.49500   47.49500   24.62600   24.62600    -999.25   69.11070    -999.25    -999.25    0.00350    2.68940    0.00350  -29.80300  -42.10160   17.20220
 13050.00000   12.29870    -999.25   13.83400   13.83400  126.29480   94.00700    0.00680    2.69930    0.00630   10.63750    0.00680   54.25400   54.25400   24.25800   24.25800    -999.25   10.63750    -999.25    -999.25    0.04640    2.69930    0.04640  -53.30600  -65.70100   12.29870
 13100.00000   13.67930    -999.25   13.87500   13.87500   42.82870   40.88090   -0.01320    2.70390    0.00360   24.46130   -0.01320   48.50100   48.50100   17.24300   17.24300    -999.25   24.46130    -999.25    -999.25   -0.01210    2.70390   -0.01210  -53.20950  -65.70100   13.67930
 13150.00000    4.52800    -999.25   13.95800   13.95800   73.13000  132.32760    0.00920    2.25950    0.26350    7.55700    0.00920   54.57300   54.57300   19.62100   19.62100    -999.25    7.55700    -999.25    -999.25    0.30000    2.25950    0.30000  -59.36330  -71.95120    4.52800
 13200.00000    8.12130    -999.25   13.72500   13.72500   42.56310   38.27630    0.03610    2.50150    0.12190   26.12580    0.03610   49.80100   49.80100   29.24100   29.24100    -999.25   26.12580    -999.25    -999.25    0.07800    2.50150    0.07800  -52.17780  -64.86210    8.12130
 13250.00000    9.85300    -999.25   13.99800   13.99800   39.84060   71.75300    0.06160    2.51620    0.11330   13.93670    0.06160   50.08000   50.08000   27.40800   27.40800    -999.25   13.93670    -999.25    -999.25    0.10770    2.51620    0.10770  -49.94800  -62.72870    9.85300
 13300.00000   12.78400    -999.25   13.56100   13.56100   98.40640   72.23090   -0.01620    2.77970   -0.04080   13.84450   -0.01620   51.15300   51.15300   17.21800   17.21800    -999.25   13.84450    -999.25    -999.25    0.06570    2.77970    0.06570  -57.19470  -70.07180   12.78400
 13350.00000   62.70180    -999.25   14.03700   14.03700   25.49800   15.49010    0.01930    2.32430    0.22560   64.55750    0.01930   50.91500   50.91500   18.30200   18.30200    -999.25   64.55750    -999.25    -999.25    0.09070    2.32430    0.09070  -35.42590  -48.39940   62.70180
 13400.00000   12.69650    -999.25   13.96500   13.96500   38.67690   40.78050    0.01940    2.57580    0.07850   24.52150    0.01940   49.48300   49.48300   18.74400   18.74400    -999.25   24.52150    -999.25    -999.25    0.10280    2.57580    0.10280  -52.34550  -65.41550   12.69650
 13450.00000   31.86330    -999.25   13.99800   13.99800   29.83620   29.17320   -0.00060    2.69970    0.00600   34.27800   -0.00060   53.74300   53.74300   26.53500   26.53500    -999.25   34.27800    -999.25    -999.25    0.00540    2.69970    0.00540  -31.70150  -44.86790   31.86330
 13500.00000   26.78400    -999.25   13.94900   13.94900   22.47010   16.32380   -0.00860    2.70730    0.00160   61.26030   -0.00860   49.28400   49.28400   20.46900   20.46900    -999.25   61.26030    -999.25    -999.25   -0.00180    2.70730   -0.00180  -25.86320  -39.12600   26.78400
 13550.00000   19.93030    -999.25   13.95900   13.95900   17.39710   13.86870   -0.00220    2.73370   -0.01390   72.10480   -0.00220   52.02800   52.02800   28.49000   28.49000    -999.25   72.10480    -999.25    -999.25    0.01790    2.73370    0.01790  -31.91520  -45.27440   19.93030
 13600.00000   21.21830    -999.25   13.89300   13.89300   37.83670   40.54410   -0.01300    2.64260    0.03940   24.66450   -0.01300   48.41000   48.41000   20.04500   20.04500    -999.25   24.66450    -999.25    -999.25    0.00770    2.64260    0.00770  -39.93710  -53.39270   21.21830
 13650.00000   19.41180    -999.25   13.72100   13.72100   41.16870   35.56310   -0.00760    2.78610   -0.04450   28.11900   -0.00760   47.49500   47.49500   19.44900   19.44900    -999.25   28.11900    -999.25    -999.25    0.01650    2.78610    0.01650  -51.08210  -64.63410   19.41180
 13700.00000   13.66880    -999.25   13.56300   13.56300   40.01990   31.72510   -0.00090    2.65000    0.03510   31.52080   -0.00090   48.80700   48.80700   26.40500   26.40500    -999.25   31.52080    -999.25    -999.25    0.00450    2.65000    0.00450  -46.71730  -60.36580   13.66880
 13750.00000   16.74930    -999.25   13.44100   13.44100   60.95620   55.99950    0.03460    2.68420    0.01510   17.85730    0.03460   51.82900   51.82900   28.93800   28.93800    -999.25   17.85730    -999.25    -999.25    0.05420    2.68420    0.05420  -40.82830  -54.57320   16.74930
 13800.00000   20.13930    -999.25   13.87300   13.87300   49.00400   38.10660    0.00910    2.67030    0.02320   26.24220    0.00910   54.73200   54.73200   40.79300   40.79300    -999.25   26.24220    -999.25    -999.25    0.03440    2.67030    0.03440  -16.84940  -30.69070   20.13930
 13850.00000   12.07430    -999.25   13.61500   13.61500   61.83270   88.23170    0.00030    2.74020   -0.01770   11.33380    0.00030   50.95400   50.95400   26.07000   26.07000    -999.25   11.33380    -999.25    -999.25    0.05400    2.74020    0.05400  -39.26350  -53.20120   12.07430
 13900.00000   20.20120    -999.25   13.60000   13.60000   37.06460   40.12490   -0.01390    2.70410    0.00350   24.92220   -0.01390   49.96000   49.96000   16.20200   16.20200    -999.25   24.92220    -999.25    -999.25    0.00800    2.70410    0.00800  -43.58790  -57.62200   20.20120
 13950.00000   11.37770    -999.25   13.61800   13.61800  105.65420  115.86140    0.03830    2.58620    0.07240    8.63100    0.03830   51.78900   51.78900   17.80700   17.80700    -999.25    8.63100    -999.25    -999.25    0.12040    2.58620    0.12040  -49.99500  -64.12560   11.37770
 14000.00000   21.43980    -999.25   13.68500   13.68500   51.63500   51.93540    0.01000    2.55450    0.09090   19.25470    0.01000   47.77300   47.77300   26.95000   26.95000    -999.25   19.25470    -999.25    -999.25    0.06200    2.55450    0.06200  -38.23410  -52.46110   21.43980
 14050.00000   22.04320    -999.25   13.36900   13.36900   54.56080   44.44740   -0.01240    2.74260   -0.01910   22.49850   -0.01240   48.52900   48.52900   21.51600   21.51600    -999.25   22.49850    -999.25    -999.25    0.04840    2.74260    0.04840  -34.99060  -49.31400   22.04320
 14100.00000   24.76300    -999.25   13.84500   13.84500   30.98010   32.74750   -0.00080    2.70490    0.00300   30.53670   -0.00080   48.80700   48.80700   23.86700   23.86700    -999.25   30.53670    -999.25    -999.25    0.12870    2.70490    0.12870  -41.52530  -55.94510   24.76300
 14150.00000   13.10820    -999.25   13.45600   13.45600  111.55380   90.49200   -0.00300    2.72640   -0.00960   11.05070   -0.00300   53.16200   53.16200   27.64300   27.64300    -999.25   11.05070    -999.25    -999.25    0.08900    2.72640    0.08900  -37.84660  -52.36280   13.10820
 14200.00000   15.49530    -999.25   13.64800   13.64800   39.96590   35.19110    0.01070    2.69110    0.01110   28.41630    0.01070   47.82200   47.82200   26.68200   26.68200    -999.25   28.41630    -999.25    -999.25    0.03870    2.69110    0.03870  -31.50850  -46.12120   15.49530
 14250.00000   41.02250    -999.25   13.65400   13.65400   25.79680   23.29400   -0.00670    2.67950    0.01780   42.92950   -0.00670   48.88900   48.88900   22.10100   22.10100    -999.25   42.92950    -999.25    -999.25    0.00820    2.67950    0.00820  -32.24210  -46.95120   41.02250
