~Version ---------------------------------------------------
VERS. 2.0 : CWLS log ASCII Standard -VERSION 2.0
WRAP. YES : Multiple lines per depth step
~Well ------------------------------------------------------
STRT.FT                   3400.0 : START DEPTH
STOP.FT                  16600.0 : STOP DEPTH
STEP.FT                 50.00000 : STEP LENGTH
NULL.                    -999.25 : NULL VALUE
COMP. CHAMPLIN PETROLEUM COMPANY : COMPANY
WELL.      CHARLES C. CHARTER #1 : WELL
FLD .                    WILDCAT : FIELD
LOC .                            : LOCATION
CNTY.                     BRAZOS : COUNTY
STAT.                      TEXAS : STATE
CTRY.   UNITED STATES OF AMERICA : COUNTRY
SRVC.                            : SERVICE COMPANY
DATE.                            : LOGDATE
API .             42041304470000 : API NUMBER
UWI .             42041304470000 : UNIQUE WELL ID
SLAT.WGS84         30.8464717491 : SURFACE LATITUDE
SLON.WGS84        -96.3676910928 : SURFACE LONGITUDE
~Curve Information -----------------------------------------
DEPT  .FT    : DEPTH
CALDED.IN    : CALIPER FROM DENSITY LOG
CALWS .IN    : CALIPER [CALDED]
CONDWS.MMHO  : CONDUCTIVITY [1000/DRESWS]
DCORWS.G/C3  : DENSITY CORRECTION [DRHOED]
DENWS .G/C3  : BULK DENSITY [RHOBED]
DPOWS .V/V   : DENSITY POROSITY [3434 M=2.71 F=1.0, 11632 M=2.65 F=1.0, 15400 M=2.71 F=1.0] [CALCULATED FROM RHOBED]
DRESWS.OHMM  : DEEP RESISTIVITY [ILDED]
DRHOED.G/C3  : DENSITY CORRECTION FROM DENSITY LOG
DTED  .US/F  : DELTA TIME FROM SONIC LOG
DTWS  .US/F  : DELTA TIME [DTED]
GRDED .GAPI  : GAMMA RAY FROM DENSITY LOG
GRRED .GAPI  : GAMMA RAY FROM RESISTIVITY LOG
GRWS  .GAPI  : GAMMA RAY [GRDED]
ILDED .OHMM  : INDUCTION LOG DEEP RESISTIVITY
ILMED .OHMM  : INDUCTION LOG MEDIUM RESISTIVITY
MRESWS.OHMM  : MEDIUM RESISTIVITY [ILMED]
NPHIED.V/V   : NEUTRON POROSITY 3434 LIMESTONE 11632 SANDSTONE 15400 LIMESTONE FROM DENSITY LOG
NPOWS .V/V   : NEUTRON POROSITY 3434 LIMESTONE 11632 SANDSTONE 15400 LIMESTONE [NPHIED]
RHOBED.G/C3  : BULK DENSITY FROM DENSITY LOG
SFLED .OHMM  : SPHERICALLY FOCUSED LOG RESISTIVITY
SPED  .MV    : SPONTANEOUS POTENTIAL [BASELINE 0 MV] FROM RESISTIVITY LOG
SPWS  .MV    : SPONTANEOUS POTENTIAL [SPED]
SRESWS.OHMM  : SHALLOW RESISTIVITY [SFLED]
~Params ----------------------------------------------------
EKB .F                 368.0 : Kelly bushing
EGL .F                 346.0 : Ground level
EDF .F                 367.0 : Drilling floor
EPD .F                 346.0 : Permanent datum
TD  .F               16600.0 : Total depth
DATE.            01-OCT-1979 : DATE LOGGED
CLNT.                A2DTECH : CLIENT CODE
SL  . 100' FSEL & 3100' FNEL : SURFACE LOCATION
PD  .                     GL : PERMANENT DATUM
LMF .                     KB : LOG MEASURED FROM
DMF .                     KB : DRILLING MEASURED FROM
DAPD.F                    22 : FEET ABOVE PERMANENT DATUM
DD  .F                 16600 : DEPTH DRILLER
DL  .F                 16600 : DEPTH LOGGER
BLI .F                 16593 : BOTTOM LOG INTERVAL
TLI .F                 10338 : TOP LOG INTERVAL
CS1 .IN                9.625 : CASING SIZE
CBD1.        9.625" @ 10324' : CASING DRILLER 1
CBL1.F                 10338 : CASING LOGGER 1
BS1 .IN                  8.5 : BIT SIZE
BSD1.F                 16600 : DEPTH DRILLED WITH BIT1
DFT .             SPER XP-20 : TYPE FLUID IN HOLE
DFD .                   12.2 : DENSITY
DFV .                     47 : VISCOSITY
DFPH.                   10.5 : PH
DFL .                    5.3 : FLUID LOSS
MSS .                    PIT : SOURCE OF SAMPLE
RMS .OHMM               0.21 : RM
RMF .OHMM               0.16 : RMF
RMC .OHMM               0.32 : RMC
MFSS.                   CALC : SOURCE RMF.
MCSS.                   CALC : SOURCE RMC.
RMB .OHMM               0.04 : RM. AT BHT
BHT .F                   334 : BHT.
TCS .HRS                 600 : TIME CIRC. STOPPED
TLAB.HRS                 530 : TIME LOGGER AT BOTTOM
LUN .                   8101 : LOGGING UNIT NUMBER
LUL .                BRENHAM : LOGGING UNIT LOCATION
ENGI.                   EAST : RECORDED BY
WITN.           LANNY CRAMER : WITNESSED BY
ORIG.               5" PRINT : ORIGIN OF DATA
UWI .         42041304470000 : UNIQUE WELL ID
DICO. A2D TECHNOLOGIES, INC. : DIGITIZING COMPANY
~Other -----------------------------------------------------
~ASCII -----------------------------------------------------
# ...
 11150.00000   13.16300   13.16300   83.44460   -0.00400    2.68300    0.01580   11.98400   -0.00400   54.83800   54.83800   36.80700   31.01300   36.80700   11.98400   10.96700   10.96700    0.01000    0.01000    2.68300   27.68900  -70.82120  -70.82120   27.68900
 11200.00000   13.19500   13.19500  139.89930    0.00200    2.65700    0.03100    7.14800    0.00200   58.72300   58.72300   54.77500   47.54800   54.77500    7.14800    5.88100    5.88100    0.03400    0.03400    2.65700   13.19100  -43.37640  -43.37640   13.19100
 11250.00000   13.12200   13.12200   35.64550   -0.00900    2.68600    0.01400   28.05400   -0.00900   50.06700   50.06700   32.10600   26.81700   32.10600   28.05400   22.66400   22.66400   -0.00400   -0.00400    2.68600   69.01300  -70.89760  -70.89760   69.01300
 11300.00000   13.22100   13.22100  134.26420   -0.00600    2.65100    0.03450    7.44800   -0.00600   57.53800   57.53800   43.72100   36.20600   43.72100    7.44800    8.19500    8.19500    0.02600    0.02600    2.65100   27.56900  -27.63780  -27.63780   27.56900
 11350.00000   13.18700   13.18700   49.54420   -0.01200    2.66600    0.02570   20.18400   -0.01200   53.94900   53.94900   64.09100   52.82700   64.09100   20.18400   12.29300   12.29300    0.01200    0.01200    2.66600   33.51700  -57.72300  -57.72300   33.51700
 11400.00000   13.18300   13.18300   72.08770   -0.00700    2.68000    0.01750   13.87200   -0.00700   53.99900   53.99900   40.13600   32.44600   40.13600   13.87200    9.41900    9.41900    0.01100    0.01100    2.68000   42.40800  -28.47120  -28.47120   42.40800
 11450.00000   13.07900   13.07900   37.31340   -0.01400    2.66500    0.02630   26.80000   -0.01400   51.27800   51.27800   39.43300   32.48900   39.43300   26.80000   16.64400   16.64400    0.00800    0.00800    2.66500   74.27600  -20.34540  -20.34540   74.27600
 11500.00000   12.98300   12.98300   58.41120   -0.00300    2.65600    0.03160   17.12000   -0.00300   54.25000   54.25000   43.41100   37.07900   43.41100   17.12000   15.68600   15.68600    0.01100    0.01100    2.65600   36.51200  -23.41660  -23.41660   36.51200
 11550.00000   13.00000   13.00000   45.21410   -0.00400    2.70300    0.00410   22.11700   -0.00400   49.95500   49.95500   36.46900   29.86600   36.46900   22.11700   20.05700   20.05700    0.00800    0.00800    2.70300  154.11200  -10.40510  -10.40510  154.11200
 11600.00000   12.94200   12.94200  323.10180   -0.00700    2.57100    0.08130    3.09500   -0.00700   79.59350   79.59350  105.27700   87.47000  105.27700    3.09500    2.75200    2.75200    0.16900    0.16900    2.57100    6.14000   -1.70070   -1.70070    6.14000
 11650.00000   13.18200   13.18200    -999.25    0.06000    -999.25    -999.25    -999.25    0.06000    -999.25    -999.25    -999.25    -999.25    -999.25    -999.25    -999.25    -999.25    -999.25    -999.25    -999.25    -999.25    -999.25    -999.25    -999.25
 11700.00000    9.25000    9.25000  200.24030    0.00000    2.57300    0.04670    4.99400    0.00000   65.81750   65.81750   90.21400    -999.25   90.21400    4.99400    4.39500    4.39500    0.08800    0.08800    2.57300    5.56100  -10.40220  -10.40220    5.56100
 11750.00000   10.02900   10.02900  301.93240   -0.01300    2.61000    0.02420    3.31200   -0.01300   75.02450   75.02450  126.05400    -999.25  126.05400    3.31200    3.28200    3.28200    0.21800    0.21800    2.61000    4.60400   -0.17420   -0.17420    4.60400
 11800.00000    9.45400    9.45400  176.46020    0.00600    2.65400   -0.00240    5.66700    0.00600   64.77050   64.77050   61.64000    -999.25   61.64000    5.66700    5.88600    5.88600    0.09300    0.09300    2.65400    6.84100   -6.26310   -6.26310    6.84100
 11850.00000    9.85100    9.85100  290.69770   -0.01200    2.60200    0.02910    3.44000   -0.01200   72.55400   72.55400  120.97700    -999.25  120.97700    3.44000    3.29700    3.29700    0.21200    0.21200    2.60200    4.06900   -3.07710   -3.07710    4.06900
 11900.00000   10.13700   10.13700  393.39100   -0.02100    2.57600    0.04480    2.54200   -0.02100   81.17200   81.17200  135.62500    -999.25  135.62500    2.54200    2.81600    2.81600    0.22900    0.22900    2.57600    3.12400    1.05190    1.05190    3.12400
 11950.00000    9.23800    9.23800   54.77950   -0.00700    2.56300    0.05270   18.25500   -0.00700   58.17450   58.17450   60.05000    -999.25   60.05000   18.25500  143.65600  143.65600    0.04500    0.04500    2.56300   32.41600  -14.23410  -14.23410   32.41600
 12000.00000    9.26200    9.26200   47.70990    0.00700    2.56600    0.05090   20.96000    0.00700   58.38450   58.38450   84.32700    -999.25   84.32700   20.96000   27.27800   27.27800    0.02800    0.02800    2.56600   50.74500   -9.96930   -9.96930   50.74500
 12050.00000    9.26600    9.26600   41.14550   -0.01000    2.55500    0.05760   24.30400   -0.01000   57.06100   57.06100   67.73700    -999.25   67.73700   24.30400   25.54300   25.54300    0.02600    0.02600    2.55500   40.82100  -17.77550  -17.77550   40.82100
 12100.00000    9.49500    9.49500  123.25900   -0.00100    2.56100    0.05390    8.11300   -0.00100   57.53100   57.53100   93.27500    -999.25   93.27500    8.11300    7.32400    7.32400    0.07000    0.07000    2.56100   21.91500   -7.46570   -7.46570   21.91500
 12150.00000    9.30900    9.30900   40.16230   -0.00500    2.53500    0.06970   24.89900   -0.00500   58.95650   58.95650   70.12700    -999.25   70.12700   24.89900   22.02800   22.02800    0.02800    0.02800    2.53500   41.13500   -9.83190   -9.83190   41.13500
 12200.00000    9.39600    9.39600   80.97170   -0.00500    2.61200    0.02300   12.35000   -0.00500   62.74700   62.74700  131.92700    -999.25  131.92700   12.35000   11.33300   11.33300    0.10000    0.10000    2.61200   19.72000   -5.68710   -5.68710   19.72000
 12250.00000    9.30000    9.30000   51.05170    0.00000    2.63500    0.00910   19.58800    0.00000   56.76100   56.76100   65.85900    -999.25   65.85900   19.58800   31.34200   31.34200    0.02800    0.02800    2.63500   31.12400   -7.34230   -7.34230   31.12400
 12300.00000    9.22000    9.22000   35.58340    0.00000    2.61700    0.02000   28.10300    0.00000   54.66550   54.66550   64.39900    -999.25   64.39900   28.10300   26.33500   26.33500    0.02000    0.02000    2.61700   76.06600  -13.48860  -13.48860   76.06600
 12350.00000    9.12100    9.12100   66.35260   -0.01100    2.62400    0.01580   15.07100   -0.01100   59.11850   59.11850   90.82200    -999.25   90.82200   15.07100   17.58900   17.58900    0.05700    0.05700    2.62400   25.78100   -8.65780   -8.65780   25.78100
 12400.00000    9.37000    9.37000  109.96260   -0.01200    2.65500   -0.00300    9.09400   -0.01200   64.54750   64.54750  125.09800    -999.25  125.09800    9.09400    8.02400    8.02400    0.15600    0.15600    2.65500   12.39200   -3.20400   -3.20400   12.39200
 12450.00000    9.35400    9.35400   42.03800    0.00900    2.58900    0.03700   23.78800    0.00900   57.61950   57.61950   83.59100    -999.25   83.59100   23.78800   23.57200   23.57200    0.04000    0.04000    2.58900   58.09300   -6.52120   -6.52120   58.09300
 12500.00000    9.40600    9.40600   98.61930    0.00600    2.63500    0.00910   10.14000    0.00600   67.10950   67.10950  159.74800    -999.25  159.74800   10.14000    8.07600    8.07600    0.19900    0.19900    2.63500   25.81900   -5.09940   -5.09940   25.81900
 12550.00000    9.36900    9.36900   83.80120   -0.00800    2.64200    0.00480   11.93300   -0.00800   55.81200   55.81200  101.28300    -999.25  101.28300   11.93300   10.46100   10.46100    0.09000    0.09000    2.64200   29.34500   -6.95860   -6.95860   29.34500
 12600.00000    9.22600    9.22600  106.21350   -0.00100    2.63900    0.00670    9.41500   -0.00100   60.73500   60.73500  131.20400    -999.25  131.20400    9.41500    9.46200    9.46200    0.11700    0.11700    2.63900   16.01600   -2.54680   -2.54680   16.01600
 12650.00000    9.31700    9.31700  185.28810   -0.00900    2.59300    0.03450    5.39700   -0.00900   62.49300   62.49300  109.58000    -999.25  109.58000    5.39700    8.48000    8.48000    0.04400    0.04400    2.59300   21.36300   -2.26050   -2.26050   21.36300
