~Version ---------------------------------------------------
VERS. 2.0 : CWLS log ASCII Standard -VERSION 2.0
WRAP. YES : MULTIPLE LINES PER DEPTH STEP
~Well ------------------------------------------------------
STRT.FT                   3850.0 : START DEPTH
STOP.FT                   7900.0 : STOP DEPTH
STEP.FT                 50.00000 : STEP LENGTH
NULL.                    -999.25 : NULL VALUE
COMP. CHAMPLIN PETROLEUM COMPANY : COMPANY
WELL.     BARTLETT JONES UNIT #1 : WELL
FLD .                   GIDDINGS : FIELD
LOC .                            : LOCATION
CNTY.                   BURLESON : COUNTY
STAT.                      TEXAS : STATE
CTRY.   UNITED STATES OF AMERICA : COUNTRY
SRVC.               Schlumberger : SERVICE COMPANY
DATE.                11-Aug-1980 : LOGDATE
API .             42051307650000 : API NUMBER
UWI .             42051307650000 : UNIQUE WELL ID
SLAT.WGS84         30.4866760787 : SURFACE LATITUDE
SLON.WGS84        -96.6964627784 : SURFACE LONGITUDE
~Curve Information -----------------------------------------
DEPT    .FT    : DEPTH FEET
CALWS   .IN    : CALIPER [DCALED+8.25]
CONDWS  .MMHO  : CONDUCTIVITY [1000/DRESWS]
DCALED  .IN    : DIFFERENTIAL CALIPER FROM DUAL INDUCTION-SFL CNFD LOG
DCORWS  .G/C3  : DENSITY CORRECTION [DRHOED]
DENWS   .G/C3  : BULK DENSITY [M=2.71 F=1.0] [CALCULATED FROM DPOWS]
DPHILSED.V/V   : DENSITY POROSITY [M=2.71 F=1.0] FROM DUAL INDUCTION-SFL CNFD LOG
DPHISSED.V/V   : DENSITY POROSITY [M=2.65 F=1.0] FROM DUAL INDUCTION-SFL CNFD LOG
DPOWS   .V/V   : DENSITY POROSITY [M=2.71 F=1.0] [DPHILSED AND DPHISSED]
DRESWS  .OHMM  : DEEP RESISTIVITY [ILDED]
DRHOED  .G/C3  : DENSITY CORRECTION FROM DUAL INDUCTION-SFL CNFD LOG
GRRED   .GAPI  : GAMMA RAY FROM DUAL INDUCTION-SFL CNFD LOG
GRWS    .GAPI  : GAMMA RAY [GRRED, 3844-3880 above casing]
ILDED   .OHMM  : INDUCTION LOG DEEP FROM DUAL INDUCTION-SFL CNFD LOG
ILMED   .OHMM  : INDUCTION LOG MEDIUM FROM DUAL INDUCTION-SFL CNFD LOG
MRESWS  .OHMM  : MEDIUM RESISTIVITY [ILMED]
NPHILSED.V/V   : NEUTRON POROSITY LIMESTONE FROM DUAL INDUCTION-SFL CNFD LOG
NPHISSED.V/V   : NEUTRON POROSITY SANDSTONE FROM DUAL INDUCTION-SFL CNFD LOG
NPOWS   .V/V   : NEUTRON POROSITY LIMESTONE [NPHILSED & NPHISSED at 3844-3880 above casing]
SFLUED  .OHMM  : SPHERICALLY FOCUSED FOM DUAL INDUCTION-SFL CNFD LOG
SPRED   .MV    : SPONTANEOUS POTENTIAL FROM DUAL INDUCTION-SFL CNFD LOG
SPWS    .MV    : SPONTANEOUS POTENTIAL [BASELINE 0 MV] [SPRED]
SRESWS  .OHMM  : SHALLOW RESISTIVITY [SFLUED]
~Params ----------------------------------------------------
PD  .                     GL : PERMANENT DATUM
EPD .FT                  338 : ELEVATION PERMANENT DATUM
LMF .                     KB : LOG MEASURED FROM
DAPD.FT                   19 : FEET ABOVE PERMANENT DATUM
DMF .                     KB : DRILLING MEASURED FROM
EKB .FT                  357 : KELLY BUSHING
EDF .FT                  356 : DRILLING FLOOR
EGL .FT                  338 : GROUND LEVEL
DATE.               08/11/80 : RUN DATE
RUN .                      1 : RUN NUMBER
DD  .FT                 7937 : DEPTH DRILLER
DL  .FT                 7929 : DEPTH LOGGER
BLI .FT                 7922 : BOTTOM LOG INTERVAL
TLI .FT                 3873 : TOP LOG INTERVAL
CS  .IN                9.625 : CASING SIZE
CBD .FT                 3878 : CASING BOTTOM DRILLER
CBL .FT                 3873 : CASING BOTTOM LOGGER
BS  .IN                 8.75 : BIT SIZE
BSD .FT                 7937 : BIT SIZE AT DEPTH
DFT .                        : DRILLING FLUID TYPE
DFD .                    9.2 : DRILLING FLUID DENSITY
DFV .                     42 : DRILLING FLUID VISCOSITY
DFPH.                   11.5 : DRILLING FLUID PH
DFL .                    7.1 : DRILLING FLUID LOSS
MSS .               CIRC PIT : MUD SAMPLE SOURCE
RMS .OHMM                1.3 : RESISTIVITY MUD SAMPLE
MST .DEGF                 82 : MUD SAMPLE TEMPERATURE
RMF .OHMM               1.35 : RESISTIVITY MUD FILTRATE SAMPLE
MFST.DEGF                 75 : MUD FILTRATE SAMPLE TEMPERATURE
RMC .OHMM               2.85 : RESISTIVITY MUD CAKE
MCST.DEGF                 80 : MUD CAKE SAMPLE TEMPERATURE
MFSS.                   MEAS : MUD FILTRATE SAMPLE SOURCE
MCSS.                   MEAS : MUD CAKE SAMPLE SOURCE
RMB .OHMM               0.75 : RESISTIVITY MUD AT BHT
TCS .HRS                   0 : TIME CIRCULATED STOPPED
TLAB.HRS                   0 : TIME LOGGER AT BOTTOM
LUN .                   8096 : LOGGING UNIT NUMBER
LUL .                        : LOGGING UNIT LOCATION
ENGI.                 HEDRIC : RECORDING ENGINEER
WITN.                 SCHELL : WITNESSED BY
CLNT.                A2DTECH : CLIENT CODE
ORIG.          1" 2.5" PRINT : ORIGIN OF DATA
UWI .         42051307650000 : UNIQUE WELL ID
DICO. A2D Technologies, Inc. : DIGITIZING COMPANY
OS  .                        : OTHER SERVICES
PWI .                        : PRIMARY WELL IDENTIFIER
R1  .                        : REMARKS 1
R2  .                        : REMARKS 2
LSRV.                        : LOG MNEMONIC
~Other -----------------------------------------------------
~ASCII -----------------------------------------------------
 3850.00000    -999.25    -999.25    -999.25    -999.25    -999.25    -999.25    -999.25    -999.25    -999.25    -999.25   63.88820   63.88820    -999.25    -999.25    -999.25    -999.25    0.39610    0.39610    -999.25    -999.25    -999.25    -999.25
 3900.00000    8.83250  242.35370    0.58250    0.02730    2.33480    -999.25    0.21940    0.21940    4.12620    0.02730  102.91110  102.91110    4.12620    4.38590    4.38590    -999.25    0.33190    0.33190    4.70160  -42.54230  -24.05260    4.70160
 3950.00000    9.33040  432.37630    1.08040    0.10110    2.43260    -999.25    0.16220    0.16220    2.31280    0.10110  120.93160  120.93160    2.31280    2.37440    2.37440    -999.25    0.39220    0.39220    2.28820  -19.87860   -3.18360    2.28820
 4000.00000    9.29120  459.38990    1.04120    0.10130    2.46700    -999.25    0.14210    0.14210    2.17680    0.10130  111.04800  111.04800    2.17680    2.25620    2.25620    -999.25    0.38210    0.38210    2.30380  -16.95960   -0.68300    2.30380
 4050.00000    8.16550  386.72750   -0.08450    0.08430    2.44050    -999.25    0.15760    0.15760    2.58580    0.08430  106.54290  106.54290    2.58580    2.73790    2.73790    -999.25    0.31490    0.31490    3.30670  -20.79820   -4.94000    3.30670
 4100.00000    8.75040  391.65000    0.50040    0.06420    2.46600    -999.25    0.14270    0.14270    2.55330    0.06420  104.15960  104.15960    2.55330    2.75020    2.75020    -999.25    0.35050    0.35050    2.94950  -18.68470   -3.25660    2.94950
 4150.00000    8.80630  368.54130    0.55630    0.09910    2.46440    -999.25    0.14360    0.14360    2.71340    0.09910  108.60270  108.60270    2.71340    2.84020    2.84020    -999.25    0.31890    0.31890    2.93960  -18.04250   -3.05240    2.93960
 4200.00000    8.90210  367.97170    0.65210    0.05490    2.46260    -999.25    0.14470    0.14470    2.71760    0.05490  105.67180  105.67180    2.71760    2.78730    2.78730    -999.25    0.32140    0.32140    3.04890  -17.66180   -3.10980    3.04890
 4250.00000    9.25110  457.60310    1.00110    0.10000    2.46550    -999.25    0.14300    0.14300    2.18530    0.10000  104.88420  104.88420    2.18530    2.28780    2.28780    -999.25    0.38640    0.38640    2.36470  -16.37910   -2.26520    2.36470
 4300.00000    9.64950  631.35300    1.39950    0.09930    2.44410    -999.25    0.15550    0.15550    1.58390    0.09930  109.66050  109.66050    1.58390    1.65720    1.65720    -999.25    0.37710    0.37710    1.82390  -15.92900   -2.25310    1.82390
 4350.00000   10.22050  505.97050    1.97050    0.06970    2.49110    -999.25    0.12800    0.12800    1.97640    0.06970  107.18510  107.18510    1.97640    2.03280    2.03280    -999.25    0.35970    0.35970    2.19560  -17.17550   -3.96920    2.19560
 4400.00000   10.76000  610.98550    2.51000    0.09310    2.48510    -999.25    0.13150    0.13150    1.63670    0.09310  112.63710  112.63710    1.63670    1.67890    1.67890    -999.25    0.34210    0.34210    1.86330  -16.80680   -4.07660    1.86330
 4450.00000   10.58070  634.19580    2.33070    0.07400    2.50070    -999.25    0.12240    0.12240    1.57680    0.07400  101.16380  101.16380    1.57680    1.64030    1.64030    -999.25    0.35920    0.35920    1.88240  -16.70510   -4.45100    1.88240
 4500.00000   10.52680  666.22250    2.27680    0.04030    2.47540    -999.25    0.13720    0.13720    1.50100    0.04030  115.13840  115.13840    1.50100    1.55300    1.55300    -999.25    0.37210    0.37210    1.69400  -15.02740   -3.24940    1.69400
 4550.00000   10.27610  671.90750    2.02610    0.03560    2.49860    -999.25    0.12360    0.12360    1.48830    0.03560  121.44710  121.44710    1.48830    1.55370    1.55370    -999.25    0.39000    0.39000    1.70440  -15.91880   -4.61680    1.70440
 4600.00000    9.14420  593.01430    0.89420    0.06830    2.51450    -999.25    0.11430    0.11430    1.68630    0.06830  124.73890  124.73890    1.68630    1.76050    1.76050    -999.25    0.38150    0.38150    2.00430  -14.25880   -3.43290    2.00430
 4650.00000    9.27080  687.94720    1.02080    0.06610    2.49640    -999.25    0.12490    0.12490    1.45360    0.06610  113.02760  113.02760    1.45360    1.51980    1.51980    -999.25    0.37860    0.37860    1.71120  -13.20220   -2.85240    1.71120
 4700.00000    9.15310  802.11760    0.90310    0.09950    2.45950    -999.25    0.14650    0.14650    1.24670    0.09950  113.16510  113.16510    1.24670    1.34580    1.34580    -999.25    0.41030    0.41030    1.64730  -12.50300   -2.62930    1.64730
 4750.00000    9.30880  868.73430    1.05880    0.03590    2.40050    -999.25    0.18100    0.18100    1.15110    0.03590  127.04280  127.04280    1.15110    1.21310    1.21310    -999.25    0.44430    0.44430    1.21070  -12.52590   -3.01490    1.21070
 4800.00000    9.21220  588.16610    0.96220    0.04850    2.55900    -999.25    0.08830    0.08830    1.70020    0.04850   66.62690   66.62690    1.70020    1.91170    1.91170    -999.25    0.28530    0.28530    2.93100  -17.89040   -7.23680    2.93100
 4850.00000    9.78190  616.63690    1.53190    0.09190    2.44510    -999.25    0.15490    0.15490    1.62170    0.09190  108.12270  108.12270    1.62170    1.68140    1.68140    -999.25    0.39660    0.39660    1.74570  -13.81200   -2.01590    1.74570
 4900.00000   10.55130  788.76790    2.30130    0.09580    2.43020    -999.25    0.16360    0.16360    1.26780    0.09580   87.64700   87.64700    1.26780    1.32450    1.32450    -999.25    0.41100    0.41100    1.56030  -22.96840  -10.02970    1.56030
 4950.00000    9.72790  816.12670    1.47790    0.09900    2.41210    -999.25    0.17420    0.17420    1.22530    0.09900  100.65170  100.65170    1.22530    1.28100    1.28100    -999.25    0.40650    0.40650    1.52200  -17.36340   -3.52850    1.52200
 5000.00000    9.73700  833.75020    1.48700    0.09510    2.42920    -999.25    0.16420    0.16420    1.19940    0.09510   96.58740   96.58740    1.19940    1.26360    1.26360    -999.25    0.42200    0.42200    1.36590  -15.17740   -0.78640    1.36590
 5050.00000    9.29770  635.48550    1.04770    0.09820    2.47680    -999.25    0.13640    0.13640    1.57360    0.09820   92.98680   92.98680    1.57360    1.64300    1.64300    -999.25    0.33550    0.33550    1.69680  -17.09920   -2.15220    1.69680
 5100.00000    8.79490  661.72580    0.54490    0.10260    2.56530    -999.25    0.08460    0.08460    1.51120    0.10260   88.18530   88.18530    1.51120    1.62330    1.62330    -999.25    0.29520    0.29520    2.14130  -21.68160   -6.17850    2.14130
 5150.00000    9.32100  957.30420    1.07100    0.08210    2.46270    -999.25    0.14460    0.14460    1.04460    0.08210  101.22820  101.22820    1.04460    1.10240    1.10240    -999.25    0.39460    0.39460    1.26170  -17.93820   -2.75870    1.26170
 5200.00000    9.78330  911.07870    1.53330    0.09880    2.50050    -999.25    0.12250    0.12250    1.09760    0.09880  100.17520  100.17520    1.09760    1.16090    1.16090    -999.25    0.36780    0.36780    1.29420  -22.52270   -8.10010    1.29420
 5250.00000    9.67960  849.11270    1.42960    0.05090    2.50620    -999.25    0.11920    0.11920    1.17770    0.05090  102.37410  102.37410    1.17770    1.22960    1.22960    -999.25    0.37210    0.37210    1.48310  -16.66540   -2.99970    1.48310
 5300.00000    8.88730  421.42530    0.63730    0.07940    2.61060    -999.25    0.05810    0.05810    2.37290    0.07940   72.56570   72.56570    2.37290    2.50330    2.50330    -999.25    0.25020    0.25020    2.89450  -17.30870   -4.39980    2.89450
 5350.00000    9.97000  911.99270    1.72000    0.04960    2.43040    -999.25    0.16350    0.16350    1.09650    0.04960  102.07720  102.07720    1.09650    1.18240    1.18240    -999.25    0.37390    0.37390    1.27200  -17.35250   -5.20050    1.27200
 5400.00000    9.54970  959.41670    1.29970    0.09580    2.38680    -999.25    0.18900    0.18900    1.04230    0.09580  109.60140  109.60140    1.04230    1.10520    1.10520    -999.25    0.35230    0.35230    1.27690  -13.40520   -1.85580    1.27690
