~Version ---------------------------------------------------
VERS. 2.0 : CWLS log ASCII Standard -VERSION 2.0
WRAP. YES : MULTIPLE LINES PER DEPTH STEP
~Well ------------------------------------------------------
STRT.FT                        2500.0 : START DEPTH
STOP.FT                       18000.0 : STOP DEPTH
STEP.FT                      50.00000 : STEP LENGTH
NULL.                         -999.25 : NULL VALUE
COMP. UNION PACIFIC RESOURCES COMPANY : COMPANY
WELL.       UPR T-BAR-X KING COBRA #1 : WELL
FLD .                         WILDCAT : FIELD
LOC .                                 : LOCATION
CNTY.                            LEON : COUNTY
STAT.                           TEXAS : STATE
CTRY.        UNITED STATES OF AMERICA : COUNTRY
SRVC.                    Schlumberger : SERVICE COMPANY
DATE.                     05-Nov-1997 : LOGDATE
API .                  42289312660000 : API NUMBER
UWI .                  42289312660000 : UNIQUE WELL ID
SLAT.WGS84              31.2008912115 : SURFACE LATITUDE
SLON.WGS84             -96.2874133979 : SURFACE LONGITUDE
~Curve Information -----------------------------------------
DEPT    .FT    : DEPTH FEET
AT10ED  .OHMM  : 10 INCH RESISTIVITY TWO FOOT RESOLUTION FROM AIT LOG
AT20ED  .OHMM  : 20 INCH RESISTIVITY TWO FOOT RESOLUTION FROM AIT LOG
AT30ED  .OHMM  : 30 INCH RESISTIVITY TWO FOOT RESOLUTION FROM AIT LOG
AT60ED  .OHMM  : 60 INCH RESISTIVITY TWO FOOT RESOLUTION FROM AIT LOG
AT90ED  .OHMM  : 90 INCH RESISTIVITY TWO FOOT RESOLUTION FROM AIT LOG
CALDED  .IN    : CALIPER FROM DENSITY LOG [DEP ADJ TO GRRED]
CALRED  .IN    : CALIPER FROM RESISTIVITY LOG
CALWS   .IN    : CALIPER [2484 CALICAL 15888 CALRED]
CGRDED  .GAPI  : GAMMA RAY FROM DENSITY LOG [DEP ADJ TO GRRED]
CONDWS  .MMHO  : CONDUCTIVITY [1000/DRESWS]
DCALED  .IN    : DIFFERENTIAL CALIPER FROM DENSITY LOG
DCORWS  .G/C3  : DENSITY CORRECTION [2484 DRHOED 9946 DRHED 15888.5 DRHOED]
DENWS   .G/C3  : BULK DENSITY [M=2.71 F=1.0] [CALCULATED FROM DPOWS]
DPHILSED.V/V   : DENSITY POROSITY [M=2.71 F=1.0] FROM DENSITY LOG [DEP ADJ TO GRRED]
DPOLSED .V/V   : DENSITY POROSITY HIGH RESOLUTION [M=2.71 F=1.0] FROM DENSITY LOG
DPOWS   .V/V   : DENSITY POROSITY [M=2.71 F=1.0] [2484 DPHILSED 9942 DPOLSED 15888 DPHILSED]
DRESWS  .OHMM  : DEEP RESISTIVITY [A2484 AT90ED 9948.5 IDPHED 15892 LLDED]
DRHED   .G/C3  : DENSITY CORRECTION
DRHOED  .G/C3  : DENSITY CORRECTION FROM DENSITY LOG [DEP ADJ TO GRRED]
DTCOED  .US/F  : DELTA TIME COMPRESSIONAL FROM SONIC LOG [DEP ADJ TO GRRED]
DTED    .US/F  : DELTA TIME FROM SONIC LOG
DTLED   .US/F  : DELTA TIME LONG SPACING FROM SONIC LOG
DTLFED  .US/F  : DELTA TIME LONG SPACING FAR DETECTOR FROM SONIC LOG
DTLNED  .US/F  : DELTA TIME LONG SPACING NEAR DETECTOR FROM SONIC LOG
DTSMED  .US/F  : DELTA TIME SHEAR WAVE FROM SONIC LOG [DEP ADJ TO GRRED]
DTSWS   .US/F  : DELTA TIME SHEAR [DTSMED]
DTWS    .US/F  : DELTA TIME [2484 DTLNED 10155.5 DTLFED 10297.5 DTLNED 10506.5 DTLFED 10628.5 DTLNED 10694 DTLFED 10859 DTLNED 11620 DTLFED 13285.5 DTLNED 14723 DTLFED 15057 DTLNED 15798 DTLFED 15889.5 DTED 15912.5 DTCOED]
GRRED   .GAPI  : GAMMA RAY FROM RESISTIVITY LOG
GRSED   .GAPI  : GAMMA RAY FROM SONIC LOG [DEP ADJ TO GRRED]
GRWS    .GAPI  : GAMMA RAY [2484 GRRED 9881.5 GRREDNRM 9946 GRRED 15728.5 GRSEDNRM 15878 CGRDED 16070 GRRED]
IDPHED  .OHMM  : INDUCTION DEEP PHASE RESISTIVITY
IMPHED  .OHMM  : INDUCTION MEDIUM PHASE RESISTIVITY
LLDED   .OHMM  : LATEROLOG DEEP RESISTIVITY
LLSED   .OHMM  : LATEROLOG SHALLOW RESISTIVITY
MRESWS  .OHMM  : MEDIUM RESISTIVITY [2484 AT30ED 9949.5 IMPHED]
NPHILSED.V/V   : NEUTRON POROSITY LIMESTONE FROM DENSITY LOG [DEP ADJ TO GRRED]
NPOWS   .V/V   : NEUTRON POROSITY LIMESTONE [2484 NPHILSED 15780.5 NPHILNRM 15883.5 NPHILSED]
PEFED   .B/E   : PHOTOELECTRIC FACTOR FROM DENSITY LOG
PEFLED  .B/E   : PHOTOELECTRIC FACTOR FROM DENSITY LOG
PEFWS   .B/E   : PHOTOELECTRIC FACTOR [2484 PEFED 9952.5 PEFLED]
RESED   .OHMM  : SYNTHETIC RESISTIVITY
SFLUED  .OHMM  : SPHERICALLY FOCUSED LOG RESISTIVITY
SPHILSED.V/V   : SONIC POROSITY FROM SONIC LOG [DEP ADJ TO GRRED]
SPOWS   .V/V   : SONIC POROSITY [CAL FR DTWS; M= 47.6, F=189]
SPRED   .MV    : SPONTANEOUS POTENTIAL FROM RESISTIVITY LOG [SHIFTS ARE REMOVED]
SPWS    .MV    : SPONTANEOUS POTENTIAL [BASELINE 0 MV] [SPRED]
SRESWS  .OHMM  : SHALLOW RESISTIVITY [2484 AT10ED 9945.5 SFLUED 15891.5 LLSED]
TENDED  .LBF   : TENSION FROM DENSITY LOG [DEP ADJ TO GRRED]
TENRED  .LBF   : TENSION FROM RESISTIVITY LOG
~Params ----------------------------------------------------
PD  .                     GL : PERMANENT DATUM
EPD .FT                  348 : ELEVATION PERMANENT DATUM
LMF .                     KB : LOG MEASURED FROM
DAPD.FT                   28 : FEET ABOVE PERMANENT DATUM
DMF .                     KB : DRILLING MEASURED FROM
EKB .FT                  376 : KELLY BUSHING
EDF .FT                  374 : DRILLING FLOOR
EGL .FT                  348 : GROUND LEVEL
DATE.               11/05/97 : RUN DATE
RUN .                      3 : RUN NUMBER
DD  .FT                18038 : DEPTH DRILLER
DL  .FT                18024 : DEPTH LOGGER
BLI .FT                 1800 : BOTTOM LOG INTERVAL
TLI .FT                15888 : TOP LOG INTERVAL
CS  .IN                7.625 : CASING SIZE
CBD .FT                15888 : CASING BOTTOM DRILLER
CBL .FT                15888 : CASING BOTTOM LOGGER
BS  .IN                    6 : BIT SIZE
BSD .FT                18038 : BIT SIZE AT DEPTH
DFT .                POLYMER : DRILLING FLUID TYPE
DFD .                   18.2 : DRILLING FLUID DENSITY
DFV .                     40 : DRILLING FLUID VISCOSITY
DFPH.                      9 : DRILLING FLUID PH
DFL .                    5.6 : DRILLING FLUID LOSS
MSS .       CIRCULATION TANK : MUD SAMPLE SOURCE
RMS .OHMM               1.14 : RESISTIVITY MUD SAMPLE
MST .DEGF                 90 : MUD SAMPLE TEMPERATURE
RMF .OHMM              0.969 : RESISTIVITY MUD FILTRATE SAMPLE
MFST.DEGF                 90 : MUD FILTRATE SAMPLE TEMPERATURE
RMC .OHMM              1.311 : RESISTIVITY MUD CAKE
MCST.DEGF                 90 : MUD CAKE SAMPLE TEMPERATURE
MFSS.             CALCULATED : MUD FILTRATE SAMPLE SOURCE
MCSS.             CALCULATED : MUD CAKE SAMPLE SOURCE
RMB .OHMM              0.278 : RESISTIVITY MUD AT BHT
TCS .HRS                2200 : TIME CIRCULATED STOPPED
TLAB.HRS                 445 : TIME LOGGER AT BOTTOM
LUN .                   8400 : LOGGING UNIT NUMBER
LUL .                   6450 : LOGGING UNIT LOCATION
ENGI.                SKRBICH : RECORDING ENGINEER
WITN.          BLANKE WEAVER : WITNESSED BY
CLNT.                A2DTECH : CLIENT CODE
ORIG.         1" 2" 5" PRINT : ORIGIN OF DATA
UWI .         42289312660000 : UNIQUE WELL ID
DICO. A2D Technologies, Inc. : DIGITIZING COMPANY
~Other -----------------------------------------------------
~ASCII -----------------------------------------------------
# ...
 10750.00000    -999.25    -999.25    -999.25    -999.25    -999.25    -999.25    -999.25   11.06060    -999.25   32.84830    2.56060    0.03860    2.67140    -999.25    0.02260    0.02260   30.44300    0.03860    -999.25    -999.25    -999.25    -999.25  129.65530   73.17200    -999.25    -999.25  129.65530   31.29210    -999.25   31.29210   30.44300   33.11180    -999.25    -999.25   33.11180    0.01060    0.01060    -999.25   10.00600   10.00600   10.00600   25.14710    -999.25    0.58030    3.75540  -19.69660   25.14710    -999.25 4521.04690
 10800.00000    -999.25    -999.25    -999.25    -999.25    -999.25    -999.25    -999.25   10.73340    -999.25   55.69480    2.23340   -0.01040    2.66300    -999.25    0.02750    0.02750   17.95500   -0.01040    -999.25    -999.25    -999.25    -999.25   82.97840   57.31520    -999.25    -999.25   82.97840   48.41630    -999.25   48.41630   17.95500   21.57890    -999.25    -999.25   21.57890    0.02130    0.02130    -999.25    9.96810    9.96810    9.96810   19.92610    -999.25    0.25020   -1.19200  -26.13730   19.92610    -999.25 4537.36130
 10850.00000    -999.25    -999.25    -999.25    -999.25    -999.25    -999.25    -999.25   10.79950    -999.25   35.65110    2.29950    0.03200    2.65660    -999.25    0.03120    0.03120   28.04960    0.03200    -999.25    -999.25    -999.25    -999.25   69.44200   54.45220    -999.25    -999.25   69.44200   44.03980    -999.25   44.03980   28.04960   34.78900    -999.25    -999.25   34.78900    0.00910    0.00910    -999.25    9.99370    9.99370    9.99370   30.63060    -999.25    0.15450   -0.98910  -27.42760   30.63060    -999.25 4541.37550
 10900.00000    -999.25    -999.25    -999.25    -999.25    -999.25    -999.25    -999.25   11.12800    -999.25   26.19040    2.62800    0.04980    2.78280    -999.25   -0.04260   -0.04260   38.18200    0.04980    -999.25    -999.25    -999.25    -999.25   35.76520   77.08790    -999.25    -999.25   77.08790   36.71560    -999.25   36.71560   38.18200   33.43130    -999.25    -999.25   33.43130    0.01290    0.01290    -999.25    9.98630    9.98630    9.98630   30.44000    -999.25    0.20850   -8.59220  -36.52390   30.44000    -999.25 4468.38090
 10950.00000    -999.25    -999.25    -999.25    -999.25    -999.25    -999.25    -999.25    9.37530    -999.25   18.60520    0.87530   -0.35890    2.67990    -999.25    0.01760    0.01760   53.74840   -0.35890    -999.25    -999.25    -999.25    -999.25   55.81770   56.56140    -999.25    -999.25   56.56140   28.99040    -999.25   28.99040   53.74840   71.07080    -999.25    -999.25   71.07080    0.01000    0.01000    -999.25    9.97860    9.97860    9.97860   44.85920    -999.25    0.06340   -8.63610  -38.06100   44.85920    -999.25 4436.42290
 11000.00000    -999.25    -999.25    -999.25    -999.25    -999.25    -999.25    -999.25    9.82750    -999.25   44.08450    1.32750   -0.18570    2.60950    -999.25    0.05880    0.05880   22.68370   -0.18570    -999.25    -999.25    -999.25    -999.25   70.68270   53.86300    -999.25    -999.25   53.86300   29.39910    -999.25   29.39910   22.68370   29.23200    -999.25    -999.25   29.23200    0.01610    0.01610    -999.25    9.98290    9.98290    9.98290   30.92420    -999.25    0.04430  -18.27950  -49.19760   30.92420    -999.25 4528.10400
 11050.00000    -999.25    -999.25    -999.25    -999.25    -999.25    -999.25    -999.25    9.78160    -999.25   28.72550    1.28160   -0.12400    2.64420    -999.25    0.03850    0.03850   34.81230   -0.12400    -999.25    -999.25    -999.25    -999.25   52.10680   59.43430    -999.25    -999.25   59.43430   21.97010    -999.25   21.97010   34.81230   34.63530    -999.25    -999.25   34.63530    0.01040    0.01040    -999.25    9.98310    9.98310    9.98310   28.08010    -999.25    0.08370  -15.85960  -48.27090   28.08010    -999.25 4437.54200
 11100.00000    -999.25    -999.25    -999.25    -999.25    -999.25    -999.25    -999.25   12.05980    -999.25  101.11220    3.55980    0.06160    2.72490    -999.25   -0.00870   -0.00870    9.89000    0.06160    -999.25    -999.25    -999.25    -999.25   59.34790   74.96610    -999.25    -999.25   74.96610   57.67840    -999.25   57.67840    9.89000    8.61590    -999.25    -999.25    8.61590    0.05990    0.05990    -999.25    9.97530    9.97530    9.97530    7.68560    -999.25    0.19350   12.56510  -21.33950    7.68560    -999.25 4412.50630
 11150.00000    -999.25    -999.25    -999.25    -999.25    -999.25    -999.25    -999.25   10.53210    -999.25   90.46910    2.03210   -0.05230    2.65490    -999.25    0.03220    0.03220   11.05350   -0.05230    -999.25    -999.25    -999.25    -999.25   77.76340   76.72350    -999.25    -999.25   76.72350   45.16390    -999.25   45.16390   11.05350    9.17230    -999.25    -999.25    9.17230    0.04820    0.04820    -999.25    9.99370    9.99370    9.99370    9.89170    -999.25    0.20600   14.00350  -21.39430    9.89170    -999.25 4352.85400
 11200.00000    -999.25    -999.25    -999.25    -999.25    -999.25    -999.25    -999.25   10.83810    -999.25   40.92590    2.33810    0.01940    2.61990    -999.25    0.05270    0.05270   24.43440    0.01940    -999.25    -999.25    -999.25    -999.25   71.67950   70.97840    -999.25    -999.25   70.97840   30.55040    -999.25   30.55040   24.43440   25.77180    -999.25    -999.25   25.77180    0.00450    0.00450    -999.25    9.97050    9.97050    9.97050   25.05800    -999.25    0.16530    0.07640  -36.81460   25.05800    -999.25 4400.99800
 11250.00000    -999.25    -999.25    -999.25    -999.25    -999.25    -999.25    -999.25   10.43880    -999.25   11.73070    1.93880    0.03990    2.66350    -999.25    0.02720    0.02720   85.24660    0.03990    -999.25    -999.25    -999.25    -999.25   70.18710   68.08280    -999.25    -999.25   68.08280   33.26330    -999.25   33.26330   85.24660   72.77070    -999.25    -999.25   72.77070   -0.00350   -0.00350    -999.25   10.02310   10.02310   10.02310   47.48550    -999.25    0.14490    1.18810  -37.19610   47.48550    -999.25 4366.34230
 11300.00000    -999.25    -999.25    -999.25    -999.25    -999.25    -999.25    -999.25   10.33350    -999.25   34.64670    1.83350   -0.04550    2.64350    -999.25    0.03890    0.03890   28.86280   -0.04550    -999.25    -999.25    -999.25    -999.25   90.99720   87.43490    -999.25    -999.25   87.43490   62.93550    -999.25   62.93550   28.86280   19.01120    -999.25    -999.25   19.01120    0.02440    0.02440    -999.25   10.00160   10.00160   10.00160   28.96760    -999.25    0.28170   13.07980  -26.79760   28.96760    -999.25 4429.89600
 11350.00000    -999.25    -999.25    -999.25    -999.25    -999.25    -999.25    -999.25   10.45280    -999.25    8.48480    1.95280   -0.03200    2.66470    -999.25    0.02650    0.02650  117.85850   -0.03200    -999.25    -999.25    -999.25    -999.25   67.49980   66.05430    -999.25    -999.25   66.05430   25.82160    -999.25   25.82160  117.85850 1976.34030    -999.25    -999.25 1976.34030    0.00250    0.00250    -999.25   10.00890   10.00890   10.00890   77.14840    -999.25    0.13050   -2.08070  -43.45140   77.14840    -999.25 4434.58200
 11400.00000    -999.25    -999.25    -999.25    -999.25    -999.25    -999.25    -999.25   10.54760    -999.25   16.21200    2.04760    0.00240    2.60240    -999.25    0.06290    0.06290   61.68280    0.00240    -999.25    -999.25    -999.25    -999.25   69.99910   69.20830    -999.25    -999.25   69.20830   19.59530    -999.25   19.59530   61.68280   83.55790    -999.25    -999.25   83.55790    0.00100    0.00100    -999.25   10.00860   10.00860   10.00860   49.29380    -999.25    0.15280   -4.21710  -47.08100   49.29380    -999.25 4469.76610
 11450.00000    -999.25    -999.25    -999.25    -999.25    -999.25    -999.25    -999.25   10.61480    -999.25   14.00880    2.11480   -0.00330    2.61710    -999.25    0.05430    0.05430   71.38360   -0.00330    -999.25    -999.25    -999.25    -999.25   71.72520   75.39720    -999.25    -999.25   75.39720   27.19680    -999.25   27.19680   71.38360   53.49650    -999.25    -999.25   53.49650    0.01040    0.01040    -999.25   10.01060   10.01060   10.01060   39.19770    -999.25    0.19660    7.10400  -37.25310   39.19770    -999.25 4499.75780
