~Version ---------------------------------------------------
VERS.      2.0 : CWLS log ASCII Standard -VERSION 2.0
WRAP.      YES : Multiple lines per depth step
CREA. 09/28/17 : LAS Creation Date
~Well ------------------------------------------------------
STRT.FT                  2150.0 : START DEPTH
STOP.FT                 11650.0 : STOP DEPTH
STEP.FT                50.00000 : STEP LENGTH
NULL.                   -999.25 : NULL VALUE
COMP. BURK ROYALTY COMPANY, LTD : COMPANY
WELL.               STERLING #1 : WELL
FLD .                           : FIELD
LOC .                           : LOCATION
CNTY.                   MADISON : COUNTY
STAT.                     TEXAS : STATE
CTRY.  UNITED STATES OF AMERICA : COUNTRY
SRVC.               HALLIBURTON : SERVICE COMPANY
DATE.               31-May-2014 : LOGDATE
API .            42313311010000 : API NUMBER
UWI .            42313311010000 : UNIQUE WELL ID
SLAT.WGS84     30.9882730389083 : SURFACE LATITUDE
SLON.WGS84    -95.6985448660659 : SURFACE LONGITUDE
~Curve Information -----------------------------------------
DEPT    .FT    : DEPTH FEET
CALRED  .IN    : CALIPER FROM RESISTIVITY LOG
CALWS   .IN    : CALIPER [CALRED]
CONDWS  .MMHO  : DEEP CONDUCTIVITY [1000/DRESWS]
DCALRED .IN    : DIFFERENTIAL CALIPER FROM RESISTIVITY LOG
DCORWS  .G/C3  : DENSITY CORRECTION [DRHOED]
DENWS   .G/C3  : BULK DENSITY [RHOBED]
DPHILSED.V/V   : DENSITY POROSITY (LS) [M=2.71 F=1.00]
DPOLSWS .V/V   : DENSITY POROSITY (LS) [M=2.71 F=1.00] [DPHILSED]
DRESWS  .OHMM  : DEEP RESISTIVITY [RT90ED]
DRHOED  .G/C3  : DENSITY CORRECTION FROM DENSITY LOG
GRRED   .GAPI  : GAMMA RAY FROM RESISTIVITY LOG
GRWS    .GAPI  : GAMMA RAY [GRRED]
MINVED  .OHMM  : MICROINVERSE RESISTIVITY
MNORED  .OHMM  : MICRONORMAL RESISTIVITY
MRESWS  .OHMM  : MEDIUM RESISTIVITY [RT30ED]
NPHILSED.V/V   : NEUTRON POROSITY LIMESTONE
NPOLSWS .V/V   : NEUTRON POROSITY LIMESTONE [NPHILSED]
PEED    .B/E   : PHOTOELECTRIC FACTOR FROM DENSITY LOG
PEFWS   .B/E   : PHOTOELECTRIC FACTOR [PEED]
RHOBED  .G/C3  : BULK DENSITY FROM DENSITY LOG
RT10ED  .OHMM  : 10 INCH RESISTIVITY TWO FOOT RESOLUTION
RT20ED  .OHMM  : 20 INCH RESISTIVITY TWO FOOT RESOLUTION
RT30ED  .OHMM  : 30 INCH RESISTIVITY TWO FOOT RESOLUTION
RT60ED  .OHMM  : 60 INCH RESISTIVITY TWO FOOT RESOLUTION
RT90ED  .OHMM  : 90 INCH RESISTIVITY TWO FOOT RESOLUTION
SPRED   .MV    : SPONTANEOUS POTENTIAL FROM RESISTIVITY LOG
SPWS    .MV    : SPONTANEOUS POTENTIAL [BASELINE 0 MV] [SPRED]
SRESWS  .OHMM  : SHALLOW RESISTIVITY [RT10ED]
TENRED  .LBF   : TENSION FROM RESISTIVITY LOG
~Params ----------------------------------------------------
PD  .                     GL : PERMANENT DATUM
EPD .FT                  159 : ELEVATION PERMANENT DATUM
LMF .                     KB : LOG MEASURED FROM
DAPD.FT                   30 : FEET ABOVE PERMANENT DATUM
DMF .                     KB : DRILLING MEASURED FROM
EKB .FT                  189 : KELLY BUSHING
EDF .FT                  188 : DRILLING FLOOR
EGL .FT                  159 : GROUND LEVEL
DATE.              5/31/2014 : RUN DATE
RUN .                      1 : RUN NUMBER
DD  .FT                11688 : DEPTH DRILLER
DL  .FT                11682 : DEPTH LOGGER
BLI .FT                11679 : BOTTOM LOG INTERVAL
TLI .FT                 2195 : TOP LOG INTERVAL
CS  .IN                9.625 : CASING SIZE
CBD .FT                 2195 : CASING BOTTOM DRILLER
CBL .FT                 2195 : CASING BOTTOM LOGGER
BS  .IN                 8.75 : BIT SIZE
BSD .FT                11688 : BIT SIZE AT DEPTH
DFT .        WATER BASED MUD : DRILLING FLUID TYPE
DFD .                    9.8 : DRILLING FLUID DENSITY
DFV .                     65 : DRILLING FLUID VISCOSITY
DFPH.                    9.4 : DRILLING FLUID PH
DFL .                    4.4 : DRILLING FLUID LOSS
MSS .               MUD TANK : MUD SAMPLE SOURCE
RMS .OHMM               1.31 : RESISTIVITY MUD SAMPLE
MST .DEGF                 71 : MUD SAMPLE TEMPERATURE
RMF .OHMM               1.12 : RESISTIVITY MUD FILTRATE SAMPLE
MFST.DEGF                 72 : MUD FILTRATE SAMPLE TEMPERATURE
RMC .OHMM               1.83 : RESISTIVITY MUD CAKE
MCST.DEGF                 72 : MUD CAKE SAMPLE TEMPERATURE
MFSS.                   MEAS : MUD FILTRATE SAMPLE SOURCE
MCSS.                   MEAS : MUD CAKE SAMPLE SOURCE
RMB .OHMM               0.73 : RESISTIVITY MUD AT BHT
TCS .HRS                 700 : TIME CIRCULATED STOPPED
TLAB.HRS                 630 : TIME LOGGER AT BOTTOM
LUN .               10549594 : LOGGING UNIT NUMBER
LUL .                KILGORE : LOGGING UNIT LOCATION
ENGI.                 ALLALI : RECORDING ENGINEER
WITN.                KIMBELL : WITNESSED BY
CLNT.                A2DTECH : CLIENT CODE
ORIG.       1", 2", 5" PRINT : ORIGIN OF DATA
UWI .         42313311010000 : UNIQUE WELL ID
DICO. A2D Technologies, Inc. : DIGITIZING COMPANY
~Other -----------------------------------------------------
ALL LOGS RAN ON COMBO.
LOADED ALL CURVES FROM BOREHOLE DATA SET.
GAPS ON CURVES AROUND 11450'-11510' DUE TO TOOL PULLED.
~ASCII -----------------------------------------------------
# ...
 10900.00000    8.37940    8.37940   93.16280   -0.37060    0.00820    2.68760    0.01310    0.01310   10.73390    0.00820   35.01310   35.01310    3.50210    3.50760   11.18510    0.05080    0.05080    4.07510    4.07510    2.68760   12.23720   11.82780   11.18510   10.91640   10.73390  -31.99990  -34.99550   12.23720 5639.88960
 10950.00000    8.63650    8.63650   67.60590   -0.11350    0.02250    2.70630    0.00220    0.00220   14.79160    0.02250   29.49970   29.49970   13.93040    7.19160   15.51080    0.04360    0.04360    4.50120    4.50120    2.70630   15.22340   16.23900   15.51080   14.61450   14.79160  -20.95920  -24.72030   15.22340 5707.42580
 11000.00000    9.23120    9.23120   23.38850    0.48120    0.05770    2.69020    0.01160    0.01160   42.75610    0.05770   20.18180   20.18180   10.80910    8.41670   50.67490    0.03440    0.03440    4.75930    4.75930    2.69020   75.34700   62.05940   50.67490   45.43050   42.75610  -62.94600  -67.47260   75.34700 5685.33790
 11050.00000    8.49660    8.49660  114.46230   -0.25340    0.02030    2.69820    0.00690    0.00690    8.73650    0.02030   40.87230   40.87230   10.32700    4.35360    8.78530    0.07290    0.07290    4.39200    4.39200    2.69820    8.79410    8.79050    8.78530    8.77660    8.73650  -23.55930  -28.85140    8.79410 5818.38090
 11100.00000    8.51920    8.51920    8.80070   -0.23080   -0.00230    2.65720    0.03090    0.03090  113.62770   -0.00230   31.94100   31.94100   28.36790   22.61940  119.68320    0.02590    0.02590    4.58060    4.58060    2.65720  159.50020  139.77790  119.68320  108.36470  113.62770  -27.77650  -33.83410  159.50020 5751.35250
 11150.00000    8.45960    8.45960   88.83600   -0.29040    0.02910    2.70870    0.00070    0.00070   11.25670    0.02910   41.95060   41.95060    9.03210    5.53530   10.79670    0.10100    0.10100    4.18100    4.18100    2.70870   12.13160   11.36280   10.79670   11.02670   11.25670  -15.93280  -22.75590   12.13160 5904.46580
 11200.00000    8.44450    8.44450   65.49950   -0.30550    0.01760    2.72970   -0.01150   -0.01150   15.26730    0.01760   32.12410   32.12410   25.80960   10.00870   15.11310    0.05080    0.05080    4.41460    4.41460    2.72970   15.04980   15.07580   15.11310   15.17710   15.26730  -15.17670  -22.76530   15.04980 5862.97900
 11250.00000    8.43780    8.43780   68.31580   -0.31220   -0.00460    2.69750    0.00730    0.00730   14.63790   -0.00460   41.34020   41.34020   17.64150    9.80910   14.68880    0.04990    0.04990    4.05890    4.05890    2.69750   16.42610   15.41830   14.68880   14.42010   14.63790   -3.93570  -12.28980   16.42610 5861.65920
 11300.00000    8.38970    8.38970   58.92400   -0.36030   -0.00540    2.64760    0.03650    0.03650   16.97100   -0.00540   30.25240   30.25240   11.02570    7.37920   16.68350    0.04230    0.04230    4.05250    4.05250    2.64760   16.71290   16.70080   16.68350   16.65760   16.97100  -15.29880  -24.41840   16.71290 5818.06150
 11350.00000    8.01330    8.01330   78.42650   -0.73670    0.02780    2.68740    0.01320    0.01320   12.75080    0.02780   58.30760   58.30760    1.52920    1.79830   12.98640    0.06870    0.06870    4.52270    4.52270    2.68740   14.65740   13.62500   12.98640   12.75280   12.75080  -17.45750  -27.34260   14.65740 5895.50290
 11400.00000    8.43890    8.43890  170.50880   -0.31110    0.07550    2.19260    0.30260    0.30260    5.86480    0.07550   59.20280   59.20280    3.00790    1.29690    7.43690    0.22660    0.22660    4.78290    4.78290    2.19260   12.90180    9.38630    7.43690    6.44720    5.86480  -11.90350  -22.55410   12.90180 5831.30520
 11450.00000    8.38590    8.38590   12.68350   -0.36410   -0.00040    2.70820    0.00100    0.00100   78.84290   -0.00040   14.56000   14.56000   16.96880    8.48710   66.77800    0.01350    0.01350    4.91070    4.91070    2.70820   59.23770   63.16730   66.77800   75.20990   78.84290  -72.88000  -84.29600   59.23770 5999.15870
 11500.00000    7.41970    7.41970    -999.25   -1.33030    0.10640    2.72240   -0.00720   -0.00720    -999.25    0.10640   81.03250   81.03250    -999.25    -999.25    -999.25    0.14030    0.14030    4.32370    4.32370    2.72240    -999.25    -999.25    -999.25    -999.25    -999.25    -999.25    -999.25    -999.25 9808.15630
 11550.00000    8.31660    8.31660   88.18190   -0.43340    0.00930    2.72090   -0.00640   -0.00640   11.34020    0.00930   55.25590   55.25590    6.78380    5.19300   11.59360    0.08580    0.08580    4.01030    4.01030    2.72090   13.80630   12.42720   11.59360   11.36980   11.34020   -5.80160  -18.53430   13.80630 6180.03130
 11600.00000    8.33400    8.33400  145.37840   -0.41600    0.00080    2.67710    0.01920    0.01920    6.87860    0.00080   70.16180   70.16180    5.46510    3.79190    7.01900    0.11220    0.11220    3.69900    3.69900    2.67710    6.93970    6.96540    7.01900    7.00280    6.87860    9.99540   -2.73730    6.93970 6098.96970
 11650.00000    8.29330    8.29330   27.22210   -0.45670    0.02180    2.72960   -0.01140   -0.01140   36.73480    0.02180    -999.25    -999.25    7.51060    6.14660   40.04650    -999.25    -999.25    4.53890    4.53890    2.72960   55.27670   45.89720   40.04650   35.52460   36.73480   -5.67860  -18.41130   55.27670 6200.57370
