~Version ---------------------------------------------------
VERS.      2.0 : CWLS log ASCII Standard -VERSION 2.0
WRAP.      YES : Multiple lines per depth step
CREA. 08/08/12 : LAS Creation Date
~Well ------------------------------------------------------
STRT.FT                 3750.0 : START DEPTH
STOP.FT                10100.0 : STOP DEPTH
STEP.FT               50.00000 : STEP LENGTH
NULL.                  -999.25 : NULL VALUE
COMP.              GOSE, STEVE : COMPANY
WELL.         VACLAVIC UNIT #1 : WELL
FLD .                 GIDDINGS : FIELD
LOC .                          : LOCATION
CNTY.                  FAYETTE : COUNTY
STAT.                    TEXAS : STATE
CTRY. UNITED STATES OF AMERICA : COUNTRY
SRVC.             Schlumberger : SERVICE COMPANY
DATE.              13-Aug-1981 : LOGDATE
API .           42149308390000 : API NUMBER
UWI .           42149308390000 : UNIQUE WELL ID
SLAT.WGS84       29.9573034487 : SURFACE LATITUDE
SLON.WGS84      -96.9214592176 : SURFACE LONGITUDE
~Curve Information -----------------------------------------
DEPT    .FT    : DEPTH FEET
CALDED  .IN    : CALIPER FROM DENSITY PLAYBACK LOG
CALWS   .IN    : CALIPER [DCALED + BITS SPLICED WITH CALDED @ 9170']
CONDWS  .MMHO  : CONDUCTIVITY [1000/DRESWS]
DCALED  .IN    : DIFRENTIAL CALIPER FROM DUAL INDUCTION/DENSITY/NEUTRON/GR LOG
DCORWS  .G/C3  : DENSITY CORRECTION [DRHOED]
DENWS   .G/C3  : FORMATION BULK DENSITY [CALCUALATED FROM DPOWS, M=2.71, F=1.0 & SPLICED WITH RHOBED @ 7810']
DPHILSED.V/V   : DENSITY POROSITY LIMESTONE [M=2.71, F=1.0] FROM DUAL INDUCTION/DENSITY/NEUTRON/GR LOG
DPHISSED.V/V   : DENSITY POROSOTY SANDSTONE [M=2.68, F=1.0] FROM DUAL INDUCTION/DENSITY/NEUTRON/GR LOG
DPOWS   .V/V   : DENSITY POROSITY LIMESTONE[DPHISSED CONVERTED TO LIMESTONE(M=2.71, F=1.0) & SPLICED TO DPHILSED AT 7810']
DRESWS  .OHMM  : DEEP RESISTIVITY [ILDED]
DRHO1ED .G/C3  : DENSITY CORRECTION FROM DUAL INDUCTION/DENSITY/NEUTRON/GR LOG
DRHOED  .G/C3  : DENSITY CORRECTION FROM DENSITY PLAYBACK LOG
GRDED   .GAPI  : GAMMA RAY FROM DENSITY PLAYBACK LOG
GRRED   .GAPI  : GAMMA RAY FROM DUAL INDUCTION/DENSITY/NEUTRON/GR LOG
GRWS    .GAPI  : GAMMA RAY [GRRED]
ILDED   .OHMM  : DEEP INDUCTION FROM DUAL INDUCTION/DENSITY/NEUTRON/GR LOG
ILMED   .OHMM  : MEDIUM INDUCTION FROM DUAL INDUCTION/DENSITY/NEUTRON/GR LOG
MRESWS  .OHMM  : MEDIUM RESISTIVITY [ILMED]
NPHILSED.V/V   : NEUTRON POROSITY LIMESTONE FROM DUAL INDUCTION/DENSITY/NEUTRON/GR LOG
NPHISSED.V/V   : NEUTRON POROSITY SANDSTONE FROM DUAL INDUCTION/DENSITY/NEUTRON/GR LOG
NPOWS   .V/V   : NEUTRON POROSITY LIMESTONE [NPHISSED MATRIX CONVERTED TO LIMESTONE & SPLICED WITH NPHILSED AT 7810']
RHOBED  .G/C3  : BULK DENSITY FROM DENSITY PLAYBACK LOG
SFLUED  .OHMM  : SPHERICALLY FOCUSED (UNAVERAGED) INDUCTION FROM DUAL INDUCTION/DENSITY/NEUTRON/GR LOG
SPRED   .MV    : SPONTANEOUS POTENTIAL FROM DUAL INDUCTION/DENSITY/NEUTRON/GR LOG
SPWS    .MV    : SPONTANEOUS POTENTIAL [BASELINE 0 MV, SPRED]
SRESWS  .OHMM  : SHALLOW RESISTIVITY [SFLUED]
~Params ----------------------------------------------------
PD  .                     GL : PERMANENT DATUM
EPD .FT                  253 : ELEVATION PERMANENT DATUM
LMF .                     KB : LOG MEASURED FROM
DAPD.FT                   12 : FEET ABOVE PERMANENT DATUM
DMF .                     KB : DRILLING MEASURED FROM
EKB .FT                  265 : KELLY BUSHING
EDF .FT                  264 : DRILLING FLOOR
EGL .FT                  253 : GROUND LEVEL
DATE.               08/13/81 : RUN DATE
RUN .                      1 : RUN NUMBER
DD  .FT                10160 : DEPTH DRILLER
DL  .FT                10145 : DEPTH LOGGER
BLI .FT                10139 : BOTTOM LOG INTERVAL
TLI .FT                 3712 : TOP LOG INTERVAL
CS  .IN                8.625 : CASING SIZE
CBD .FT                 3726 : CASING BOTTOM DRILLER
CBL .FT                 3712 : CASING BOTTOM LOGGER
BS  .IN                7.875 : BIT SIZE
BSD .FT                10160 : BIT SIZE AT DEPTH
DFT .         LIGNOSULFONATE : DRILLING FLUID TYPE
DFD .                    9.2 : DRILLING FLUID DENSITY
DFV .                     50 : DRILLING FLUID VISCOSITY
DFPH.                      9 : DRILLING FLUID PH
DFL .                      6 : DRILLING FLUID LOSS
MSS .              CIRC TANK : MUD SAMPLE SOURCE
RMS .OHMM               1.34 : RESISTIVITY MUD SAMPLE
MST .DEGF                 98 : MUD SAMPLE TEMPERATURE
RMF .OHMM                1.0 : RESISTIVITY MUD FILTRATE SAMPLE
MFST.DEGF                 98 : MUD FILTRATE SAMPLE TEMPERATURE
RMC .OHMM                2.0 : RESISTIVITY MUD CAKE
MCST.DEGF                 98 : MUD CAKE SAMPLE TEMPERATURE
MFSS.             CALCULATED : MUD FILTRATE SAMPLE SOURCE
MCSS.             CALCULATED : MUD CAKE SAMPLE SOURCE
RMB .OHMM              0.633 : RESISTIVITY MUD AT BHT
TCS .HRS                1600 : TIME CIRCULATED STOPPED
TLAB.HRS                2300 : TIME LOGGER AT BOTTOM
LUN .                   8176 : LOGGING UNIT NUMBER
LUL .                BRENHAM : LOGGING UNIT LOCATION
ENGI.                  BRUCK : RECORDING ENGINEER
WITN.                BECKHAM : WITNESSED BY
CLNT.                A2DTECH : CLIENT CODE
ORIG.            2" 5" PRINT : ORIGIN OF DATA
UWI .         42149308390000 : UNIQUE WELL ID
DICO. A2D Technologies, Inc. : DIGITIZING COMPANY
~Other -----------------------------------------------------
~ASCII -----------------------------------------------------
# ...
 7800.00000    -999.25   10.47650  841.25520    2.60150    -999.25    2.45020    -999.25    0.13680    0.15190    1.18870    -999.25    -999.25    -999.25   80.77540   80.77540    1.18870    1.23400    1.23400    -999.25    0.33650    0.29270    -999.25    1.35380   -4.42910   -7.39360    1.35380
 7850.00000    -999.25   11.19990  867.15230    3.32490    -999.25    -999.25    -999.25    -999.25    -999.25    1.15320    -999.25    -999.25    -999.25   85.64900   85.64900    1.15320    1.20990    1.20990    -999.25    -999.25    -999.25    -999.25    1.37650   -4.37830   -7.22840    1.37650
 7900.00000    -999.25    9.87380  687.56880    1.99880    -999.25    -999.25    -999.25    -999.25    -999.25    1.45440    -999.25    -999.25    -999.25   93.56720   93.56720    1.45440    1.53160    1.53160    -999.25    -999.25    -999.25    -999.25    1.79250   -0.70490   -3.44050    1.79250
 7950.00000    -999.25    9.36020  766.63600    1.48520    -999.25    -999.25    -999.25    -999.25    -999.25    1.30440    -999.25    -999.25    -999.25   91.18080   91.18080    1.30440    1.39920    1.39920    -999.25    -999.25    -999.25    -999.25    1.56880   -3.50390   -6.12510    1.56880
 8000.00000    -999.25    9.42130  685.54190    1.54630    -999.25    -999.25    -999.25    -999.25    -999.25    1.45870    -999.25    -999.25    -999.25   93.02900   93.02900    1.45870    1.56660    1.56660    -999.25    -999.25    -999.25    -999.25    1.65190   -4.11400   -6.62070    1.65190
 8050.00000    -999.25   10.37790  737.78960    2.50290    -999.25    -999.25    -999.25    -999.25    -999.25    1.35540    -999.25    -999.25    -999.25   92.15720   92.15720    1.35540    1.47430    1.47430    -999.25    -999.25    -999.25    -999.25    1.61830   -6.88170   -9.27400    1.61830
 8100.00000    -999.25   10.24130  748.39100    2.36630    -999.25    -999.25    -999.25    -999.25    -999.25    1.33620    -999.25    -999.25    -999.25  115.33450  115.33450    1.33620    1.19610    1.19610    -999.25    -999.25    -999.25    -999.25    1.53990   -1.64120   -3.91900    1.53990
 8150.00000    -999.25   10.67480  632.23110    2.79980    -999.25    -999.25    -999.25    -999.25    -999.25    1.58170    -999.25    -999.25    -999.25  112.13970  112.13970    1.58170    1.40620    1.40620    -999.25    -999.25    -999.25    -999.25    1.86640   -2.55800   -4.72140    1.86640
 8200.00000    -999.25   10.99510  685.87110    3.12010    -999.25    -999.25    -999.25    -999.25    -999.25    1.45800    -999.25    -999.25    -999.25   98.61410   98.61410    1.45800    1.30760    1.30760    -999.25    -999.25    -999.25    -999.25    1.65600   -1.50680   -3.55570    1.65600
 8250.00000    -999.25   11.78220  748.16700    3.90720    -999.25    -999.25    -999.25    -999.25    -999.25    1.33660    -999.25    -999.25    -999.25  106.16850  106.16850    1.33660    1.19340    1.19340    -999.25    -999.25    -999.25    -999.25    1.50240   -2.62990   -4.56440    1.50240
 8300.00000    -999.25   11.35540  679.11710    3.48040    -999.25    -999.25    -999.25    -999.25    -999.25    1.47250    -999.25    -999.25    -999.25  104.69380  104.69380    1.47250    1.31230    1.31230    -999.25    -999.25    -999.25    -999.25    1.68590   -2.13310   -3.95310    1.68590
 8350.00000    -999.25   11.17620  708.16510    3.30120    -999.25    -999.25    -999.25    -999.25    -999.25    1.41210    -999.25    -999.25    -999.25  105.60420  105.60420    1.41210    1.26060    1.26060    -999.25    -999.25    -999.25    -999.25    1.64180   -3.42870   -5.13430    1.64180
 8400.00000    -999.25   10.25440  657.46220    2.37940    -999.25    -999.25    -999.25    -999.25    -999.25    1.52100    -999.25    -999.25    -999.25  111.13240  111.13240    1.52100    1.38050    1.38050    -999.25    -999.25    -999.25    -999.25    1.84290   -1.17620   -2.76730    1.84290
 8450.00000    -999.25   11.44880  680.36470    3.57380    -999.25    -999.25    -999.25    -999.25    -999.25    1.46980    -999.25    -999.25    -999.25   86.31750   86.31750    1.46980    1.31620    1.31620    -999.25    -999.25    -999.25    -999.25    1.73940   -4.07620   -5.46680    1.73940
 8500.00000    -999.25   12.89210  661.94480    5.01710    -999.25    -999.25    -999.25    -999.25    -999.25    1.51070    -999.25    -999.25    -999.25   93.19750   93.19750    1.51070    1.33980    1.33980    -999.25    -999.25    -999.25    -999.25    1.77690   -6.32230   -7.43890    1.77690
 8550.00000    -999.25   12.01170  571.20010    4.13670    -999.25    -999.25    -999.25    -999.25    -999.25    1.75070    -999.25    -999.25    -999.25   92.18880   92.18880    1.75070    1.54390    1.54390    -999.25    -999.25    -999.25    -999.25    1.87350  -10.70360  -11.54630    1.87350
 8600.00000    -999.25   11.54770  598.69480    3.67270    -999.25    -999.25    -999.25    -999.25    -999.25    1.67030    -999.25    -999.25    -999.25  106.10970  106.10970    1.67030    1.50490    1.50490    -999.25    -999.25    -999.25    -999.25    1.96500   -7.64670   -8.21540    1.96500
 8650.00000    -999.25   10.54510  557.47570    2.67010    -999.25    -999.25    -999.25    -999.25    -999.25    1.79380    -999.25    -999.25    -999.25   89.75820   89.75820    1.79380    1.62900    1.62900    -999.25    -999.25    -999.25    -999.25    2.20290   -9.58960   -9.88440    2.20290
 8700.00000    -999.25   10.28110  460.12980    2.40610    -999.25    -999.25    -999.25    -999.25    -999.25    2.17330    -999.25    -999.25    -999.25   88.11200   88.11200    2.17330    1.94420    1.94420    -999.25    -999.25    -999.25    -999.25    2.54050  -12.31390  -12.33480    2.54050
 8750.00000    -999.25   12.51950  580.24830    4.64450    -999.25    -999.25    -999.25    -999.25    -999.25    1.72340    -999.25    -999.25    -999.25  130.77470  130.77470    1.72340    1.51570    1.51570    -999.25    -999.25    -999.25    -999.25    2.17130  -15.91740  -15.66430    2.17130
 8800.00000    -999.25    9.63480  484.16770    1.75980    -999.25    -999.25    -999.25    -999.25    -999.25    2.06540    -999.25    -999.25    -999.25   81.78400   81.78400    2.06540    1.84820    1.84820    -999.25    -999.25    -999.25    -999.25    2.43000  -10.63440  -10.10740    2.43000
 8850.00000    -999.25    9.66300  327.28940    1.78800    -999.25    -999.25    -999.25    -999.25    -999.25    3.05540    -999.25    -999.25    -999.25   63.35090   63.35090    3.05540    3.75240    3.75240    -999.25    -999.25    -999.25    -999.25    3.71510   -6.19640   -5.39540    3.71510
 8900.00000    -999.25    9.64000  224.64840    1.76500    -999.25    -999.25    -999.25    -999.25    -999.25    4.45140    -999.25    -999.25    -999.25   60.42290   60.42290    4.45140    5.92170    5.92170    -999.25    -999.25    -999.25    -999.25    5.01700  -11.97970  -10.95030    5.01700
 8950.00000    -999.25   10.50570  304.35840    2.63070    -999.25    -999.25    -999.25    -999.25    -999.25    3.28560    -999.25    -999.25    -999.25   72.49300   72.49300    3.28560    4.39360    4.39360    -999.25    -999.25    -999.25    -999.25    3.81670  -10.21010   -9.15940    3.81670
 9000.00000    -999.25   10.10720  350.74180    2.23220    -999.25    -999.25    -999.25    -999.25    -999.25    2.85110    -999.25    -999.25    -999.25   84.07700   84.07700    2.85110    3.69400    3.69400    -999.25    -999.25    -999.25    -999.25    3.36440   -9.29310   -8.22120    3.36440
 9050.00000    -999.25   10.55560  319.79530    2.68060    -999.25    -999.25    -999.25    -999.25    -999.25    3.12700    -999.25    -999.25    -999.25   78.04690   78.04690    3.12700    4.00180    4.00180    -999.25    -999.25    -999.25    -999.25    3.49910   -9.08460   -7.99140    3.49910
 9100.00000    -999.25   10.20050  317.45020    2.32550    -999.25    -999.25    -999.25    -999.25    -999.25    3.15010    -999.25    -999.25    -999.25   81.65770   81.65770    3.15010    4.31400    4.31400    -999.25    -999.25    -999.25    -999.25    3.88060  -15.23990  -14.12550    3.88060
