~Version ---------------------------------------------------
VERS. 2.0 : CWLS log ASCII Standard -VERSION 2.0
WRAP. YES : MULTIPLE LINES PER DEPTH STEP
~Well ------------------------------------------------------
STRT.FT                  300.0 : START DEPTH
STOP.FT                18600.0 : STOP DEPTH
STEP.FT               50.00000 : STEP LENGTH
NULL.                  -999.25 : NULL VALUE
COMP.        SHELL OIL COMPANY : COMPANY
WELL. PAWELEK BEN A ET AL A #1 : WELL
FLD .    PERSON AREA (WILDCAT) : FIELD
LOC .                          : LOCATION
CNTY.                   KARNES : COUNTY
STAT.                    TEXAS : STATE
CTRY. UNITED STATES OF AMERICA : COUNTRY
SRVC.             Schlumberger : SERVICE COMPANY
DATE.              22-May-1978 : LOGDATE
API .           42255305980000 : API NUMBER
UWI .           42255305980000 : UNIQUE WELL ID
SLAT.WGS84       29.0241796548 : SURFACE LATITUDE
SLON.WGS84      -97.8796797249 : SURFACE LONGITUDE
~Curve Information -----------------------------------------
DEPT    .FT    : DEPTH FEET
CALDED  .IN    : CALIPER FROM DENSITY LOG [DEP ADJ TO GRSED]
CALMED  .IN    : CALIPER FROM MICROLOG [DEP ADJ TO SFLED]
CALSED  .IN    : CALIPER FROM SONIC LOG
CALWS   .IN    : CALIPER [10 CALDED 4845.5 CALMED 4849 CALDED 17451 CALSED 17577 CALDED]
CONDWS  .MMHO  : CONDUCTIVITY [1000/DRESWS]
DCORWS  .G/C3  : DENSITY CORRECTION [DRHOED]
DENWS   .G/C3  : BULK DENSITY [M=2.71 F=1.0] [RHOBED]
DPHILSED.V/V   : DENSITY POROSITY [M=2.71 F=1.0] FROM DENSITY LOG [DEP ADJ TO GRSED/RHOBED]
DPHISSED.V/V   : DENSITY POROSITY [M=2.65 F=1.0] FROM DENSITY LOG [DEP ADJ TO GRSED/RHOBED]
DPOLSWS .V/V   : DENSITY POROSITY [M=2.71 F=1.0] [CAL FR DENWS]
DRESWS  .OHMM  : DEEP RESISTIVITY [ILDED]
DRHOED  .G/C3  : DENSITY CORRECTION FROM DENSITY LOG [DEP ADJ TO GRSED]
DTED    .US/F  : DELTA TIME FROM SONIC LOG
DTWS    .US/F  : DELTA TIME [DTED]
GRDED   .GAPI  : GAMMA RAY FROM DENSITY LOG
GRRED   .GAPI  : GAMMA RAY FROM RESISTIVITY LOG [DEP ADJ TO GRSED]
GRSED   .GAPI  : GAMMA RAY FROM SONIC LOG
GRWS    .GAPI  : GAMMA RAY [70 GRDED 4800.5 GRDEDNRM [0-100 TO 0-140]4844.5 GRSED 4853.5 GRDED 12903.5 GRSED 12939.5 GRDED 12962 GRSED 17526 GRDED 17550 GRRED 18607 GRDED]
ILDED   .OHMM  : INDUCTION LOG DEEP RESISTIVITY
ILMED   .OHMM  : INDUCTION LOG MEDIUM RESISTIVITY
MRESWS  .OHMM  : MEDIUM RESISTIVITY [ILMED]
NPHILSED.V/V   : NEUTRON POROSITY LISTONE FROM DENSITY LOG [DEP ADJ TO GRSED/RHOBED]
NPHISSED.V/V   : NEUTRON POROSITY SANDSTONE FROM DENSITY LOG [DEP ADJ TO GRSED/RHOBED]
NPOLSWS .V/V   : NEUTRON POROSITY LIMESTONE [10 NPOLSCAL 9446 NPHILSED] [NPHISSED IS CONVERTED TO NPOLSCAL USING POWERLOG MODULE]
PROXED  .OHMM  : PROXIMITY RESISTIVITY FROM MICROLOG [DEP ADJ TO SFLED]
RHOBED  .G/C3  : BULK DENSITY FROM DENSITY LOG [DEP ADJ TO GRSED]
SFLED   .OHMM  : SPHERICALLY FOCUSED LOG RESISTIVITY
SPRED   .MV    : SPONTANEOUS POTENTIAL FROM RESISTIVITY LOG [SHIFTS ARE REMOVED]
SPWS    .MV    : SPONTANEOUS POTENTIAL [BASELINE 0 MV] [SPRED][PL. USE W/ RESERVATIONS]
SRESWS  .OHMM  : SHALLOW RESISTIVITY [SFLED]
TENDED  .LBF   : TENSION FROM DENSITY LOG [DEP ADJ TO GRSED]
~Params ----------------------------------------------------
PD  .                     GL : PERMANENT DATUM
EPD .FT                  335 : ELEVATION PERMANENT DATUM
LMF .                     KB : LOG MEASURED FROM
DAPD.FT                   28 : FEET ABOVE PERMANENT DATUM
DMF .                     KB : DRILLING MEASURED FROM
EKB .FT                  363 : KELLY BUSHING
EDF .FT                  362 : DRILLING FLOOR
EGL .FT                  335 : GROUND LEVEL
DATE.               05/22/78 : RUN DATE
RUN .                      4 : RUN NUMBER
DD  .FT                18626 : DEPTH DRILLER
DL  .FT                18642 : DEPTH LOGGER
BLI .FT                18637 : BOTTOM LOG INTERVAL
TLI .FT                17550 : TOP LOG INTERVAL
CS  .IN                    7 : CASING SIZE
CBD .FT                17544 : CASING BOTTOM DRILLER
CBL .FT                17550 : CASING BOTTOM LOGGER
BS  .IN                    6 : BIT SIZE
BSD .FT                18626 : BIT SIZE AT DEPTH
DFT .               INVERMUL : DRILLING FLUID TYPE
DFD .                   17.6 : DRILLING FLUID DENSITY
DFV .                     70 : DRILLING FLUID VISCOSITY
DFL .                      2 : DRILLING FLUID LOSS
LUN .                   7799 : LOGGING UNIT NUMBER
LUL .                  PLEAS : LOGGING UNIT LOCATION
ENGI.             TURBEVILLE : RECORDING ENGINEER
WITN.                JARRELL : WITNESSED BY
CLNT.                A2DTECH : CLIENT CODE
ORIG.            2" 5" PRINT : ORIGIN OF DATA
UWI .         42255305980000 : UNIQUE WELL ID
DICO. A2D Technologies, Inc. : DIGITIZING COMPANY
~Other -----------------------------------------------------
~ASCII -----------------------------------------------------
  300.00000   15.75880    -999.25    -999.25   15.75880  388.07820    0.03760    1.93040    -999.25    -999.25    0.45590    2.57680    0.03760  201.47560  201.47560   64.74990    -999.25   57.18060   64.74990    2.57680    2.38050    2.38050    -999.25    -999.25    -999.25    -999.25    1.93040    2.26840  -81.30540   -6.86780    2.26840    -999.25
  350.00000   15.72980    -999.25    -999.25   15.72980  476.21320    0.04220    1.87960    -999.25    -999.25    0.48560    2.09990    0.04220  163.17770  163.17770   77.79740    -999.25   68.41900   77.79740    2.09990    1.97150    1.97150    -999.25    -999.25    -999.25    -999.25    1.87960    1.87480  -79.60880   -5.62940    1.87480    -999.25
  400.00000   15.57730    -999.25    -999.25   15.57730  338.98300    0.05180    1.94730    -999.25    -999.25    0.44600    2.95000    0.05180  149.63130  149.63130   61.76660    -999.25   55.69000   61.76660    2.95000    2.77620    2.77620    -999.25    -999.25    -999.25    -999.25    1.94730    2.38910  -80.11370   -6.59250    2.38910    -999.25
  450.00000   15.99870    -999.25    -999.25   15.99870  362.95010    0.02230    1.97410    -999.25    -999.25    0.43040    2.75520    0.02230  154.31130  154.31130   60.68750    -999.25   52.85600   60.68750    2.75520    2.42560    2.42560    -999.25    -999.25    -999.25    -999.25    1.97410    2.34360  -81.07660   -8.01360    2.34360    -999.25
  500.00000   15.35060    -999.25    -999.25   15.35060  376.94600    0.03530    2.01280    -999.25    -999.25    0.40770    2.65290    0.03530  139.79810  139.79810   63.03780    -999.25   57.66340   63.03780    2.65290    2.52480    2.52480    -999.25    -999.25    -999.25    -999.25    2.01280    2.45750  -79.46460   -6.85980    2.45750    -999.25
  550.00000   15.47010    -999.25    -999.25   15.47010  217.82220    0.02990    1.92970    -999.25    -999.25    0.45630    4.59090    0.02990  139.32010  139.32010   50.64980    -999.25   49.30370   50.64980    4.59090    3.95140    3.95140    -999.25    -999.25    -999.25    -999.25    1.92970    3.26180  -80.34180   -8.19520    3.26180    -999.25
  600.00000   15.31510    -999.25    -999.25   15.31510  724.21780    0.02370    1.79510    -999.25    -999.25    0.53500    1.38080    0.02370  159.94180  159.94180   67.59780    -999.25   69.03090   67.59780    1.38080    1.32260    1.32260    -999.25    -999.25    -999.25    -999.25    1.79510    1.27130  -74.56740   -2.87900    1.27130    -999.25
  650.00000   15.23490    -999.25    -999.25   15.23490  241.37100    0.04220    1.97300    -999.25    -999.25    0.43100    4.14300    0.04220  128.62870  128.62870   49.19220    -999.25   41.02410   49.19220    4.14300    3.82650    3.82650    -999.25    -999.25    -999.25    -999.25    1.97300    3.65940  -80.71090   -9.40580    3.65940    -999.25
  700.00000   15.77990    -999.25    -999.25   15.77990  686.86040    0.03930    1.92860    -999.25    -999.25    0.45700    1.45590    0.03930  164.04260  164.04260   64.92910    -999.25   59.53350   64.92910    1.45590    1.37610    1.37610    -999.25    -999.25    -999.25    -999.25    1.92860    1.61160  -74.68700   -3.73460    1.61160    -999.25
  750.00000   14.56340    -999.25    -999.25   14.56340  652.78410    0.02740    1.83060    -999.25    -999.25    0.51430    1.53190    0.02740  198.23540  198.23540   70.24940    -999.25   55.59620   70.24940    1.53190    1.45790    1.45790    -999.25    -999.25    -999.25    -999.25    1.83060    1.37530  -72.19660   -1.53810    1.37530    -999.25
  800.00000   16.28260    -999.25    -999.25   16.28260  306.00690    0.04310    1.97220    -999.25    -999.25    0.43150    3.26790    0.04310  150.31690  150.31690   50.24860    -999.25   44.82080   50.24860    3.26790    2.89730    2.89730    -999.25    -999.25    -999.25    -999.25    1.97220    2.70610  -81.73630  -11.12080    2.70610    -999.25
  850.00000   15.09750    -999.25    -999.25   15.09750  288.45040    0.04880    1.93830    -999.25    -999.25    0.45130    3.46680    0.04880  152.46800  152.46800   48.11520    -999.25   42.15700   48.11520    3.46680    3.25120    3.25120    -999.25    -999.25    -999.25    -999.25    1.93830    3.17010  -80.80560  -10.23310    3.17010    -999.25
  900.00000   16.02660    -999.25    -999.25   16.02660  192.54100    0.00760    1.98650    -999.25    -999.25    0.42310    5.19370    0.00760  146.72930  146.72930   54.29130    -999.25   44.99880   54.29130    5.19370    4.38900    4.38900    -999.25    -999.25    -999.25    -999.25    1.98650    3.84450  -80.33810   -9.80850    3.84450    -999.25
  950.00000   15.42610    -999.25    -999.25   15.42610  557.41360    0.09390    2.00820    -999.25    -999.25    0.41040    1.79400    0.09390  160.99780  160.99780   71.35150    -999.25   65.09410   71.35150    1.79400    1.70270    1.70270    -999.25    -999.25    -999.25    -999.25    2.00820    1.64780  -78.96540   -8.47880    1.64780    -999.25
 1000.00000   15.30800    -999.25    -999.25   15.30800  198.39300    0.00110    1.99590    -999.25    -999.25    0.41760    5.04050    0.00110  141.61870  141.61870   51.39750    -999.25   42.26590   51.39750    5.04050    4.82750    4.82750    -999.25    -999.25    -999.25    -999.25    1.99590    4.67800  -79.54520   -9.10160    4.67800    -999.25
 1050.00000   16.25440    -999.25    -999.25   16.25440  204.06500    0.03680    1.97970    -999.25    -999.25    0.42710    4.90040    0.03680  147.04790  147.04790   47.20500    -999.25   40.34690   47.20500    4.90040    3.89340    3.89340    -999.25    -999.25    -999.25    -999.25    1.97970    3.64190  -78.63930   -8.23870    3.64190    -999.25
 1100.00000   16.23890    -999.25    -999.25   16.23890  225.66230    0.00460    1.97370    -999.25    -999.25    0.43060    4.43140    0.00460  145.57640  145.57640   50.45790    -999.25   46.65640   50.45790    4.43140    3.84430    3.84430    -999.25    -999.25    -999.25    -999.25    1.97370    3.45650  -79.07840   -8.72070    3.45650    -999.25
 1150.00000   15.68070    -999.25    -999.25   15.68070  384.34930    0.01740    2.02850    -999.25    -999.25    0.39850    2.60180    0.01740  151.89870  151.89870   72.64970    -999.25   60.14530   72.64970    2.60180    2.28340    2.28340    -999.25    -999.25    -999.25    -999.25    2.02850    1.92420  -77.69360   -7.37890    1.92420    -999.25
 1200.00000   16.30320    -999.25    -999.25   16.30320  330.64410    0.06120    2.04060    -999.25    -999.25    0.39150    3.02440    0.06120  146.12000  146.12000   50.99760    -999.25   44.81130   50.99760    3.02440    2.80270    2.80270    -999.25    -999.25    -999.25    -999.25    2.04060    2.46280  -78.20040   -7.92870    2.46280    -999.25
 1250.00000   15.20400    -999.25    -999.25   15.20400  290.83290    0.01380    1.98190    -999.25    -999.25    0.42580    3.43840    0.01380  141.28710  141.28710   46.74440    -999.25   38.56590   46.74440    3.43840    3.01760    3.01760    -999.25    -999.25    -999.25    -999.25    1.98190    2.75780  -79.08490   -8.85620    2.75780    -999.25
 1300.00000   15.76270    -999.25    -999.25   15.76270  324.47520    0.03040    2.01480    -999.25    -999.25    0.40650    3.08190    0.03040  144.74230  144.74230   49.60360    -999.25   42.25080   49.60360    3.08190    2.89910    2.89910    -999.25    -999.25    -999.25    -999.25    2.01480    2.61930  -76.80450   -6.61880    2.61930    -999.25
 1350.00000   14.94360    -999.25    -999.25   14.94360  652.52860    0.03820    1.93160    -999.25    -999.25    0.45520    1.53250    0.03820  151.69390  151.69390   53.03720    -999.25   46.68480   53.03720    1.53250    1.49500    1.49500    -999.25    -999.25    -999.25    -999.25    1.93160    1.45730  -76.86970   -6.72690    1.45730    -999.25
 1400.00000   15.41870    -999.25    -999.25   15.41870  514.53560    0.05770    1.77390    -999.25    -999.25    0.54740    1.94350    0.05770  155.70400  155.70400   43.62790    -999.25   39.64420   43.62790    1.94350    1.79290    1.79290    -999.25    -999.25    -999.25    -999.25    1.77390    1.70640  -76.77580   -6.67600    1.70640    -999.25
