~Version ---------------------------------------------------
VERS.      2.0 : CWLS log ASCII Standard -VERSION 2.0
WRAP.      YES : Multiple lines per depth step
CREA. 08/08/12 : LAS Creation Date
~Well ------------------------------------------------------
STRT.FT                 3750.0 : START DEPTH
STOP.FT                10100.0 : STOP DEPTH
STEP.FT               50.00000 : STEP LENGTH
NULL.                  -999.25 : NULL VALUE
COMP.              GOSE, STEVE : COMPANY
WELL.         VACLAVIC UNIT #1 : WELL
FLD .                 GIDDINGS : FIELD
LOC .                          : LOCATION
CNTY.                  FAYETTE : COUNTY
STAT.                    TEXAS : STATE
CTRY. UNITED STATES OF AMERICA : COUNTRY
SRVC.             Schlumberger : SERVICE COMPANY
DATE.              13-Aug-1981 : LOGDATE
API .           42149308390000 : API NUMBER
UWI .           42149308390000 : UNIQUE WELL ID
SLAT.WGS84       29.9573034487 : SURFACE LATITUDE
SLON.WGS84      -96.9214592176 : SURFACE LONGITUDE
~Curve Information -----------------------------------------
DEPT    .FT    : DEPTH FEET
CALDED  .IN    : CALIPER FROM DENSITY PLAYBACK LOG
CALWS   .IN    : CALIPER [DCALED + BITS SPLICED WITH CALDED @ 9170']
CONDWS  .MMHO  : CONDUCTIVITY [1000/DRESWS]
DCALED  .IN    : DIFRENTIAL CALIPER FROM DUAL INDUCTION/DENSITY/NEUTRON/GR LOG
DCORWS  .G/C3  : DENSITY CORRECTION [DRHOED]
DENWS   .G/C3  : FORMATION BULK DENSITY [CALCUALATED FROM DPOWS, M=2.71, F=1.0 & SPLICED WITH RHOBED @ 7810']
DPHILSED.V/V   : DENSITY POROSITY LIMESTONE [M=2.71, F=1.0] FROM DUAL INDUCTION/DENSITY/NEUTRON/GR LOG
DPHISSED.V/V   : DENSITY POROSOTY SANDSTONE [M=2.68, F=1.0] FROM DUAL INDUCTION/DENSITY/NEUTRON/GR LOG
DPOWS   .V/V   : DENSITY POROSITY LIMESTONE[DPHISSED CONVERTED TO LIMESTONE(M=2.71, F=1.0) & SPLICED TO DPHILSED AT 7810']
DRESWS  .OHMM  : DEEP RESISTIVITY [ILDED]
DRHO1ED .G/C3  : DENSITY CORRECTION FROM DUAL INDUCTION/DENSITY/NEUTRON/GR LOG
DRHOED  .G/C3  : DENSITY CORRECTION FROM DENSITY PLAYBACK LOG
GRDED   .GAPI  : GAMMA RAY FROM DENSITY PLAYBACK LOG
GRRED   .GAPI  : GAMMA RAY FROM DUAL INDUCTION/DENSITY/NEUTRON/GR LOG
GRWS    .GAPI  : GAMMA RAY [GRRED]
ILDED   .OHMM  : DEEP INDUCTION FROM DUAL INDUCTION/DENSITY/NEUTRON/GR LOG
ILMED   .OHMM  : MEDIUM INDUCTION FROM DUAL INDUCTION/DENSITY/NEUTRON/GR LOG
MRESWS  .OHMM  : MEDIUM RESISTIVITY [ILMED]
NPHILSED.V/V   : NEUTRON POROSITY LIMESTONE FROM DUAL INDUCTION/DENSITY/NEUTRON/GR LOG
NPHISSED.V/V   : NEUTRON POROSITY SANDSTONE FROM DUAL INDUCTION/DENSITY/NEUTRON/GR LOG
NPOWS   .V/V   : NEUTRON POROSITY LIMESTONE [NPHISSED MATRIX CONVERTED TO LIMESTONE & SPLICED WITH NPHILSED AT 7810']
RHOBED  .G/C3  : BULK DENSITY FROM DENSITY PLAYBACK LOG
SFLUED  .OHMM  : SPHERICALLY FOCUSED (UNAVERAGED) INDUCTION FROM DUAL INDUCTION/DENSITY/NEUTRON/GR LOG
SPRED   .MV    : SPONTANEOUS POTENTIAL FROM DUAL INDUCTION/DENSITY/NEUTRON/GR LOG
SPWS    .MV    : SPONTANEOUS POTENTIAL [BASELINE 0 MV, SPRED]
SRESWS  .OHMM  : SHALLOW RESISTIVITY [SFLUED]
~Params ----------------------------------------------------
PD  .                     GL : PERMANENT DATUM
EPD .FT                  253 : ELEVATION PERMANENT DATUM
LMF .                     KB : LOG MEASURED FROM
DAPD.FT                   12 : FEET ABOVE PERMANENT DATUM
DMF .                     KB : DRILLING MEASURED FROM
EKB .FT                  265 : KELLY BUSHING
EDF .FT                  264 : DRILLING FLOOR
EGL .FT                  253 : GROUND LEVEL
DATE.               08/13/81 : RUN DATE
RUN .                      1 : RUN NUMBER
DD  .FT                10160 : DEPTH DRILLER
DL  .FT                10145 : DEPTH LOGGER
BLI .FT                10139 : BOTTOM LOG INTERVAL
TLI .FT                 3712 : TOP LOG INTERVAL
CS  .IN                8.625 : CASING SIZE
CBD .FT                 3726 : CASING BOTTOM DRILLER
CBL .FT                 3712 : CASING BOTTOM LOGGER
BS  .IN                7.875 : BIT SIZE
BSD .FT                10160 : BIT SIZE AT DEPTH
DFT .         LIGNOSULFONATE : DRILLING FLUID TYPE
DFD .                    9.2 : DRILLING FLUID DENSITY
DFV .                     50 : DRILLING FLUID VISCOSITY
DFPH.                      9 : DRILLING FLUID PH
DFL .                      6 : DRILLING FLUID LOSS
MSS .              CIRC TANK : MUD SAMPLE SOURCE
RMS .OHMM               1.34 : RESISTIVITY MUD SAMPLE
MST .DEGF                 98 : MUD SAMPLE TEMPERATURE
RMF .OHMM                1.0 : RESISTIVITY MUD FILTRATE SAMPLE
MFST.DEGF                 98 : MUD FILTRATE SAMPLE TEMPERATURE
RMC .OHMM                2.0 : RESISTIVITY MUD CAKE
MCST.DEGF                 98 : MUD CAKE SAMPLE TEMPERATURE
MFSS.             CALCULATED : MUD FILTRATE SAMPLE SOURCE
MCSS.             CALCULATED : MUD CAKE SAMPLE SOURCE
RMB .OHMM              0.633 : RESISTIVITY MUD AT BHT
TCS .HRS                1600 : TIME CIRCULATED STOPPED
TLAB.HRS                2300 : TIME LOGGER AT BOTTOM
LUN .                   8176 : LOGGING UNIT NUMBER
LUL .                BRENHAM : LOGGING UNIT LOCATION
ENGI.                  BRUCK : RECORDING ENGINEER
WITN.                BECKHAM : WITNESSED BY
CLNT.                A2DTECH : CLIENT CODE
ORIG.            2" 5" PRINT : ORIGIN OF DATA
UWI .         42149308390000 : UNIQUE WELL ID
DICO. A2D Technologies, Inc. : DIGITIZING COMPANY
~Other -----------------------------------------------------
~ASCII -----------------------------------------------------
# ...
 6450.00000    -999.25    8.91900  482.55560    1.04400    -999.25    -999.25    -999.25    -999.25    -999.25    2.07230    -999.25    -999.25    -999.25  104.06590  104.06590    2.07230    2.14390    2.14390    -999.25    -999.25    -999.25    -999.25    2.31490   -5.72710   -6.78530    2.31490
 6500.00000    -999.25    8.81980  474.45080    0.94480    -999.25    -999.25    -999.25    -999.25    -999.25    2.10770    -999.25    -999.25    -999.25  101.31830  101.31830    2.10770    2.19360    2.19360    -999.25    -999.25    -999.25    -999.25    2.40950  -11.11880  -12.23050    2.40950
 6550.00000    -999.25    8.84670  488.51980    0.97170    -999.25    -999.25    -999.25    -999.25    -999.25    2.04700    -999.25    -999.25    -999.25  106.82890  106.82890    2.04700    2.14470    2.14470    -999.25    -999.25    -999.25    -999.25    2.28590   -6.65460   -7.81980    2.28590
 6600.00000    -999.25    9.02290  484.73100    1.14790    -999.25    -999.25    -999.25    -999.25    -999.25    2.06300    -999.25    -999.25    -999.25   95.48410   95.48410    2.06300    2.13790    2.13790    -999.25    -999.25    -999.25    -999.25    2.43340   -7.37290   -8.59160    2.43340
 6650.00000    -999.25    8.62780  524.85170    0.75280    -999.25    -999.25    -999.25    -999.25    -999.25    1.90530    -999.25    -999.25    -999.25   96.39910   96.39910    1.90530    2.00390    2.00390    -999.25    -999.25    -999.25    -999.25    2.17070   -7.92750   -9.19970    2.17070
 6700.00000    -999.25    8.98900  514.95960    1.11400    -999.25    -999.25    -999.25    -999.25    -999.25    1.94190    -999.25    -999.25    -999.25  106.67170  106.67170    1.94190    2.04220    2.04220    -999.25    -999.25    -999.25    -999.25    2.17660   -3.63560   -4.96130    2.17660
 6750.00000    -999.25    9.35510  478.03430    1.48010    -999.25    -999.25    -999.25    -999.25    -999.25    2.09190    -999.25    -999.25    -999.25   98.16760   98.16760    2.09190    2.16220    2.16220    -999.25    -999.25    -999.25    -999.25    2.34140   -3.74820   -5.12730    2.34140
 6800.00000    -999.25    9.74030  467.28970    1.86530    -999.25    -999.25    -999.25    -999.25    -999.25    2.14000    -999.25    -999.25    -999.25   98.69960   98.69960    2.14000    2.19240    2.19240    -999.25    -999.25    -999.25    -999.25    2.45840   -2.57840   -4.01100    2.45840
 6850.00000    -999.25   10.05420  582.95440    2.17920    -999.25    -999.25    -999.25    -999.25    -999.25    1.71540    -999.25    -999.25    -999.25  105.08580  105.08580    1.71540    1.79350    1.79350    -999.25    -999.25    -999.25    -999.25    1.99130   -2.03040   -3.51650    1.99130
 6900.00000    -999.25   10.64230  552.57780    2.76730    -999.25    -999.25    -999.25    -999.25    -999.25    1.80970    -999.25    -999.25    -999.25   96.02050   96.02050    1.80970    1.88340    1.88340    -999.25    -999.25    -999.25    -999.25    2.11230   -5.07070   -6.61030    2.11230
 6950.00000    -999.25   10.61620  605.43680    2.74120    -999.25    -999.25    -999.25    -999.25    -999.25    1.65170    -999.25    -999.25    -999.25  104.49770  104.49770    1.65170    1.71570    1.71570    -999.25    -999.25    -999.25    -999.25    1.89830   -2.02470   -3.61780    1.89830
 7000.00000    -999.25   11.05370  670.55590    3.17870    -999.25    -999.25    -999.25    -999.25    -999.25    1.49130    -999.25    -999.25    -999.25   98.36830   98.36830    1.49130    1.56850    1.56850    -999.25    -999.25    -999.25    -999.25    1.83150   -7.70550   -9.35210    1.83150
 7050.00000    -999.25   10.97580  562.96800    3.10080    -999.25    -999.25    -999.25    -999.25    -999.25    1.77630    -999.25    -999.25    -999.25  105.69020  105.69020    1.77630    1.84300    1.84300    -999.25    -999.25    -999.25    -999.25    1.98380   -7.69790   -9.39800    1.98380
 7100.00000    -999.25   11.22330  617.43640    3.34830    -999.25    -999.25    -999.25    -999.25    -999.25    1.61960    -999.25    -999.25    -999.25   99.39780   99.39780    1.61960    1.68260    1.68260    -999.25    -999.25    -999.25    -999.25    1.86680   -5.09880   -6.85230    1.86680
 7150.00000    -999.25   12.05860  684.13490    4.18360    -999.25    -999.25    -999.25    -999.25    -999.25    1.46170    -999.25    -999.25    -999.25  101.44170  101.44170    1.46170    1.49710    1.49710    -999.25    -999.25    -999.25    -999.25    1.71820   -9.16780  -10.97480    1.71820
 7200.00000    -999.25   11.78710  774.83340    3.91210    -999.25    -999.25    -999.25    -999.25    -999.25    1.29060    -999.25    -999.25    -999.25  102.76910  102.76910    1.29060    1.36020    1.36020    -999.25    -999.25    -999.25    -999.25    1.51790   -4.78110   -6.64160    1.51790
 7250.00000    -999.25   10.91180  704.42380    3.03680    -999.25    -999.25    -999.25    -999.25    -999.25    1.41960    -999.25    -999.25    -999.25   98.91160   98.91160    1.41960    1.51610    1.51610    -999.25    -999.25    -999.25    -999.25    1.59440   -3.58340   -5.49740    1.59440
 7300.00000    -999.25   11.10250  997.70530    3.22750    -999.25    2.46970    -999.25    0.12520    0.14050    1.00230    -999.25    -999.25    -999.25  101.42320  101.42320    1.00230    1.09420    1.09420    -999.25    0.31580    0.27190    -999.25    1.18350   -0.96000   -2.92750    1.18350
 7350.00000    -999.25   10.82170  812.94200    2.94670    -999.25    2.47710    -999.25    0.12080    0.13620    1.23010    -999.25    -999.25    -999.25   91.69510   91.69510    1.23010    1.28830    1.28830    -999.25    0.30110    0.25710    -999.25    1.49400   -0.14490   -2.16590    1.49400
 7400.00000    -999.25    9.87500  574.61360    2.00000    -999.25    2.54540    -999.25    0.08010    0.09620    1.74030    -999.25    -999.25    -999.25   78.77830   78.77830    1.74030    1.79470    1.79470    -999.25    0.25690    0.21300    -999.25    1.95500   -6.10160   -9.98170    1.95500
 7450.00000    -999.25   10.67850  714.08170    2.80350    -999.25    2.50510    -999.25    0.10410    0.11980    1.40040    -999.25    -999.25    -999.25   87.23890   87.23890    1.40040    1.43160    1.43160    -999.25    0.33340    0.28960    -999.25    1.46540   -5.79720   -9.56290    1.46540
 7500.00000    -999.25   11.40000  865.05190    3.52500    -999.25    2.49150    -999.25    0.11220    0.12780    1.15600    -999.25    -999.25    -999.25   93.83600   93.83600    1.15600    1.23380    1.23380    -999.25    0.34130    0.29760    -999.25    1.28080   -7.58070  -11.23190    1.28080
 7550.00000    -999.25   11.71790  951.74650    3.84290    -999.25    2.50800    -999.25    0.10240    0.11810    1.05070    -999.25    -999.25    -999.25   87.84880   87.84880    1.05070    1.10430    1.10430    -999.25    0.33550    0.29170    -999.25    1.22870   -4.62420   -8.16100    1.22870
 7600.00000    -999.25   10.23750  661.63820    2.36250    -999.25    2.51960    -999.25    0.09550    0.11140    1.51140    -999.25    -999.25    -999.25   92.44670   92.44670    1.51140    1.56280    1.56280    -999.25    0.31360    0.26970    -999.25    1.46760   -5.95920   -9.38150    1.46760
 7650.00000    -999.25    9.04660  475.51120    1.17160    -999.25    2.59060    -999.25    0.05320    0.06980    2.10300    -999.25    -999.25    -999.25   80.69910   80.69910    2.10300    2.21680    2.21680    -999.25    0.25340    0.20950    -999.25    2.41570   -2.30750   -5.61540    2.41570
 7700.00000    -999.25    8.45260  464.53290    0.57760    -999.25    2.45000    -999.25    0.13690    0.15200    2.15270    -999.25    -999.25    -999.25   74.93380   74.93380    2.15270    2.35600    2.35600    -999.25    0.29920    0.25520    -999.25    2.07880   -6.00260   -9.19600    2.07880
 7750.00000    -999.25    9.67440  659.58710    1.79940    -999.25    2.51540    -999.25    0.09800    0.11380    1.51610    -999.25    -999.25    -999.25   86.50170   86.50170    1.51610    1.58440    1.58440    -999.25    0.32240    0.27850    -999.25    1.90330   -5.78260   -8.86160    1.90330
