~Version ---------------------------------------------------
VERS.      2.0 : CWLS log ASCII Standard -VERSION 2.0
WRAP.      YES : Multiple lines per depth step
CREA. 08/24/12 : LAS Creation Date
~Well ------------------------------------------------------
STRT.FT                   3950.0 : START DEPTH
STOP.FT                   8050.0 : STOP DEPTH
STEP.FT                 50.00000 : STEP LENGTH
NULL.                    -999.25 : NULL VALUE
COMP. CHAMPLIN PETROLEUM COMPANY : COMPANY
WELL.      JAMES SEBESTA UNIT #1 : WELL
FLD .                   GIDDINGS : FIELD
LOC .                            : LOCATION
CNTY.                   BURLESON : COUNTY
STAT.                      TEXAS : STATE
CTRY.   UNITED STATES OF AMERICA : COUNTRY
SRVC.               Schlumberger : SERVICE COMPANY
DATE.                21-Jun-1980 : LOGDATE
API .             42051307260000 : API NUMBER
UWI .             42051307260000 : UNIQUE WELL ID
SLAT.WGS84         30.5300439853 : SURFACE LATITUDE
SLON.WGS84         -96.633329984 : SURFACE LONGITUDE
~Curve Information -----------------------------------------
DEPT    .FT    : DEPTH FEET
CALDED  .IN    : CALIPER FROM COMPENSATED NEUTRON FORMATION DENSITY LOG
CALWS   .IN    : CALIPER [CALDED]
CONDWS  .MMHO  : CONDUCTIVITY [1000/DRESWS]
DCORWS  .G/C3  : DENSITY CORRECTION [DRHOED]
DENWS   .G/C3  : BULK DENSITY [RHOBED]
DPHILSED.V/V   : DENSITY POROSITY LIMESTONE [M=2.65 F=1.0] FROM COMPENSATED NEUTRON FORMATION DENSITY LOG
DPHISSED.V/V   : DENSITY POROSITY SANDSTONE [M=2.65 F=1.0] FROM COMPENSATED NEUTRON FORMATION DENSITY LOG
DPOWS   .V/V   : DENSITY POROSITY LIMESTONE [M=2.71, F=1.0] [CALCULATED FROM DENWS]
DRESWS  .OHMM  : DEEP RESISTIVITY [ILDED]
DRHOED  .G/C3  : BULK DENSITY CORRECTION FROM COMPENSATED NEUTRON FORMATION DENSITY LOG
DTED    .US/F  : ACOUSTIC TRANSIT TIME SLOWNESS FROM DUAL INDUCTION-SFL-SONIC LOG
DTWS    .US/F  : COMPRESSIONAL SONIC [DTED]
GRDED   .GAPI  : GAMMA RAY FROM COMPENSATED NEUTRON FORMATION DENSITY LOG [ADJ. TO GRRED]
GRRED   .GAPI  : GAMMA RAY FROM RESISTIVITY FROM DUAL INDUCTION-SFL-SONIC LOG
GRWS    .GAPI  : GAMMA RAY [GRRED]
ILDED   .OHMM  : DEEP INDUCTION RESISTIVITY FROM DUAL INDUCTION-SFL-SONIC LOG
ILMED   .OHMM  : INDUCTION LOG MEDIUM RESISTIVITY FROM DUAL INDUCTION-SFL-SONIC LOG
MRESWS  .OHMM  : MEDIUM RESISTIVITY [ILMED]
NPHILSED.V/V   : NEUTRON POROSITY LIMESTONE FROM COMPENSATED NEUTRON FORMATION DENSITY LOG [ADJ. TO GRDED/DTWS]
NPHISSED.V/V   : NEUTRON POROSITY SANDSTONE FROM COMPENSATED NEUTRON FORMATION DENSITY LOG  [ADJ. TO GRDED/DTWS]
NPOWS   .V/V   : NEUTRON POROSITY LIMESTONE [NPHISSED MATRIX CONVERTED TO LIMESTONE & SPL. TO NPHILSED @ 6003.5' ]
RHOBED  .G/C3  : BULK DENSITY FROM COMPENSATED NEUTRON FORMATION DENSITY LOG
SFLUED  .OHMM  : SPHERICALLY FOCUSED LOG FROM DUAL INDUCTION-SFL-SONIC LOG
SPHILSED.V/V   : SONIC POROSITY LIMESTONE FROM SONIC DENSITY LOG
SPOWS   .V/V   : SONIC POROSITY LIMESTONE [SPHIED]
SPRED   .MV    : SPONTANEOUS POTENTIAL FROM DUAL INDUCTION-SFL-SONIC LOG
SPWS    .MV    : SPONTANEOUS POTENTIAL [BASELINE 0 MV, SPRED]
SRESWS  .OHMM  : SHALLOW RESISTIVITY [SFLUED]
~Params ----------------------------------------------------
PD  .                     GL : PERMANENT DATUM
EPD .FT                  379 : ELEVATION PERMANENT DATUM
LMF .                     KB : LOG MEASURED FROM
DAPD.FT                   17 : FEET ABOVE PERMANENT DATUM
DMF .                     KB : DRILLING MEASURED FROM
EKB .FT                  396 : KELLY BUSHING
EDF .FT                  395 : DRILLING FLOOR
EGL .FT                  379 : GROUND LEVEL
DATE.               06/21/80 : RUN DATE
RUN .                      1 : RUN NUMBER
DD  .FT                 8065 : DEPTH DRILLER
DL  .FT                 8061 : DEPTH LOGGER
BLI .FT                 8054 : BOTTOM LOG INTERVAL
TLI .FT                 3977 : TOP LOG INTERVAL
CS  .IN                9.625 : CASING SIZE
CBD .FT                 3968 : CASING BOTTOM DRILLER
CBL .FT                 3977 : CASING BOTTOM LOGGER
BS  .IN                  8.5 : BIT SIZE
BSD .FT                 8065 : BIT SIZE AT DEPTH
DFT .             BEN EX GEL : DRILLING FLUID TYPE
DFD .                    9.9 : DRILLING FLUID DENSITY
DFV .                     46 : DRILLING FLUID VISCOSITY
DFPH.                    9.5 : DRILLING FLUID PH
DFL .                    9.5 : DRILLING FLUID LOSS
MSS .               CIRC PIT : MUD SAMPLE SOURCE
RMS .OHMM               1.86 : RESISTIVITY MUD SAMPLE
MST .DEGF                 80 : MUD SAMPLE TEMPERATURE
RMF .OHMM               1.81 : RESISTIVITY MUD FILTRATE SAMPLE
MFST.DEGF                 80 : MUD FILTRATE SAMPLE TEMPERATURE
RMC .OHMM               2.29 : RESISTIVITY MUD CAKE
MCST.DEGF                 80 : MUD CAKE SAMPLE TEMPERATURE
MFSS.                      M : MUD FILTRATE SAMPLE SOURCE
MCSS.                      C : MUD CAKE SAMPLE SOURCE
RMB .OHMM               0.76 : RESISTIVITY MUD AT BHT
TCS .HRS                2000 : TIME CIRCULATED STOPPED
TLAB.HRS                 130 : TIME LOGGER AT BOTTOM
LUN .                   8096 : LOGGING UNIT NUMBER
LUL .                BRENHAM : LOGGING UNIT LOCATION
ENGI.               HENDRICK : RECORDING ENGINEER
WITN.                CAMERON : WITNESSED BY
CLNT.                A2DTECH : CLIENT CODE
ORIG.          1" 2.5" PRINT : ORIGIN OF DATA
UWI .         42051307260000 : UNIQUE WELL ID
DICO. A2D Technologies, Inc. : DIGITIZING COMPANY
~Other -----------------------------------------------------
ALL CNFD CURVES NOT SHIFTED TO GRDED AS THEY ARE ON-DEPTH WITH GRDED.
~ASCII -----------------------------------------------------
 3950.00000    -999.25    -999.25    -999.25    -999.25    -999.25    -999.25    -999.25    -999.25    -999.25    -999.25    -999.25    -999.25   74.75910   68.08920   68.08920    -999.25    -999.25    -999.25    -999.25    -999.25    -999.25    -999.25    -999.25    -999.25    -999.25    -999.25    -999.25    -999.25
 4000.00000    8.54300    8.54300  257.65890    0.01270    2.16540    -999.25    0.28850    0.31850    3.88110    0.01270  109.68670  109.68670   98.80610   95.80500   95.80500    3.88110    4.15330    4.15330    -999.25    0.42290    0.38050    2.16540    4.23430    -999.25    -999.25  -10.06420   -4.62860    4.23430
 4050.00000    9.53130    9.53130  423.42380    0.09580    2.32140    -999.25    0.19660    0.22730    2.36170    0.09580  101.96290  101.96290  121.85150  116.93620  116.93620    2.36170    2.30530    2.30530    -999.25    0.39360    0.35060    2.32140    2.69150    -999.25    -999.25    1.10940   -1.98070    2.69150
 4100.00000    9.19250    9.19250  410.05450    0.09160    2.37380    -999.25    0.16390    0.19660    2.43870    0.09160  101.95470  101.95470  111.58700  109.26360  109.26360    2.43870    2.27630    2.27630    -999.25    0.38280    0.33960    2.37380    2.53960    -999.25    -999.25   -0.47570   -3.73940    2.53960
 4150.00000    8.68420    8.68420  388.86300    0.06530    2.34240    -999.25    0.18300    0.21500    2.57160    0.06530   96.83040   96.83040  106.57190   99.65240   99.65240    2.57160    2.43030    2.43030    -999.25    0.36390    0.32040    2.34240    2.88660    -999.25    -999.25   -4.57930   -8.01660    2.88660
 4200.00000    8.52900    8.52900  368.43270    0.02460    2.35500    -999.25    0.17850    0.20760    2.71420    0.02460   99.32550   99.32550  109.24110   96.57500   96.57500    2.71420    2.60920    2.60920    -999.25    0.36630    0.32290    2.35500    3.01260    -999.25    -999.25   -8.75220  -12.36310    3.01260
 4250.00000    8.91180    8.91180  345.47090    0.04320    2.34310    -999.25    0.17960    0.21460    2.89460    0.04320   98.22140   98.22140  100.12320   94.57360   94.57360    2.89460    2.76990    2.76990    -999.25    0.31600    0.27210    2.34310    3.02670    -999.25    -999.25   -5.57200   -9.35650    3.02670
 4300.00000    9.13690    9.13690  464.27410    0.05360    2.32410    -999.25    0.18670    0.22570    2.15390    0.05360  100.27090  100.27090  112.68160  105.78520  105.78520    2.15390    2.06710    2.06710    -999.25    0.34670    0.30300    2.32410    2.25360    -999.25    -999.25   -0.12510   -4.08310    2.25360
 4350.00000    9.20160    9.20160  452.50920    0.14360    2.38020    -999.25    0.16510    0.19290    2.20990    0.14360   96.47190   96.47190  110.56040  107.85960  107.85960    2.20990    2.12340    2.12340    -999.25    0.40230    0.35950    2.38020    2.32320    -999.25    -999.25    0.51960   -3.61200    2.32320
 4400.00000    9.53660    9.53660  618.92680    0.08210    2.22590    -999.25    0.24940    0.28310    1.61570    0.08210  103.51020  103.51020  116.79600   98.23130   98.23130    1.61570    1.52660    1.52660    -999.25    0.41130    0.36870    2.22590    1.74110    -999.25    -999.25    1.56560   -2.73960    1.74110
 4450.00000    9.16270    9.16270  478.74380    0.18590    2.37530    -999.25    0.16370    0.19570    2.08880    0.18590   93.17380   93.17380  104.09720   94.56150   94.56150    2.08880    2.00810    2.00810    -999.25    0.41580    0.37330    2.37530    2.21690    -999.25    -999.25    1.18570   -3.29310    2.21690
 4500.00000    9.37690    9.37690  580.65270    0.09550    2.36460    -999.25    0.17170    0.20200    1.72220    0.09550  102.77070  102.77070  112.46090   96.67690   96.67690    1.72220    1.65560    1.65560    -999.25    0.40810    0.36540    2.36460    1.82270    -999.25    -999.25    0.66730   -3.98510    1.82270
 4550.00000   10.55820   10.55820  643.87350    0.09920    2.33820    -999.25    0.17610    0.21740    1.55310    0.09920  105.45630  105.45630  116.24300  102.22250  102.22250    1.55310    1.48970    1.48970    -999.25    0.40450    0.36170    2.33820    1.64960    -999.25    -999.25   -0.25530   -5.08130    1.64960
 4600.00000   10.56310   10.56310  661.85720    0.09070    2.43230    -999.25    0.10350    0.16240    1.51090    0.09070  104.12260  104.12260  115.56540  102.10380  102.10380    1.51090    1.45230    1.45230    -999.25    0.37230    0.32900    2.43230    1.58880    -999.25    -999.25   -0.45330   -5.45280    1.58880
 4650.00000   10.69840   10.69840  781.86080    0.06270    2.35630    -999.25    0.16660    0.20680    1.27900    0.06270  109.32790  109.32790  124.46900   98.02290   98.02290    1.27900    1.22940    1.22940    -999.25    0.43340    0.39130    2.35630    1.37220    -999.25    -999.25   -1.43810   -6.61120    1.37220
 4700.00000    9.48760    9.48760  499.85000    0.02890    2.49530    -999.25    0.09110    0.12560    2.00060    0.02890   95.86760   95.86760  123.93160  122.20170  122.20170    2.00060    1.92300    1.92300    -999.25    0.31460    0.27070    2.49530    2.13860    -999.25    -999.25   -0.24400   -5.59070    2.13860
 4750.00000   10.42880   10.42880  712.96160    0.04140    2.40130    -999.25    0.15140    0.18050    1.40260    0.04140  102.16210  102.16210  114.07670  105.75480  105.75480    1.40260    1.34810    1.34810    -999.25    0.35170    0.30810    2.40130    1.50130    -999.25    -999.25    1.79980   -3.72050    1.50130
 4800.00000   11.57180   11.57180  799.48830    0.08970    2.34860    -999.25    0.16940    0.21130    1.25080    0.08970   97.51890   97.51890  122.36390  117.66990  117.66990    1.25080    1.20120    1.20120    -999.25    0.33890    0.29520    2.34860    1.43350    -999.25    -999.25    1.50430   -4.18960    1.43350
 4850.00000   10.41460   10.41460 1165.09380    0.08140    2.29250    -999.25    0.20930    0.24420    0.85830    0.08140  116.85220  116.85220  119.28100  113.15880  113.15880    0.85830    0.82430    0.82430    -999.25    0.44920    0.40750    2.29250    0.92330    -999.25    -999.25    3.92580   -1.92060    0.92330
 4900.00000    9.30480    9.30480  515.27800    0.11540    2.42540    -999.25    0.13520    0.16640    1.94070    0.11540   96.59400   96.59400  101.53180  100.76070  100.76070    1.94070    1.86580    1.86580    -999.25    0.33040    0.28660    2.42540    2.03460    -999.25    -999.25   -1.72990   -6.69880    2.03460
 4950.00000    9.69950    9.69950  646.62140    0.07280    2.38700    -999.25    0.15120    0.18890    1.54650    0.07280  103.25090  103.25090  108.39210   94.83280   94.83280    1.54650    1.48680    1.48680    -999.25    0.36210    0.31860    2.38700    1.66560    -999.25    -999.25    0.44890   -3.64240    1.66560
 5000.00000    9.80060    9.80060  644.03940    0.06160    2.38740    -999.25    0.15220    0.18870    1.55270    0.06160  102.65780  102.65780  106.34590   96.00550   96.00550    1.55270    1.49040    1.49040    -999.25    0.37510    0.33180    2.38740    1.62410    -999.25    -999.25    0.59770   -2.61600    1.62410
 5050.00000   10.55140   10.55140  742.99730    0.06920    2.41990    -999.25    0.13710    0.16960    1.34590    0.06920  105.23540  105.23540  104.99410   94.85210   94.85210    1.34590    1.27480    1.27480    -999.25    0.39990    0.35700    2.41990    1.49220    -999.25    -999.25   -2.94900   -5.28520    1.49220
 5100.00000   10.37780   10.37780  741.50970    0.07730    2.45560    -999.25    0.11170    0.14880    1.34860    0.07730  105.05860  105.05860  107.23780   95.50250   95.50250    1.34860    1.29390    1.29390    -999.25    0.38070    0.33750    2.45560    1.42150    -999.25    -999.25   -2.94430   -5.28360    1.42150
 5150.00000   11.07090   11.07090  984.93060    0.10270    2.34070    -999.25    0.19160    0.21600    1.01530    0.10270  111.87700  111.87700  105.03170   95.20470   95.20470    1.01530    0.97610    0.97610    -999.25    0.40720    0.36450    2.34070    1.08620    -999.25    -999.25    0.23350   -2.58330    1.08620
