~Version ---------------------------------------------------
VERS. 2.0 : CWLS log ASCII Standard -VERSION 2.0
WRAP.  NO : ONE LINE PER DEPTH STEP
~Well ------------------------------------------------------
STRT.F                   300.0 : START DEPTH
STOP.F                 18600.0 : STOP DEPTH
STEP.F                50.00000 : STEP LENGTH
NULL.                  -999.25 : NULL VALUE
COMP.        SHELL OIL COMPANY : COMPANY
WELL. PAWELEK BEN A ET AL A #1 : WELL
FLD .    PERSON AREA (WILDCAT) : FIELD
LOC .                          : LOCATION
CNTY.                   KARNES : COUNTY
STAT.                    TEXAS : STATE
CTRY. UNITED STATES OF AMERICA : COUNTRY
SRVC.             Schlumberger : SERVICE COMPANY
DATE.              22-May-1978 : LOGDATE
API .           42255305980000 : API NUMBER
UWI .           42255305980000 : UNIQUE WELL ID
SLAT.WGS84       29.0241796548 : SURFACE LATITUDE
SLON.WGS84      -97.8796797249 : SURFACE LONGITUDE
~Curve Information -----------------------------------------
DEPT   .F    0   1   0  0 : 1 MEASURED DEPTH
ILD    .OHMM 07 120 46 00 : INDUCTION DEEP RESISTIVITY
ILM    .OHMM 07 120 44 00 : INDUCTION MEDIUM RESISTIVITY
SPR    .MV   07 010 01 00 : SPONTANEOUS POTENTIAL FROM RESISTIVITY LOG
SFL    .OHMM 07 220 01 00 : SPHERICALLY FOCUSED LOG
GRR    .GAPI 07 310 01 00 : GAMMA RAY FROM RESISTIVITY LOG
DPHI_SS.DEC  45 890 12 00 : DENSITY POROSITY SANDSTONE
NPHI_SS.DEC  42 890 03 00 : NEUTRON POROSITY SANDSTONE
NPHI_LS.DEC  42 890 01 00 : NEUTRON POROSITY LIMESTONE
DPHI_LS.DEC  45 890 10 00 : DENSITY POROSITY LIMESTONE
GRD    .GAPI 45 310 01 00 : GAMMA RAY FROM DENSITY LOG
RHOB   .G/C3 45 350 01 00 : BULK DENSITY
DRHO   .G/C3 45 356 01 00 : BULK DENSITY CORRECTION
CALD   .IN   45 280 60 00 : CALIPER FROM DENSITY LOG
TEND   .LB   45 635 00 00 : TENSION FROM DENSITY LOG
PROX   .OHMM 21 270 04 00 : PROXIMITY RESISTIVITY (MPT)
MCAL   .IN   15 280 01 00 : MLT (MICROLOG) CALIPER
GRS    .GAPI 60 310 01 00 : GAMMA RAY FROM SONIC LOG
DT     .US/F 60 500 00 00 : DELTA-T (INTERVAL TRANSIT TIME)
CALS   .IN   60 280 50 00 : CALIPER FROM SONIC LOG
~Params ----------------------------------------------------
PD  .                     GL : PERMANENT DATUM
EPD .FT                  335 : ELEVATION PERMANENT DATUM
LMF .                     KB : LOG MEASURED FROM
DAPD.FT                   28 : FEET ABOVE PERMANENT DATUM
DMF .                     KB : DRILLING MEASURED FROM
EKB .FT                  363 : KELLY BUSHING
EDF .FT                  362 : DRILLING FLOOR
EGL .FT                  335 : GROUND LEVEL
DATE.               05/22/78 : RUN DATE
RUN .                      4 : RUN NUMBER
DD  .FT                18626 : DEPTH DRILLER
DL  .FT                18642 : DEPTH LOGGER
BLI .FT                18637 : BOTTOM LOG INTERVAL
TLI .FT                17550 : TOP LOG INTERVAL
CS  .IN                    7 : CASING SIZE
CBD .FT                17544 : CASING BOTTOM DRILLER
CBL .FT                17550 : CASING BOTTOM LOGGER
BS  .IN                    6 : BIT SIZE
BSD .FT                18626 : BIT SIZE AT DEPTH
DFT .               INVERMUL : DRILLING FLUID TYPE
DFD .                   17.6 : DRILLING FLUID DENSITY
DFV .                     70 : DRILLING FLUID VISCOSITY
DFL .                      2 : DRILLING FLUID LOSS
LUN .                   7799 : LOGGING UNIT NUMBER
LUL .                  PLEAS : LOGGING UNIT LOCATION
ENGI.             TURBEVILLE : RECORDING ENGINEER
WITN.                JARRELL : WITNESSED BY
CLNT.                A2DTECH : CLIENT CODE
ORIG.            2" 5" PRINT : ORIGIN OF DATA
UWI .         42255305980000 : UNIQUE WELL ID
DICO. A2D Technologies, Inc. : DIGITIZING COMPANY
~Other -----------------------------------------------------
~ASCII -----------------------------------------------------
# ...
 9550.00000    2.74530    2.80390  -50.25890    3.53770    -999.25    -999.25    -999.25    0.21840    0.12370   73.36420    2.47030    0.03430   13.87310 9554.54300    4.13910   12.89350   85.80260   79.08880   10.57020
 9600.00000    2.08710    2.13010  -47.55320    2.74310    -999.25    -999.25    -999.25    0.30460    0.19370   92.98060    2.42270    0.09030   14.55860 9545.49800    2.13020   13.79570   97.21770   86.53950   11.07870
 9650.00000    2.55160    2.60860  -46.62550    3.34540    -999.25    -999.25    -999.25    0.24820    0.12820   83.22750    2.49200    0.08690   14.39580 9498.24410    2.86550   13.70610   86.68280   82.52880   10.94710
 9700.00000    2.45450    2.50510  -45.24030    3.16630    -999.25    -999.25    -999.25    0.28300    0.15560   83.71450    2.47050    0.08120   14.57490 9436.33980    2.35540   13.92210   87.95780   82.85700   10.89280
 9750.00000    2.06590    2.18020  -44.29140    2.76080    -999.25    -999.25    -999.25    0.29880    0.14480   84.93570    2.47200    0.09120   14.98350 9512.64450    2.60250   14.08260   91.24390   83.90730   11.04400
 9800.00000    2.23960    2.29700  -44.15450    3.03780    -999.25    -999.25    -999.25    0.32280    0.20810   85.82770    2.41210    0.08200   14.76280 9724.44730    2.02250   14.03330   78.06200   81.33710   11.03590
 9850.00000    2.74510    2.85610  -44.24560    3.88780    -999.25    -999.25    -999.25    0.23010    0.09890   70.75460    2.55020    0.06030   13.43980 9650.88380    3.14800   12.66150   67.65640   78.40240   10.48890
 9900.00000    5.75790    6.33270  -43.47920    7.59630    -999.25    -999.25    -999.25    0.19500    0.09140   56.76460    2.54810    0.04320   12.98910 9645.66210    5.34650   12.85990   62.03190   73.04700   10.50470
 9950.00000   10.04200   11.36230  -42.99950   18.65770    -999.25    -999.25    -999.25    0.13980    0.12160   46.08890    2.53570    0.03210   13.00650 9617.07320   15.50060   12.93710   43.00850   68.71100   10.48760
 10000.00000    7.77000    8.07120  -42.19120   12.52380    -999.25    -999.25    -999.25    0.21090    0.15890   47.77990    2.50650    0.06440   13.01940 9584.53910    5.03470   13.01140   38.92540   67.72030   10.48950
 10050.00000    4.72310    5.26730  -40.71060    6.97500    -999.25    -999.25    -999.25    0.14160    0.13660   69.35830    2.45570    0.13050   12.62870 9490.11720    4.78250   13.55630   71.34260   73.83020   10.54820
 10100.00000   10.05430   13.23250  -47.79850   26.90300    -999.25    -999.25    -999.25    0.13080    0.08120   26.56280    2.58240    0.02150   12.45960 9485.94040   30.88360   13.08310   29.52770   59.98080   10.49940
 10150.00000   14.83080   17.70830  -54.07920   39.25150    -999.25    -999.25    -999.25    0.10900    0.08090   22.31190    2.58470    0.02670   12.49620 9448.31540   52.76480   13.24210   23.95240   61.75040   10.52100
 10200.00000   12.76460   14.04870  -52.87800   27.62720    -999.25    -999.25    -999.25    0.09890    0.05330   30.08740    2.63950    0.01920   12.55000 9420.50000   16.88240   13.29500   29.38080   62.26890   10.54660
 10250.00000   12.89660   13.75460  -50.41010   30.36890    -999.25    -999.25    -999.25    0.19530    0.06600   55.50130    2.60020    0.02620   12.72290 9770.03610   21.95540   10.18200   66.63650   62.82400   10.60100
 10300.00000    8.24110    8.40950  -48.21220   13.70030    -999.25    -999.25    -999.25    0.24190    0.11610   51.69970    2.52540    0.01400   12.69520 9683.45700   10.91470   10.18790   50.66270   75.89640   10.45220
 10350.00000   15.49590   17.26990  -50.19020   48.16370    -999.25    -999.25    -999.25    0.22500    0.11400   62.13400    2.50830    0.01380   12.88770 9685.48830   16.04790   10.19600   69.61510   78.20330   10.50870
 10400.00000   14.35170   15.11120  -48.22680   44.72540    -999.25    -999.25    -999.25    0.23210    0.14110   63.28960    2.49850    0.00800   12.96850 9657.33590   18.25660   10.24200   62.98670   74.87720   10.54510
 10450.00000   14.85160   16.24840  -47.46600   46.91580    -999.25    -999.25    -999.25    0.05920    0.04940   19.58040    2.64230    0.00680   13.09910 9612.16890    8.47830   10.21840   23.46420   56.49640   10.60640
 10500.00000   20.96800   22.23300  -32.99300  112.58340    -999.25    -999.25    -999.25    0.03850    0.05690   14.96510    2.60530    0.00450   13.49030 9600.78910    8.16970   10.21520   20.53930   55.48340   10.63550
 10550.00000    4.93600    5.16430  -31.54800    7.86210    -999.25    -999.25    -999.25    0.15170    0.06020   49.20360    2.56340    0.03210   14.12630 9569.79790    1.88420   10.27540   47.18330   61.18800   11.07400
 10600.00000   20.40110   20.58690  -40.00230  110.34090    -999.25    -999.25    -999.25    0.03850    0.00680   22.43570    2.68660    0.00880   13.54700 9558.28120    5.42170   10.22410   26.45600   53.46640   10.85290
 10650.00000   19.68470   19.38040  -43.07640   69.21920    -999.25    -999.25    -999.25    0.04090   -0.01020   21.68980    2.72220    0.02790   13.31780 9486.33890    6.07840   10.21250   22.57940   51.75060   10.66010
 10700.00000   20.07000   14.87860  -53.15350   52.72000    -999.25    -999.25    -999.25    0.04670    0.05350   22.75930    2.61950    0.04380   14.05870 9469.66020    4.47350   10.33320   25.81910   52.71780   11.07870
 10750.00000   19.02990   26.27220 -121.65680  128.25860    -999.25    -999.25    -999.25    0.05670    0.08620   45.08250    2.55260    0.04090   12.47120 9614.21390   47.36170    9.55730   41.01760   54.22850   10.39120
 10800.00000   21.52440   22.06580 -132.09680   41.65430    -999.25    -999.25    -999.25    0.01680    0.05030   22.78240    2.57410    0.02420   14.73120 9803.14060    6.38910    9.55700   27.31910   53.80660   10.79430
 10850.00000    6.59790    8.34990 -113.30160   15.61630    -999.25    -999.25    -999.25    0.09050    0.06970   26.11680    2.57850    0.07710   12.99330 9732.84670   38.33030    9.46960   28.79490   56.19320   10.17760
 10900.00000   14.25470   21.30210 -122.65590   67.60460    -999.25    -999.25    -999.25    0.02790    0.03700   32.60910    2.64020    0.05490   12.32910 9670.40040    1.86380    8.86140   32.42280   51.25770   10.32720
 10950.00000    9.59670   18.33150  -27.51520   22.63040    -999.25    -999.25    -999.25    0.10360    0.13450   21.32690    2.48540    0.07420   11.59330 9668.54590    6.31780    8.59950   25.64980   57.36780   10.14300
 11000.00000    6.03810   12.08690  -35.05030   34.63880    -999.25    -999.25    -999.25    0.08600    0.13170   29.15680    2.49480    0.10040   11.31320 9636.77440   12.09800    8.95950   29.13820   57.65050   10.19710
 11050.00000    5.53240   10.40680  -30.72890   26.58030    -999.25    -999.25    -999.25    0.10630    0.11300   22.46360    2.59030    0.08590   11.60930 9590.11820    3.99360    8.43460   22.90000   51.15340   10.21730
 11100.00000    3.84260    7.14690  -32.32410   36.79980    -999.25    -999.25    -999.25    0.16010    0.16870   25.76550    2.43240    0.06750   11.43580 9593.00390    2.41960    8.66410   35.26530   58.56560   10.27270
 11150.00000   10.06510   24.66920  -26.18560   41.40860    -999.25    -999.25    -999.25    0.06170    0.01170   19.61450    2.70120    0.01450   11.96320 9533.47460   25.45520    9.49560   23.36030   48.35970   10.24700
 11200.00000    6.58490   11.77010  -16.32450   52.09860    -999.25    -999.25    -999.25    0.16400    0.04180   25.28830    2.63470    0.01070   12.06220 9455.37500    7.34300    9.27370   32.07240   48.47030   10.38730
 11250.00000    2.89590    4.80210 -138.73580   15.41170    -999.25    -999.25    -999.25    0.08760    0.11400   22.72860    2.51040    0.09860   11.64340 9866.63090    9.41960    9.03040   27.46700   54.78740   10.35240
 11300.00000    9.85470   15.04000  -93.60950   27.35710    -999.25    -999.25    -999.25    0.05350    0.05960   20.15230    2.67210    0.01560   12.27410 9718.51460   51.67550    9.46570   23.79390   50.91710   10.43220
 11350.00000    6.07570   10.83700 -110.22890   24.96400    -999.25    -999.25    -999.25    0.03450    0.02460   32.32040    2.64730    0.00620   12.13890 9726.51370   92.29870    9.38670   20.72680   54.63090   10.35410
