~Version ---------------------------------------------------
VERS. 2.0 : CWLS log ASCII Standard -VERSION 2.0
WRAP.  NO : ONE LINE PER DEPTH STEP
~Well ------------------------------------------------------
STRT.FT                   3650.0 : START DEPTH
STOP.FT                   7700.0 : STOP DEPTH
STEP.FT                 50.00000 : STEP LENGTH
NULL.                    -999.25 : NULL VALUE
COMP. CHAMPLIN EXPLORATION, INC. : COMPANY
WELL.     GOSCH GUADIANO UNIT #1 : WELL
FLD .                   GIDDINGS : FIELD
LOC .                            : LOCATION
CNTY.                    FAYETTE : COUNTY
STAT.                      TEXAS : STATE
CTRY.   UNITED STATES OF AMERICA : COUNTRY
SRVC.               Schlumberger : SERVICE COMPANY
DATE.                01-Jan-1981 : LOGDATE
API .             42149308450000 : API NUMBER
UWI .             42149308450000 : UNIQUE WELL ID
SLAT.WGS84         29.7785387288 : SURFACE LATITUDE
SLON.WGS84        -97.2200367266 : SURFACE LONGITUDE
~Curve Information -----------------------------------------
DEPT  .FT    : DEPTH FEET
GRRED .GAPI  : GAMMA RAY FROM RESISTIVITY LOG
SPRED .MV    : SPONTANEOUS POTENTIAL FROM RESISTIVITY LOG
SFLUED.OHMM  : SPHERICALLY FOCUSED LOG RESISTIVITY
ILDED .OHMM  : INDUCTION LOG DEEP RESISTIVITY
ILMED .OHMM  : INDUCTION LOG MEDIUM RESISTIVITY
DCALED.IN    : DIFFERENTIAL CALIPER FROM DENSITY LOG
CALRED.IN    : CALIPER FROM RESISTIVITY LOG
DRHOED.G/C3  : DENSITY CORRECTION FROM DENSITY LOG
NPHIED.V/V   : NEUTRON POROSITY LIMESTONE FROM DENSITY LOG
SPWS  .MV    : SPONTANEOUS POTENTIAL [BASELINE 0 MV] [SPRED]
DPHIED.V/V   : DENSITY POROSITY  FROM DENSITY LOG
RHOBED.G/C3  : BULK DENSITY FROM DENSITY LOG
GRWS  .GAPI  : GAMMA RAY [GRRED]
CALWS .IN    : CALIPER [CALRED]
DCORWS.G/C3  : DENSITY CORRECTION [DRHOED]
DRESWS.OHMM  : DEEP RESISTIVITY [ILDED]
MRESWS.OHMM  : MEDIUM RESISTIVITY [ILMED]
SRESWS.OHMM  : SHALLOW RESISTIVITY [SFLUED]
CONDWS.MMHO  : CONDUCTIVITY [1000/DRESWS]
DENWS .G/C3  : BULK DENSITY [M=2.71 F=1.0] [RHOBED]
DPOWS .V/V   : DENSITY POROSITY [M=2.71 F=1] [CALCULATED FROM DENWS]
NPOWS .V/V   : NEUTRON POROSITY LIME [CONV NPHIED]
~Params ----------------------------------------------------
PD  .                     GL : PERMANENT DATUM
EPD .FT                  375 : ELEVATION PERMANENT DATUM
LMF .                     KB : LOG MEASURED FROM
DAPD.FT                   17 : FEET ABOVE PERMANENT DATUM
DMF .                     KB : DRILLING MEASURED FROM
EKB .FT                  392 : KELLY BUSHING
EDF .FT                  391 : DRILLING FLOOR
EGL .FT                  375 : GROUND LEVEL
DATE.               01/01/81 : RUN DATE
RUN .                      1 : RUN NUMBER
DD  .FT                 7776 : DEPTH DRILLER
DL  .FT                 7712 : DEPTH LOGGER
BLI .FT                 7706 : BOTTOM LOG INTERVAL
TLI .FT                 3648 : TOP LOG INTERVAL
CS  .IN                8.625 : CASING SIZE
CBD .FT                 3650 : CASING BOTTOM DRILLER
CBL .FT                 3648 : CASING BOTTOM LOGGER
BS  .IN                7.875 : BIT SIZE
BSD .FT                 7776 : BIT SIZE AT DEPTH
DFT .            GEL CAUSTIC : DRILLING FLUID TYPE
DFD .                      9 : DRILLING FLUID DENSITY
DFV .                     45 : DRILLING FLUID VISCOSITY
DFPH.                    8.5 : DRILLING FLUID PH
DFL .                    5.6 : DRILLING FLUID LOSS
MSS .               CIRC PIT : MUD SAMPLE SOURCE
RMS .OHMM               1.66 : RESISTIVITY MUD SAMPLE
MST .DEGF                 90 : MUD SAMPLE TEMPERATURE
RMF .OHMM               4.54 : RESISTIVITY MUD FILTRATE SAMPLE
MFST.DEGF                 50 : MUD FILTRATE SAMPLE TEMPERATURE
RMC .OHMM                2.5 : RESISTIVITY MUD CAKE
MCST.DEGF                 90 : MUD CAKE SAMPLE TEMPERATURE
MFSS.                      M : MUD FILTRATE SAMPLE SOURCE
MCSS.                      C : MUD CAKE SAMPLE SOURCE
TCS .HRS                1900 : TIME CIRCULATED STOPPED
TLAB.HRS                 200 : TIME LOGGER AT BOTTOM
LUN .                   8176 : LOGGING UNIT NUMBER
LUL .                BRENHAM : LOGGING UNIT LOCATION
ENGI.                 WRIGHT : RECORDING ENGINEER
WITN.                BRENHAM : WITNESSED BY
CLNT.                A2DTECH : CLIENT CODE
ORIG.            2" 5" PRINT : ORIGIN OF DATA
UWI .         42149308450000 : UNIQUE WELL ID
DICO. A2D Technologies, Inc. : DIGITIZING COMPANY
~Other -----------------------------------------------------
ALL LOGS RUN IN COMBO.
MTRX CHANGE 5400-5600' (SS); 6800-7700' (LS).
~ASCII -----------------------------------------------------
# ...
 6850.00000   44.81980  -50.46530    5.10080    4.55450    4.81550    1.41700    9.29200    0.02390    0.14770   -0.33960    0.02890    2.65830   44.81980    9.29200    0.02390    4.55450    4.81550    5.10080  219.56310    2.65830    0.03020    0.14770
 6900.00000   62.43440  -56.49780    3.80960    3.54040    3.61040    2.34710   10.22210    0.15880    0.16970   -1.70430    0.11300    2.50120   62.43440   10.22210    0.15880    3.54040    3.61040    3.80960  282.45390    2.50120    0.12210    0.16970
 6950.00000   46.65600  -45.19590    6.42810    4.68670    4.80960    2.26220   10.13720    0.00000    0.09740   -1.23040    0.05540    2.61300   46.65600   10.13720    0.00000    4.68670    4.80960    6.42810  213.36980    2.61300    0.05670    0.09740
 7000.00000   52.73180  -43.02440    3.89910    3.93950    4.19330    1.83270    9.70770    0.02440    0.15190   -5.23140    0.13830    2.48150   52.73180    9.70770    0.02440    3.93950    4.19330    3.89910  253.83930    2.48150    0.13360    0.15190
 7050.00000   30.49000  -47.59700   11.42270   10.15580    9.64530    1.49290    9.36790    0.25010    0.09380  -12.29260    0.05060    2.62830   30.49000    9.36790    0.25010   10.15580    9.64530   11.42270   98.46590    2.62830    0.04780    0.09380
 7100.00000   24.10580  -45.63430   18.26680   16.73050   17.05160    0.72870    8.60370    0.04690    0.06780  -12.81850    0.05140    2.62830   24.10580    8.60370    0.04690   16.73050   17.05160   18.26680   59.77110    2.62830    0.04780    0.06780
 7150.00000   24.38650  -50.40340   11.71430    6.45210    7.18440    1.01950    8.89450    0.02210    0.05900  -20.07620    0.03000    2.66060   24.38650    8.89450    0.02210    6.45210    7.18440   11.71430  154.98830    2.66060    0.02890    0.05900
 7200.00000   41.44100  -33.64670   21.24990    5.16380    5.94880    1.23050    9.10550    0.02170    0.10890   -5.79430    0.27550    2.22260   41.44100    9.10550    0.02170    5.16380    5.94880   21.24990  193.65580    2.22260    0.28500    0.10890
 7250.00000   45.56290  -56.39780    6.81570    4.12760    4.99040    0.98700    8.86200    0.06680    0.09810  -29.65800    0.06190    2.59290   45.56290    8.86200    0.06680    4.12760    4.99040    6.81570  242.27150    2.59290    0.06850    0.09810
 7300.00000   24.17900  -67.12510    8.80760    5.96860    6.43240    0.87760    8.75260    0.13160    0.11100  -41.49790    0.03880    2.65360   24.17900    8.75260    0.13160    5.96860    6.43240    8.80760  167.54350    2.65360    0.03300    0.11100
 7350.00000   22.73040  -57.86980   11.35330    8.64010    9.95940    0.67470    8.54970    0.02680    0.05030  -33.35520    0.03150    2.65400   22.73040    8.54970    0.02680    8.64010    9.95940   11.35330  115.73940    2.65400    0.03270    0.05030
 7400.00000   19.35520  -48.50680   13.82050    9.88780    9.79780    0.24390    8.11890   -0.00010    0.05840  -25.10480    0.02360    2.66800   19.35520    8.11890   -0.00010    9.88780    9.79780   13.82050  101.13470    2.66800    0.02460    0.05840
 7450.00000   23.34930  -45.03330    7.90720    7.52420    8.02410    0.13390    8.00890   -0.00550    0.06300  -22.74390    0.04360    2.63620   23.34930    8.00890   -0.00550    7.52420    8.02410    7.90720  132.90450    2.63620    0.04320    0.06300
 7500.00000   24.56290  -65.90580    9.33610    5.72810    5.96300    0.14540    8.02040    0.02460    0.09390  -44.72900    0.05150    2.62090   24.56290    8.02040    0.02460    5.72810    5.96300    9.33610  174.57800    2.62090    0.05210    0.09390
 7550.00000   23.77440  -75.51750    6.86670    5.50510    5.54550    0.15360    8.02860    0.01530    0.12350  -55.45330    0.07070    2.58910   23.77440    8.02860    0.01530    5.50510    5.54550    6.86670  181.64970    2.58910    0.07070    0.12350
 7600.00000   25.72680  -32.83760    8.49560    3.90740    4.91260    0.16590    8.04090   -0.03440    0.05750  -34.14190    0.09850    2.59730   25.72680    8.04090   -0.03440    3.90740    4.91260    8.49560  255.92470    2.59730    0.06590    0.05750
 7650.00000   15.80540  -28.52720   14.22580   13.75070   12.27290    0.15770    8.03270    0.01820    0.04880  -29.08650    0.00370    2.70360   15.80540    8.03270    0.01820   13.75070   12.27290   14.22580   72.72360    2.70360    0.00370    0.04880
 7700.00000    -999.25   -2.76210    5.91950    5.04900    5.20070    0.29920    8.17420    -999.25    -999.25   -2.57650    -999.25    -999.25    -999.25    8.17420    -999.25    5.04900    5.20070    5.91950  198.05900    -999.25    -999.25    -999.25
