~Version ---------------------------------------------------
VERS. 2.0 : CWLS log ASCII Standard -VERSION 2.0
WRAP.  NO : ONE LINE PER DEPTH STEP
~Well ------------------------------------------------------
STRT.F                  2500.0 : START DEPTH
STOP.F                 14650.0 : STOP DEPTH
STEP.F                50.00000 : STEP LENGTH
NULL.                  -999.25 : NULL VALUE
COMP.     MARATHON OIL COMPANY : COMPANY
WELL.           BROUNKOWSKI #1 : WELL
FLD .                  WILDCAT : FIELD
LOC .                          : LOCATION
CNTY.                ROBERTSON : COUNTY
STAT.                    TEXAS : STATE
CTRY. UNITED STATES OF AMERICA : COUNTRY
SRVC.             Schlumberger : SERVICE COMPANY
DATE.              02-Oct-1995 : LOGDATE
API .           42395304350000 : API NUMBER
UWI .           42395304350000 : UNIQUE WELL ID
SLAT.WGS84       31.2546896053 : SURFACE LATITUDE
SLON.WGS84      -96.3452160282 : SURFACE LONGITUDE
~Curve Information -----------------------------------------
DEPT.F                 : 
SPR .MV   06 010 01 00 : SPONTANEOUS POTENTIAL
AO20.OHMM 06 120 20 00 : 20-IN. RESISTIVITY, 1-FT RESOLUTION
AO30.OHMM 06 120 30 00 : 30-IN. RESISTIVITY, 1-FT RESOLUTION
AO90.OHMM 06 120 90 00 : 90-IN. RESISTIVITY, 1-FT RESOLUTION
IMPH.OHMM 06 120 44 00 : INDUCTION MEDIUM PHASOR RES.
IDPH.OHMM 06 120 46 00 : INDUCTION DEEP PHASOR RES.
SFLU.OHMM 06 220 01 00 : SPHERICALLY FOCUSED LOG RESISTIVITY
DCAL.IN   06 280 30 00 : DIFFERENTIAL CALIPER
GRR .GAPI 06 310 01 00 : GAMMA RAY
DTLN.US/F 60 523 00 00 : ACOUSTIC TRANSIT TIME, LONG SPACED, NEAR ARRAY
NPHI.DEC  42 890 01 00 : NEUTRON POROSITY LIMESTONE
DPHI.DEC  45 890 10 00 : DENSITY POROSITY LIMESTONE
PEF .B/E  45 358 01 00 : PHOTOELECTRIC FACTOR
DRHO.G/C3 45 356 01 00 : DENSITY CORRECTION
TEND.LB   45 635 01 00 : TENSION FROM DENSITY LOG
AO60.OHMM 06 120 60 00 : 60-IN. RESISTIVITY, 1-FT RESOLUTION
DTLF.US/F 60 523 00 00 : ACOUSTIC TRANSIT TIME, LONG SPACED, FAR ARRAY
~Params ----------------------------------------------------
EKB .F                    414.0 : Kelly bushing
EGL .F                    383.0 : Ground level
EDF .F                    413.0 : Drilling floor
EPD .F                    383.0 : Permanent datum
TD  .F                  14691.0 : Total depth
DATE.               02-OCT-1995 : DATE LOGGED
CLNT.                   A2DTECH : CLIENT CODE
SL  . 17650' FNWL & 22170' FNEL : SURFACE LOCATION
PD  .                        GL : PERMANENT DATUM
LMF .                       RKB : LOG MEASURED FROM
DMF .                       RKB : DRILLING MEASURED FROM
DL  .F                    14691 : DEPTH LOGGER
BLI .F                    14685 : BOTTOM LOG INTERVAL
CS1 .IN                       7 : CASING SIZE
CBD1.                7" @ 3340' : CASING DRILLER 1
BS1 .IN                   5.875 : BIT SIZE
DFT .                   THERMEX : TYPE FLUID IN HOLE
DFD .                      16.7 : DENSITY
DFV .                        44 : VISCOSITY
DFPH.                       9.1 : PH
DFL .                         3 : FLUID LOSS
MSS .                  FLOWLINE : SOURCE OF SAMPLE
RMS .OHMM                 1.665 : RM
RMF .OHMM                 0.856 : RMF
RMC .OHMM                 1.875 : RMC
MFSS.                      MEAS : SOURCE RMF.
MCSS.                      CALC : SOURCE RMC.
RMB .OHMM                 0.494 : RM. AT BHT
BHT .F                      323 : BHT.
TCS .HRS                    200 : TIME CIRC. STOPPED
TLAB.                      1530 : TIME LOGGER AT BOTTOM
LUN .                      2019 : LOGGING UNIT NUMBER
LUL .                     TYLER : LOGGING UNIT LOCATION
ENGI.                   GARDNER : RECORDED BY
WITN.              EICHELBERGER : WITNESSED BY
ORIG.                  5" PRINT : ORIGIN OF DATA
UWI .            42395304350000 : UNIQUE WELL ID
DICO.    A2D TECHNOLOGIES, INC. : DIGITIZING COMPANY
DD  .F                    14706 : Depth driller
TLI .F                    10122 : Top log interval
CBL1.F                    10322 : Casing logger 1
BSD1.F                    14706 : Depth drilled with bit1
~Other -----------------------------------------------------
~ASCII -----------------------------------------------------
# ...
 8650.00000   -3.59140    3.74180    2.08180    1.11520    -999.25    -999.25    -999.25    4.15860   54.58830   78.61400    0.23900    0.15270    -999.25    0.00570 3772.14060    2.81940   81.77880
 8700.00000  -34.28570  618.81620   33.41610   88.81570    -999.25    -999.25    -999.25    1.91070   29.57950   51.07690    0.00260    0.01390    6.39390   -0.01430 3748.47290  117.75960   50.78400
 8750.00000  -31.53050  106.81770   28.46830   38.47420    -999.25    -999.25    -999.25    2.00210   29.81550   50.68140    0.00700    0.00720    6.68180   -0.00790 3647.97510   98.07530   50.38860
 8800.00000  -26.55130   31.04460    8.21000   17.14400    -999.25    -999.25    -999.25    2.11180   24.62530   51.20080    0.00290    0.02670    7.06070   -0.00590 3616.38650   18.51230   51.16700
 8850.00000  -28.29100  171.31300   59.94340   28.82250    -999.25    -999.25    -999.25    2.10890   23.56440   51.53450    0.01020    0.01080    5.87890   -0.03040 3585.49660   29.87770   51.73390
 8900.00000  -18.65310   45.15130   43.71290   46.17480    -999.25    -999.25    -999.25    1.54980   28.47550   56.03010    0.02390    0.00300    5.70550   -0.02290 3621.23830   44.54490   53.83420
 8950.00000   -5.70330    6.20050    8.84550    4.36880    -999.25    -999.25    -999.25    1.64080   60.66550   66.94640    0.18130    0.05920    5.50760   -0.01080 3616.66940    3.35840   65.18680
 9000.00000  -18.06420    7.14110    8.18860    8.82300    -999.25    -999.25    -999.25    1.73610   27.84410   59.93370    0.03920    0.02040    4.96070   -0.00820 3741.43380    2.71220   57.56350
 9050.00000   -9.41270   16.00000   13.19780   27.47830    -999.25    -999.25    -999.25    2.01230   45.51300   68.15200    0.18070    0.02440    4.65150    0.03180 3803.73850   33.92820   66.88150
 9100.00000  -20.62200    8.63360    6.62350    8.00620    -999.25    -999.25    -999.25    1.22690   55.89650   62.67790    0.08800    0.01440    4.08430   -0.01990 3874.41190    9.43440   62.26690
 9150.00000   -6.94050    2.49630    1.24340    7.02020    -999.25    -999.25    -999.25    1.61580   58.26020   73.23250    0.19110    0.16310    6.59090    0.07780 3741.43310    4.65610   72.51250
 9200.00000  -12.19170    5.64200    5.80300    4.68290    -999.25    -999.25    -999.25    1.82580   56.03130   68.46340    0.11370    0.06690    4.32660   -0.02120 3804.03760    4.94050   66.55810
 9250.00000  -20.92700    8.68330    2.96080    7.36920    -999.25    -999.25    -999.25    0.97010   36.15910   63.53850    0.03590    0.09440    3.37890    0.00000 3679.12870    6.90840   63.39310
 9300.00000  -14.34790    3.45160    3.66060    3.14850    -999.25    -999.25    -999.25    3.13660   59.49970   70.15190    0.17050    0.06350    3.51500    0.00270 3923.87740    3.51710   69.78320
 9350.00000  -16.48610   10.84050    8.88470    8.14670    -999.25    -999.25    -999.25    2.32150   40.79620   61.30660    0.08530    0.03930    3.59100   -0.00150 3803.73830    8.77350   61.32900
 9400.00000  -12.19020    4.73920    4.33890    4.71490    -999.25    -999.25    -999.25    2.06480   43.60910   64.15110    0.09320    0.05590    3.47210   -0.00400 3800.97730    4.51250   64.14050
 9450.00000  -17.99180    2.89580    3.40290    3.69750    -999.25    -999.25    -999.25    0.98710   49.40530   64.27720    0.09050    0.06010    3.28790    0.00760 3803.53830    3.10410   63.99100
 9500.00000  -23.86350    8.66890    9.39080   11.40740    -999.25    -999.25    -999.25    0.86970   58.20670   62.72390    0.13950    0.06720    4.66680   -0.00300 3924.81520   14.11320   61.89830
 9550.00000  -17.58920   11.66200   11.17250   12.91150    -999.25    -999.25    -999.25    0.54970   40.32740   62.61540    0.03230    0.03670    4.03040    0.00000 4021.80690   12.01280    -999.25
 9600.00000  -17.76940   12.68680   16.74910   21.64320    -999.25    -999.25    -999.25    0.34570   43.15180   77.04060    0.07460    0.01170    4.02850    0.00610 4053.00950   24.32060   62.60100
 9650.00000  -37.01790    -999.25    -999.25    -999.25   14.36630   15.21900   15.59150    4.22840   43.23860   79.30050    0.01740    0.05320    2.79790   -0.01210 7536.14400    -999.25   57.66470
 9700.00000  -31.84220    -999.25    -999.25    -999.25   15.21530   11.78820   20.14290    1.23360   83.92320   63.95680    0.09140    0.09310    3.93930   -0.00850 7563.18070    -999.25   64.40310
 9750.00000  -54.49830    -999.25    -999.25    -999.25   27.12740   21.85650   70.07380    1.30570   67.16450   62.39890    0.11030    0.11330    4.29840    0.06260 7445.78320    -999.25   62.75450
 9800.00000  -55.10240    -999.25    -999.25    -999.25   18.89540   12.37280   41.18940    0.90920   67.09600   58.98920    0.04700    0.11630    4.18090    0.03690 7807.22900    -999.25   59.31290
 9850.00000  -10.38550    -999.25    -999.25    -999.25   10.06310   10.82590   11.68790    0.92590   88.51200   61.58980    0.03590    0.05370    3.22740    0.04090 7596.38480    -999.25   61.70660
 9900.00000  -65.58650    -999.25    -999.25    -999.25    9.56070    9.32630   31.21290    0.09830   48.84930   62.09130    0.02830    0.11210    3.20540    0.00300 7624.41850    -999.25   61.25750
 9950.00000  -44.93200    -999.25    -999.25    -999.25   25.41630   24.57600   39.47910   -0.00220   40.55730   59.17940    0.02010    0.08840    2.90910    0.00610 7566.21680    -999.25   58.41320
 10000.00000   -1.61490    -999.25    -999.25    -999.25    7.07380    7.54070    8.48400    1.01820  112.95350   64.69560    0.09950    0.02620    3.94310    0.01820 7634.52690    -999.25   64.20140
 10050.00000  -69.31380    -999.25    -999.25    -999.25   24.76530   22.55780   35.08830   -0.02880   21.73800   58.43620    0.01330    0.07830    3.22740   -0.00910 7656.62740    -999.25   58.48660
 10100.00000  -57.51250    -999.25    -999.25    -999.25   33.28530   33.82030   53.80260    0.06910   37.76900   57.74470    0.01010    0.10980    3.02280    0.00300 7686.50730    -999.25   57.51500
 10150.00000  -63.10560    -999.25    -999.25    -999.25   39.78100   41.61650   57.34900   -0.21560   26.49550   56.66370    0.00110    0.07370    2.57580    0.00460 7746.98780    -999.25   56.61780
 10200.00000  -51.99840    -999.25    -999.25    -999.25   36.46110   29.76030   40.90100    0.02430   31.68250   59.75610    0.01210    0.08320    2.80400    0.00370 7626.31150    -999.25   59.76330
 10250.00000  -47.40380    -999.25    -999.25    -999.25  149.00760   88.14460   84.24000   -0.08080   32.43010   58.61400    0.00430    0.08140    2.75760   -0.00910 7716.81930    -999.25   57.06540
 10300.00000  -49.75150    -999.25    -999.25    -999.25  105.94340  104.49760   99.92970    0.00920   24.19400   58.17850    0.00020    0.06870    2.42420    0.00180 7927.71090    -999.25   57.66350
 10350.00000  -61.19370    -999.25    -999.25    -999.25   17.95880   16.37610   56.14370    0.02030   25.77520   60.36940    0.01200    0.08740    2.68180    0.00610 7927.71090    -999.25   59.76170
 10400.00000  -42.91930    -999.25    -999.25    -999.25   23.07890   23.80010   33.51380    0.21480   31.02080   58.36420    0.00740    0.09060    2.80490    0.01430 7876.67290    -999.25   59.15960
 10450.00000  -52.71070    -999.25    -999.25    -999.25   28.95820   26.75330   29.90310    0.23000   55.56570   57.58930    0.01350    0.06050    3.12120    0.00000 7987.95210    -999.25   57.51730
 10500.00000  -52.22860    -999.25    -999.25    -999.25   50.46050   47.02310   44.86220   -0.01660   33.10570   55.27610    0.00660    0.06510    2.81820    0.02770 7971.05080    -999.25   56.01560
 10550.00000  -49.18910    -999.25    -999.25    -999.25   98.19420   89.07450   79.00860    0.07490   33.17110   54.43000    0.00020    0.04410    2.86380    0.07120 7746.98780    -999.25   55.16950
 10600.00000  -52.48750    -999.25    -999.25    -999.25   20.14380   22.32940   39.04830   -0.00720   22.15210   60.67900    0.01290    0.12230    3.51520    0.00000 7987.95170    -999.25   59.75770
 10650.00000  -10.09250    -999.25    -999.25    -999.25    9.85160   11.91550   12.86400    0.43130   52.67980   60.21230    0.04130    0.01960    3.56080    0.00610 7897.59180    -999.25   60.21110
