~Version ---------------------------------------------------
VERS. 2.0 : CWLS log ASCII Standard -VERSION 2.0
WRAP.  NO : ONE LINE PER DEPTH STEP
~Well ------------------------------------------------------
STRT.F                  2350.0 : START DEPTH
STOP.F                  8250.0 : STOP DEPTH
STEP.F                50.00000 : STEP LENGTH
NULL.                  -999.25 : NULL VALUE
COMP.        IKE LOVELADY INC. : COMPANY
WELL.           RUTH BOWERS #1 : WELL
FLD .                   STRAIT : FIELD
LOC .                          : LOCATION
CNTY.                   DIMMIT : COUNTY
STAT.                    TEXAS : STATE
CTRY. UNITED STATES OF AMERICA : COUNTRY
SRVC.                          : SERVICE COMPANY
DATE.                          : LOGDATE
API .           42127317180000 : API NUMBER
UWI .           42127317180000 : UNIQUE WELL ID
SLAT.WGS84       28.5460115215 : SURFACE LATITUDE
SLON.WGS84      -99.5917438073 : SURFACE LONGITUDE
~Curve Information -----------------------------------------
DEPT.F                 : 
NPHI.DEC  42 890 01 00 : NEUTRON POROSITY LIME
GRD .GAPI 45 310 01 00 : GAMMA RAY FROM DENSITY LOG
CALD.IN   45 280 60 00 : CALIPER FROM DENSITY LOG
CORR.G/C3 45 356 01 00 : DENSITY CORRECTION
RHOB.G/C3 45 350 01 00 : BULK DENSITY
SPR .MV   07 010 01 00 : SPONTANEOUS POTENTIAL FROM RES LOG
CILD.MMHO 07 110 46 00 : CONDUCTIVITY INDUCTION LOG DEEP
ILD .OHMM 07 120 46 00 : INDUCTION LOG DEEP
ALL8.OHMM 07 221 08 00 : AMP LATEROLOG-8 RES.
~Params ----------------------------------------------------
EKB .F                 486.0 : Kelly bushing
EGL .F                 474.0 : Ground level
EDF .F                 485.0 : Drilling floor
EPD .F                 474.0 : Permanent datum
TD  .F                8268.0 : Total depth
CLNT.                A2DTECH : Client Code
SL  .   1980' FEL & 660' FSL : Surface Location
PD  .                     GL : Permanent Datum
LMF .                     KB : Log Measured From
DMF .                     KB : Drilling Measured From
DAPD.F                    12 : Feet Above Permanent Datum
DATE.            07-JUL-1978 : Date Logged [DD-MMM-YYYY]
DD  .F                  8268 : Depth driller
DL  .F                  8260 : Depth logger
BLI .F                  8259 : Bottom log interval
TLI .F                  7950 : Top log interval
CS1 .IN                7.625 : Casing size
CBD1.         7.625" @ 7180' : Casing driller 1
BS1 .IN                  6.5 : Bit size
BSD1.F                  8268 : Depth drilled with bit1
DFT .              LIGNOSULF : Type fluid in hole
DFD .                    9.5 : Density
DFV .                     47 : Viscosity
DFPH.                     10 : pH
DFL .                    5.8 : Fluid loss
MSS .              CIRC TANK : Source of sample
RMS .OHMM               0.64 : Rm
RMF .OHMM               0.53 : Rmf
MFSS.                   MEAS : Source Rmf.
RMC .OHMM                0.5 : Rmc
MCSS.                   CALC : Source Rmc.
RMB .OHMM                0.3 : Rm. at BHT
BHT .F                   172 : BHT.
TCS .HRS                 900 : Time Circ. stopped
TLAB.HRS                1730 : Time logger at bottom
LUN .                   7769 : Logging unit number
LUL .                 LAREDO : Logging unit location
ENGI.          RENFROW/FOGAL : Recorded By
WITN.                GRIFFEN : Witnessed by
ORIG.        2.5" & 1" PRINT : Origin of data
UWI .         42127317180000 : Unique Well ID
DICO. A2D TECHNOLOGIES, INC. : Digitizing Company
~Other -----------------------------------------------------
~ASCII -----------------------------------------------------
# ...
 6000.00000    0.21140   59.82140   12.81550    0.02680    2.46450  -51.14440  180.32790    5.37310    5.90820
 6050.00000    0.25860   60.34350   12.80050    0.05190    2.46870  -51.19390  253.72580    3.88060    4.23150
 6100.00000    0.14090   50.44500   12.06770    0.04080    2.60950  -51.34330  116.98960    8.73130   10.02990
 6150.00000    0.12200   53.57070   11.77880    0.04630    2.56140  -54.77630  105.18780    8.27120    8.35330
 6200.00000    0.13130   58.48210   11.29760    0.09420    2.58730  -52.43770  155.87500   10.89550   10.73170
 6250.00000    0.07660   39.58350   11.77370    0.04300    2.59320  -50.52240   72.65340   13.84330   20.32190
 6300.00000    0.06630   27.67860   11.89280   -0.02000    2.59170  -55.97010   55.14160   17.58160   18.41320
 6350.00000    0.05030   27.75340   11.94740    0.04900    2.60210  -53.95520   50.67060   21.03100   28.44310
 6400.00000    0.05740   20.40940   11.65460   -0.00240    2.62130  -55.67250   55.63880   18.24950   21.25650
 6450.00000    0.05970   21.65180   11.72920   -0.02300    2.59320  -52.76120   52.02100   20.70880   23.99690
 6500.00000    0.11590   33.47850   11.98210   -0.01850    2.60750  -49.70150   83.08260   11.69150   12.36530
 6550.00000    0.08770   28.12320   12.30940   -0.00100    2.59660  -55.89550   21.33230   38.54540   40.47930
 6600.00000    0.08880   38.26390   12.37010   -0.02450    2.61540  -49.55220   34.43110   30.79600   36.05790
 6650.00000    0.10680   59.81920   12.08620    0.03040    2.55550  -49.00490   29.44130   33.65650   39.47600
 6700.00000    0.12500   49.89020   11.76120   -0.00120    2.60060  -44.07970   29.44110   42.23880   56.71640
 6750.00000    0.16590   43.97320   12.71640   -0.00870    2.59170  -42.76100   30.93810   42.91040   60.78870
 6800.00000    0.15960   30.80360   12.05960   -0.00270    2.58730  -40.29850   55.38920   19.75120   20.18850
 6850.00000    0.24640   67.85710   12.53720   -0.00150    2.52960  -35.74630   66.61800   14.02990   18.00980
 6900.00000    0.15180   59.81920   12.03000   -0.01850    2.56070  -39.75130   23.95210   49.62670  101.34100
 6950.00000    0.16690   68.52680   11.82090    0.01480    2.52880  -39.77610   28.44310   39.14180   47.01490
 7000.00000    0.03160   15.17860   10.95520    0.00170    2.66910  -40.29850   11.97600   61.22660   50.00000
 7050.00000    0.00850   18.97190   11.41790    0.01580    2.69010  -44.92540    1.37230  123.73020  119.10450
 7100.00000    0.18800   62.35090    9.97020    0.02000    2.69670  -28.35820  204.34130    5.42290   26.49250
 7150.00000    0.27910   88.91400   10.23880    0.04230    2.59540  -27.01490  371.93410    3.10950   20.79550
 7200.00000    0.31240   84.36780   11.98160    0.15350    2.23040  -19.40300  199.10180   18.05950   18.95520
 7250.00000    0.01720   21.41840    9.14930    0.14660    2.72580  -21.85630   12.72460    -999.25    -999.25
 7300.00000    0.00300   22.83580   11.34310    0.22770    2.47350  -33.93220    9.72990    -999.25    -999.25
 7350.00000    0.00830   21.71240    9.59690    0.24700    2.53940  -23.05390   15.09500    -999.25    -999.25
 7400.00000    0.01570   39.40300    7.58210    0.13690    2.66270    7.29450   10.47900    -999.25    -999.25
 7450.00000    0.02180   26.86570    6.80600    0.04560    2.69540  -10.40420    1.49700    -999.25    -999.25
 7500.00000    0.01740   29.10010    6.83560    0.01190    2.71470   -6.48650    9.98000    -999.25    -999.25
 7550.00000    0.01650   29.10230    6.92510    0.03720    2.70650   -7.56040   10.47900    -999.25    -999.25
 7600.00000    0.01650   58.50750    8.44780    0.11010    2.64740   -8.38320    5.98800    -999.25    -999.25
 7650.00000    0.00490   38.06110    7.17910    0.01710    2.71720  -53.24360    0.00100    -999.25    -999.25
 7700.00000    0.10070   22.38810    6.29840    0.08930    2.68500  -37.42510   53.39160    -999.25    -999.25
 7750.00000    0.05920   35.14930    8.32840    0.19200    2.74440   -1.04790   11.72740    -999.25    -999.25
 7800.00000    0.02000   29.55040    8.00010    0.16960    2.72960  -65.11430    2.99250    -999.25   25.79010
 7850.00000    0.01040   31.79330    6.77610    0.04610    2.75480  -96.23260   10.47790   68.75650   15.17350
 7900.00000    0.00710   30.44270    7.10430    0.19200    2.76370  -89.37130   12.97390   67.46920    4.46430
 7950.00000    0.02970   16.61680    7.64160    0.25220    2.61830  -83.00900    0.74850    -999.25    7.84970
 8000.00000    0.00070   14.82040    7.04480    0.00670    3.00940  -71.74150    0.00100    -999.25    -999.25
 8050.00000    0.00960   16.39410    7.17910   -0.00670    2.85660  -62.83580    2.61980    -999.25   96.43050
 8100.00000    0.00330   17.19360    8.05990    0.08230    2.61130  -86.86570    0.00100    -999.25   64.39320
 8150.00000    0.01360   26.04500    8.02990    0.05420    2.59720  -79.40300    1.24810    -999.25   77.52980
 8200.00000    0.01730   13.92220    7.10430   -0.00470    2.73290  -23.18390   17.96410   73.12330    7.14290
 8250.00000    0.01050   15.86830    7.07440    0.01850    2.73050  -29.55220   13.47300    -999.25   12.50000
