~Version ---------------------------------------------------
VERS. 2.0 : CWLS log ASCII Standard -VERSION 2.0
WRAP. YES : MULTIPLE LINES PER DEPTH STEP
~Well ------------------------------------------------------
STRT.FT                    1450.0 : START DEPTH
STOP.FT                    9350.0 : STOP DEPTH
STEP.FT                  50.00000 : STEP LENGTH
NULL.                     -999.25 : NULL VALUE
COMP.        MARATHON OIL COMPANY : COMPANY
WELL.                 PINNACLE #4 : WELL
FLD .                  BEAR GRASS : FIELD
LOC .                             : LOCATION
CNTY.                        LEON : COUNTY
STAT.                       TEXAS : STATE
CTRY.    UNITED STATES OF AMERICA : COUNTRY
SRVC. HALLIBURTON Sperry Drilling : SERVICE COMPANY
DATE.                 06-Mar-2000 : LOGDATE
API .              42289313140000 : API NUMBER
UWI .              42289313140000 : UNIQUE WELL ID
SLAT.WGS84          31.3279877769 : SURFACE LATITUDE
SLON.WGS84         -96.3002763309 : SURFACE LONGITUDE
~Curve Information -----------------------------------------
DEPT    .FT    : DEPTH FEET
GRRED   .GAPI  : GAMMA RAY FROM RESISTIVITY LOG
HRMED   .OHMM  : HRI MEDIUM RESISTIVITY
DFLED   .OHMM  : DIGITALLY FOCUSED LATEROLOG
HRDED   .OHMM  : HRI DEEP RESISTIVITY
SPRED   .MV    : SPONTANEOUS POTENTIAL FROM RESISTIVITY LOG
DCALED  .IN    : DIFFERENTIAL CALIPER FROM DENSITY LOG
TENRED  .LBF   : TENSION FROM RESISTIVITY LOG
PEFED   .B/E   : PHOTOELECTRIC FACTOR FROM DENSITY LOG
CORRED  .G/C3  : DENSITY CORRECTION FROM DENSITY LOG
DPORLSED.V/V   : DENSITY POROSITY LIMESTONE
NPORLSED.V/V   : NEUTRON POROSITY LIMESTONE FROM DENSITY LOG
SPWS    .MV    : SPONTANEOUS POTENTIAL [BASELINE 0 MV] [SPRED]
GRWS    .GAPI  : GAMMA RAY [GRRED]
CALWS   .IN    : CALIPER [DCALED+BIT]
DCORWS  .G/C3  : DENSITY CORRECTION [CORRED]
DRESWS  .OHMM  : DEEP RESISTIVITY [HRDED]
MRESWS  .OHMM  : MEDIUM RESISTIVITY [HRMED]
SRESWS  .OHMM  : SHALLOW RESISTIVITY [DFLED]
CONDWS  .MMHO  : CONDUCTIVITY [1000/DRESWS]
PEFWS   .B/E   : PHOTOELECTRIC FACTOR [PEFED]
DENWS   .G/C3  : BULK DENSITY [M=2.71 F=1.0] [CALCULATED FROM DPORLSED]
DPOWS   .V/V   : DENSITY POROSITY [M=2.71 F=1] [CALCULATED FROM DENWS]
NPOWS   .V/V   : NEUTRON POROSITY LIME [SWS CONV NPORLSED]
~Params ----------------------------------------------------
PD  .                     GL : PERMANENT DATUM
EPD .FT                  342 : ELEVATION PERMANENT DATUM
LMF .                     KB : LOG MEASURED FROM
DAPD.FT                   12 : FEET ABOVE PERMANENT DATUM
DMF .                     KB : DRILLING MEASURED FROM
EKB .FT                  354 : KELLY BUSHING
EDF .FT                  353 : DRILLING FLOOR
EGL .FT                  342 : GROUND LEVEL
DATE.               03/06/00 : RUN DATE
RUN .                      1 : RUN NUMBER
DD  .FT                 9350 : DEPTH DRILLER
DL  .FT                 9347 : DEPTH LOGGER
BLI .FT                 9335 : BOTTOM LOG INTERVAL
TLI .FT                 1520 : TOP LOG INTERVAL
CS  .IN                9.625 : CASING SIZE
CBD .FT                 1525 : CASING BOTTOM DRILLER
CBL .FT                 1520 : CASING BOTTOM LOGGER
BS  .IN                7.875 : BIT SIZE
BSD .FT                 9350 : BIT SIZE AT DEPTH
DFT .              FRESH MUD : DRILLING FLUID TYPE
DFD .                     10 : DRILLING FLUID DENSITY
DFV .                     55 : DRILLING FLUID VISCOSITY
DFPH.                    9.8 : DRILLING FLUID PH
DFL .                     15 : DRILLING FLUID LOSS
MSS .               MUD TANK : MUD SAMPLE SOURCE
RMS .OHMM               1.83 : RESISTIVITY MUD SAMPLE
MST .DEGF                 74 : MUD SAMPLE TEMPERATURE
RMF .OHMM               1.59 : RESISTIVITY MUD FILTRATE SAMPLE
MFST.DEGF                 74 : MUD FILTRATE SAMPLE TEMPERATURE
RMC .OHMM                2.3 : RESISTIVITY MUD CAKE
MCST.DEGF                 74 : MUD CAKE SAMPLE TEMPERATURE
MFSS.                   MEAS : MUD FILTRATE SAMPLE SOURCE
MCSS.                   MEAS : MUD CAKE SAMPLE SOURCE
TCS .HRS                 630 : TIME CIRCULATED STOPPED
TLAB.HRS                1241 : TIME LOGGER AT BOTTOM
LUN .                  53793 : LOGGING UNIT NUMBER
LUL .                   KILG : LOGGING UNIT LOCATION
ENGI.               REYNOLDS : RECORDING ENGINEER
WITN.                 EWBANK : WITNESSED BY
CLNT.                A2DTECH : CLIENT CODE
ORIG.         1" 2" 5" PRINT : ORIGIN OF DATA
UWI .         42289313140000 : UNIQUE WELL ID
DICO. A2D Technologies, Inc. : DIGITIZING COMPANY
~Other -----------------------------------------------------
~ASCII -----------------------------------------------------
# ...
 7650.00000   35.71790   13.62930   29.76100   11.14290  -86.71960    1.28820 3670.12820    5.21540    0.02900    0.02700    0.05550  -25.13360   35.71790    9.16320    0.02900   11.14290   13.62930   29.76100   89.74320    5.21540    2.66380    0.02700    0.05550
 7700.00000   37.74330   17.60970   44.04260   13.60240 -140.12410    1.99990 3652.73460    5.11090    0.10320    0.03650    0.10180  -81.52160   37.74330    9.87490    0.10320   13.60240   17.60970   44.04260   73.51640    5.11090    2.64760    0.03650    0.10180
 7750.00000   46.25710    6.93360    7.98030    6.05160  -60.66490    1.12260 3621.21780    4.94340    0.01330    0.03710    0.10610   -1.11700   46.25710    8.99760    0.01330    6.05160    6.93360    7.98030  165.24560    4.94340    2.64660    0.03710    0.10610
 7800.00000   34.49470   33.63340   58.18080   22.24950  -59.99350    1.67340 3668.36520    5.21490    0.02020    0.00300    0.02550   -3.13770   34.49470    9.54840    0.02020   22.24950   33.63340   58.18080   44.94480    5.21490    2.70490    0.00300    0.02550
 7850.00000   51.82390   26.91270   56.87400   20.77390  -51.56570    1.31370 3668.21680    5.28140    0.02050    0.01010    0.02200   -4.08840   51.82390    9.18870    0.02050   20.77390   26.91270   56.87400   48.13730    5.28140    2.69270    0.01010    0.02200
 7900.00000   26.39400   12.81880   15.36110    9.06700  -96.10790    1.49460 3818.50070    4.82590    0.01700   -0.01450    0.03840  -50.51590   26.39400    9.36960    0.01700    9.06700   12.81880   15.36110  110.29010    4.82590    2.73480   -0.01450    0.03840
 7950.00000   14.33550    8.67000  103.83490    5.64600 -185.17120    0.09090 3661.04660    5.29770    0.07530    0.04020    0.07320 -139.94960   14.33550    7.96590    0.07530    5.64600    8.67000  103.83490  177.11650    5.29770    2.64130    0.04020    0.07320
 8000.00000   33.22170   77.47700  150.71490   50.48450 -112.53850    0.90420 3706.08940    5.58410    0.01710    0.00970    0.00750  -67.68740   33.22170    8.77920    0.01710   50.48450   77.47700  150.71490   19.80810    5.58410    2.69340    0.00970    0.00750
 8050.00000   31.45040   63.71730  370.15220   42.67440  -54.08860    1.31510 3746.82230    5.47650    0.02560    0.00530    0.00970   -9.60790   31.45040    9.19010    0.02560   42.67440   63.71730  370.15220   23.43330    5.47650    2.70090    0.00530    0.00970
 8100.00000   36.00370   25.69040   35.54090   22.38160  -65.82490    1.54440 3814.75120    5.30600    0.01290    0.01510    0.03060  -21.68680   36.00370    9.41940    0.01290   22.38160   25.69040   35.54090   44.67960    5.30600    2.68420    0.01510    0.03060
 8150.00000   47.83740   20.03330   32.31670   16.51090  -45.11420    0.99870 3718.70020    5.26650    0.01080    0.01220    0.03280   -1.30090   47.83740    8.87370    0.01080   16.51090   20.03330   32.31670   60.56600    5.26650    2.68910    0.01220    0.03280
 8200.00000  101.19310    2.64170    3.19260    2.54310  -55.31440    3.28120 3798.74440    3.64710    -999.25    0.11170    0.33620  -11.24140  101.19310   11.15620    -999.25    2.54310    2.64170    3.19260  393.22090    3.64710    2.51900    0.11170    0.33620
 8250.00000   49.62760    7.58660   13.28310    4.71810  -50.02050    1.58150 3974.83980    4.51760    -999.25    0.05210    0.08860   -5.38920   49.62760    9.45650    -999.25    4.71810    7.58660   13.28310  211.94970    4.51760    2.62090    0.05210    0.08860
 8300.00000   99.09680    3.61250    5.21090    3.29380  -44.87640    2.63760 4021.40260    4.06480    -999.25    0.06890    0.26930   -2.09680   99.09680   10.51260    -999.25    3.29380    3.61250    5.21090  303.60070    4.06480    2.59220    0.06890    0.26930
 8350.00000  124.13530    3.73000    5.65280    3.56620  -49.63480    4.30820 3890.18850    3.49820    -999.25    0.00020    0.29850   -5.88160  124.13530   12.18320    -999.25    3.56620    3.73000    5.65280  280.41050    3.49820    2.70970    0.00020    0.29850
 8400.00000   54.37900   38.61090   88.86190   29.15630  -49.78740    0.79990 3877.02810    5.51300    0.01640    0.00120    0.02080   -9.76100   54.37900    8.67490    0.01640   29.15630   38.61090   88.86190   34.29790    5.51300    2.70790    0.00120    0.02080
 8450.00000   46.46260   13.44500   20.41690   11.79280  -45.02460    0.75960 3921.69070    5.03260    0.01660    0.01470    0.07290   -4.21670   46.46260    8.63460    0.01660   11.79280   13.44500   20.41690   84.79750    5.03260    2.68490    0.01470    0.07290
 8500.00000   99.76780    4.02610    5.33310    3.75430  -47.21550    2.52520 3959.63160    4.01800    0.09110    0.04610    0.25300   -4.91150   99.76780   10.40020    0.09110    3.75430    4.02610    5.33310  266.36120    4.01800    2.63120    0.04610    0.25300
 8550.00000   46.59170   66.77070  137.00760   50.31480  -86.85750    0.91070 3969.28980    5.33360    0.05180    0.01060    0.01330  -42.58600   46.59170    8.78570    0.05180   50.31480   66.77070  137.00760   19.87490    5.33360    2.69190    0.01060    0.01330
 8600.00000   45.60690   36.75790   58.13510   31.22200  -92.87830    0.80460 3961.31250    5.18590    0.02340    0.00840    0.01780  -46.55610   45.60690    8.67960    0.02340   31.22200   36.75790   58.13510   32.02870    5.18590    2.69560    0.00840    0.01780
 8650.00000   30.82930   56.55300   89.54730   45.03550 -105.66600    1.06890 3964.25630    5.23610    0.01420    0.01890    0.01000  -57.29300   30.82930    8.94390    0.01420   45.03550   56.55300   89.54730   22.20470    5.23610    2.67770    0.01890    0.01000
 8700.00000   36.48690   10.47840    9.15540    7.13060  -80.22590    1.32350 3975.43380    4.47800    0.03500   -0.01210    0.05720  -29.80220   36.48690    9.19850    0.03500    7.13060   10.47840    9.15540  140.24060    4.47800    2.73070   -0.01210    0.05720
 8750.00000   56.04950   30.85740   64.49210   24.96710  -60.49340    0.92820 3969.52150    5.00690    0.00950    0.00930    0.00650  -12.26420   56.04950    8.80320    0.00950   24.96710   30.85740   64.49210   40.05270    5.00690    2.69410    0.00930    0.00650
 8800.00000   69.50640    4.93370    6.13010    4.53460  -83.47510    0.96100 4010.96630    3.04950    0.02780    0.06810    0.09290  -38.73140   69.50640    8.83600    0.02780    4.53460    4.93370    6.13010  220.52660    3.04950    2.59350    0.06810    0.09290
 8850.00000   50.79700   11.20690   19.19340   11.49860  -55.02900    0.74100 4034.15530    4.56420   -0.00020    0.00470    0.06640  -12.00790   50.79700    8.61600   -0.00020   11.49860   11.20690   19.19340   86.96710    4.56420    2.70200    0.00470    0.06640
 8900.00000   84.88120    7.42400   12.29160    6.85060  -50.08080    0.98650 4050.98660    3.94530    0.02780    0.03360    0.08890   -6.94020   84.88120    8.86150    0.02780    6.85060    7.42400   12.29160  145.97260    3.94530    2.65250    0.03360    0.08890
 8950.00000   65.22830   13.12160   20.12260    9.94010  -79.11160    0.37640 3990.19510    3.23600    0.01610    0.05990    0.04520  -44.38410   65.22830    8.25140    0.01610    9.94010   13.12160   20.12260  100.60260    3.23600    2.60760    0.05990    0.04520
 9000.00000   46.42540   18.83910   29.54690   15.01870  -51.87990    0.84500 4011.66310    4.63960    0.01010   -0.01070    0.03670  -25.53780   46.42540    8.72000    0.01010   15.01870   18.83910   29.54690   66.58370    4.63960    2.72830   -0.01070    0.03670
 9050.00000   94.86370    4.86730    6.02810    4.46960  -50.15950    0.57570 3995.60060    2.80870    0.02740    0.06190    0.08690  -20.14690   94.86370    8.45070    0.02740    4.46960    4.86730    6.02810  223.73370    2.80870    2.60420    0.06190    0.08690
 9100.00000   99.42440    3.11360    2.75900    2.70970  -47.08490    0.79890 4085.98390    3.13530    0.01800    0.06240    0.14220  -19.79630   99.42440    8.67390    0.01800    2.70970    3.11360    2.75900  369.04450    3.13530    2.60330    0.06240    0.14220
 9150.00000   31.48700   11.53480   16.09900   10.32170  -55.83350    0.24120 4072.00880    2.96920    0.01970    0.03480    0.02780  -25.21310   31.48700    8.11620    0.01970   10.32170   11.53480   16.09900   96.88330    2.96920    2.65050    0.03480    0.02780
