~Version ---------------------------------------------------
VERS. 2.0 : CWLS log ASCII Standard -VERSION 2.0
WRAP. YES : MULTIPLE LINES PER DEPTH STEP
~Well ------------------------------------------------------
STRT.FT                        2500.0 : START DEPTH
STOP.FT                       11350.0 : STOP DEPTH
STEP.FT                      50.00000 : STEP LENGTH
NULL.                         -999.25 : NULL VALUE
COMP. UNION PACIFIC RESOURCES COMPANY : COMPANY
WELL.             BOZKA-BOZKA UNIT #1 : WELL
FLD .                     PEACH CREEK : FIELD
LOC .                                 : LOCATION
CNTY.                        GONZALES : COUNTY
STAT.                           TEXAS : STATE
CTRY.        UNITED STATES OF AMERICA : COUNTRY
SRVC.                    Schlumberger : SERVICE COMPANY
DATE.                     08-Oct-1991 : LOGDATE
API .                  42177319460000 : API NUMBER
UWI .                  42177319460000 : UNIQUE WELL ID
SLAT.WGS84              29.4649895079 : SURFACE LATITUDE
SLON.WGS84             -97.2961371962 : SURFACE LONGITUDE
~Curve Information -----------------------------------------
DEPT    .FT    : DEPTH FEET
C1ED    .IN    : CALIPER 1 FROM CALIPER LOG
C2ED    .IN    : CALIPER 2 FROM CALIPER LOG
CALRED  .IN    : CALIPER FROM RESISTIVITY LOG
CALWS   .IN    : CALIPER [CALRED]
CONDWS  .MMHO  : CONDUCTIVITY [1000/DRESWS]
DCORWS  .G/C3  : DENSITY CORRECTION [DRHOED]
DENWS   .G/C3  : BULK DENSITY [M=2.65 F=1.0] [CALCULATED FROM DPOWS]
DPHISSED.V/V   : DENSITY POROSITY SANDSTONE [M=2.65 F=1.0] FROM DENSITY LOG, DEPTH ADJUSTED WITH [GRRED]
DPOWS   .V/V   : DENSITY POROSITY [DPHISSED]
DRESWS  .OHMM  : DEEP RESISTIVITY [ILDED]
DRHOED  .G/C3  : DENSITY CORRECTION FROM DENSITY LOG, DEPTH ADJUSTED WITH [GRRED]
GRDED   .GAPI  : GAMMA RAY FROM DENSITY LOG, DEPTH ADJUSTED WITH [GRRED]
GRRED   .GAPI  : GAMMA RAY FROM RESISTIVITY LOG
GRWS    .GAPI  : GAMMA RAY [GRRED]
ILDED   .OHMM  : INDUCTION LOG DEEP RESISTIVITY
ILMED   .OHMM  : INDUCTION LOG MEDIUM RESISTIVITY
MRESWS  .OHMM  : MEDIUM RESISTIVITY [ILMED]
NPHISSED.V/V   : NEUTRON POROSITY SANDSTONE FROM DENSITY LOG, DEPTH ADJUSTED WITH [GRRED]
NPOWS   .V/V   : NEUTRON POROSITY SANDSTONE [NPHISSED]
PEFED   .B/E   : PHOTOELECTRIC FACTOR FROM DENSITY LOG, DEPTH ADJUSTED WITH [GRRED]
PEFWS   .B/E   : PHOTOELECTRIC FACTOR [PEFED]
SFLUED  .OHMM  : SPHERICALLY FOCUSED LOG RESISTIVITY
SPRED   .MV    : SPONTANEOUS POTENTIAL FROM RESISTIVITY LOG
SPWS    .MV    : SPONTANEOUS POTENTIAL [BASELINE 0 MV] [SPRED]
SRESWS  .OHMM  : SHALLOW RESISTIVITY [SFLUED]
TENDED  .LBF   : TENSION FROM DENSITY LOG, DEPTH ADJUSTED WITH [GRRED]
TENRED  .LBF   : TENSION FROM RESISTIVITY LOG
~Params ----------------------------------------------------
PD  .                     GL : PERMANENT DATUM
EPD .FT                  312 : ELEVATION PERMANENT DATUM
LMF .                    RKB : LOG MEASURED FROM
DAPD.FT                   24 : FEET ABOVE PERMANENT DATUM
DMF .                    RKB : DRILLING MEASURED FROM
EKB .FT                  336 : KELLY BUSHING
EDF .FT                  335 : DRILLING FLOOR
EGL .FT                  312 : GROUND LEVEL
DATE.               10/09/91 : RUN DATE
RUN .                      1 : RUN NUMBER
DD  .FT                11400 : DEPTH DRILLER
DL  .FT                11376 : DEPTH LOGGER
BLI .FT                11370 : BOTTOM LOG INTERVAL
TLI .FT                 2518 : TOP LOG INTERVAL
CS  .IN                10.75 : CASING SIZE
CBD .FT                 2520 : CASING BOTTOM DRILLER
CBL .FT                 2518 : CASING BOTTOM LOGGER
BS  .IN                9.875 : BIT SIZE
BSD .FT                11400 : BIT SIZE AT DEPTH
DFT .          NEW DRILL GEL : DRILLING FLUID TYPE
DFD .                    9.6 : DRILLING FLUID DENSITY
MSS .              CIRC TANK : MUD SAMPLE SOURCE
MST .DEGF                 75 : MUD SAMPLE TEMPERATURE
RMF .OHMM               2.01 : RESISTIVITY MUD FILTRATE SAMPLE
MFST.DEGF                 75 : MUD FILTRATE SAMPLE TEMPERATURE
RMC .OHMM               4.02 : RESISTIVITY MUD CAKE
MCST.DEGF                 75 : MUD CAKE SAMPLE TEMPERATURE
MFSS.                   MEAS : MUD FILTRATE SAMPLE SOURCE
MCSS.                   CALC : MUD CAKE SAMPLE SOURCE
TCS .HRS                2200 : TIME CIRCULATED STOPPED
TLAB.HRS                2020 : TIME LOGGER AT BOTTOM
LUL .               ALICE TX : LOGGING UNIT LOCATION
ENGI.             ROTAN CAMP : RECORDING ENGINEER
WITN.                   SVOR : WITNESSED BY
CLNT.                A2DTECH : CLIENT CODE
ORIG.         1" 2" 5" PRINT : ORIGIN OF DATA
UWI .         42177319460000 : UNIQUE WELL ID
DICO. A2D Technologies, Inc. : DIGITIZING COMPANY
~Other -----------------------------------------------------
~ASCII -----------------------------------------------------
# ...
 5100.00000    -999.25    -999.25    -999.25    -999.25  686.15340    -999.25    -999.25    -999.25    -999.25    1.45740    -999.25   89.21130   88.86890   88.86890    1.45740    1.59690    1.59690    0.39700    0.39700    -999.25    -999.25    1.77240  -18.12250  -15.89170    1.77240 2778.43650 1307.06230
 5150.00000    -999.25    -999.25    -999.25    -999.25  729.76720    -999.25    -999.25    -999.25    -999.25    1.37030    -999.25   88.59680   90.04700   90.04700    1.37030    1.45250    1.45250    0.37660    0.37660    -999.25    -999.25    1.65230   -7.50420   -5.52720    1.65230 2722.57890 1308.59080
 5200.00000    -999.25    -999.25    -999.25    -999.25  870.24630    -999.25    -999.25    -999.25    -999.25    1.14910    -999.25   80.81980   82.08820   82.08820    1.14910    1.18200    1.18200    0.41490    0.41490    -999.25    -999.25    1.57320   -5.22980   -3.50660    1.57320 2764.23730 1317.49020
 5250.00000    -999.25    -999.25    -999.25    -999.25  891.66300    -999.25    -999.25    -999.25    -999.25    1.12150    -999.25   86.77790   87.69840   87.69840    1.12150    1.17830    1.17830    0.38300    0.38300    -999.25    -999.25    1.52230   -4.67410   -3.20480    1.52230 2783.18460 1308.36390
 5300.00000    -999.25    -999.25    -999.25    -999.25  904.64990    -999.25    -999.25    -999.25    -999.25    1.10540    -999.25   85.58330   85.76930   85.76930    1.10540    1.13730    1.13730    0.43970    0.43970    -999.25    -999.25    1.42990   -4.30880   -3.09330    1.42990 2798.76730 1314.32900
 5350.00000    -999.25    -999.25    -999.25    -999.25  567.76250    -999.25    -999.25    -999.25    -999.25    1.76130    -999.25   92.85640   92.11900   92.11900    1.76130    1.81140    1.81140    0.33810    0.33810    -999.25    -999.25    2.08730   -8.79570   -7.83400    2.08730 2857.65820 1326.05330
 5400.00000    -999.25    -999.25    -999.25    -999.25  796.74930    -999.25    -999.25    -999.25    -999.25    1.25510    -999.25   82.01390   81.91770   81.91770    1.25510    1.29080    1.29080    0.38380    0.38380    -999.25    -999.25    1.71340   -7.15840   -6.45050    1.71340 2838.96340 1319.79660
 5450.00000    -999.25    -999.25    -999.25    -999.25  607.09080    -999.25    -999.25    -999.25    -999.25    1.64720    -999.25   76.79220   77.22060   77.22060    1.64720    1.71700    1.71700    0.42010    0.42010    -999.25    -999.25    1.87380   -7.71880   -7.26480    1.87380 2915.15650 1337.78230
 5500.00000    -999.25    -999.25    -999.25    -999.25  665.02620    -999.25    -999.25    -999.25    -999.25    1.50370    -999.25   95.90360   96.70930   96.70930    1.50370    1.54670    1.54670    0.34930    0.34930    -999.25    -999.25    1.94270   -4.78700   -4.58680    1.94270 2821.63620 1341.94920
 5550.00000    -999.25    -999.25    -999.25    -999.25  563.79320    -999.25    -999.25    -999.25    -999.25    1.77370    -999.25   97.73890   97.87570   97.87570    1.77370    1.86780    1.86780    0.36190    0.36190    -999.25    -999.25    1.99150   -7.59720   -7.65080    1.99150 2874.32030 1319.22000
 5600.00000    -999.25    -999.25    -999.25    -999.25  593.29580    -999.25    -999.25    -999.25    -999.25    1.68550    -999.25   81.67140   82.19950   82.19950    1.68550    1.78990    1.78990    0.34080    0.34080    -999.25    -999.25    2.09720   -4.62310   -4.93050    2.09720 2868.16750 1335.52950
 5650.00000    -999.25    -999.25    -999.25    -999.25  678.01210    -999.25    -999.25    -999.25    -999.25    1.47490    -999.25   95.31260   95.38510   95.38510    1.47490    1.51680    1.51680    0.37260    0.37260    -999.25    -999.25    1.84820   -5.12640   -5.68770    1.84820 2923.93190 1339.72030
 5700.00000    -999.25    -999.25    -999.25    -999.25  610.46330    -999.25    -999.25    -999.25    -999.25    1.63810    -999.25   83.33180   84.27110   84.27110    1.63810    1.71980    1.71980    0.37720    0.37720    -999.25    -999.25    2.10750   -8.21430   -9.02940    2.10750 2921.10690 1344.91770
 5750.00000    -999.25    -999.25    -999.25    -999.25  737.51750    -999.25    -999.25    -999.25    -999.25    1.35590    -999.25   87.31650   85.26820   85.26820    1.35590    1.39720    1.39720    0.40480    0.40480    -999.25    -999.25    1.68810   -4.22210   -5.29100    1.68810 2982.78340 1354.14000
 5800.00000    -999.25    -999.25    -999.25    -999.25  478.97310    -999.25    -999.25    -999.25    -999.25    2.08780    -999.25   72.07260   71.11350   71.11350    2.08780    2.18430    2.18430    0.32560    0.32560    -999.25    -999.25    3.62580  -24.05850  -25.38120    3.62580 2990.09550 1357.55200
 5850.00000    -999.25    -999.25    -999.25    -999.25  721.55280    -999.25    -999.25    -999.25    -999.25    1.38590    -999.25   88.68480   88.18960   88.18960    1.38590    1.44270    1.44270    0.39510    0.39510    -999.25    -999.25    1.76810   -3.40190   -4.97850    1.76810 2970.75810 1372.32850
 5900.00000    -999.25    -999.25    -999.25    -999.25  724.00810    -999.25    -999.25    -999.25    -999.25    1.38120    -999.25   77.59790   77.24300   77.24300    1.38120    1.44700    1.44700    0.36310    0.36310    -999.25    -999.25    1.78140   -1.54030   -3.37070    1.78140 3019.30860 1370.61790
 5950.00000    -999.25    -999.25    -999.25    -999.25  608.93920    -999.25    -999.25    -999.25    -999.25    1.64220    -999.25   91.77010   93.64290   93.64290    1.64220    1.72310    1.72310    0.39730    0.39730    -999.25    -999.25    2.25520   -0.83730   -2.92150    2.25520 3062.82010 1366.42350
 6000.00000    -999.25    -999.25    -999.25    -999.25  705.21860    -999.25    -999.25    -999.25    -999.25    1.41800    -999.25   91.11220   88.99510   88.99510    1.41800    1.47480    1.47480    0.35380    0.35380    -999.25    -999.25    1.87930    0.09540   -2.74850    1.87930 3081.33110 1366.06870
 6050.00000    -999.25    -999.25    -999.25    -999.25  805.41240    -999.25    -999.25    -999.25    -999.25    1.24160    -999.25   87.02730   86.77960   86.77960    1.24160    1.27100    1.27100    0.36550    0.36550    -999.25    -999.25    1.64470   -0.73790   -4.72320    1.64470 3055.28370 1363.84550
 6100.00000    -999.25    -999.25    -999.25    -999.25  742.17010    -999.25    -999.25    -999.25    -999.25    1.34740    -999.25   84.21820   84.37720   84.37720    1.34740    1.40030    1.40030    0.33190    0.33190    -999.25    -999.25    1.79980    0.59760   -3.22030    1.79980 3044.19380 1380.13610
 6150.00000    -999.25    -999.25    -999.25    -999.25  643.74920    -999.25    -999.25    -999.25    -999.25    1.55340    -999.25   78.98580   76.46270   76.46270    1.55340    1.61760    1.61760    0.40270    0.40270    -999.25    -999.25    2.09260    0.93140   -2.39200    2.09260 3109.16280 1375.98500
 6200.00000    -999.25    -999.25    -999.25    -999.25  568.95770    -999.25    -999.25    -999.25    -999.25    1.75760    -999.25   91.28290   92.07790   92.07790    1.75760    1.83020    1.83020    0.35120    0.35120    -999.25    -999.25    2.52550    0.82980   -1.99900    2.52550 3068.78250 1391.29900
 6250.00000    -999.25    -999.25    -999.25    -999.25  523.58760    -999.25    -999.25    -999.25    -999.25    1.90990    -999.25   86.27340   85.14210   85.14210    1.90990    1.98890    1.98890    0.35380    0.35380    -999.25    -999.25    2.44920    0.38070   -1.95350    2.44920 3144.22580 1385.53660
 6300.00000    -999.25    -999.25    -999.25    -999.25  432.43240    -999.25    -999.25    -999.25    -999.25    2.31250    -999.25   75.79290   76.48180   76.48180    2.31250    2.90960    2.90960    0.25240    0.25240    -999.25    -999.25    5.11030  -31.78680  -33.62650    5.11030 3170.36040 1395.81570
 6350.00000    -999.25    -999.25    -999.25    -999.25  663.52600    -999.25    -999.25    -999.25    -999.25    1.50710    -999.25   67.74860   68.46490   68.46490    1.50710    2.15500    2.15500    0.30620    0.30620    -999.25    -999.25    3.09300  -42.86160  -44.20670    3.09300 3108.76880 1367.50930
