~Version ---------------------------------------------------
VERS. 2.0 : CWLS log ASCII Standard -VERSION 2.0
WRAP.  NO : One line per depth step
~Well ------------------------------------------------------
STRT.FT                     1050.0 : START DEPTH
STOP.FT                    19600.0 : STOP DEPTH
STEP.FT                   50.00000 : STEP LENGTH
NULL.                      -999.25 : NULL VALUE
COMP. PAN AMERICAN PETROLEUM CORP. : COMPANY
WELL.           MURRAY FRANKLIN #1 : WELL
FLD .                      WILDCAT : FIELD
LOC .                              : LOCATION
CNTY.                    MC MULLEN : COUNTY
STAT.                        TEXAS : STATE
CTRY.     UNITED STATES OF AMERICA : COUNTRY
SRVC.                 Schlumberger : SERVICE COMPANY
DATE.                  30-Aug-1964 : LOGDATE
API .               42311001580000 : API NUMBER
UWI .               42311001580000 : UNIQUE WELL ID
SLAT.WGS84           28.5946649186 : SURFACE LATITUDE
SLON.WGS84          -98.6650291661 : SURFACE LONGITUDE
~Curve Information -----------------------------------------
DEPT  .FT    : DEPTH
ASNED .OHMM  : AMPLIFIED SHORT NORMAL 16 IN.
CALWS .IN    : CALIPER (CALSED)
CALSED.IN    : CALIPER FROM SONIC LOG (ADJ TO RES.)
CILDED.MMHO  : CONDUCTIVITY FROM LOG
CONDWS.MMHO  : CONDUCTIVITY (1000/DREWS)
DRESWS.OHMM  : DEEP RESISTIVITY (IF ILDED<1, THEN 1000/CILDED)
DTED  .US/F  : DELTA TIME  (ADJ TO RES.)
DTWS  .US/F  : DELTA TIME  (DTED)
GRNED .GAPI  : GAMMA RAY FROM NEUTRON LOG (ADJ TO RES.)
GRWS  .GAPI  : GAMMA RAY (GRNED)
ILDED .OHMM  : DEEP INDUCTION RESISTIVITY
NEUTED.CU    : NEUTRON FROM GAMMA RAY NEUTRON LOG (ADJ TO RES.)
NEUTWS.CU    : NEUTRON FROM GAMMA RAY NEUTRON LOG (NEUTED)
SPWS  .MV    : SPONTANEOUS POTENTIAL BASELINE 0 MV (SPRED)
SPRED .MV    : SPONTANEOUS POTENTIAL FROM RESISTIVITY
SRESWS.OHMM  : SHALLOW RESISTIVITY (ASNED)
~Params ----------------------------------------------------
PD  .                 2" BHO : PERMANENT DATUM
EPD .F                   395 : ELEVATION PERMANENT DATUM
LMF .                     KB : LOG MEASURED FROM
DAPD.F                  23.7 : FEET ABOVE PERMANENT DATUM
DMF .                     KB : DRILLING MEASURED FROM
EKB .F                 418.7 : KELLING BUSHING
EDF .F                 416.0 : DRILLING FLOOR
EGL .F                 395.0 : GROUND LEVEL
DATE.             08-30-1964 : RUN DATE
RUN .                      6 : RUN NUMBER
DD  .F                 19636 : DEPTH DRILLER
DL  .F                 19632 : DEPTH LOGGER
BLI .F                 19632 : BOTTOM LOG INTERVAL
TLI .F                 18788 : TOP LOG INTERVAL
CS  .IN                    5 : CASING SIZE
CBD .F                 16836 : CASING BOTTOM DRILLER
BS  .IN                 4.25 : BIT SIZE
BSD .F                 19636 : BIT SIZE AT DEPTH
DFT .        UNICAL OIL EMUL : DRILLING FLUID TYPE
TCS .HRS                   3 : TIME CURCULATED STOPPED
LUN .                   4521 : LOGGING UNIT NUMBER
LUL .                    KEN : LOGGING UNIT LOCATION
ENGI.                  ELLIS : RECORDING ENGINEER
WITN.       FREEMAN, SHAPLEY : WITNESSED BY
CLNT.                A2DTECH : CLIENT CODE
ORIG.               5" PRINT : ORIGIN OF DATA
UWI .         42311001580000 : UNIQUE WELL ID
DICO. A2D Technologies, Inc. : DIGITIZING COMPANY
~Other -----------------------------------------------------
~ASCII -----------------------------------------------------
# ...
 5350.00000    3.43300   12.72600   12.72600  476.54720  462.96300    2.16000   82.83170   82.83170    -999.25    -999.25    2.16000    -999.25    -999.25  -38.03090  -55.46700    3.43300
 5400.00000    1.26000   12.88700   12.88700 1005.00200  912.40880    1.09600  110.05410  110.05410    -999.25    -999.25    1.09600    -999.25    -999.25   -5.05830  -22.46000    1.26000
 5450.00000    3.21200   12.35000   12.35000  611.77640  606.42810    1.64900   82.94300   82.94300    -999.25    -999.25    1.64900    -999.25    -999.25  -52.76970  -70.13700    3.21200
 5500.00000    1.98800   13.10100   13.10100  578.46590  545.25630    1.83400   82.93110   82.93110    -999.25    -999.25    1.83400    -999.25    -999.25   -5.47600  -22.80900    1.98800
 5550.00000    2.02300   13.61700   13.61700  563.31780  548.24560    1.82400   95.13220   95.13220    -999.25    -999.25    1.82400    -999.25    -999.25   -8.26140  -25.56000    2.02300
 5600.00000    2.28600   13.50700   13.50700  505.69740  469.26320    2.13100   86.10080   86.10080    -999.25    -999.25    2.13100    -999.25    -999.25   -7.05770  -24.32200    2.28600
 5650.00000    3.03500   13.19700   13.19700  357.78720  371.74720    2.69000   85.61860   85.61860    -999.25    -999.25    2.69000    -999.25    -999.25   -9.04410  -26.27400    3.03500
 5700.00000    1.81900   13.77000   13.77000  701.52970  648.08810    1.54300   93.57700   93.57700    -999.25    -999.25    1.54300    -999.25    -999.25   -6.13450  -23.33000    1.81900
 5750.00000    1.94200   14.06400   14.06400  679.96730  616.52280    1.62200   96.46250   96.46250    -999.25    -999.25    1.62200    -999.25    -999.25   -7.68780  -24.84900    1.94200
 5800.00000    3.33100   13.20100   13.20100  342.31540  337.04080    2.96700   81.28870   81.28870    -999.25    -999.25    2.96700    -999.25    -999.25  -10.64720  -27.77400    3.33100
 5850.00000    2.55500   14.43500   14.43500  450.14170  435.35050    2.29700   84.92260   84.92260    -999.25    -999.25    2.29700    -999.25    -999.25   -6.48760  -23.58000    2.55500
 5900.00000    2.50000   14.50700   14.50700  446.10780  436.49060    2.29100   85.14750   85.14750    -999.25    -999.25    2.29100    -999.25    -999.25   -5.92690  -22.98500    2.50000
 5950.00000    2.53200   14.13700   14.13700  480.40760  454.75220    2.19900   86.94750   86.94750    -999.25    -999.25    2.19900    -999.25    -999.25   -5.83530  -22.85900    2.53200
 6000.00000    2.58300   14.53100   14.53100  440.27950  434.59360    2.30100   85.69840   85.69840    -999.25    -999.25    2.30100    -999.25    -999.25   -5.15470  -22.14400    2.58300
 6050.00000    1.96400   14.69700   14.69700  580.06210  560.85250    1.78300   89.38940   89.38940    -999.25    -999.25    1.78300    -999.25    -999.25   -4.62500  -21.58000    1.96400
 6100.00000    1.76500   15.01700   15.01700  667.66470  632.91140    1.58000   93.63850   93.63850    -999.25    -999.25    1.58000    -999.25    -999.25   -4.84940  -21.77000    1.76500
 6150.00000    1.80300   14.69900   14.69900  659.68070  623.83030    1.60300   94.44350   94.44350    -999.25    -999.25    1.60300    -999.25    -999.25   -4.97880  -21.86500    1.80300
 6200.00000    1.61600   14.37900   14.37900  764.10610  694.44440    1.44000   98.02490   98.02490    -999.25    -999.25    1.44000    -999.25    -999.25   -6.40110  -23.25300    1.61600
 6250.00000    1.64200   15.50000   15.50000  729.29790  641.02560    1.56000   95.05790   95.05790    -999.25    -999.25    1.56000    -999.25    -999.25   -6.55850  -23.37600    1.64200
 6300.00000    1.31100   14.32500   14.32500  969.06190  849.61760    1.17700  104.49390  104.49390    -999.25    -999.25    1.17700    -999.25    -999.25   -5.40090  -22.18400    1.31100
 6350.00000    1.39400   14.15100   14.15100  903.20760  741.83970    1.34800   99.55360   99.55360    -999.25    -999.25    1.34800    -999.25    -999.25   -5.50420  -22.25300    1.39400
 6400.00000    1.59000   14.76700   14.76700  775.44910  684.46270    1.46100   97.67790   97.67790    -999.25    -999.25    1.46100    -999.25    -999.25   -5.34660  -22.06100    1.59000
 6450.00000    1.80400   13.87100   13.87100  661.60530  654.45030    1.52800   86.70370   86.70370    -999.25    -999.25    1.52800    -999.25    -999.25   -4.17800  -20.85800    1.80400
 6500.00000    2.53200   13.77100   13.77100  447.11740  445.23600    2.24600   87.24550   87.24550    -999.25    -999.25    2.24600    -999.25    -999.25   -3.41020  -20.06000    2.53200
 6550.00000    2.43800   14.06900   14.06900  544.83890  545.85150    1.83200   86.59970   86.59970    -999.25    -999.25    1.83200    -999.25    -999.25   -5.15890  -21.84400    2.43800
 6600.00000    2.12100   14.72600   14.72600  568.32490  541.12550    1.84800   87.20180   87.20180    -999.25    -999.25    1.84800    -999.25    -999.25   -6.62570  -23.34600    2.12100
 6650.00000    2.02400   14.46900   14.46900  582.52850  591.01650    1.69200   89.17810   89.17810    -999.25    -999.25    1.69200    -999.25    -999.25   -6.50940  -23.26500    2.02400
 6700.00000    1.67100   15.69300   15.69300  723.44510  729.39460    1.37100  101.57690  101.57690    -999.25    -999.25    1.37100    -999.25    -999.25   -5.64120  -22.43200    1.67100
 6750.00000    1.75500   15.00000   15.00000  691.87450  604.96070    1.65300   97.79900   97.79900    -999.25    -999.25    1.65300    -999.25    -999.25   -7.70190  -24.52800    1.75500
 6800.00000    1.69400   15.71600   15.71600  690.52610  604.96070    1.65300  102.03440  102.03440    -999.25    -999.25    1.65300    -999.25    -999.25   -7.30670  -24.16800    1.69400
 6850.00000    1.94400   14.70500   14.70500  578.48650  574.38250    1.74100   84.74100   84.74100    -999.25    -999.25    1.74100    -999.25    -999.25   -6.75840  -23.65500    1.94400
 6900.00000    1.92700   14.94300   14.94300  603.79240  540.83290    1.84900   94.03910   94.03910    -999.25    -999.25    1.84900    -999.25    -999.25   -5.18020  -22.11200    1.92700
 6950.00000    1.58200   15.72400   15.72400  804.88570  723.06580    1.38300  102.01840  102.01840    -999.25    -999.25    1.38300    -999.25    -999.25   -6.68290  -23.65000    1.58200
 7000.00000    1.68300   15.41700   15.41700  722.41230  732.06440    1.36600   99.63800   99.63800    -999.25    -999.25    1.36600    -999.25    -999.25   -7.13670  -24.13900    1.68300
 7050.00000    1.74600   15.07900   15.07900  721.31220  553.70980    1.80600   97.95510   97.95510    -999.25    -999.25    1.80600    -999.25    -999.25   -6.87740  -23.91500    1.74600
 7100.00000    1.78900   14.23500   14.23500  704.89610  648.50840    1.54200   93.12060   93.12060    -999.25    -999.25    1.54200    -999.25    -999.25   -5.45820  -22.53100    1.78900
 7150.00000    1.87000   15.34700   15.34700  669.66070  564.01580    1.77300  105.34260  105.34260    -999.25    -999.25    1.77300    -999.25    -999.25   -7.74090  -24.84900    1.87000
 7200.00000    2.08900   15.02500   15.02500  580.57000  539.95680    1.85200   91.25860   91.25860    -999.25    -999.25    1.85200    -999.25    -999.25   -6.50370  -23.64700    2.08900
 7250.00000    2.07600   14.31400   14.31400  561.10800  538.21310    1.85800   87.52480   87.52480    -999.25    -999.25    1.85800    -999.25    -999.25   -5.75050  -22.92900    2.07600
 7300.00000    1.95200   14.73100   14.73100  619.97640  632.11130    1.58200   92.45870   92.45870    -999.25    -999.25    1.58200    -999.25    -999.25   -7.35720  -24.57100    1.95200
 7350.00000    2.19600   14.13400   14.13400  591.81630  564.33410    1.77200   93.48000   93.48000    -999.25    -999.25    1.77200    -999.25    -999.25   -7.19900  -24.44800    2.19600
 7400.00000    2.80400   13.18100   13.18100  456.08380  462.53470    2.16200   84.49020   84.49020    -999.25    -999.25    2.16200    -999.25    -999.25   -5.29070  -22.57500    2.80400
 7450.00000    3.60200   13.25200   13.25200  345.80280  351.24690    2.84700   80.16700   80.16700    -999.25    -999.25    2.84700    -999.25    -999.25   -4.61150  -21.93100    3.60200
