~Version ---------------------------------------------------
VERS. 2.0 : CWLS log ASCII Standard -VERSION 2.0
WRAP. YES : MULTIPLE LINES PER DEPTH STEP
~Well ------------------------------------------------------
STRT.FT                 1000.0 : START DEPTH
STOP.FT                10200.0 : STOP DEPTH
STEP.FT               50.00000 : STEP LENGTH
NULL.                  -999.25 : NULL VALUE
COMP.          TEXAS CRUDE INC : COMPANY
WELL.                KILLAM #1 : WELL
FLD .          STUART CITY, W. : FIELD
LOC .                          : LOCATION
CNTY.                 LA SALLE : COUNTY
STAT.                    TEXAS : STATE
CTRY. UNITED STATES OF AMERICA : COUNTRY
SRVC.             Schlumberger : SERVICE COMPANY
DATE.              15-Jun-1994 : LOGDATE
API .           42283315470000 : API NUMBER
UWI .           42283315470000 : UNIQUE WELL ID
SLAT.WGS84       28.1852380975 : SURFACE LATITUDE
SLON.WGS84      -99.3650729919 : SURFACE LONGITUDE
~Curve Information -----------------------------------------
DEPT    .FT    : DEPTH FEET
CALDED  .IN    : CALIPER FROM DENSITY LOG
CALWS   .IN    : CALIPER [CALDED]
CONDWS  .MMHO  : CONDUCTIVITY [1000/DRESWS]
DCORWS  .G/C3  : DENSITY CORRECTION [DRHOED]
DENWS   .G/C3  : BULK DENSITY [M=2.71 F=1.0] [CALCULATED FROM DPOWS]
DPHILSED.V/V   : DENSITY POROSITY LIMESTONE FROM DENSITY LOG
DPOWS   .V/V   : DENSITY POROSITY [M=2.71 F=1.0] [DPHILSED]
DRESWS  .OHMM  : DEEP RESISTIVITY [IDPHED]
DRHOED  .G/C3  : DENSITY CORRECTION FROM DENSITY LOG
GRDED   .GAPI  : GAMMA RAY FROM DENSITY LOG
GRRED   .GAPI  : GAMMA RAY FROM RESISTIVITY LOG
GRWS    .GAPI  : GAMMA RAY [GRRED]
IDPHED  .OHMM  : INDUCTION DEEP PHASE RESISTIVITY
IMPHED  .OHMM  : INDUCTION MEDIUM PHASE RESISTIVITY
MRESWS  .OHMM  : MEDIUM RESISTIVITY [IMPHED]
NPHILSED.V/V   : NEUTRON POROSITY LIMESTONE FROM DENSITY LOG
NPOWS   .V/V   : NEUTRON POROSITY LIMESTONE [NPHILSED]
RHOBED  .G/C3  : BULK DENSITY FROM DENSITY LOG [NOT USED FOR WSR]
SFLUED  .OHMM  : SPHERICALLY FOCUSED LOG RESISTIVITY
SPRED   .MV    : SPONTANEOUS POTENTIAL FROM RESISTIVITY LOG
SPWS    .MV    : SPONTANEOUS POTENTIAL [BASELINE 0 MV] [SPRED]
SRESWS  .OHMM  : SHALLOW RESISTIVITY [SFLUED]
TENDED  .LBF   : TENSION FROM DENSITY LOG
TENRED  .LBF   : TENSION FROM RESISTIVITY LOG
~Params ----------------------------------------------------
PD  .                     GL : PERMANENT DATUM
EPD .F                 510.4 : ELEVATION PERMANENT DATUM
LMF .                     KB : LOG MEASURED FROM
DAPD.F                    17 : FEET ABOVE PERMANENT DATUM
DMF .                     KB : DRILLING MEASURED FROM
EKB .F                 527.4 : KELLING BUSHING
EDF .F                 256.4 : DRILLING FLOOR
EGL .F                 510.4 : GROUND LEVEL
DATE.               06/15/94 : RUN DATE
RUN .                      1 : RUN NUMBER
DD  .F                 10239 : DEPTH DRILLER
DL  .F                 10220 : DEPTH LOGGER
BLI .F                 10215 : BOTTOM LOG INTERVAL
TLI .F                  1116 : TOP LOG INTERVAL
CS  .IN                9.625 : CASING SIZE
CBD .F                  1120 : CASING BOTTOM DRILLER
CBL .F                  1116 : CASING BOTTOM LOGGER
BS  .IN                 8.75 : BIT SIZE
BSD .F                 10239 : BIT SIZE AT DEPTH
DFT .                    CLS : DRILLING FLUID TYPE
DFD .                   12.2 : DRILLING FLUID DENSITY
DFV .                     48 : DRILLING FLUID VISCOSITY
DFPH.                    4.8 : DRILLING FLUID PH
DFL .                     10 : DRILLING FLUID LOSS
MSS .        CIRCULATING PIT : MUD SAMPLE SOURCE
RMS .OHMM               1.64 : RESISTIVITY MUD SAMPLE
MST .F                    96 : MUD SAMPLE TEMPERATURE
RMF .OHMM               1.51 : RESISTIVITY MUD FILTRATE SAMPLE
MFST.F                    80 : MUD FILTRATE SAMPLE TEMPERATURE
RMC .OHMM               2.46 : RESISTIVITY MUD CAKE
MCST.F                    96 : MUD CAKE SAMPLE TEMPERATURE
MFSS.               MEASURED : MUD FILTRATE SAMPLE SOURCE
MCSS.             CALCULATED : MUD CAKE SAMPLE SOURCE
RMB .OHMM              0.727 : RESISTIVITY MUD AT BHT
TCS .HRS                1100 : TIME CURCULATED STOPPED
TLAB.HRS                1645 : TIME LOGGER AT BOTTOM
LUN .                   2023 : LOGGING UNIT NUMBER
LUL .              LAREDO TX : LOGGING UNIT LOCATION
ENGI.           J T STUBHART : RECORDING ENGINEER
WITN.           DOUG O BRIEN : WITNESSED BY
CLNT.                A2DTECH : CLIENT CODE
ORIG.               5" PRINT : ORIGIN OF DATA
UWI .         42283315470000 : UNIQUE WELL ID
DICO. A2D Technologies, Inc. : DIGITIZING COMPANY
~Other -----------------------------------------------------
~ASCII -----------------------------------------------------
# ...
 6800.00000    -999.25    -999.25  373.53850    -999.25    -999.25    -999.25    -999.25    2.67710    -999.25    -999.25   68.52520   68.52520    2.67710    2.73280    2.73280    -999.25    -999.25    -999.25    3.00540  -14.13870   -6.48290    3.00540    -999.25 2302.32570
 6850.00000    -999.25    -999.25  346.47630    -999.25    -999.25    -999.25    -999.25    2.88620    -999.25    -999.25   65.71270   65.71270    2.88620    2.94500    2.94500    -999.25    -999.25    -999.25    3.17770  -13.77160   -5.68180    3.17770    -999.25 2303.41750
 6900.00000    -999.25    -999.25  274.18290    -999.25    -999.25    -999.25    -999.25    3.64720    -999.25    -999.25   63.89670   63.89670    3.64720    3.72460    3.72460    -999.25    -999.25    -999.25    4.25030  -12.36580   -3.84200    4.25030    -999.25 2362.34960
 6950.00000    -999.25    -999.25  262.83280    -999.25    -999.25    -999.25    -999.25    3.80470    -999.25    -999.25   57.67920   57.67920    3.80470    3.97050    3.97050    -999.25    -999.25    -999.25    4.10260  -11.06970   -2.21770    4.10260    -999.25 2350.43190
 7000.00000    -999.25    -999.25  295.83170    -999.25    -999.25    -999.25    -999.25    3.38030    -999.25    -999.25   63.29660   63.29660    3.38030    3.45250    3.45250    -999.25    -999.25    -999.25    3.67870  -11.39780   -2.86770    3.67870    -999.25 2381.04810
 7050.00000    -999.25    -999.25  339.48940    -999.25    -999.25    -999.25    -999.25    2.94560    -999.25    -999.25   68.92200   68.92200    2.94560    3.02320    3.02320    -999.25    -999.25    -999.25    3.46750  -11.18600   -2.97770    3.46750    -999.25 2419.24370
 7100.00000    -999.25    -999.25  316.64610    -999.25    -999.25    -999.25    -999.25    3.15810    -999.25    -999.25   67.62700   67.62700    3.15810    3.22800    3.22800    -999.25    -999.25    -999.25    3.55920  -13.77970   -5.89330    3.55920    -999.25 2455.44070
 7150.00000    -999.25    -999.25  261.08300    -999.25    -999.25    -999.25    -999.25    3.83020    -999.25    -999.25   68.35390   68.35390    3.83020    4.28890    4.28890    -999.25    -999.25    -999.25    4.93170  -10.96960   -3.40510    4.93170    -999.25 2444.16630
 7200.00000    -999.25    -999.25  239.56110    -999.25    -999.25    -999.25    -999.25    4.17430    -999.25    -999.25   89.90410   89.90410    4.17430    4.30250    4.30250    -999.25    -999.25    -999.25    4.54100   -8.31880   -1.07620    4.54100    -999.25 2447.82890
 7250.00000    -999.25    -999.25  286.35240    -999.25    -999.25    -999.25    -999.25    3.49220    -999.25    -999.25   83.92360   83.92360    3.49220    3.61970    3.61970    -999.25    -999.25    -999.25    3.67260   -9.78670   -2.72050    3.67260    -999.25 2473.87260
 7300.00000    -999.25    -999.25  228.43570    -999.25    -999.25    -999.25    -999.25    4.37760    -999.25    -999.25   68.67960   68.67960    4.37760    4.46570    4.46570    -999.25    -999.25    -999.25    5.30890  -10.95530   -4.06560    5.30890    -999.25 2491.66330
 7350.00000    -999.25    -999.25  179.04140    -999.25    -999.25    -999.25    -999.25    5.58530    -999.25    -999.25   69.50860   69.50860    5.58530    6.39590    6.39590    -999.25    -999.25    -999.25    7.88950  -12.23990   -5.52670    7.88950    -999.25 2517.17580
 7400.00000    -999.25    -999.25  284.06670    -999.25    -999.25    -999.25    -999.25    3.52030    -999.25    -999.25   74.48620   74.48620    3.52030    3.60640    3.60640    -999.25    -999.25    -999.25    3.81880  -10.47490   -3.93810    3.81880    -999.25 2495.95830
 7450.00000    -999.25    -999.25  243.24980    -999.25    -999.25    -999.25    -999.25    4.11100    -999.25    -999.25   73.62290   73.62290    4.11100    4.19740    4.19740    -999.25    -999.25    -999.25    4.55360   -8.92970   -2.56940    4.55360    -999.25 2542.47360
 7500.00000    -999.25    -999.25  152.21630    -999.25    -999.25    -999.25    -999.25    6.56960    -999.25    -999.25   63.85890   63.85890    6.56960    8.14290    8.14290    -999.25    -999.25    -999.25   11.46970   -9.31510   -3.13130   11.46970    -999.25 2541.91600
 7550.00000    -999.25    -999.25  298.98940    -999.25    -999.25    -999.25    -999.25    3.34460    -999.25    -999.25   87.52210   87.52210    3.34460    3.44530    3.44530    -999.25    -999.25    -999.25    3.66680   -8.90050   -2.61320    3.66680    -999.25 2581.92650
 7600.00000    -999.25    -999.25  344.97030    -999.25    -999.25    -999.25    -999.25    2.89880    -999.25    -999.25   79.38770   79.38770    2.89880    2.96070    2.96070    -999.25    -999.25    -999.25    3.01840   -8.99560   -2.51150    3.01840    -999.25 2582.07280
 7650.00000    -999.25    -999.25  354.69800    -999.25    -999.25    -999.25    -999.25    2.81930    -999.25    -999.25   89.67990   89.67990    2.81930    2.91490    2.91490    -999.25    -999.25    -999.25    2.97550   -8.30550   -1.62460    2.97550    -999.25 2622.68190
 7700.00000    -999.25    -999.25  314.50500    -999.25    -999.25    -999.25    -999.25    3.17960    -999.25    -999.25   98.88690   98.88690    3.17960    3.32300    3.32300    -999.25    -999.25    -999.25    3.73680   -7.74510   -0.86730    3.73680    -999.25 2622.96970
 7750.00000    -999.25    -999.25  310.91630    -999.25    -999.25    -999.25    -999.25    3.21630    -999.25    -999.25   79.00320   79.00320    3.21630    3.31480    3.31480    -999.25    -999.25    -999.25    3.71390   -8.90600   -1.86430    3.71390    -999.25 2639.13600
 7800.00000    -999.25    -999.25  276.19730    -999.25    -999.25    -999.25    -999.25    3.62060    -999.25    -999.25   83.45320   83.45320    3.62060    3.69480    3.69480    -999.25    -999.25    -999.25    3.86290   -9.46330   -2.63510    3.86290    -999.25 2640.79270
 7850.00000    -999.25    -999.25  375.61510    -999.25    -999.25    -999.25    -999.25    2.66230    -999.25    -999.25   80.93400   80.93400    2.66230    2.71650    2.71650    -999.25    -999.25    -999.25    3.00390   -9.76950   -3.15480    3.00390    -999.25 2667.01490
 7900.00000    -999.25    -999.25  341.16890    -999.25    -999.25    -999.25    -999.25    2.93110    -999.25    -999.25   87.27080   87.27080    2.93110    2.99210    2.99210    -999.25    -999.25    -999.25    3.17020   -9.12780   -2.72660    3.17020    -999.25 2664.58350
 7950.00000    -999.25    -999.25  250.39440    -999.25    -999.25    -999.25    -999.25    3.99370    -999.25    -999.25   83.02650   83.02650    3.99370    3.77150    3.77150    -999.25    -999.25    -999.25    3.94070  -10.85200   -4.66430    3.94070    -999.25 2664.38770
 8000.00000    -999.25    -999.25  215.47540    -999.25    -999.25    -999.25    -999.25    4.64090    -999.25    -999.25   75.16270   75.16270    4.64090    4.18090    4.18090    -999.25    -999.25    -999.25    4.44760  -12.59560   -6.62140    4.44760    -999.25 2705.40260
 8050.00000    -999.25    -999.25  155.01710    -999.25    -999.25    -999.25    -999.25    6.45090    -999.25    -999.25   73.52990   73.52990    6.45090    5.17880    5.17880    -999.25    -999.25    -999.25    5.69130  -11.65310   -5.89240    5.69130    -999.25 2704.22850
 8100.00000    -999.25    -999.25  173.26220    -999.25    -999.25    -999.25    -999.25    5.77160    -999.25    -999.25   80.45410   80.45410    5.77160    4.77610    4.77610    -999.25    -999.25    -999.25    5.58130  -12.26780   -6.72060    5.58130    -999.25 2750.71360
 8150.00000    -999.25    -999.25  347.23430    -999.25    -999.25    -999.25    -999.25    2.87990    -999.25    -999.25   92.08750   92.08750    2.87990    3.00720    3.00720    -999.25    -999.25    -999.25    3.10020   -8.22690   -2.89320    3.10020    -999.25 2748.08250
 8200.00000    -999.25    -999.25  219.34630    -999.25    -999.25    -999.25    -999.25    4.55900    -999.25    -999.25   83.43530   83.43530    4.55900    4.74160    4.74160    -999.25    -999.25    -999.25    5.47220   -7.00910   -1.67480    5.47220    -999.25 2786.40210
