~Version ---------------------------------------------------
VERS. 2.0 : CWLS log ASCII Standard -VERSION 2.0
WRAP.  NO : One line per depth step
~Well ------------------------------------------------------
STRT.FT                     1050.0 : START DEPTH
STOP.FT                    19600.0 : STOP DEPTH
STEP.FT                   50.00000 : STEP LENGTH
NULL.                      -999.25 : NULL VALUE
COMP. PAN AMERICAN PETROLEUM CORP. : COMPANY
WELL.           MURRAY FRANKLIN #1 : WELL
FLD .                      WILDCAT : FIELD
LOC .                              : LOCATION
CNTY.                    MC MULLEN : COUNTY
STAT.                        TEXAS : STATE
CTRY.     UNITED STATES OF AMERICA : COUNTRY
SRVC.                 Schlumberger : SERVICE COMPANY
DATE.                  30-Aug-1964 : LOGDATE
API .               42311001580000 : API NUMBER
UWI .               42311001580000 : UNIQUE WELL ID
SLAT.WGS84           28.5946649186 : SURFACE LATITUDE
SLON.WGS84          -98.6650291661 : SURFACE LONGITUDE
~Curve Information -----------------------------------------
DEPT  .FT    : DEPTH
ASNED .OHMM  : AMPLIFIED SHORT NORMAL 16 IN.
CALWS .IN    : CALIPER (CALSED)
CALSED.IN    : CALIPER FROM SONIC LOG (ADJ TO RES.)
CILDED.MMHO  : CONDUCTIVITY FROM LOG
CONDWS.MMHO  : CONDUCTIVITY (1000/DREWS)
DRESWS.OHMM  : DEEP RESISTIVITY (IF ILDED<1, THEN 1000/CILDED)
DTED  .US/F  : DELTA TIME  (ADJ TO RES.)
DTWS  .US/F  : DELTA TIME  (DTED)
GRNED .GAPI  : GAMMA RAY FROM NEUTRON LOG (ADJ TO RES.)
GRWS  .GAPI  : GAMMA RAY (GRNED)
ILDED .OHMM  : DEEP INDUCTION RESISTIVITY
NEUTED.CU    : NEUTRON FROM GAMMA RAY NEUTRON LOG (ADJ TO RES.)
NEUTWS.CU    : NEUTRON FROM GAMMA RAY NEUTRON LOG (NEUTED)
SPWS  .MV    : SPONTANEOUS POTENTIAL BASELINE 0 MV (SPRED)
SPRED .MV    : SPONTANEOUS POTENTIAL FROM RESISTIVITY
SRESWS.OHMM  : SHALLOW RESISTIVITY (ASNED)
~Params ----------------------------------------------------
PD  .                 2" BHO : PERMANENT DATUM
EPD .F                   395 : ELEVATION PERMANENT DATUM
LMF .                     KB : LOG MEASURED FROM
DAPD.F                  23.7 : FEET ABOVE PERMANENT DATUM
DMF .                     KB : DRILLING MEASURED FROM
EKB .F                 418.7 : KELLING BUSHING
EDF .F                 416.0 : DRILLING FLOOR
EGL .F                 395.0 : GROUND LEVEL
DATE.             08-30-1964 : RUN DATE
RUN .                      6 : RUN NUMBER
DD  .F                 19636 : DEPTH DRILLER
DL  .F                 19632 : DEPTH LOGGER
BLI .F                 19632 : BOTTOM LOG INTERVAL
TLI .F                 18788 : TOP LOG INTERVAL
CS  .IN                    5 : CASING SIZE
CBD .F                 16836 : CASING BOTTOM DRILLER
BS  .IN                 4.25 : BIT SIZE
BSD .F                 19636 : BIT SIZE AT DEPTH
DFT .        UNICAL OIL EMUL : DRILLING FLUID TYPE
TCS .HRS                   3 : TIME CURCULATED STOPPED
LUN .                   4521 : LOGGING UNIT NUMBER
LUL .                    KEN : LOGGING UNIT LOCATION
ENGI.                  ELLIS : RECORDING ENGINEER
WITN.       FREEMAN, SHAPLEY : WITNESSED BY
CLNT.                A2DTECH : CLIENT CODE
ORIG.               5" PRINT : ORIGIN OF DATA
UWI .         42311001580000 : UNIQUE WELL ID
DICO. A2D Technologies, Inc. : DIGITIZING COMPANY
~Other -----------------------------------------------------
~ASCII -----------------------------------------------------
# ...
 16100.00000   11.55500   11.72800   11.72800   65.60600   67.51740   14.81100   53.95850   53.95850   56.49600   56.49600   14.81100 1978.81300 1978.81300   -8.75990  -33.92500   11.55500
 16150.00000   14.11700   10.93000   10.93000   42.91420   42.99040   23.26100   50.03860   50.03860   41.13400   41.13400   23.26100 2401.58010 2401.58010   -4.89580  -30.65500   14.11700
 16200.00000    6.69400   10.73600   10.73600  198.60280  206.86800    4.83400   71.78880   71.78880   45.77100   45.77100    4.83400 2174.87300 2174.87300   -5.07470  -31.42800    6.69400
 16250.00000    7.31000   11.62500   11.62500  146.30740  154.48790    6.47300   62.22610   62.22610   70.43600   70.43600    6.47300 1309.91300 1309.91300   -7.47760  -34.42500    7.31000
 16300.00000    5.42200   11.88600   11.88600  241.11780  296.91210    3.36800   71.83150   71.83150   93.63700   93.63700    3.36800 1027.99000 1027.99000   -6.40850  -33.95000    5.42200
 16350.00000    3.99600   12.87300   12.87300  272.49720  304.22880    3.28700   70.26030   70.26030   86.52000   86.52000    3.28700  927.04300  927.04300   -6.29440  -34.43000    3.99600
 16400.00000    4.73500   11.94300   11.94300  266.91150  315.45740    3.17000   77.42770   77.42770   91.61300   91.61300    3.17000 1010.37200 1010.37200   -4.59730  -33.32700    4.73500
 16450.00000    5.80400   12.46400   12.46400  204.35800  191.35090    5.22600   71.92570   71.92570   91.80300   91.80300    5.22600 1129.85100 1129.85100   -8.10320  -37.42700    5.80400
 16500.00000   10.78400   10.33500   10.33500   78.04710   78.89550   12.67500   63.30140   63.30140   60.43900   60.43900   12.67500 1987.20100 1987.20100   -7.78310  -37.70100   10.78400
 16550.00000    7.12800   12.42900   12.42900  164.20490  165.09820    6.05700   70.08660   70.08660  105.99800  105.99800    6.05700  960.15200  960.15200   -4.94500  -35.45700    7.12800
 16600.00000   10.27100   10.29400   10.29400   75.79840   74.87830   13.35500   66.30450   66.30450   64.94200   64.94200   13.35500 1879.39200 1879.39200   -3.43690  -34.54300   10.27100
 16650.00000    5.00200   12.22000   12.22000  202.99400  231.85720    4.31300   73.88850   73.88850   99.36100   99.36100    4.31300  932.37200  932.37200   -3.93480  -35.63500    5.00200
 16700.00000    5.47000   11.32600   11.32600  258.44000  287.10880    3.48300   74.30480   74.30480  108.59500  108.59500    3.48300  936.69100  936.69100   -5.22970  -37.52400    5.47000
 16750.00000    8.45300   10.53400   10.53400  129.37500  130.71890    7.65000   65.90320   65.90320   92.86600   92.86600    7.65000 1292.93600 1292.93600   -7.84220  -40.82700    8.45300
 16800.00000    7.79900   10.32700   10.32700  122.35530  127.37230    7.85100   65.87870   65.87870   88.68800   88.68800    7.85100 1339.34300 1339.34300   -9.44320  -44.22600    7.79900
 16850.00000    5.14690   10.80600   10.80600  196.27560  224.48200    4.45470   71.57270   71.57270  100.67400  100.67400    4.45470  992.77300  992.77300   -7.71640  -44.29720    5.14690
 16900.00000    6.34950   10.09700   10.09700  145.18040  214.71210    4.65740   69.59480   69.59480   87.55300   87.55300    4.65740 1337.11690 1337.11690   -8.48110  -38.65460    6.34950
 16950.00000    5.04990    9.42700    9.42700  277.77780  235.21110    4.25150   76.84060   76.84060  109.48500  109.48500    4.25150 1144.79900 1144.79900   -4.18380  -24.59840    5.04990
 17000.00000    5.84830    9.28600    9.28600  197.95160  244.39120    4.09180   67.92850   67.92850   50.55500   50.55500    4.09180  590.47500  590.47500  -16.03540  -27.88800    5.84830
 17050.00000   10.75850    9.71500    9.71500  129.05030  145.21800    6.88620    -999.25    -999.25   38.93600   38.93600    6.88620  648.85400  648.85400   -8.80540  -24.19680   10.75850
 17100.00000    -999.25    9.62200    9.62200    -999.25    -999.25    -999.25    -999.25    -999.25   60.70100   60.70100    -999.25  543.99400  543.99400    -999.25    -999.25    -999.25
 17150.00000    -999.25    9.44200    9.44200    -999.25    -999.25    -999.25    -999.25    -999.25   62.57200   62.57200    -999.25  575.95100  575.95100    -999.25    -999.25    -999.25
 17200.00000    -999.25    8.94800    8.94800    -999.25    -999.25    -999.25    -999.25    -999.25   65.59300   65.59300    -999.25  566.07800  566.07800    -999.25    -999.25    -999.25
 17250.00000    -999.25    8.66800    8.66800    -999.25    -999.25    -999.25    -999.25    -999.25   21.14700   21.14700    -999.25 1047.13600 1047.13600    -999.25    -999.25    -999.25
 17300.00000    6.86000    6.43100    6.43100  220.55890  227.63490    4.39300   66.07140   66.07140   78.27000   78.27000    4.39300  827.52200  827.52200   -5.79730  -37.52000    6.86000
 17350.00000    7.56170    5.87100    5.87100  152.29090  150.92060    6.62600   46.96430   46.96430   23.45100   23.45100    6.62600 1354.55800 1354.55800  -15.45430  -46.31900    7.56170
 17400.00000    7.96300    7.01400    7.01400  163.09420  165.39860    6.04600   56.72630   56.72630   64.58300   64.58300    6.04600  845.75500  845.75500   -2.43530  -32.44200    7.96300
 17450.00000   13.15370    6.04200    6.04200   61.56390   59.64100   16.76700   60.25060   60.25060   36.56200   36.56200   16.76700 1413.31800 1413.31800  -10.88040  -40.17400   13.15370
 17500.00000    6.54330    6.49900    6.49900  236.12770  245.70020    4.07000   72.32140   72.32140   81.95000   81.95000    4.07000  801.89400  801.89400   -7.84420  -36.71900    6.54330
 17550.00000   15.65210    6.76900    6.76900   56.26240   54.13010   18.47400   61.60730   61.60730   28.27900   28.27900   18.47400 1393.95610 1393.95610   -9.03500  -37.49100   15.65210
 17600.00000    8.82750    6.82400    6.82400  150.24850  150.10510    6.66200   69.74930   69.74930   64.30200   64.30200    6.66200 1008.67800 1008.67800   -4.09180  -32.12900    8.82750
 17650.00000   13.48770    6.70600    6.70600   60.64080   59.51320   16.80300   62.64700   62.64700   42.29700   42.29700   16.80300 1221.71700 1221.71700   -2.16790  -30.11000   13.48770
 17700.00000    9.35190    6.43600    6.43600   91.52620   84.60950   11.81900   61.07900   61.07900   46.98700   46.98700   11.81900 1211.61690 1211.61690  -12.69460  -41.46300    9.35190
 17750.00000    8.58010    5.78900    5.78900  111.69860  110.82790    9.02300   56.04110   56.04110   45.73900   45.73900    9.02300 1348.14400 1348.14400  -23.99830  -53.59300    8.58010
 17800.00000   12.46910    6.06100    6.06100   70.81120   67.67730   14.77600   60.56550   60.56550   47.19400   47.19400   14.77600 1338.56990 1338.56990  -10.42100  -40.84200   12.46910
 17850.00000   12.34590    6.30100    6.30100   86.58860   84.64530   11.81400   65.49860   65.49860   51.70100   51.70100   11.81400 1082.60210 1082.60210   -2.06270  -33.31000   12.34590
 17900.00000   20.31130    5.98700    5.98700   41.54750   40.43020   24.73400   55.53380   55.53380   42.39300   42.39300   24.73400 1499.48210 1499.48210    0.07560  -31.99800   20.31130
 17950.00000   17.46920    6.06800    6.06800   51.88870   51.85650   19.28400   55.61060   55.61060   48.32100   48.32100   19.28400 1147.75810 1147.75810   -6.61010  -39.51000   17.46920
 18000.00000    -999.25    -999.25    -999.25    -999.25   28.30860   35.32500    -999.25    -999.25   26.75000   26.75000   35.32500 1328.75100 1328.75100   -1.16180  -34.85500    -999.25
 18050.00000    -999.25    -999.25    -999.25    -999.25    -999.25    -999.25    -999.25    -999.25   34.81900   34.81900    -999.25 1214.12400 1214.12400    -999.25    -999.25    -999.25
 18100.00000    -999.25    -999.25    -999.25    -999.25    -999.25    -999.25    -999.25    -999.25    9.28200    9.28200    -999.25 1794.49800 1794.49800    -999.25    -999.25    -999.25
 18150.00000    -999.25    -999.25    -999.25    -999.25    -999.25    -999.25    -999.25    -999.25   10.76400   10.76400    -999.25 1539.25310 1539.25310    -999.25    -999.25    -999.25
 18200.00000    -999.25    -999.25    -999.25    -999.25    -999.25    -999.25    -999.25    -999.25    6.64500    6.64500    -999.25 1735.49600 1735.49600    -999.25    -999.25    -999.25
