~Version ---------------------------------------------------
VERS. 2.0 : CWLS log ASCII Standard -VERSION 2.0
WRAP. YES : Multiple lines per depth step
~Well ------------------------------------------------------
STRT.FT                 3300.0 : START DEPTH
STOP.FT                 7900.0 : STOP DEPTH
STEP.FT               50.00000 : STEP LENGTH
NULL.                  -999.25 : NULL VALUE
COMP. AMOCO PRODUCTION COMPANY : COMPANY
WELL.    VINCE COURT UNIT A #1 : WELL
FLD .             CALDWELL, NE : FIELD
LOC .                          : LOCATION
CNTY.                   BRAZOS : COUNTY
STAT.                    TEXAS : STATE
CTRY. UNITED STATES OF AMERICA : COUNTRY
SRVC.                    Welex : SERVICE COMPANY
DATE.              19-Dec-1984 : LOGDATE
API .           42041312500000 : API NUMBER
UWI .           42041312500000 : UNIQUE WELL ID
SLAT.WGS84       30.6670683471 : SURFACE LATITUDE
SLON.WGS84      -96.5218651415 : SURFACE LONGITUDE
~Curve Information -----------------------------------------
DEPT    .FT        : DEPTH
CALDED  .IN        : CALIPER FROM DENSITY LOG (ADJ TO RES.)
CALWS   .IN        : CALIPER (CALDED)
CONDWS  .MMHO      : CONDUCTIVITY (1000/DRESWS)
CORRED  .G/C3      : DENSITY CORRECTION (ADJ TO RES.)
DCORWS  .G/C3      : DENSITY CORRECTION (CORRED)
DENWS   .G/C3      : BULK DENSITY  (RHOBED LS)
DPHILSED.V/V       : DENSITY POROSITY LIMESTONE (ADJ TO RES.)
DPHISSED.V/V       : DENSITY POROSITY  SANDSTONE (ADJ TO RES.)
DPOWS   .V/V       : DENSITY POROSITY (M=2.71 F=1 FROM DENWS)
DRESWS  .OHMM      : DEEP RESISTIVITY (ILDED)
GRDED   .GAPI      : GAMMA RAY FROM DENSITY LOG (ADJ TO RES.)
GRRED   .GAPI      : GAMMA RAY FROM RESISTIVITY LOG
GRTED   .GAPI      : GAMMA RAY TDT LOG (ADJ TO RES.)
GRWS    .GAPI      : GAMMA RAY (GRDED)
ILDED   .OHMM      : DEEP INDUCTION RESISTIVITY
ILMED   .OHMM      : MEDIUM INDUCTION RESISTIVITY
MRESWS  .OHMM      : MEDIUM RESISTIVITY (ILMED)
NPHILSED.V/V       : NEUTRON POROSITY LIMESTONE (ADJ TO RES.)
NPHISSED.V/V       : NEUTRON POROSITY SANDSTONE (ADJ TO RES.)
NPOWS   .V/V       : NEUTRON POROSITY LIMESTONE (NPHISSED CONVERTED TO LIMESTONE/NPHILSED)
RATIOED .UNITLESS  : RATIO (ADJ TO RES.)
RHOBED  .G/C3      : BULK DENSITY (ADJ TO RES.)
SGUARDED.OHMM      : SHORT GUARD LOG RESISTIVITY
SIGMED  .CU        : NEUTRON CAPTURE CROSS SECTION (ADJ TO RES.)
SPRED   .MV        : SPONTANEOUS POTENTIAL FROM RESISTIVITY
SPWS    .MV        : SPONTANEOUS POTENTIAL BASELINE 0 MV (SPRED)
SRESWS  .OHMM      : SHALLOW RESISTIVITY (SGUARDED)
TENDED  .LBF       : TENSION FROM DENSITY LOG (ADJ TO RES.)
TENRED  .LBF       : TENSION FROM RESISTIVITY LOG
TENTED  .LBF       : TENSION TDT LOG (ADJ TO RES.)
~Params ----------------------------------------------------
PD  .                     GL : PERMANENT DATUM
EPD .F                   247 : ELEVATION PERMANENT DATUM
LMF .                    TKB : LOG MEASURED FROM
DAPD.F                    21 : FEET ABOVE PERMANENT DATUM
DMF .                    TKB : DRILLING MEASURED FROM
EKB .F                   268 : KELLING BUSHING
EDF .F                   267 : DRILLING FLOOR
EGL .F                   247 : GROUND LEVEL
DATE.             12-19-1984 : RUN DATE
RUN .                      1 : RUN NUMBER
DD  .F                  7940 : DEPTH DRILLER
DL  .F                  7941 : DEPTH LOGGER
BLI .F                  7939 : BOTTOM LOG INTERVAL
TLI .F                  3279 : TOP LOG INTERVAL
CS  .IN                8.625 : CASING SIZE
CBD .F                  3269 : CASING BOTTOM DRILLER
CBL .F                  3379 : CASING BOTTOM LOGGER
BS  .IN                7.875 : BIT SIZE
BSD .F                  7940 : BIT SIZE AT DEPTH
DFT .            POLYMER MUD : DRILLING FLUID TYPE
DFD .                    9.3 : DRILLING FLUID DENSITY
DFV .                     38 : DRILLING FLUID VISCOSITY
DFPH.                    9.4 : DRILLING FLUID PH
DFL .                    7.8 : DRILLING FLUID LOSS
MSS .               FLOWLINE : MUD SAMPLE SOURCE
RMS .OHMM               3.65 : RESISTIVITY MUD SAMPLE
MST .F                    75 : MUD SAMPLE TEMPERATURE
RMF .OHMM               4.29 : RESISTIVITY MUD FILTRATE SAMPLE
MFST.F                    75 : MUD FILTRATE SAMPLE TEMPERATURE
RMC .OHMM                3.9 : RESISTIVITY MUD CAKE
MCST.F                    75 : MUD CAKE SAMPLE TEMPERATURE
MFSS.                   MEAS : MUD FILTRATE SAMPLE SOURCE
MCSS.                   MEAS : MUD CAKE SAMPLE SOURCE
RMB .OHMM                1.4 : RESISTIVITY MUD AT BHT
TCS .HRS                   3 : TIME CURCULATED STOPPED
TLAB.HRS                2210 : TIME LOGGER AT BOTTOM
LUN .                   1905 : LOGGING UNIT NUMBER
LUL .                  BRYAN : LOGGING UNIT LOCATION
ENGI.                MCENERY : RECORDING ENGINEER
WITN.              BOUCKAERT : WITNESSED BY
CLNT.                A2DTECH : CLIENT CODE
ORIG.               5" PRINT : ORIGIN OF DATA
UWI .         42041312500000 : UNIQUE WELL ID
DICO. A2D Technologies, Inc. : DIGITIZING COMPANY
~Other -----------------------------------------------------
~ASCII -----------------------------------------------------
# ...
 5700.00000   10.79600   10.79600  935.45370    0.06140    0.06140    2.22630    -999.25    0.25230    0.28290    1.06900  105.38840  114.00120    -999.25  105.38840    1.06900    1.09080    1.09080    -999.25    0.35950    0.40670    -999.25    2.22630    1.11400    -999.25  -56.31240   -4.55230    1.11400 1846.94860 1645.65600    -999.25
 5750.00000   10.71020   10.71020  761.03500    0.13950    0.13950    2.41460    -999.25    0.12490    0.17270    1.31400  102.35010   99.36140    -999.25  102.35010    1.31400    1.34820    1.34820    -999.25    0.33870    0.39370    -999.25    2.41460    1.44990    -999.25  -60.99670   -9.41570    1.44990 1869.87240 1654.82350    -999.25
 5800.00000   10.69710   10.69710  774.53330    0.08900    0.08900    2.36810    -999.25    0.18030    0.19990    1.29110   89.26810   93.03440    -999.25   89.26810    1.29110    1.32730    1.32730    -999.25    0.30960    0.37400    -999.25    2.36810    1.50310    -999.25  -64.74180  -13.33980    1.50310 1888.09920 1667.25260    -999.25
 5850.00000   10.55820   10.55820  841.75090    0.12770    0.12770    2.40440    -999.25    0.15560    0.17870    1.18800   91.18430   94.20250    -999.25   91.18430    1.18800    1.23430    1.23430    -999.25    0.31740    0.37960    -999.25    2.40440    1.36220    -999.25  -63.86360  -12.64070    1.36220 1884.15590 1670.11760    -999.25
 5900.00000    8.27920    8.27920  371.67810   -0.01140   -0.01140    2.55710    -999.25    0.06920    0.08940    2.69050   72.54180   67.44430    -999.25   72.54180    2.69050    2.90720    2.90720    -999.25    0.25850    0.33560    -999.25    2.55710    3.57970    -999.25  -58.70360   -7.65970    3.57970 1927.65320 1682.13650    -999.25
 5950.00000    8.31800    8.31800  324.93910   -0.01550   -0.01550    2.59100    -999.25    0.03040    0.06960    3.07750   47.93910   42.70020    -999.25   47.93910    3.07750    3.31970    3.31970    -999.25    0.20350    0.29020    -999.25    2.59100    3.68350    -999.25  -62.14900  -11.28420    3.68350 1939.88780 1695.25390    -999.25
 6000.00000    8.65250    8.65250  349.99300   -0.00990   -0.00990    2.58340    -999.25    0.04450    0.07400    2.85720   61.08300   63.52690    -999.25   61.08300    2.85720    3.08940    3.08940    -999.25    0.23590    0.31740    -999.25    2.58340    3.52060    -999.25  -55.31400   -4.62820    3.52060 1953.75290 1690.68080    -999.25
 6050.00000    9.58620    9.58620  470.67680    0.07220    0.07220    2.42780    -999.25    0.15780    0.16500    2.12460   91.48010   99.45740    -999.25   91.48010    2.12460    2.19210    2.19210    -999.25    0.28550    0.35650    -999.25    2.42780    2.19300    -999.25  -57.60750   -7.10080    2.19300 1936.49980 1701.53780    -999.25
 6100.00000    9.22230    9.22230  447.52740    0.00590    0.00590    2.50900    -999.25    0.09360    0.11750    2.23450   96.49590   81.85390    -999.25   96.49590    2.23450    2.38240    2.38240    -999.25    0.26390    0.34000    -999.25    2.50900    2.54250    -999.25  -57.07020   -6.74250    2.54250 1958.11570 1730.02760    -999.25
 6150.00000    9.31160    9.31160  383.25920   -0.01810   -0.01810    2.51480    -999.25    0.10300    0.11420    2.60920   82.25790   79.02520    -999.25   82.25790    2.60920    2.78590    2.78590    -999.25    0.25660    0.33410    -999.25    2.51480    2.88320    -999.25  -55.83030   -5.68170    2.88320 1961.02650 1736.07480    -999.25
 6200.00000    9.11460    9.11460  327.97640   -0.01860   -0.01860    2.52420    -999.25    0.06900    0.10870    3.04900   67.32840   89.98790    -999.25   67.32840    3.04900    3.28100    3.28100    -999.25    0.23500    0.31670    -999.25    2.52420    3.85980    -999.25  -59.74320   -9.90140    3.85980 1964.14890 1754.35420    -999.25
 6250.00000    9.13750    9.13750  474.04600   -0.00600   -0.00600    2.46170    -999.25    0.11150    0.14520    2.10950   64.75160   65.24480    -999.25   64.75160    2.10950    2.16130    2.16130    -999.25    0.24290    0.32310    -999.25    2.46170    2.32670    -999.25  -75.73710  -26.82610    2.32670 1972.80210 1758.86430    -999.25
 6300.00000    8.73760    8.73760  463.02730   -0.00010   -0.00010    2.36740    -999.25    0.07340    0.20040    2.15970   89.83910   89.08440    -999.25   89.83910    2.15970    2.22600    2.22600    -999.25    0.26260    0.33890    -999.25    2.36740    2.52710    -999.25  -48.95960   -0.97940    2.52710 2010.03280 1773.42630    -999.25
 6350.00000    9.80540    9.80540  653.55210    0.14510    0.14510    2.37810    -999.25    0.17010    0.19410    1.53010   88.07220   82.19580    -999.25   88.07220    1.53010    1.64780    1.64780    -999.25    0.29590    0.36420    -999.25    2.37810    1.77780    -999.25  -56.31240   -9.26300    1.77780 1999.92690 1767.25450    -999.25
 6400.00000   10.11030   10.11030  672.99280    0.15150    0.15150    2.48570    -999.25    0.11420    0.13120    1.48590   96.45900   98.22990    -999.25   96.45900    1.48590    1.59080    1.59080    -999.25    0.32480    0.38450    -999.25    2.48570    1.74690    -999.25  -55.77480   -9.65610    1.74690 2004.67680 1802.28960    -999.25
 6450.00000   10.24900   10.24900  704.92030    0.10760    0.10760    2.45470    -999.25    0.13630    0.14930    1.41860   97.04370   80.14630    -999.25   97.04370    1.41860    1.54790    1.54790    -999.25    0.31150    0.37540    -999.25    2.45470    1.70170    -999.25  -63.29940  -18.11150    1.70170 2027.70840 1807.34060    -999.25
 6500.00000    9.05790    9.05790  668.00270    0.15520    0.15520    2.35700    -999.25    0.19140    0.20640    1.49700  100.52740  103.08470    -999.25  100.52740    1.49700    1.62120    1.62120    -999.25    0.30320    0.36950    -999.25    2.35700    1.78560    -999.25  -54.54380  -10.28670    1.78560 2050.33540 1815.81980    -999.25
 6550.00000   10.68070   10.68070  684.41580    0.11700    0.11700    2.48300    -999.25    0.11150    0.13270    1.46110   87.99490   89.41200    -999.25   87.99490    1.46110    1.58100    1.58100    -999.25    0.31540    0.37820    -999.25    2.48300    1.81660    -999.25  -51.51340   -8.18700    1.81660 2049.81300 1825.85050    -999.25
 6600.00000    9.78940    9.78940  641.06670    0.10510    0.10510    2.48470    -999.25    0.09430    0.13180    1.55990   95.77240   95.27700    -999.25   95.77240    1.55990    1.72830    1.72830    -999.25    0.30730    0.37240    -999.25    2.48470    1.94140    -999.25  -54.24770  -11.85210    1.94140 2063.30690 1846.51350    -999.25
 6650.00000   10.34450   10.34450  628.25910    0.09790    0.09790    2.44450    -999.25    0.12350    0.15530    1.59170   72.46250   78.27750    -999.25   72.46250    1.59170    1.76330    1.76330    -999.25    0.29860    0.36620    -999.25    2.44450    2.02440    -999.25  -49.44940   -7.98460    2.02440 2072.27880 1855.43960    -999.25
 6700.00000   10.71310   10.71310  639.87710    0.11090    0.11090    2.51050    -999.25    0.10320    0.11670    1.56280   86.75540   90.72060    -999.25   86.75540    1.56280    1.71580    1.71580    -999.25    0.31450    0.37750    -999.25    2.51050    1.98170    -999.25  -50.07640   -9.54240    1.98170 2072.30810 1863.97790    -999.25
 6750.00000   10.83730   10.83730  691.65860    0.18220    0.18220    2.50050    -999.25    0.07870    0.12250    1.44580   86.92990   86.55940    -999.25   86.92990    1.44580    1.57910    1.57910    -999.25    0.30920    0.37380    -999.25    2.50050    1.96280    -999.25  -48.03010   -8.42680    1.96280 2087.20970 1868.83730    -999.25
 6800.00000   11.33260   11.33260  678.84060    0.09960    0.09960    2.48980    -999.25    0.09060    0.12880    1.47310   90.82030   86.22530    -999.25   90.82030    1.47310    1.60990    1.60990    -999.25    0.30400    0.37000    -999.25    2.48980    1.86850    -999.25  -48.27440   -9.60190    1.86850 2107.80860 1879.64390    -999.25
 6850.00000   11.02200   11.02200  694.39620    0.09380    0.09380    2.42590    -999.25    0.12300    0.16610    1.44010   89.97450   97.16510    -999.25   89.97450    1.44010    1.58580    1.58580    -999.25    0.34330    0.39670    -999.25    2.42590    1.88740    -999.25  -46.03020   -8.28850    1.88740 2127.22220 1899.95690    -999.25
