~Version ---------------------------------------------------
VERS. 2.0 : CWLS log ASCII Standard -VERSION 2.0
WRAP.  NO : ONE LINE PER DEPTH STEP
~Well ------------------------------------------------------
STRT.F                     300.0 : START DEPTH
STOP.F                   16600.0 : STOP DEPTH
STEP.F                  50.00000 : STEP LENGTH
NULL.                    -999.25 : NULL VALUE
COMP. CHAMPLIN PETROLEUM COMPANY : COMPANY
WELL.                   MIXON #1 : WELL
FLD .                    WILDCAT : FIELD
LOC .                            : LOCATION
CNTY.                    DE WITT : COUNTY
STAT.                      TEXAS : STATE
CTRY.   UNITED STATES OF AMERICA : COUNTRY
SRVC.               Schlumberger : SERVICE COMPANY
DATE.                04-Jan-1980 : LOGDATE
API .             42123310090000 : API NUMBER
UWI .             42123310090000 : UNIQUE WELL ID
SLAT.WGS84         28.9499646475 : SURFACE LATITUDE
SLON.WGS84        -97.6437950223 : SURFACE LONGITUDE
~Curve Information -----------------------------------------
DEPT.F                 : 
CALD.IN   45 280 60 00 : CALIPER FROM DENSITY LOG
CORR.G/C3 45 356 01 00 : CORRELATION LOG
RHOB.G/C3 45 350 01 00 : BULK DENSITY
GRD .GAPI 45 310 01 00 : GAMMA RAY FROM DENSITY LOG
NPHI.DEC  42 890 01 00 : NEUTRON POROSITY
DPHI.DEC  45 890 10 00 : DENSITY POROSITY
DT  .US/F 60 520 00 00 : DELTA-T (INTERVAL TRANSIT TIME)
SPR .MV   07 010 01 00 : SPONTANEOUS POTENTIAL FROM RESISTIVITY
ILD .OHMM 07 120 46 00 : INDUCTION DEEP RESISTIVITY
ILM .OHMM 07 120 44 00 : INDUCTION MEDIUM RESISTIVITY
SFL .OHMM 07 220 01 00 : SPHERICALLY FOCUSSED LOG
GRR .GAPI 07 310 01 00 : GAMMA RAY FROM RESISTIVITY
CALR.IN   07 280 01 00 : CALIPER FROM RESISTIVITY LOG
~Params ----------------------------------------------------
EKB .FT                  450 : KELLY BUSHING
EDF .FT                  449 : DRILLING FLOOR
EGL .FT                  423 : GROUND LEVEL
DATE.               01-04-80 : RUN DATE
DD  .FT                 1646 : DEPTH DRILLER
DL  .FT                 1609 : DEPTH LOGGER
BLI .FT                 1602 : BOTTOM LOG INTERVAL
BSD .FT                 1646 : BIT SIZE AT DEPTH
CLNT.                A2DTECH : CLIENT CODE
ORIG.            2" 5" PRINT : ORIGIN OF DATA
UWI .         42123310090000 : UNIQUE WELL ID
DICO. A2D Technologies, Inc. : DIGITIZING COMPANY
~Other -----------------------------------------------------
~ASCII -----------------------------------------------------
# ...
 13300.00000    -999.25    -999.25    -999.25    -999.25    -999.25    -999.25   69.21860  -39.79570    5.76430    5.45170    9.35750   58.22910   14.58760
 13350.00000    -999.25    -999.25    -999.25   25.63880    0.14080    -999.25   52.25170  -44.49790    8.94930    6.32400    6.29120   32.93770   12.32370
 13400.00000   12.72660    0.00110    2.61970   16.87040    0.01290    0.05220   52.67280  -57.87110   50.65640  930.45350   99.23670    -999.25    8.95730
 13450.00000   10.42280   -0.00490    2.64800   22.26010    0.00530    0.03390   53.21310  -46.72630   43.21600   40.96450   78.47530    -999.25    7.78310
 13500.00000   10.39290   -0.00190    2.64730   15.29240    0.00120    0.03570   52.25220  -50.36060   18.92050   18.03580  235.25100    -999.25    7.69210
 13550.00000   10.40800    0.00930    2.57120   37.78400    0.04920    0.07910   66.18760  -50.41810   14.84340   11.48190   26.36210    -999.25    7.55450
 13600.00000   10.37080   -0.01160    2.55330   41.38080    0.09070    0.09040   62.81960  -30.85660   35.85330   38.76640   79.01720    -999.25    7.52440
 13650.00000   10.74890    0.01380    2.58760   69.71620    0.14840    0.06970   77.77780  -35.20320   10.16660    9.90010   18.86060    -999.25    7.98730
 13700.00000   10.61770   -0.00340    2.42730   80.51120    0.17040    0.16750   84.40060  -41.97800   22.14830   21.57570   38.00940    -999.25    7.81410
 13750.00000   10.02550    0.01080    2.39750   71.29310    0.16500    0.18090   83.72350  -38.97200   57.56240   51.80550   93.08440    -999.25    7.66160
 13800.00000   10.22800    0.00260    2.44000   60.04880    0.16050    0.15040   73.27690  -30.28550   58.72140   61.95720  113.93370    -999.25    7.55420
 13850.00000    9.59080    0.00860    2.53990  121.44140    0.22420    0.09660   80.05960   40.62970   22.04600   20.70250   35.96690    -999.25    7.06700
 13900.00000    9.17850   -0.00110    2.66890   35.58630    0.00240    0.02040   50.39040 -100.74960   18.12670   29.01960  133.53290    -999.25    6.69230
 13950.00000    8.88620   -0.05040    2.56300   43.69510    0.02310    0.08590   53.63330 -114.56410    8.43760   13.97510   92.50520    -999.25    6.67070
 14000.00000    8.56370   -0.04600    2.62940   34.23860    0.01590    0.04330   53.51350  -93.25340    7.00290   10.46170   59.53790    -999.25    6.53350
 14050.00000    8.53370   -0.04220    2.63830   21.61890    0.01500    0.03970   52.55950 -109.93400    7.09990   10.97850   66.95260    -999.25    6.53330
 14100.00000    8.99420    0.00710    2.64280   28.60790    0.00560    0.03830   51.31410  -63.26840   22.02940   29.02210   87.63540    -999.25    6.76590
 14150.00000    9.23850    0.00930    2.72040   46.39970   -0.00200   -0.00520   49.51900  -56.67070   95.64690  101.77500  274.62960    -999.25    7.18910
 14200.00000    9.17840    0.00110    2.68900   29.72790   -0.00200    0.01550   50.21050  -40.00110   72.10010  135.01930  126.02190    -999.25    7.09760
 14250.00000    9.14840    0.00190    2.69650   30.40540   -0.00340    0.01100   48.95160  -35.74510  457.27110 1972.81200 1637.14890    -999.25    7.53980
 14300.00000    9.23850    0.01010    2.73260   32.43680   -0.00380   -0.01410   48.46070  -60.56920 1233.48800 1948.50550 1892.59050    -999.25    7.70730
 14350.00000    9.14840    0.00790    2.66890   12.16070   -0.00020    0.02000   49.29060  -59.86680  135.82710  171.85480  191.22180    -999.25    6.97520
 14400.00000    7.65980   -0.09830    2.65180   16.44470    0.01680    0.03430   51.23120  -83.94680   19.96700   25.45920   85.84280    -999.25    6.60780
 14450.00000   10.40220   -0.00790    2.68530    8.41340   -0.00610    0.01260   49.93980 -174.77200  135.04520  198.63210  243.72300    -999.25    7.31100
 14500.00000   11.00750   -0.00110    2.71070   11.13710   -0.00610    0.00180   51.20500 -161.70210  269.27830  455.72490  206.98230    -999.25    8.10290
 14550.00000   11.29240   -0.01910    2.69650   10.91130   -0.00650    0.00360   49.81910 -175.07600  577.81070  258.02730  480.45430    -999.25    8.53510
 14600.00000   11.66710   -0.00260    2.72190   10.91340   -0.00740   -0.00810   49.33730 -205.75630 1972.71670  368.10690 1702.23840    -999.25    9.00350
 14650.00000   11.74210   -0.00710    2.68160   22.72870   -0.00340    0.01170   49.39160 -184.24240  163.72450  159.66800  149.88840    -999.25    8.80340
 14700.00000   11.29230    0.00110    2.72110   22.72730   -0.00520   -0.01030   49.80950 -169.77080 1447.90870 1589.19270  569.62490    -999.25    8.30140
 14750.00000   11.19970   -0.00560    2.71510   21.14130   -0.00200   -0.00450   51.50590 -116.40190  193.91820  177.97510  274.24510    -999.25    8.08840
 14800.00000   10.61340   -0.00110    2.71660   33.18270    0.00650   -0.00720   53.67470  -88.18130   60.60370   71.73910   83.37780    -999.25    7.92070
 14850.00000   11.06750   -0.00710    2.68380   35.91050    0.02270    0.01350   57.28920  -73.03200   33.11110   33.02000   40.55780    -999.25    8.16390
 14900.00000   12.10180   -0.01010    2.70840   16.36070   -0.00740   -0.00090   50.36830  -88.34840   75.36150   66.24440  321.14090    -999.25    8.53300
 14950.00000   12.43190    0.00410    2.71740   15.22980   -0.00070   -0.00360   51.92770 -146.44540  254.43390  243.90190  191.24210    -999.25    8.83540
 15000.00000   12.14690   -0.00340    2.70540   17.04690   -0.00740    0.00270   50.18070 -132.83920  423.06120 1183.08780  930.44400    -999.25    9.03350
 15050.00000   12.55910    0.00040    2.71960   21.13710   -0.00560   -0.00630   50.28660 -122.22820  330.90690  137.11830  512.12480    -999.25    9.24700
 15100.00000   12.49170   -0.01460    2.68230   17.72840   -0.00250    0.01710   49.87950 -108.98160 1192.87260  245.90240  851.23360    -999.25    9.04880
 15150.00000   11.48720   -0.00710    2.69650   17.27450   -0.00070    0.00450   50.23530 -108.78890  312.65450  236.46630  401.49630    -999.25    8.94200
 15200.00000   11.03750   -0.02890    2.60400   33.86740    0.00970    0.05390   54.93980  -78.11130   67.51310   70.46520   69.02920    -999.25    8.39330
 15250.00000   12.84160   -0.01460    2.70250   20.00110   -0.00340    0.00360   50.60240 -111.81820  185.43610  102.66150  170.79520    -999.25    9.35370
 15300.00000   11.47220   -0.00790    2.69200   27.72510    0.00520    0.00900   51.78120  -94.54840  158.31970  150.94360  146.85940    -999.25    8.95620
 15350.00000   11.00750   -0.00560    2.70020   26.36580    0.00380    0.00540   54.09620  -84.78850   85.87290  110.08180  100.68340    -999.25    8.34790
 15400.00000   11.39730   -0.00190    2.68940   31.81960    0.01610    0.01080   56.38550  -73.05550   41.15880   43.88410   52.09760    -999.25    8.53210
 15450.00000   12.05360   -0.00260    2.71330   17.72730   -0.00430   -0.00040   49.98900  -94.84980  289.09750  218.77920  321.49970    -999.25    9.20120
 15500.00000   11.30730   -0.00040    2.70810   27.27490   -0.00160   -0.00000   51.14460  -59.99940  113.91610  126.24490  358.41250    -999.25    8.62130
 15550.00000   11.38240   -0.00640    2.69910   28.86360    0.01100    0.00450   53.26690  -74.81850   86.19990  100.68560  122.85860    -999.25    8.40850
 15600.00000   11.32840    0.00190    2.71780   20.45530    0.00430    0.00130   52.53010  -86.06060  130.60370  136.18050  290.49800    -999.25    8.75920
 15650.00000   11.24740   -0.00640    2.69990   55.91240    0.08480    0.00220   56.08430  -70.30310   20.65150   18.35580   27.14360    -999.25    8.52970
 15700.00000   10.73820   -0.00110    2.71330   25.68440    0.00560   -0.00270   51.89770  -77.27270   96.38910   95.30590  125.41440    -999.25    8.56100
 15750.00000   11.31500   -0.00860    2.69690   20.45560   -0.00650    0.00720   49.33730  -85.19590  298.28950  221.68900 1216.00280    -999.25    8.67050
 15800.00000   12.55170   -0.00190    2.70730   14.09310   -0.00740    0.00180   49.33720 -133.33630 1959.18210  773.06020  886.79530    -999.25    9.01900
 15850.00000   11.47990   -0.00640    2.73200   10.22620    0.00110   -0.00990   51.20470 -136.96970   71.32940   84.10480   81.94810    -999.25    8.54570
