~Version ---------------------------------------------------
VERS.      2.0 : CWLS log ASCII Standard -VERSION 2.0
WRAP.      YES : Multiple lines per depth step
CREA. 08/08/12 : LAS Creation Date
~Well ------------------------------------------------------
STRT.FT                 3750.0 : START DEPTH
STOP.FT                10100.0 : STOP DEPTH
STEP.FT               50.00000 : STEP LENGTH
NULL.                  -999.25 : NULL VALUE
COMP.              GOSE, STEVE : COMPANY
WELL.         VACLAVIC UNIT #1 : WELL
FLD .                 GIDDINGS : FIELD
LOC .                          : LOCATION
CNTY.                  FAYETTE : COUNTY
STAT.                    TEXAS : STATE
CTRY. UNITED STATES OF AMERICA : COUNTRY
SRVC.             Schlumberger : SERVICE COMPANY
DATE.              13-Aug-1981 : LOGDATE
API .           42149308390000 : API NUMBER
UWI .           42149308390000 : UNIQUE WELL ID
SLAT.WGS84       29.9573034487 : SURFACE LATITUDE
SLON.WGS84      -96.9214592176 : SURFACE LONGITUDE
~Curve Information -----------------------------------------
DEPT    .FT    : DEPTH FEET
CALDED  .IN    : CALIPER FROM DENSITY PLAYBACK LOG
CALWS   .IN    : CALIPER [DCALED + BITS SPLICED WITH CALDED @ 9170']
CONDWS  .MMHO  : CONDUCTIVITY [1000/DRESWS]
DCALED  .IN    : DIFRENTIAL CALIPER FROM DUAL INDUCTION/DENSITY/NEUTRON/GR LOG
DCORWS  .G/C3  : DENSITY CORRECTION [DRHOED]
DENWS   .G/C3  : FORMATION BULK DENSITY [CALCUALATED FROM DPOWS, M=2.71, F=1.0 & SPLICED WITH RHOBED @ 7810']
DPHILSED.V/V   : DENSITY POROSITY LIMESTONE [M=2.71, F=1.0] FROM DUAL INDUCTION/DENSITY/NEUTRON/GR LOG
DPHISSED.V/V   : DENSITY POROSOTY SANDSTONE [M=2.68, F=1.0] FROM DUAL INDUCTION/DENSITY/NEUTRON/GR LOG
DPOWS   .V/V   : DENSITY POROSITY LIMESTONE[DPHISSED CONVERTED TO LIMESTONE(M=2.71, F=1.0) & SPLICED TO DPHILSED AT 7810']
DRESWS  .OHMM  : DEEP RESISTIVITY [ILDED]
DRHO1ED .G/C3  : DENSITY CORRECTION FROM DUAL INDUCTION/DENSITY/NEUTRON/GR LOG
DRHOED  .G/C3  : DENSITY CORRECTION FROM DENSITY PLAYBACK LOG
GRDED   .GAPI  : GAMMA RAY FROM DENSITY PLAYBACK LOG
GRRED   .GAPI  : GAMMA RAY FROM DUAL INDUCTION/DENSITY/NEUTRON/GR LOG
GRWS    .GAPI  : GAMMA RAY [GRRED]
ILDED   .OHMM  : DEEP INDUCTION FROM DUAL INDUCTION/DENSITY/NEUTRON/GR LOG
ILMED   .OHMM  : MEDIUM INDUCTION FROM DUAL INDUCTION/DENSITY/NEUTRON/GR LOG
MRESWS  .OHMM  : MEDIUM RESISTIVITY [ILMED]
NPHILSED.V/V   : NEUTRON POROSITY LIMESTONE FROM DUAL INDUCTION/DENSITY/NEUTRON/GR LOG
NPHISSED.V/V   : NEUTRON POROSITY SANDSTONE FROM DUAL INDUCTION/DENSITY/NEUTRON/GR LOG
NPOWS   .V/V   : NEUTRON POROSITY LIMESTONE [NPHISSED MATRIX CONVERTED TO LIMESTONE & SPLICED WITH NPHILSED AT 7810']
RHOBED  .G/C3  : BULK DENSITY FROM DENSITY PLAYBACK LOG
SFLUED  .OHMM  : SPHERICALLY FOCUSED (UNAVERAGED) INDUCTION FROM DUAL INDUCTION/DENSITY/NEUTRON/GR LOG
SPRED   .MV    : SPONTANEOUS POTENTIAL FROM DUAL INDUCTION/DENSITY/NEUTRON/GR LOG
SPWS    .MV    : SPONTANEOUS POTENTIAL [BASELINE 0 MV, SPRED]
SRESWS  .OHMM  : SHALLOW RESISTIVITY [SFLUED]
~Params ----------------------------------------------------
PD  .                     GL : PERMANENT DATUM
EPD .FT                  253 : ELEVATION PERMANENT DATUM
LMF .                     KB : LOG MEASURED FROM
DAPD.FT                   12 : FEET ABOVE PERMANENT DATUM
DMF .                     KB : DRILLING MEASURED FROM
EKB .FT                  265 : KELLY BUSHING
EDF .FT                  264 : DRILLING FLOOR
EGL .FT                  253 : GROUND LEVEL
DATE.               08/13/81 : RUN DATE
RUN .                      1 : RUN NUMBER
DD  .FT                10160 : DEPTH DRILLER
DL  .FT                10145 : DEPTH LOGGER
BLI .FT                10139 : BOTTOM LOG INTERVAL
TLI .FT                 3712 : TOP LOG INTERVAL
CS  .IN                8.625 : CASING SIZE
CBD .FT                 3726 : CASING BOTTOM DRILLER
CBL .FT                 3712 : CASING BOTTOM LOGGER
BS  .IN                7.875 : BIT SIZE
BSD .FT                10160 : BIT SIZE AT DEPTH
DFT .         LIGNOSULFONATE : DRILLING FLUID TYPE
DFD .                    9.2 : DRILLING FLUID DENSITY
DFV .                     50 : DRILLING FLUID VISCOSITY
DFPH.                      9 : DRILLING FLUID PH
DFL .                      6 : DRILLING FLUID LOSS
MSS .              CIRC TANK : MUD SAMPLE SOURCE
RMS .OHMM               1.34 : RESISTIVITY MUD SAMPLE
MST .DEGF                 98 : MUD SAMPLE TEMPERATURE
RMF .OHMM                1.0 : RESISTIVITY MUD FILTRATE SAMPLE
MFST.DEGF                 98 : MUD FILTRATE SAMPLE TEMPERATURE
RMC .OHMM                2.0 : RESISTIVITY MUD CAKE
MCST.DEGF                 98 : MUD CAKE SAMPLE TEMPERATURE
MFSS.             CALCULATED : MUD FILTRATE SAMPLE SOURCE
MCSS.             CALCULATED : MUD CAKE SAMPLE SOURCE
RMB .OHMM              0.633 : RESISTIVITY MUD AT BHT
TCS .HRS                1600 : TIME CIRCULATED STOPPED
TLAB.HRS                2300 : TIME LOGGER AT BOTTOM
LUN .                   8176 : LOGGING UNIT NUMBER
LUL .                BRENHAM : LOGGING UNIT LOCATION
ENGI.                  BRUCK : RECORDING ENGINEER
WITN.                BECKHAM : WITNESSED BY
CLNT.                A2DTECH : CLIENT CODE
ORIG.            2" 5" PRINT : ORIGIN OF DATA
UWI .         42149308390000 : UNIQUE WELL ID
DICO. A2D Technologies, Inc. : DIGITIZING COMPANY
~Other -----------------------------------------------------
~ASCII -----------------------------------------------------
 3750.00000    -999.25   10.84860  222.92070    2.97360    -999.25    -999.25    -999.25    -999.25    -999.25    4.48590    -999.25    -999.25    -999.25   74.69570   74.69570    4.48590    4.69800    4.69800    -999.25    -999.25    -999.25    -999.25    5.54540   -4.05000   -6.61410    5.54540
 3800.00000    -999.25   11.17520  309.95260    3.30020    -999.25    -999.25    -999.25    -999.25    -999.25    3.22630    -999.25    -999.25    -999.25   86.22020   86.22020    3.22630    3.59530    3.59530    -999.25    -999.25    -999.25    -999.25    3.82510  -12.60240  -15.27110    3.82510
 3850.00000    -999.25   10.90210  378.74480    3.02710    -999.25    -999.25    -999.25    -999.25    -999.25    2.64030    -999.25    -999.25    -999.25   85.93180   85.93180    2.64030    2.82960    2.82960    -999.25    -999.25    -999.25    -999.25    2.29230   -7.77930  -10.55580    2.29230
 3900.00000    -999.25   10.00620  396.98290    2.13120    -999.25    -999.25    -999.25    -999.25    -999.25    2.51900    -999.25    -999.25    -999.25   89.70150   89.70150    2.51900    2.69670    2.69670    -999.25    -999.25    -999.25    -999.25    3.28420   -3.28430   -6.16870    3.28420
 3950.00000    -999.25    8.94400  478.72090    1.06900    -999.25    -999.25    -999.25    -999.25    -999.25    2.08890    -999.25    -999.25    -999.25   82.76920   82.76920    2.08890    2.18640    2.18640    -999.25    -999.25    -999.25    -999.25    2.32640   -0.10360   -3.09580    2.32640
 4000.00000    -999.25    8.22970  329.45670    0.35470    -999.25    -999.25    -999.25    -999.25    -999.25    3.03530    -999.25    -999.25    -999.25   91.08810   91.08810    3.03530    3.46450    3.46450    -999.25    -999.25    -999.25    -999.25    6.04400   -8.63340  -11.73350    6.04400
 4050.00000    -999.25    7.96950  433.87710    0.09450    -999.25    -999.25    -999.25    -999.25    -999.25    2.30480    -999.25    -999.25    -999.25   68.65960   68.65960    2.30480    2.89550    2.89550    -999.25    -999.25    -999.25    -999.25    4.21640  -38.74890  -41.95680    4.21640
 4100.00000    -999.25    7.95550  481.81160    0.08050    -999.25    -999.25    -999.25    -999.25    -999.25    2.07550    -999.25    -999.25    -999.25   58.45240   58.45240    2.07550    2.59240    2.59240    -999.25    -999.25    -999.25    -999.25    4.76780  -47.08020  -50.39590    4.76780
 4150.00000    -999.25    7.86720  390.96100   -0.00780    -999.25    -999.25    -999.25    -999.25    -999.25    2.55780    -999.25    -999.25    -999.25   63.94340   63.94340    2.55780    3.25480    3.25480    -999.25    -999.25    -999.25    -999.25    6.18200  -45.27370  -48.69730    6.18200
 4200.00000    -999.25    7.93400  632.19120    0.05900    -999.25    -999.25    -999.25    -999.25    -999.25    1.58180    -999.25    -999.25    -999.25   55.31960   55.31960    1.58180    2.13330    2.13330    -999.25    -999.25    -999.25    -999.25    4.70910  -53.89600  -57.42740    4.70910
 4250.00000    -999.25    7.79330  505.38230   -0.08170    -999.25    -999.25    -999.25    -999.25    -999.25    1.97870    -999.25    -999.25    -999.25   59.90810   59.90810    1.97870    2.77460    2.77460    -999.25    -999.25    -999.25    -999.25    5.37740  -48.26530  -51.90460    5.37740
 4300.00000    -999.25    8.64020  421.30100    0.76520    -999.25    -999.25    -999.25    -999.25    -999.25    2.37360    -999.25    -999.25    -999.25   96.51480   96.51480    2.37360    2.39520    2.39520    -999.25    -999.25    -999.25    -999.25    2.69090    1.50590   -2.24120    2.69090
 4350.00000    -999.25    7.60770  689.84550   -0.26730    -999.25    -999.25    -999.25    -999.25    -999.25    1.44960    -999.25    -999.25    -999.25   57.80400   57.80400    1.44960    1.95300    1.95300    -999.25    -999.25    -999.25    -999.25    4.59230  -60.89990  -64.75480    4.59230
 4400.00000    -999.25    7.90240  547.91520    0.02740    -999.25    -999.25    -999.25    -999.25    -999.25    1.82510    -999.25    -999.25    -999.25   56.45460   56.45460    1.82510    2.63290    2.63290    -999.25    -999.25    -999.25    -999.25    7.62050  -61.22150  -65.18430    7.62050
 4450.00000    -999.25    7.88300  466.07010    0.00800    -999.25    -999.25    -999.25    -999.25    -999.25    2.14560    -999.25    -999.25    -999.25   81.66580   81.66580    2.14560    2.78400    2.78400    -999.25    -999.25    -999.25    -999.25    5.43530  -35.62400  -39.69460    5.43530
 4500.00000    -999.25    7.93630  500.45040    0.06130    -999.25    -999.25    -999.25    -999.25    -999.25    1.99820    -999.25    -999.25    -999.25   89.96450   89.96450    1.99820    2.63790    2.63790    -999.25    -999.25    -999.25    -999.25    4.68500  -37.81460  -41.99310    4.68500
 4550.00000    -999.25    7.80100  400.86590   -0.07400    -999.25    -999.25    -999.25    -999.25    -999.25    2.49460    -999.25    -999.25    -999.25   86.06380   86.06380    2.49460    2.94290    2.94290    -999.25    -999.25    -999.25    -999.25    3.52470  -17.53000  -21.81630    3.52470
 4600.00000    -999.25    8.84230  428.76130    0.96730    -999.25    -999.25    -999.25    -999.25    -999.25    2.33230    -999.25    -999.25    -999.25  104.73220  104.73220    2.33230    2.68790    2.68790    -999.25    -999.25    -999.25    -999.25    3.95480   -7.96410  -12.35820    3.95480
 4650.00000    -999.25    8.65480  583.56680    0.77980    -999.25    -999.25    -999.25    -999.25    -999.25    1.71360    -999.25    -999.25    -999.25  110.65330  110.65330    1.71360    1.76010    1.76010    -999.25    -999.25    -999.25    -999.25    2.17030    4.84840    0.34640    2.17030
 4700.00000    -999.25    7.69290  634.88030   -0.18210    -999.25    -999.25    -999.25    -999.25    -999.25    1.57510    -999.25    -999.25    -999.25   43.87470   43.87470    1.57510    2.34610    2.34610    -999.25    -999.25    -999.25    -999.25   12.17190  -71.83600  -76.44580   12.17190
 4750.00000    -999.25    8.48920  300.21010    0.61420    -999.25    -999.25    -999.25    -999.25    -999.25    3.33100    -999.25    -999.25    -999.25  104.00630  104.00630    3.33100    3.12350    3.12350    -999.25    -999.25    -999.25    -999.25    3.20880   -3.13640   -7.85410    3.20880
 4800.00000    -999.25    8.55710  382.93640    0.68210    -999.25    -999.25    -999.25    -999.25    -999.25    2.61140    -999.25    -999.25    -999.25   91.92460   91.92460    2.61140    3.10160    3.10160    -999.25    -999.25    -999.25    -999.25    4.10510  -21.81940  -26.64490    4.10510
 4850.00000    -999.25    8.17180  533.07750    0.29680    -999.25    -999.25    -999.25    -999.25    -999.25    1.87590    -999.25    -999.25    -999.25   47.38870   47.38870    1.87590    2.97860    2.97860    -999.25    -999.25    -999.25    -999.25    9.37460  -63.53330  -68.46660    9.37460
 4900.00000    -999.25    8.35690  506.79100    0.48190    -999.25    -999.25    -999.25    -999.25    -999.25    1.97320    -999.25    -999.25    -999.25  124.41480  124.41480    1.97320    2.17340    2.17340    -999.25    -999.25    -999.25    -999.25    6.02400   -6.36180  -11.40300    6.02400
 4950.00000    -999.25    7.90530  813.47110    0.03030    -999.25    -999.25    -999.25    -999.25    -999.25    1.22930    -999.25    -999.25    -999.25   53.66510   53.66510    1.22930    1.64010    1.64010    -999.25    -999.25    -999.25    -999.25    4.77960  -81.89160  -87.04060    4.77960
 5000.00000    -999.25    7.62000  677.18560   -0.25500    -999.25    -999.25    -999.25    -999.25    -999.25    1.47670    -999.25    -999.25    -999.25   68.71900   68.71900    1.47670    1.84060    1.84060    -999.25    -999.25    -999.25    -999.25    2.49520  -28.55210  -33.80900    2.49520
 5050.00000    -999.25    7.57520 1924.18700   -0.29980    -999.25    -999.25    -999.25    -999.25    -999.25    0.51970    -999.25    -999.25    -999.25   31.38500   31.38500    0.51970    0.68560    0.68560    -999.25    -999.25    -999.25    -999.25    3.28230  -89.57480  -94.93950    3.28230
