~Version ---------------------------------------------------
VERS. 2.0 : CWLS log ASCII Standard -VERSION 2.0
WRAP. YES : Multiple lines per depth step
~Well ------------------------------------------------------
STRT.FT                   4050.0 : START DEPTH
STOP.FT                   9250.0 : STOP DEPTH
STEP.FT                 50.00000 : STEP LENGTH
NULL.                    -999.25 : NULL VALUE
COMP. CHAMPLIN PETROLEUM COMPANY : COMPANY
WELL.      ALBERT SCHULTZ JR. #1 : WELL
FLD .                   GIDDINGS : FIELD
LOC .                            : LOCATION
CNTY.                   BURLESON : COUNTY
STAT.                      TEXAS : STATE
CTRY.   UNITED STATES OF AMERICA : COUNTRY
SRVC.               Schlumberger : SERVICE COMPANY
DATE.                08-Nov-1980 : LOGDATE
API .             42051310590000 : API NUMBER
UWI .             42051310590000 : UNIQUE WELL ID
SLAT.WGS84         30.3972386436 : SURFACE LATITUDE
SLON.WGS84        -96.6361204842 : SURFACE LONGITUDE
~Curve Information -----------------------------------------
DEPT    .FT    : DEPTH FEET
CALWS   .IN    : CALIPER [DCALED+BITS]
CONDWS  .MMHO  : CONDUCTIVITY [1000/DRESWS]
DCALED  .IN    : DIFFERENTIAL CALIPER FROM DIL-SFL-CNFD LOG
DCORWS  .G/C3  : DENSITY CORRECTION [DRHOED]
DENWS   .G/C3  : FORMATION BULK DENSITY [M=2.71, F=1.0] [CALCULATED FROM DPOWS]
DPHILSED.V/V   : DENSITY POROSITY LIMESTONE [M=2.71, F=1.0] FROM DIL-SFL-CNFD LOG
DPHISSED.V/V   : DENSITY POROSITY SANDSTONE [M=2.65, F=1.0] FROM DIL-SFL-CNFD LOG
DPOWS   .V/V   : DENSITY POROSITY LIMESTONE [DPHISSED CONVERTED TO LIMESTONE [M=2.71, F=1.0] & SPL.TO DPHILSED @ 7398']
DRESWS  .OHMM  : DEEP RESISTIVITY [ILDED]
DRHOED  .G/C3  : DENSITY CORRECTION FROM DIL-SFL-CNFD LOG
GRRED   .GAPI  : GAMMA RAY FROM DIL-SFL-CNFD LOG
GRWS    .GAPI  : GAMMA RAY [GRRED]
ILDED   .OHMM  : DEEP INDUCTION FROM DIL-SFL-CNFD LOG
ILMED   .OHMM  : MEDIUM INDUCTION FROM DIL-SFL-CNFD LOG
MRESWS  .OHMM  : MEDIUM RESISTIVITY [ILMED]
NPHILSED.V/V   : NEUTRON POROSITY LIMESTONE FROM DIL-SFL-CNFD LOG [ADJ. TO DPHILSED]
NPHISSED.V/V   : NEUTRON POROSITY SANDSTONE FROM DIL-SFL-CNFD LOG [ADJ. TO DPHISSED]
NPOWS   .V/V   : NEUTRON POROSITY LIMESTONE [NPHISSED MATRIX CONVERTED TO LIMESTONE & SPL.TO NPHILSED @7398']
SFLUED  .OHMM  : SHALLOW FOCUSED RESISTIVITY FROM DIL-SFL-CNFD LOG
SPRED   .MV    : SPONTANEOUS POTENTIAL FROM DIL-SFL-CNFD LOG
SPWS    .MV    : SPONTANEOUS POTENTIAL [BASELINE 0 MV, SPRED]
SRESWS  .OHMM  : SHALLOW RESISTIVITY [SFLUED]
~Params ----------------------------------------------------
PD  .                     GL : PERMANENT DATUM
EPD .FT                  337 : ELEVATION PERMANENT DATUM
LMF .                     KB : LOG MEASURED FROM
DAPD.FT                   14 : FEET ABOVE PERMANENT DATUM
DMF .                     KB : DRILLING MEASURED FROM
EKB .FT                  351 : KELLY BUSHING
EDF .FT                  350 : DRILLING FLOOR
EGL .FT                  337 : GROUND LEVEL
DATE.               11/08/80 : RUN DATE
RUN .                      1 : RUN NUMBER
DD  .FT                 9270 : DEPTH DRILLER
DL  .FT                 9276 : DEPTH LOGGER
BLI .FT                 9270 : BOTTOM LOG INTERVAL
TLI .FT                 4030 : TOP LOG INTERVAL
CS  .IN                9.625 : CASING SIZE
CBD .FT                 4030 : CASING BOTTOM DRILLER
CBL .FT                 4030 : CASING BOTTOM LOGGER
BS  .IN                 8.75 : BIT SIZE
BSD .FT                 9270 : BIT SIZE AT DEPTH
DFT .                  BENEX : DRILLING FLUID TYPE
DFD .                    9.8 : DRILLING FLUID DENSITY
DFV .                     50 : DRILLING FLUID VISCOSITY
DFPH.                    8.5 : DRILLING FLUID PH
DFL .                      5 : DRILLING FLUID LOSS
MSS .              CIRC TANK : MUD SAMPLE SOURCE
RMS .OHMM               1.52 : RESISTIVITY MUD SAMPLE
MST .DEGF                110 : MUD SAMPLE TEMPERATURE
RMF .OHMM               1.46 : RESISTIVITY MUD FILTRATE SAMPLE
MFST.DEGF                 75 : MUD FILTRATE SAMPLE TEMPERATURE
RMC .OHMM               2.26 : RESISTIVITY MUD CAKE
MCST.DEGF                110 : MUD CAKE SAMPLE TEMPERATURE
MFSS.                      M : MUD FILTRATE SAMPLE SOURCE
MCSS.                      C : MUD CAKE SAMPLE SOURCE
RMB .OHMM               0.78 : RESISTIVITY MUD AT BHT
TCS .HRS                 330 : TIME CIRCULATED STOPPED
TLAB.HRS                 730 : TIME LOGGER AT BOTTOM
LUN .                   8101 : LOGGING UNIT NUMBER
LUL .                BRENHAM : LOGGING UNIT LOCATION
ENGI.       HARDER GILLILAND : RECORDING ENGINEER
WITN.                 SCHELL : WITNESSED BY
CLNT.                A2DTECH : CLIENT CODE
ORIG.          1" 2.5" PRINT : ORIGIN OF DATA
UWI .         42051310590000 : UNIQUE WELL ID
DICO. A2D Technologies, Inc. : DIGITIZING COMPANY
~Other -----------------------------------------------------
~ASCII -----------------------------------------------------
# ...
 5650.00000   11.40890  647.08170    2.65890    0.07030    2.46870    -999.25    0.10990    0.14110    1.54540    0.07030  120.89730  120.89730    1.54540    1.47690    1.47690    -999.25    0.28370    0.23970    1.69510   -5.17960   -3.86790    1.69510
 5700.00000   10.22940  691.56290    1.47940    0.06950    2.46390    -999.25    0.11280    0.14390    1.44600    0.06950  114.66510  114.66510    1.44600    1.42300    1.42300    -999.25    0.35820    0.31470    1.67650   -2.16490   -2.21120    1.67650
 5750.00000   10.52500  678.93270    1.77500    0.03870    2.46500    -999.25    0.11210    0.14330    1.47290    0.03870  126.65880  126.65880    1.47290    1.40970    1.40970    -999.25    0.30880    0.26490    1.64710   -1.86010   -3.26440    1.64710
 5800.00000   10.18000  519.99380    1.43000    0.02210    2.48000    -999.25    0.10300    0.13450    1.92310    0.02210  129.78990  129.78990    1.92310    1.79720    1.79720    -999.25    0.28180    0.23780    2.04380   -3.71740   -6.47970    2.04380
 5850.00000    9.77150  612.10750    1.02150    0.05630    2.45120    -999.25    0.12050    0.15140    1.63370    0.05630  120.17940  120.17940    1.63370    1.54330    1.54330    -999.25    0.29440    0.25040    1.81910    0.40200   -3.71830    1.81910
 5900.00000    9.39490  738.33430    0.64490    0.07260    2.42400    -999.25    0.13700    0.16730    1.35440    0.07260  117.04030  117.04030    1.35440    1.33260    1.33260    -999.25    0.32990    0.28610    1.51200    2.22260   -3.25570    1.51200
 5950.00000   10.07550  855.06630    1.32550    0.06310    2.42000    -999.25    0.13940    0.16960    1.16950    0.06310  116.38470  116.38470    1.16950    1.14900    1.14900    -999.25    0.30500    0.26100    1.35460    2.84540   -3.95800    1.35460
 6000.00000    9.44160  396.96720    0.69160    0.09670    2.62710    -999.25    0.01390    0.04850    2.51910    0.09670   72.19340   72.19340    2.51910    2.37490    2.37490    -999.25    0.16840    0.12550    6.16150   -2.10340   -6.97380    6.16150
 6050.00000   10.09880  535.04550    1.34880    0.08370    2.46240    -999.25    0.11370    0.14480    1.86900    0.08370  101.18080  101.18080    1.86900    1.80080    1.80080    -999.25    0.26640    0.22240    2.09610   -3.12730   -6.06480    2.09610
 6100.00000    9.54960  497.01790    0.79960    0.01830    2.45960    -999.25    0.11540    0.14640    2.01200    0.01830   67.35930   67.35930    2.01200    1.95140    1.95140    -999.25    0.17170    0.12870    4.03970  -12.13130  -14.09950    4.03970
 6150.00000   11.73370  906.45400    2.98370    0.08760    2.38250    -999.25    0.16210    0.19150    1.10320    0.08760  110.73800  110.73800    1.10320    1.08530    1.08530    -999.25    0.33580    0.29200    1.21120   -4.27690   -6.13040    1.21120
 6200.00000   11.29050  821.96280    2.54050    0.08210    2.46310    -999.25    0.11330    0.14440    1.21660    0.08210  109.12270  109.12270    1.21660    1.16840    1.16840    -999.25    0.31800    0.27410    1.37140   -2.21280   -3.95160    1.37140
 6250.00000   10.83040  758.38010    2.08040    0.03980    2.47200    -999.25    0.10790    0.13920    1.31860    0.03980  113.79760  113.79760    1.31860    1.29750    1.29750    -999.25    0.31040    0.26650    1.82200   -0.61080   -2.23490    1.82200
 6300.00000   11.38910  718.49400    2.63910    0.10330    2.47160    -999.25    0.10810    0.13940    1.39180    0.10330  100.61790  100.61790    1.39180    1.35230    1.35230    -999.25    0.32030    0.27640    1.54410   -7.27420   -8.78370    1.54410
 6350.00000   11.78210  859.03270    3.03210    0.07790    2.43430    -999.25    0.13070    0.16120    1.16410    0.07790  108.22840  108.22840    1.16410    1.14530    1.14530    -999.25    0.29560    0.25160    1.29240   -3.35960   -4.75440    1.29240
 6400.00000   11.07790  839.27820    2.32790    0.10190    2.48950    -999.25    0.09730    0.12900    1.19150    0.10190  115.91610  115.91610    1.19150    1.17250    1.17250    -999.25    0.28390    0.23990    1.32700   -2.16540   -3.44550    1.32700
 6450.00000   10.41260  741.45470    1.66260    0.04940    2.46110    -999.25    0.11450    0.14560    1.34870    0.04940  117.08260  117.08260    1.34870    1.32610    1.32610    -999.25    0.30490    0.26090    1.54760   -0.77250   -1.93790    1.54760
 6500.00000    9.57090  352.42290    0.82090    0.08550    2.59800    -999.25    0.03150    0.06550    2.83750    0.08550   81.66720   81.66720    2.83750    2.63680    2.63680    -999.25    0.21220    0.16860    2.93650   -0.89520   -1.98810    2.93650
 6550.00000    9.79710  690.36930    1.04710    0.09000    2.44290    -999.25    0.12550    0.15620    1.44850    0.09000  108.06880  108.06880    1.44850    1.42540    1.42540    -999.25    0.27470    0.23070    1.53270   -3.28510   -4.51160    1.53270
 6600.00000   10.14420  592.34690    1.39420    0.09540    2.45000    -999.25    0.12120    0.15200    1.68820    0.09540   99.73710   99.73710    1.68820    1.66090    1.66090    -999.25    0.24570    0.20180    1.73610   -3.53810   -4.89830    1.73610
 6650.00000    9.22910  497.19090    0.47910    0.00420    2.44520    -999.25    0.12410    0.15480    2.01130    0.00420   97.49490   97.49490    2.01130    1.94390    1.94390    -999.25    0.25070    0.20680    2.09850   -5.84980   -7.34360    2.09850
 6700.00000    9.57290  673.58210    0.82290    0.09890    2.49040    -999.25    0.09670    0.12840    1.48460    0.09890  113.17440  113.17440    1.48460    1.45590    1.45590    -999.25    0.32750    0.28370    1.53120   -3.96970   -5.59710    1.53120
 6750.00000    9.99130  649.81480    1.24130    0.06250    2.46350    -999.25    0.11300    0.14410    1.53890    0.06250  108.35020  108.35020    1.53890    1.49120    1.49120    -999.25    0.27910    0.23510    1.62740   -1.82860   -3.58960    1.62740
 6800.00000   10.62050  703.87840    1.87050    0.06410    2.44610    -999.25    0.12360    0.15440    1.42070    0.06410  129.79830  129.79830    1.42070    1.37440    1.37440    -999.25    0.30690    0.26290    1.47180   -1.14520   -3.03990    1.47180
 6850.00000   11.45830  587.02670    2.70830    0.07530    2.45680    -999.25    0.11710    0.14810    1.70350    0.07530  104.67670  104.67670    1.70350    1.67580    1.67580    -999.25    0.26170    0.21770    1.82960   -1.47250   -3.50080    1.82960
 6900.00000   12.68700  641.60140    3.93700    0.09830    2.45170    -999.25    0.12020    0.15110    1.55860    0.09830  105.09510  105.09510    1.55860    1.50300    1.50300    -999.25    0.28510    0.24110    1.69420   -2.05510   -4.21700    1.69420
 6950.00000   12.08680  431.05310    3.33680    0.10230    2.40600    -999.25    0.14790    0.17780    2.31990    0.10230  117.93080  117.93080    2.31990    2.08750    2.08750    -999.25    0.28450    0.24050    1.91370   -5.21550   -7.51100    1.91370
 7000.00000   12.12240  727.11410    3.37240    0.08680    2.30560    -999.25    0.20870    0.23650    1.37530    0.08680  120.29290  120.29290    1.37530    1.35340    1.35340    -999.25    0.34470    0.30100    1.45020   -0.89330   -3.32250    1.45020
 7050.00000   11.83490  721.96950    3.08490    0.10380    2.36800    -999.25    0.17090    0.20000    1.38510    0.10380  123.90440  123.90440    1.38510    1.35280    1.35280    -999.25    0.31620    0.27230    1.53770   -0.73870   -3.30150    1.53770
 7100.00000   10.32760  496.91910    1.57760    0.02700    2.39390    -999.25    0.15520    0.18480    2.01240    0.02700  133.61110  133.61110    2.01240    1.97920    1.97920    -999.25    0.26620    0.22220    1.81060   -1.21070   -3.90710    1.81060
 7150.00000   11.17270  506.53430    2.42270    0.09950    2.49950    -999.25    0.09120    0.12310    1.97420    0.09950  109.48780  109.48780    1.97420    1.89780    1.89780    -999.25    0.24560    0.20170    2.04240   -1.59790   -4.42790    2.04240
 7200.00000   10.37960  560.75810    1.62960    0.10210    2.52180    -999.25    0.07770    0.11010    1.78330    0.10210  104.46110  104.46110    1.78330    1.75460    1.75460    -999.25    0.29160    0.24760    1.93610    0.28710   -2.67650    1.93610
