~Version ---------------------------------------------------
VERS. 2.0 : CWLS log ASCII Standard -VERSION 2.0
WRAP. YES : MULTIPLE LINES PER DEPTH STEP
~Well ------------------------------------------------------
STRT.FT                   1000.0 : START DEPTH
STOP.FT                  11500.0 : STOP DEPTH
STEP.FT                 50.00000 : STEP LENGTH
NULL.                    -999.25 : NULL VALUE
COMP. KAISER-FRANCIS OIL COMPANY : COMPANY
WELL.            D.C. MCMANUS #1 : WELL
FLD .              AUSTIN PIERCE : FIELD
LOC .                            : LOCATION
CNTY.                   GONZALES : COUNTY
STAT.                      TEXAS : STATE
CTRY.   UNITED STATES OF AMERICA : COUNTRY
SRVC.               Schlumberger : SERVICE COMPANY
DATE.                01-Dec-1996 : LOGDATE
API .             42177320060000 : API NUMBER
UWI .             42177320060000 : UNIQUE WELL ID
SLAT.WGS84          29.374572664 : SURFACE LATITUDE
SLON.WGS84        -97.3289574079 : SURFACE LONGITUDE
~Curve Information -----------------------------------------
DEPT    .FT    : DEPTH FEET
AO10ED  .OHMM  : 10 INCH ARRAY RESISTIVITY ONE FOOT RESOLUTION
AO20ED  .OHMM  : 20 INCH ARRAY RESISTIVITY ONE FOOT RESOLUTION
AO30ED  .OHMM  : 30 INCH ARRAY RESISTIVITY ONE FOOT RESOLUTION
AO60ED  .OHMM  : 60 INCH ARRAY RESISTIVITY ONE FOOT RESOLUTION
AO90ED  .OHMM  : 90 INCH ARRAY RESISTIVITY ONE FOOT RESOLUTION
CALWS   .IN    : CALIPER [DCALED+BITED]
CONDWS  .MMHO  : CONDUCTIVITY [1000/DRESWS]
DCALRED .IN    : DIFFERENTIAL CALIPER FROM RESISTIVITY LOG
DCORWS  .G/C3  : DENSITY CORRECTION [HDRAED]
DENWS   .G/C3  : BULK DENSITY [M=2.71 F=1.0] [CALCULATED FROM DPOWS]
DPHZLSED.V/V   : DENSITY POROSITY [M=2.71 F=1.0] FROM DENSITY LOG
DPOWS   .V/V   : DENSITY POROSITY [M=2.71 F=1.0] [DPHZLSED]
DRESWS  .OHMM  : DEEP RESISTIVITY [AO90ED]
DTED    .US/F  : DELTA TIME FROM SONIC LOG
DTWS    .US/F  : DELTA TIME [DTED]
GRRED   .GAPI  : GAMMA RAY FROM RESISTIVITY LOG
GRWS    .GAPI  : GAMMA RAY [GRRED, CSG ABOVE 1070F]
HDRAED  .G/C3  : DENSITY CORRECTION FROM DENSITY LOG
MRESWS  .OHMM  : MEDIUM RESISTIVITY [AO30ED]
NPHILSED.V/V   : NEUTRON POROSITY LIMESTONE FROM DENSITY LOG
NPOWS   .V/V   : NEUTRON POROSITY LIMESTONE [NPHILSED]
SPRED   .MV    : SPONTANEOUS POTENTIAL FROM RESISTIVITY LOG
SPWS    .MV    : SPONTANEOUS POTENTIAL [BASELINE 0 MV] [SPRED]
SRESWS  .OHMM  : SHALLOW RESISTIVITY [AO10ED]
TENRED  .LBF   : TENSION FROM RESISTIVITY LOG
~Params ----------------------------------------------------
PD  .                     GL : PERMANENT DATUM
EPD .FT               257.26 : ELEVATION PERMANENT DATUM
LMF .                     KB : LOG MEASURED FROM
DAPD.FT                 16.3 : FEET ABOVE PERMANENT DATUM
DMF .                     KB : DRILLING MEASURED FROM
EKB .FT               275.58 : KELLY BUSHING
EDF .FT                  275 : DRILLING FLOOR
EGL .FT               257.26 : GROUND LEVEL
DATE.               12/01/96 : RUN DATE
RUN .                      1 : RUN NUMBER
DD  .FT                11530 : DEPTH DRILLER
DL  .FT                11500 : DEPTH LOGGER
BLI .FT                11500 : BOTTOM LOG INTERVAL
TLI .FT                 1070 : TOP LOG INTERVAL
CS  .IN                9.625 : CASING SIZE
CBD .FT                 1061 : CASING BOTTOM DRILLER
CBL .FT                 1070 : CASING BOTTOM LOGGER
BS  .IN                 8.75 : BIT SIZE
BSD .FT                11530 : BIT SIZE AT DEPTH
DFT .                 LOLIME : DRILLING FLUID TYPE
DFD .                   10.1 : DRILLING FLUID DENSITY
DFV .                     47 : DRILLING FLUID VISCOSITY
DFPH.                    9.5 : DRILLING FLUID PH
MSS .                MUD PIT : MUD SAMPLE SOURCE
RMS .OHMM               4.36 : RESISTIVITY MUD SAMPLE
MST .FT                   75 : MUD SAMPLE TEMPERATURE
RMF .OHMM                3.7 : RESISTIVITY MUD FILTRATE SAMPLE
MFST.FT                   75 : MUD FILTRATE SAMPLE TEMPERATURE
RMC .OHMM                6.5 : RESISTIVITY MUD CAKE
MCST.FT                   75 : MUD CAKE SAMPLE TEMPERATURE
MFSS.              MUD PRESS : MUD FILTRATE SAMPLE SOURCE
MCSS.                   CALC : MUD CAKE SAMPLE SOURCE
RMB .OHMM              1.515 : RESISTIVITY MUD AT BHT
TCS .HRS                 430 : TIME CURCULATED STOPPED
TLAB.HRS                 900 : TIME LOGGER AT BOTTOM
LUN .                   3075 : LOGGING UNIT NUMBER
LUL .               VICTORIA : LOGGING UNIT LOCATION
ENGI.                  NAHRI : RECORDING ENGINEER
WITN.                   RUSS : WITNESSED BY
CLNT.                A2DTECH : CLIENT CODE
ORIG.               5" PRINT : ORIGIN OF DATA
UWI .         42177320060000 : UNIQUE WELL ID
DICO. A2D Technologies, Inc. : DIGITIZING COMPANY
~Other -----------------------------------------------------
~ASCII -----------------------------------------------------
# ...
 5200.00000    1.93800    1.92830    1.90400    1.86930    1.83580    -999.25  544.72160    -999.25    -999.25    -999.25    -999.25    -999.25    1.83580    -999.25    -999.25  111.42230  111.42230    -999.25    1.90400    -999.25    -999.25  -38.14800   -5.85890    1.93800 1978.50200
 5250.00000    1.01590    1.12670    1.13680    1.14510    1.17170    -999.25  853.46080    -999.25    -999.25    -999.25    -999.25    -999.25    1.17170    -999.25    -999.25  119.14540  119.14540    -999.25    1.13680    -999.25    -999.25  -40.95580   -7.80350    1.01590 2053.48020
 5300.00000    2.04930    1.97720    1.91310    1.87720    1.94610    -999.25  513.84820    -999.25    -999.25    -999.25    -999.25    -999.25    1.94610    -999.25    -999.25  127.16220  127.16220    -999.25    1.91310    -999.25    -999.25  -49.86680  -15.85130    2.04930 1996.14090
 5350.00000    2.28640    2.79860    1.74520    1.28610    1.09570    -999.25  912.65860    -999.25    -999.25    -999.25    -999.25    -999.25    1.09570    -999.25    -999.25  119.83700  119.83700    -999.25    1.74520    -999.25    -999.25  -51.27490  -16.39630    2.28640 2095.58010
 5400.00000    6.39180    3.74360    1.74710    0.96800    0.84950    -999.25 1177.16310    -999.25    -999.25    -999.25    -999.25    -999.25    0.84950    -999.25    -999.25   96.11480   96.11480    -999.25    1.74710    -999.25    -999.25 -102.79690  -67.05510    6.39180 1989.23880
 5450.00000    7.50650    2.50380    1.35850    0.81350    0.68370    -999.25 1462.62980    -999.25    -999.25    -999.25    -999.25    -999.25    0.68370    -999.25    -999.25   84.20170   84.20170    -999.25    1.35850    -999.25    -999.25 -136.10630  -99.50130    7.50650 1979.28210
 5500.00000    7.14760    2.05050    1.49570    1.01860    0.92890    -999.25 1076.54210    -999.25    -999.25    -999.25    -999.25    -999.25    0.92890    -999.25    -999.25   65.80540   65.80540    -999.25    1.49570    -999.25    -999.25 -136.22440  -98.75630    7.14760 1711.96470
 5550.00000    5.90960    2.69080    1.51320    0.89310    0.74300    -999.25 1345.89500    -999.25    -999.25    -999.25    -999.25    -999.25    0.74300    -999.25    -999.25   81.26920   81.26920    -999.25    1.51320    -999.25    -999.25 -139.14640 -100.81510    5.90960 1936.01890
 5600.00000    3.83220    1.90950    1.67150    1.18740    1.07370    -999.25  931.35890    -999.25    -999.25    -999.25    -999.25    -999.25    1.07370    -999.25    -999.25   95.94820   95.94820    -999.25    1.67150    -999.25    -999.25 -105.80780  -66.61330    3.83220 1971.68630
 5650.00000    4.57090    3.52720    2.64380    2.54240    1.96140    -999.25  509.83990    -999.25    -999.25    -999.25    -999.25    -999.25    1.96140    -999.25    -999.25  120.08430  120.08430    -999.25    2.64380    -999.25    -999.25  -85.08620  -45.02860    4.57090 2022.70250
 5700.00000    2.50200    2.41800    2.26310    2.34710    2.49000    -999.25  401.60640    -999.25    -999.25    -999.25    -999.25    -999.25    2.49000    -999.25    -999.25  112.38110  112.38110    -999.25    2.26310    -999.25    -999.25  -52.38900  -11.46820    2.50200 2030.80960
 5750.00000    3.69580    2.50630    1.76210    1.18770    1.02950    -999.25  971.34530    -999.25    -999.25    -999.25    -999.25    -999.25    1.02950    -999.25    -999.25  127.39540  127.39540    -999.25    1.76210    -999.25    -999.25  -74.51540  -32.73150    3.69580 1965.39230
 5800.00000    3.28190    2.12470    1.84580    1.69420    1.43300    -999.25  697.83670    -999.25    -999.25    -999.25    -999.25    -999.25    1.43300    -999.25    -999.25  145.53780  145.53780    -999.25    1.84580    -999.25    -999.25  -74.20130  -32.57100    3.28190 1954.72710
 5850.00000    4.69350    2.69150    1.84050    1.26880    1.12690    -999.25  887.39020    -999.25    -999.25    -999.25    -999.25    -999.25    1.12690    -999.25    -999.25  106.53730  106.53730    -999.25    1.84050    -999.25    -999.25 -103.97820  -63.30050    4.69350 2032.46360
 5900.00000    5.62800    3.81130    2.21890    1.36870    1.14230    -999.25  875.42680    -999.25    -999.25    -999.25    -999.25    -999.25    1.14230    -999.25    -999.25  101.17420  101.17420    -999.25    2.21890    -999.25    -999.25 -105.06780  -65.34270    5.62800 2121.62740
 5950.00000    2.10890    2.12400    2.22100    2.18300    2.18750    -999.25  457.14290    -999.25    -999.25    -999.25    -999.25    -999.25    2.18750    -999.25    -999.25  126.24060  126.24060    -999.25    2.22100    -999.25    -999.25  -38.42050    0.35200    2.10890 2107.65410
 6000.00000    9.05370    4.37530    1.72680    0.87550    0.71830    -999.25 1392.17600    -999.25    -999.25    -999.25    -999.25    -999.25    0.71830    -999.25    -999.25   74.09970   74.09970    -999.25    1.72680    -999.25    -999.25 -146.98640 -109.16660    9.05370 2107.07980
 6050.00000    4.19350    3.06250    1.83710    1.08510    0.93740    -999.25 1066.78050    -999.25    -999.25    -999.25    -999.25    -999.25    0.93740    -999.25    -999.25   75.21970   75.21970    -999.25    1.83710    -999.25    -999.25 -119.94550  -83.07830    4.19350 2133.75730
 6100.00000    8.66780    6.18100    2.38900    1.21550    0.96100    -999.25 1040.58260    -999.25    -999.25    -999.25    -999.25    -999.25    0.96100    -999.25    -999.25   83.78090   83.78090    -999.25    2.38900    -999.25    -999.25 -128.27400  -92.35940    8.66780 2135.78830
 6150.00000    1.15260    1.38530    1.38980    1.27280    1.28240    -999.25  779.78790    -999.25    -999.25    -999.25    -999.25    -999.25    1.28240    -999.25    -999.25  106.59550  106.59550    -999.25    1.38980    -999.25    -999.25  -36.05860   -1.09660    1.15260 2175.95430
 6200.00000   48.10760    8.66310    2.09660    1.17170    0.92350    -999.25 1082.83700    -999.25    -999.25    -999.25    -999.25    -999.25    0.92350    -999.25    -999.25   58.30990   58.30990    -999.25    2.09660    -999.25    -999.25 -128.94020  -94.93080   48.10760 2180.78710
 6250.00000    1.91680    1.96420    1.85880    1.82000    1.80060    -999.25  555.37040    -999.25    -999.25    -999.25    -999.25    -999.25    1.80060    -999.25    -999.25   92.23100   92.23100    -999.25    1.85880    -999.25    -999.25  -40.95560   -7.89880    1.91680 2233.81980
 6300.00000    2.51220    1.26400    0.91570    0.72940    0.74010    -999.25 1351.16870    -999.25    -999.25    -999.25    -999.25    -999.25    0.74010    -999.25    -999.25   57.73700   57.73700    -999.25    0.91570    -999.25    -999.25 -146.38700 -114.28280    2.51220 2216.36840
 6350.00000    3.00260    1.64820    1.23960    0.78740    0.65880    -999.25 1517.91140    -999.25    -999.25    -999.25    -999.25    -999.25    0.65880    -999.25    -999.25   65.81840   65.81840    -999.25    1.23960    -999.25    -999.25 -142.13930 -110.98770    3.00260 2218.19380
 6400.00000    3.49330    3.19330    2.39740    1.51210    1.31100    -999.25  762.77650    -999.25    -999.25    -999.25    -999.25    -999.25    1.31100    -999.25    -999.25   84.09900   84.09900    -999.25    2.39740    -999.25    -999.25  -74.39880  -44.19980    3.49330 2220.80400
 6450.00000    4.55650    4.66200    2.21870    1.21900    0.98590    9.09190 1014.30170    0.34190    -999.25    -999.25    -999.25    -999.25    0.98590    -999.25    -999.25   67.11950   67.11950    -999.25    2.21870    -999.25    -999.25 -102.92520  -73.67880    4.55650 3238.91280
 6500.00000    3.51810    1.65790    0.99360    0.63540    0.58170    9.04460 1719.09910    0.29460    -999.25    -999.25    -999.25    -999.25    0.58170    -999.25    -999.25   38.69420   38.69420    -999.25    0.99360    -999.25    -999.25 -128.98280 -100.68900    3.51810 3289.32470
 6550.00000    7.13310    2.20950    1.06750    0.59790    0.52690    9.72400 1897.89330    0.97400    -999.25    -999.25    -999.25    -999.25    0.52690    -999.25    -999.25   43.15790   43.15790    -999.25    1.06750    -999.25    -999.25 -139.57810 -112.23690    7.13310 3358.13670
