~Version ---------------------------------------------------
VERS. 2.0 : CWLS log ASCII Standard -VERSION 2.0
WRAP.  NO : ONE LINE PER DEPTH STEP
~Well ------------------------------------------------------
STRT.F                   300.0 : START DEPTH
STOP.F                 24000.0 : STOP DEPTH
STEP.F                50.00000 : STEP LENGTH
NULL.                  -999.25 : NULL VALUE
COMP.       PLACID OIL COMPANY : COMPANY
WELL.                PEELER #1 : WELL
FLD .                  WILDCAT : FIELD
LOC .                          : LOCATION
CNTY.                MC MULLEN : COUNTY
STAT.                    TEXAS : STATE
CTRY. UNITED STATES OF AMERICA : COUNTRY
SRVC.             Schlumberger : SERVICE COMPANY
DATE.              01-Jan-1984 : LOGDATE
API .           42311317850000 : API NUMBER
UWI .           42311317850000 : UNIQUE WELL ID
SLAT.WGS84       28.5959255047 : SURFACE LATITUDE
SLON.WGS84      -98.4401225914 : SURFACE LONGITUDE
~Curve Information -----------------------------------------
DEPT   .F                 : 
DPHI_LS.DEC  45 890 10 00 : DENSITY POROSITY LIMESTONE
CALD   .IN   45 280 60 00 : CALIPER FROM DENSITY LOG
RHOB   .G/C3 45 350 01 00 : BULK DENSITY
NPHI_LS.DEC  42 890 01 00 : NEUTRON POROSITY LIMESTONE
DT     .US/F 60 500 00 00 : DELTA-T (INTERVAL TRANSIT TIME)
GRR    .GAPI 07 310 01 00 : GAMMA RAY FROM RESISTIVITY LOG
NPHI_SS.DEC  42 890 03 00 : NEUTRON POROSITY SANDSTONE
ILM    .OHMM 07 120 44 00 : INDUCTION MEDIUM RESISTIVITY
SFLU   .OHMM 07 220 01 00 : SHALLOW FOCUSED RESISTIVITY (UNAVERAGED)
SPR    .MV   07 010 01 00 : SPONTANEOUS POTENTIAL FROM RESISTIVITY LOG
ILD    .OHMM 07 120 46 00 : INDUCTION DEEP RESISTIVITY
DCALR  .IN   07 280 01 00 : DIFFERENTIAL CALIPER FROM RESISTIVITY LOG
DPHI_SS.DEC  45 890 12 00 : DENSITY POROSITY SANDSTONE
DRHO   .G/C3 45 356 01 00 : BULK DENSITY CORRECTION
~Params ----------------------------------------------------
PD  .                     GL : PERMANENT DATUM
EPD .F                   336 : ELEVATION PERMANENT DATUM
LMF .                     KB : LOG MEASURED FROM
DMF .                     KB : DRILLING MEASURED FROM
EKB .F                   368 : KELLING BUSHING
EDF .F                   367 : DRILLING FLOOR
EGL .F                   336 : GROUND LEVEL
DATE.               1-1-1984 : RUN DATE
RUN .                      7 : RUN NUMBER
DD  .F                 24031 : DEPTH DRILLER
DL  .F                 24037 : DEPTH LOGGER
BLI .F                 24030 : BOTTOM LOG INTERVAL
TLI .F                 21000 : TOP LOG INTERVAL
CS  .IN                8.625 : CASING SIZE
CBD .F                 19500 : CASING BOTTOM DRILLER
CBL .F                 19500 : CASING BOTTOM LOGGER
BS  .IN                  7.5 : BIT SIZE
BSD .F                 24031 : BIT SIZE AT DEPTH
DFT .               INVERMUL : DRILLING FLUID TYPE
DFV .                     83 : DRILLING FLUID VISCOSITY
TCS .HRS                 800 : TIME CURCULATED STOPPED
TLAB.HRS                 200 : TIME LOGGER AT BOTTOM
LUL .               EDINBURG : LOGGING UNIT LOCATION
ENGI.              NEWMISTER : RECORDING ENGINEER
WITN.                   LONG : WITNESSED BY
CLNT.                A2DTECH : CLIENT CODE
ORIG.            1",5" PRINT : ORIGIN OF DATA
UWI .         42311317850000 : UNIQUE WELL ID
DICO. A2D Technologies, Inc. : DIGITIZING COMPANY
~Other -----------------------------------------------------
~ASCII -----------------------------------------------------
# ...
 14900.00000   -0.00630   13.46400    2.67000    0.02100   48.73620   14.69750    -999.25    -999.25  187.43830  -66.91590  196.75930    -999.25    -999.25    0.10200
 14950.00000   -0.03100   12.43200    2.76800    0.02500   50.75290   15.44840    -999.25    -999.25  115.57620  -67.56490  118.13300    -999.25    -999.25    0.03900
 15000.00000   -0.02610   13.45400    2.75800    0.05600   51.20780   26.66430    -999.25    -999.25    8.97010  -63.17760    7.63690    -999.25    -999.25    0.09700
 15050.00000   -0.02850   13.51700    2.75100   -0.00400   49.19500   22.57640    -999.25    -999.25  499.71960  -72.99070  671.50730    -999.25    -999.25    0.01100
 15100.00000   -0.02260   13.07300    2.74400   -0.00400   49.81940   23.89910    -999.25    -999.25  106.44550  -71.48510   79.09990    -999.25    -999.25    0.02600
 15150.00000   -0.05120   12.95700    2.79300   -0.00300   48.84440   26.94200    -999.25    -999.25  511.57420  -75.74230   48.37450    -999.25    -999.25    0.06000
 15200.00000   -0.00730   13.12400    2.72200    0.00000   47.70400   23.11920    -999.25    -999.25  503.67840  -70.65420  372.21280    -999.25    -999.25    0.08600
 15250.00000   -0.03890   13.15500    2.76000    0.00900   49.59130   19.43200    -999.25    -999.25  106.09560  -73.66250  591.46120    -999.25    -999.25    0.03900
 15300.00000    0.23220   13.94200    2.30100    0.10500   57.72760   18.04380    -999.25    -999.25   21.84160  -73.85690   21.20820    -999.25    -999.25    0.06300
 15350.00000   -0.03690   12.89400    2.77200   -0.00500   48.62430   22.62410    -999.25    -999.25  445.60240  -64.25350  500.25190    -999.25    -999.25    0.02500
 15400.00000   -0.02850   12.56600    2.76000   -0.00600   49.09970   17.23090    -999.25    -999.25   90.23680  -42.20840  739.13480    -999.25    -999.25   -0.00600
 15450.00000   -0.03790   12.47200    2.77300    0.00400   50.43360   33.95570    -999.25    -999.25   55.22780  -23.70140   59.46460    -999.25    -999.25    0.03400
 15500.00000   -0.00970   12.58800    2.72100   -0.00100   50.09590   25.38990    -999.25    -999.25   76.23030  -16.13290   76.16100    -999.25    -999.25   -0.00400
 15550.00000   -0.00930   12.65600    2.72100   -0.00100   49.40120   27.37540    -999.25    -999.25  414.27500  -21.21310 1984.18270    -999.25    -999.25    0.00200
 15600.00000   -0.01020   12.70600    2.72200    0.00200   50.93560   27.28160    -999.25    -999.25   96.29630   -1.77290   57.17710    -999.25    -999.25    0.00200
 15650.00000   -0.01860   12.78300    2.74500    0.00200   51.14370   23.54650    -999.25    -999.25  154.30180  -11.49280 1404.32100    -999.25    -999.25    0.01700
 15700.00000   -0.02160   12.94600    2.75100    0.00500   51.04470   22.66340    -999.25    -999.25  176.57410   -1.69520  177.16050    -999.25    -999.25    0.02200
 15750.00000   -0.00480   12.89800    2.72200    0.04500   56.11120   32.55480    -999.25    -999.25   28.87110    5.32940   28.14020    -999.25    -999.25   -0.00400
 15800.00000   -0.00680   12.92500    2.72300    0.01700   52.42800   31.26670    -999.25    -999.25   39.23870    6.31480   21.02610    -999.25    -999.25   -0.00600
 15850.00000   -0.01380   13.00000    2.73100    0.07400   57.13440   35.90410    -999.25    -999.25   30.44750    4.02020   23.63640    -999.25    -999.25    0.01900
 15900.00000   -0.01620   13.19000    2.73700    0.08500   61.07850   30.01040    -999.25    -999.25   22.69790    7.94710   35.64810    -999.25    -999.25    0.01900
 15950.00000   -0.01770   13.21400    2.73700    0.03100   53.73020   34.96880    -999.25    -999.25   18.60080    5.75670   26.67300    -999.25    -999.25   -0.00400
 16000.00000    0.02380   13.08300    2.66500    0.09400   63.37620   66.35510    -999.25    -999.25    9.50620    6.93620   10.32020    -999.25    -999.25    0.03700
 16050.00000    0.02330   12.85900    2.67700    0.04800   56.38290   68.38010    -999.25    -999.25   16.12650    6.00310   12.26900    -999.25    -999.25    0.04900
 16100.00000    0.03670   12.95800    2.65700    0.08700   59.07530   49.37690    -999.25    -999.25   13.09700   -0.16580   12.80860    -999.25    -999.25    0.03500
 16150.00000    0.05790   12.36400    2.60800    0.03200   56.59100   30.83850    -999.25    -999.25   19.46270   -7.02180   14.73990    -999.25    -999.25   -0.00800
 16200.00000    0.04210   12.35500    2.61700    0.01500   56.69960   32.79670    -999.25    -999.25   52.46910   -1.46190   58.95060    -999.25    -999.25    0.00000
 16250.00000   -0.03740   13.16600    2.75800    0.07500   52.26370   26.83020    -999.25    -999.25   12.67140  -20.20220   10.93070    -999.25    -999.25    0.04900
 16300.00000   -0.04140   12.68900    2.78300    0.09900   54.36810   37.92830    -999.25    -999.25    9.83550  -12.03730    9.31070    -999.25    -999.25    0.00300
 16350.00000    0.01640   12.69000    2.67600    0.16100   61.02340   49.70150    -999.25    -999.25    8.91900   -1.85070    7.69030    -999.25    -999.25    0.02700
 16400.00000   -0.04430   12.21100    2.78000    0.19900   55.37530   44.54830    -999.25    -999.25   11.04940  -17.04310   13.68580    -999.25    -999.25   -0.00900
 16450.00000    0.12890   12.85900    2.66000    0.12800   63.82140   94.94000    -999.25    -999.25   11.50540  -35.49140   11.19750    -999.25    -999.25   -0.01200
 16500.00000   -0.01300   11.70200    2.73800    0.03900   51.53960   90.30370    -999.25    -999.25  223.18340  -57.91780 2015.55200    -999.25    -999.25    0.00100
 16550.00000    0.07860   10.77200    2.57900    0.01600   57.34380  180.26210    -999.25    -999.25   30.66360  -63.51480   35.00170    -999.25    -999.25   -0.01300
 16600.00000   -0.03090   11.82500    2.75800    0.08200   49.70650   74.06540    -999.25    -999.25   20.70580  -63.35930   36.77640    -999.25    -999.25    0.00200
 16650.00000    0.14010   10.57500    2.50600    0.07000   47.95300   78.44570    -999.25    -999.25   92.93010  -70.90200   61.98890    -999.25    -999.25    0.02400
 16700.00000    0.00880   12.20500    2.69800    0.02600   50.63990  117.01710    -999.25    -999.25  127.58540  -56.82780  111.66410    -999.25    -999.25    0.00800
 16750.00000    0.01060   10.95800    2.69600    0.06000   58.32500   88.25940    -999.25    -999.25   16.11110  -34.97690   10.21670    -999.25    -999.25    0.00500
 16800.00000    0.06100   11.18200    2.61000    0.07700   58.66180   98.13080    -999.25    -999.25    7.28390  -32.87710    8.35910    -999.25    -999.25   -0.00500
 16850.00000    0.01400   11.90200    2.69300    0.12900   64.28110  108.97370    -999.25    -999.25    8.84220  -32.06070    7.73990    -999.25    -999.25    0.01800
 16900.00000    0.01050   11.91200    2.69500    0.14200   60.84850  137.03270    -999.25    -999.25    6.82080  -28.75580    7.84280    -999.25    -999.25   -0.00900
 16950.00000    0.03440   12.45900    2.66700    0.14900   66.59680  119.27560    -999.25    -999.25    6.72350  -25.60650    6.19190    -999.25    -999.25    0.01300
 17000.00000    0.02900   12.32800    2.66200    0.16900   67.96780  127.23930    -999.25    -999.25    7.03700  -25.56770    5.57270    -999.25    -999.25   -0.00700
 17050.00000    0.01410   12.01500    2.69400    0.11400   58.87420  138.29560    -999.25    -999.25    7.91670  -25.41210    5.90810    -999.25    -999.25    0.00000
 17100.00000    0.02080   12.13700    2.65600    0.21400   71.86930  127.33560    -999.25    -999.25    5.21600  -23.07930    4.48910    -999.25    -999.25    0.00800
 17150.00000    0.02180   11.64200    2.67000    0.12500   65.49520  138.95470    -999.25    -999.25    6.48530  -22.45720    4.41180    -999.25    -999.25    0.01200
 17200.00000    0.01080   11.72900    2.69200    0.14200   59.81550  104.82870    -999.25    -999.25   10.55560  -26.12060    7.43030    -999.25    -999.25   -0.00300
 17250.00000    0.02400   11.93400    2.66500    0.08600   59.28660   97.89400    -999.25    -999.25   24.82430  -26.57810   14.90630    -999.25    -999.25   -0.03200
