~Version ---------------------------------------------------
VERS. 2.0 : CWLS log ASCII Standard -VERSION 2.0
WRAP. YES : MULTIPLE LINES PER DEPTH STEP
~Well ------------------------------------------------------
STRT.FT                   3850.0 : START DEPTH
STOP.FT                   8300.0 : STOP DEPTH
STEP.FT                 50.00000 : STEP LENGTH
NULL.                    -999.25 : NULL VALUE
COMP. CHAMPLIN PETROLEUM COMPANY : COMPANY
WELL.          J. F. GOODSON  #2 : WELL
FLD .                   GIDDINGS : FIELD
LOC .                            : LOCATION
CNTY.                   BURLESON : COUNTY
STAT.                      TEXAS : STATE
CTRY.   UNITED STATES OF AMERICA : COUNTRY
SRVC.               Schlumberger : SERVICE COMPANY
DATE.                15-May-1980 : LOGDATE
API .             42051306970000 : API NUMBER
UWI .             42051306970000 : UNIQUE WELL ID
SLAT.WGS84         30.4460373097 : SURFACE LATITUDE
SLON.WGS84        -96.6864923933 : SURFACE LONGITUDE
~Curve Information -----------------------------------------
DEPT    .FT    : DEPTH FEET
CALDED  .IN    : CALIPER FROM COMPENSATED NEUTRON FORMATION DENSITY
CALWS   .IN    : CALIPER [CALDED]
CONDWS  .MMHO  : CONDUCTIVITY [1000/DRESWS]
DCORWS  .G/C3  : DENSITY CORRECTION [DRHOED]
DENWS   .G/C3  : BULK DENSITY [M=2.71 F=1.0] [RHOBED]
DPHILSED.V/V   : DENSITY POROSITY [M=2.71 F=1.0] FROM CNFD LOG
DPHISSED.V/V   : DENSITY POROSITY [M=2.65 F=1.0] FROM CNFD LOG
DPOWS   .V/V   : DENSITY POROSITY [M=2.71 F=1.0] [CALCULATED FROM DENWS]
DRESWS  .OHMM  : DEEP RESISTIVITY [ILDED]
DRHOED  .G/C3  : DENSITY CORRECTION FROM COMPENSATED NEUTRON FORMATION DENSITY
DTED    .US/F  : DELTA TIME FROM DUAL INDUCTION-SFL-SONIC LOG
DTWS    .US/F  : DELTA TIME [DTED]
GRDED   .GAPI  : GAMMA RAY FROM COMPENSATED NEUTRON FORMATION DENSITY
GRRED   .GAPI  : GAMMA RAY FROM DUAL INDUCTION-SFL-SONIC LOG
GRWS    .GAPI  : GAMMA RAY [GRDED]
ILDED   .OHMM  : INDUCTION LOG DEEP RESISTIVITY FROM DUAL INDUCTION-SFL-SONIC LOG
ILMED   .OHMM  : INDUCTION LOG MEDIUM RESISTIVITY FROM DUAL INDUCTION-SFL-SONIC LOG
MRESWS  .OHMM  : MEDIUM RESISTIVITY [ILMED]
NPHILSED.V/V   : NEUTRON POROSITY LIMESTONE FROM COMPENSATED NEUTRON FORMATION DENSITY
NPHISSED.V/V   : NEUTRON POROSITY SANDSTONE FROM COMPENSATED NEUTRON FORMATION DENSITY
NPOWS   .V/V   : NEUTRON POROSITY [SPLICED NPHISSED CONVERTED TO LS/NPHILSED AT 6500']
RHOBED  .G/C3  : BULK DENSITY FROM DENSITY LOG
SFLUED  .OHMM  : SPHERICALLY FOCUSED LOG RESISTIVITY FROM DUAL INDUCTION-SFL-SONIC LOG
SPHIED  .V/V   : SONIC POROSITY FROM DENSITY SONIC LOG
SPOWS   .V/V   : SONIC POROSITY [SPHIED]
SPRED   .MV    : SPONTANEOUS POTENTIAL FROM DUAL INDUCTION-SFL-SONIC LOG
SPWS    .MV    : SPONTANEOUS POTENTIAL [BASELINE 0 MV] [SPRED]
SRESWS  .OHMM  : SHALLOW RESISTIVITY [SFLUED]
~Params ----------------------------------------------------
PD  .                     GL : PERMANENT DATUM
EPD .FT                  316 : ELEVATION PERMANENT DATUM
LMF .                     KB : LOG MEASURED FROM
DAPD.FT                   16 : FEET ABOVE PERMANENT DATUM
DMF .                     KB : DRILLING MEASURED FROM
EKB .FT                  232 : KELLY BUSHING
EDF .FT                  327 : DRILLING FLOOR
EGL .FT                  316 : GROUND LEVEL
DATE.               05/15/80 : RUN DATE
RUN .                      1 : RUN NUMBER
DD  .FT                 8301 : DEPTH DRILLER
DL  .FT                 8302 : DEPTH LOGGER
BLI .FT                 8296 : BOTTOM LOG INTERVAL
TLI .FT                 3870 : TOP LOG INTERVAL
CS  .IN                9.625 : CASING SIZE
CBD .FT                 3881 : CASING BOTTOM DRILLER
CBL .FT                 3870 : CASING BOTTOM LOGGER
BS  .IN                 8.75 : BIT SIZE
BSD .FT                 8301 : BIT SIZE AT DEPTH
DFT .                 BEN EX : DRILLING FLUID TYPE
DFD .                    9.7 : DRILLING FLUID DENSITY
DFV .                     49 : DRILLING FLUID VISCOSITY
DFPH.                    8.5 : DRILLING FLUID PH
DFL .                    6.4 : DRILLING FLUID LOSS
MSS .                   TANK : MUD SAMPLE SOURCE
RMS .OHMM               2.38 : RESISTIVITY MUD SAMPLE
MST .DEGF                102 : MUD SAMPLE TEMPERATURE
RMF .OHMM               1.79 : RESISTIVITY MUD FILTRATE SAMPLE
MFST.DEGF                102 : MUD FILTRATE SAMPLE TEMPERATURE
RMC .OHMM               3.58 : RESISTIVITY MUD CAKE
MCST.DEGF                102 : MUD CAKE SAMPLE TEMPERATURE
MFSS.                      M : MUD FILTRATE SAMPLE SOURCE
MCSS.                      C : MUD CAKE SAMPLE SOURCE
RMB .OHMM               1.28 : RESISTIVITY MUD AT BHT
TCS .HRS                 900 : TIME CIRCULATED STOPPED
TLAB.HRS                1530 : TIME LOGGER AT BOTTOM
LUN .                   8101 : LOGGING UNIT NUMBER
LUL .                   BREN : LOGGING UNIT LOCATION
ENGI.              GILLILAND : RECORDING ENGINEER
WITN.                  DAVIS : WITNESSED BY
CLNT.                A2DTECH : CLIENT CODE
ORIG.          1" 2.5" PRINT : ORIGIN OF DATA
UWI .         42051306970000 : UNIQUE WELL ID
DICO. A2D Technologies, Inc. : DIGITIZING COMPANY
~Other -----------------------------------------------------
~ASCII -----------------------------------------------------
# ...
 5100.00000   11.53030   11.53030 1114.08200    0.04640    2.36130    -999.25    0.17220    0.20390    0.89760    0.04640  110.99320  110.99320  105.23040  123.97050  123.97050    0.89760    0.86730    0.86730    -999.25    0.36070    0.36070    2.36130    1.03760    -999.25    -999.25   -6.72320   -0.42730    1.03760
 5150.00000   11.53930   11.53930  605.10710    0.06060    2.48300    -999.25    0.10120    0.13270    1.65260    0.06060   99.05130   99.05130   98.43800  121.82360  121.82360    1.65260    1.59160    1.59160    -999.25    0.31250    0.31250    2.48300    1.82640    -999.25    -999.25  -10.12330   -3.10520    1.82640
 5200.00000   11.91160   11.91160  649.98380    0.06960    2.48600    -999.25    0.09580    0.13100    1.53850    0.06960  102.13690  102.13690  105.25670  128.17060  128.17060    1.53850    1.48630    1.48630    -999.25    0.33700    0.33700    2.48600    1.72050    -999.25    -999.25   -9.60240   -1.86210    1.72050
 5250.00000   11.84630   11.84630  772.26040    0.15410    2.43180    -999.25    0.12960    0.16270    1.29490    0.15410  104.31470  104.31470   90.41340  110.93190  110.93190    1.29490    1.24900    1.24900    -999.25    0.41000    0.41000    2.43180    1.43880    -999.25    -999.25  -20.03560  -11.88440    1.43880
 5300.00000   12.33830   12.33830  795.22860    0.09520    2.43740    -999.25    0.12690    0.15940    1.25750    0.09520  107.29570  107.29570   91.11870  120.87850  120.87850    1.25750    1.30360    1.30360    -999.25    0.37300    0.37300    2.43740    1.51940    -999.25    -999.25  -15.43760   -6.94380    1.51940
 5350.00000   11.98950   11.98950  964.69230    0.05190    2.41920    -999.25    0.13770    0.17010    1.03660    0.05190  107.58660  107.58660  100.37130  116.14120  116.14120    1.03660    1.07450    1.07450    -999.25    0.39190    0.39190    2.41920    1.30230    -999.25    -999.25  -10.65300   -1.81660    1.30230
 5400.00000   10.81260   10.81260  644.37140    0.07380    2.50580    -999.25    0.08480    0.11940    1.55190    0.07380   98.13430   98.13430   91.94140  117.05840  117.05840    1.55190    1.62700    1.62700    -999.25    0.32470    0.32470    2.50580    1.71030    -999.25    -999.25  -11.08330   -2.02360    1.71030
 5450.00000   10.90060   10.90060  706.06510    0.12580    2.46830    -999.25    0.10150    0.14130    1.41630    0.12580   97.64880   97.64880   88.92290  114.21700  114.21700    1.41630    1.46480    1.46480    -999.25    0.34020    0.34020    2.46830    1.82110    -999.25    -999.25  -16.22420   -7.44960    1.82110
 5500.00000   11.96520   11.96520  902.20140    0.14580    2.47650    -999.25    0.10050    0.13650    1.10840    0.14580  107.77280  107.77280   97.06470  119.90130  119.90130    1.10840    1.07080    1.07080    -999.25    0.39940    0.39940    2.47650    1.30090    -999.25    -999.25  -15.15090   -6.66140    1.30090
 5550.00000   12.32560   12.32560  952.92550    0.09980    2.46620    -999.25    0.10840    0.14260    1.04940    0.09980  108.20580  108.20580   97.54480  125.82020  125.82020    1.04940    1.08660    1.08660    -999.25    0.36950    0.36950    2.46620    1.25700    -999.25    -999.25  -13.81650   -5.61210    1.25700
 5600.00000   11.84700   11.84700  977.89950    0.08140    2.45040    -999.25    0.11920    0.15180    1.02260    0.08140  108.42660  108.42660  108.60670  134.89000  134.89000    1.02260    1.05820    1.05820    -999.25    0.39400    0.39400    2.45040    1.28440    -999.25    -999.25  -14.20300   -6.28370    1.28440
 5650.00000   10.19100   10.19100  348.80880    0.04740    2.55690    -999.25    0.05350    0.08950    2.86690    0.04740   87.21470   87.21470   74.16370   96.26580   96.26580    2.86690    2.75070    2.75070    -999.25    0.25480    0.25480    2.55690    2.94970    -999.25    -999.25  -12.35850   -4.72430    2.94970
 5700.00000   11.01730   11.01730  838.01220    0.09460    2.45170    -999.25    0.11920    0.15110    1.19330    0.09460  100.06500  100.06500  106.47470  124.99760  124.99760    1.19330    1.14890    1.14890    -999.25    0.35770    0.35770    2.45170    1.33180    -999.25    -999.25  -11.93460   -4.58550    1.33180
 5750.00000   10.90620   10.90620  858.95890    0.09560    2.41440    -999.25    0.13790    0.17290    1.16420    0.09560  100.51850  100.51850  111.93680  138.84540  138.84540    1.16420    1.12080    1.12080    -999.25    0.32730    0.32730    2.41440    1.32720    -999.25    -999.25   -9.23070   -2.16670    1.32720
 5800.00000   10.24430   10.24430  541.15480    0.10950    2.51220    -999.25    0.08190    0.11570    1.84790    0.10950   90.34520   90.34520   90.19270  116.68350  116.68350    1.84790    1.78150    1.78150    -999.25    0.29220    0.29220    2.51220    2.04020    -999.25    -999.25  -13.50790   -6.31170    2.04020
 5850.00000   10.85120   10.85120  539.11260    0.09180    2.51750    -999.25    0.07810    0.11260    1.85490    0.09180   93.10590   93.10590   95.63800  112.16470  112.16470    1.85490    1.76840    1.76840    -999.25    0.30650    0.30650    2.51750    1.92910    -999.25    -999.25  -12.56390   -5.19910    1.92910
 5900.00000   11.45450   11.45450  775.43420    0.08440    2.47270    -999.25    0.10730    0.13880    1.28960    0.08440   95.79670   95.79670  108.04960  139.00480  139.00480    1.28960    1.21510    1.21510    -999.25    0.39360    0.39360    2.47270    1.36820    -999.25    -999.25  -11.31880   -3.78550    1.36820
 5950.00000   10.94640   10.94640  632.27110    0.09460    2.48940    -999.25    0.09490    0.12900    1.58160    0.09460   93.67700   93.67700  102.51400  125.50230  125.50230    1.58160    1.52800    1.52800    -999.25    0.35950    0.35950    2.48940    1.65800    -999.25    -999.25   -9.46110   -1.75930    1.65800
 6000.00000   10.32920   10.32920  910.74680    0.09210    2.36580    -999.25    0.16830    0.20130    1.09800    0.09210  101.57770  101.57770  154.18370  174.93490  174.93490    1.09800    1.05560    1.05560    -999.25    0.37600    0.37600    2.36580    1.23100    -999.25    -999.25   -9.55910   -1.68880    1.23100
 6050.00000   10.70630   10.70630  779.36250    0.11140    2.34820    -999.25    0.17730    0.21160    1.28310    0.11140  100.63040  100.63040  109.50610  127.24130  127.24130    1.28310    1.32800    1.32800    -999.25    0.39500    0.39500    2.34820    1.39300    -999.25    -999.25  -14.22080   -3.54440    1.39300
 6100.00000   10.74450   10.74450  874.43160    0.12170    2.32950    -999.25    0.19030    0.22250    1.14360    0.12170  102.54310  102.54310  109.55110  141.86770  141.86770    1.14360    1.16660    1.16660    -999.25    0.40440    0.40440    2.32950    1.27490    -999.25    -999.25  -13.79750   -3.87140    1.27490
 6150.00000    9.76490    9.76490  519.15690    0.19050    2.55630    -999.25    0.05430    0.08990    1.92620    0.19050   88.85050   88.85050   98.55950  123.12060  123.12060    1.92620    1.96500    1.96500    -999.25    0.28920    0.28920    2.55630    2.15570    -999.25    -999.25  -14.19370   -4.69810    2.15570
 6200.00000   10.07650   10.07650  625.58650    0.17920    2.51400    -999.25    0.08100    0.11460    1.59850    0.17920   93.93920   93.93920  124.13490  161.41010  161.41010    1.59850    1.63070    1.63070    -999.25    0.27140    0.27140    2.51400    1.86250    -999.25    -999.25  -11.19860   -1.77290    1.86250
 6250.00000   10.25430   10.25430  496.57360    0.15780    2.56800    -999.25    0.04690    0.08300    2.01380    0.15780   88.92430   88.92430  100.75260  129.21260  129.21260    2.01380    1.94590    1.94590    -999.25    0.26710    0.26710    2.56800    2.29200    -999.25    -999.25  -12.93990   -3.58410    2.29200
 6300.00000   11.78160   11.78160  511.79690    0.08120    2.49920    -999.25    0.08880    0.12330    1.95390    0.08120   97.04290   97.04290  107.29470  131.01970  131.01970    1.95390    1.88690    1.88690    -999.25    0.30460    0.30460    2.49920    1.81680    -999.25    -999.25  -11.36020   -2.07430    1.81680
