~Version ---------------------------------------------------
VERS. 2.0 : CWLS log ASCII Standard -VERSION 2.0
WRAP. YES : MULTIPLE LINES PER DEPTH STEP
~Well ------------------------------------------------------
STRT.FT                  300.0 : START DEPTH
STOP.FT                15250.0 : STOP DEPTH
STEP.FT               50.00000 : STEP LENGTH
NULL.                  -999.25 : NULL VALUE
COMP.  CONTINENTAL OIL COMPANY : COMPANY
WELL.    HALSELL FOUNDATION #1 : WELL
FLD .                  WILDCAT : FIELD
LOC .                          : LOCATION
CNTY.                 MAVERICK : COUNTY
STAT.                    TEXAS : STATE
CTRY. UNITED STATES OF AMERICA : COUNTRY
SRVC.             Schlumberger : SERVICE COMPANY
DATE.              02-Apr-1972 : LOGDATE
API .           42323300720000 : API NUMBER
UWI .           42323300720000 : UNIQUE WELL ID
SLAT.WGS84       28.6077848095 : SURFACE LATITUDE
SLON.WGS84     -100.3259081005 : SURFACE LONGITUDE
~Curve Information -----------------------------------------
DEPT    .FT    : DEPTH FEET
ALL8ED  .MV    : AMPLIFIED LATARLOG 8 FROM RES. LOG
ASNED   .OHMM  : 16 INCH AMPLIFIED SHORT NORMAL RESISTIVITY FROM IEL
CALDED  .IN    : CALIPER FROM DENSITY LOG, DEPTH ADJUSTED WITH [ILDED]
CALSED  .IN    : CALIPER FROM SONIC LOG, DEPTH ADJUSTED WITH [ILDED]
CALWS   .IN    : CALIPER [CALSED]
CILDED  .MMHO  : CONDUCTIVITY FROM RESISTIVITY LOG
CONDWS  .MMHO  : CONDUCTIVITY [1000/DRESWS]
DENWS   .G/C3  : BULK DENSITY [M=2.71 F=1.0] [CALCULATED FROM DPOWS]
DPHILSED.V/V   : DENSITY POROSITY [M=2.71 F=1.0] FROM DENSITY LOG, DEPTH ADJUSTED WITH [ILDED]
DPOWS   .V/V   : DENSITY POROSITY [DPHILSED]
DRESWS  .OHMM  : DEEP RESISTIVITY [ILDED] IF DRESWS<1;1000/CONDWS
DTED    .US/F  : DELTA TIME FROM SONIC LOG, DEPTH ADJUSTED WITH [ILDED]
DTWS    .US/F  : DELTA TIME [DTED]
GRDED   .GAPI  : GAMMA RAY FROM DENSITY LOG, DEPTH ADJUSTED WITH [ILDED]
GRRED   .GAPI  : GAMMA RAY FROM RESISTIVITY LOG
GRSED   .GAPI  : GAMMA RAY FROM SONIC LOG, DEPTH ADJUSTED WITH [ILDED]
GRWS    .GAPI  : GAMMA RAY [GRSED]
ILDED   .OHMM  : INDUCTION LOG DEEP RESISTIVITY
NPHILSED.V/V   : NEUTRON POROSITY LIMESTONE FROM DENSITY LOG, DEPTH ADJUSTED WITH [ILDED]
NPOWS   .V/V   : NEUTRON POROSITY SANDSTONE [NPHILSED]
SPRED   .MV    : SPONTANEOUS POTENTIAL FROM RESISTIVITY LOG
SPWS    .MV    : SPONTANEOUS POTENTIAL [BASELINE 0 MV] [SPRED]
SRESWS  .OHMM  : SHALLOW RESISTIVITY [ASNED], SPLICED WITH [ALL8ED] AT 8750'
~Params ----------------------------------------------------
PD  .                     GL : PERMANENT DATUM
EPD .F                 749.4 : ELEVATION PERMANENT DATUM
LMF .                     KB : LOG MEASURED FROM
DAPD.F                  25.2 : FEET ABOVE PERMANENT DATUM
DMF .                     KB : DRILLING MEASURED FROM
EKB .F                 775.4 : KELLING BUSHING
EDF .F                 774.6 : DRILLING FLOOR
EGL .F                 749.4 : GROUND LEVEL
DATE.               04/02/72 : RUN DATE
RUN .                      8 : RUN NUMBER
DD  .F                 15250 : DEPTH DRILLER
DL  .F                 15273 : DEPTH LOGGER
BLI .F                 15266 : BOTTOM LOG INTERVAL
TLI .F                 14800 : TOP LOG INTERVAL
CS  .IN                9.625 : CASING SIZE
CBD .F                  8736 : CASING BOTTOM DRILLER
CBL .F                  8748 : CASING BOTTOM LOGGER
BS  .IN                  8.5 : BIT SIZE
BSD .F                 15250 : BIT SIZE AT DEPTH
DFT .             LIGNO SULF : DRILLING FLUID TYPE
DFD .                   14.5 : DRILLING FLUID DENSITY
DFV .                     49 : DRILLING FLUID VISCOSITY
DFPH.                     12 : DRILLING FLUID PH
DFL .                    1.6 : DRILLING FLUID LOSS
MSS .               CIRC PIT : MUD SAMPLE SOURCE
RMS .OHMM               0.55 : RESISTIVITY MUD SAMPLE
MST .F                    75 : MUD SAMPLE TEMPERATURE
RMF .OHMM               0.17 : RESISTIVITY MUD FILTRATE SAMPLE
MFST.F                    75 : MUD FILTRATE SAMPLE TEMPERATURE
RMC .OHMM                1.1 : RESISTIVITY MUD CAKE
MCST.F                    75 : MUD CAKE SAMPLE TEMPERATURE
MFSS.                      M : MUD FILTRATE SAMPLE SOURCE
MCSS.                      C : MUD CAKE SAMPLE SOURCE
RMB .OHMM                0.1 : RESISTIVITY MUD AT BHT
TCS .HRS                 4.5 : TIME CURCULATED STOPPED
LUN .                   7029 : LOGGING UNIT NUMBER
LUL .                   VICT : LOGGING UNIT LOCATION
ENGI.               BRADFORD : RECORDING ENGINEER
CLNT.                A2DTECH : CLIENT CODE
ORIG.            2" 5" PRINT : ORIGIN OF DATA
UWI .         42323300720000 : UNIQUE WELL ID
DICO. A2D Technologies, Inc. : DIGITIZING COMPANY
~Other -----------------------------------------------------
~ASCII -----------------------------------------------------
# ...
 12700.00000   17.08180    -999.25   10.40900   10.08100   10.08100   68.93290   63.89980    2.69680    0.00770    0.00770   15.64950   61.69600   61.69600   82.18350    -999.25   84.03220   84.03220   15.64950    0.11760    0.11760   92.64450   -6.66100   17.08180
 12750.00000   17.67050    -999.25   10.59430    9.89260    9.89260   73.55450   66.31740    2.61820    0.05370    0.05370   15.07900   60.61300   60.61300   91.36360    -999.25   87.84820   87.84820   15.07900    0.10190    0.10190   92.52810   -6.56170   17.67050
 12800.00000   18.09530    -999.25   11.89360   10.04230   10.04230   68.62030   63.18040    2.53690    0.10120    0.10120   15.82770   57.67190   57.67190   75.58670    -999.25   39.90020   39.90020   15.82770    0.02540    0.02540   73.99770  -24.87630   18.09530
 12850.00000   17.00190    -999.25   10.46760    9.99690    9.99690   66.42990   60.27580    2.68330    0.01560    0.01560   16.59040   60.63630   60.63630   51.85440    -999.25   67.00580   67.00580   16.59040    0.08170    0.08170   86.35000  -12.30830   17.00190
 12900.00000   25.16240    -999.25   10.07830   10.04710   10.04710   47.43070   43.87580    2.69030    0.01150    0.01150   22.79160   58.23090   58.23090   75.50910    -999.25   80.42820   80.42820   22.79160    0.07360    0.07360   94.79420   -3.64830   25.16240
 12950.00000   22.32330    -999.25   11.43320   10.11610   10.11610   47.82020   42.10300    2.52160    0.11020    0.11020   23.75130   57.41000   57.41000   44.59070    -999.25   45.57060   45.57060   23.75130    0.05460    0.05460   85.94470  -12.28200   22.32330
 13000.00000   22.05470    -999.25    9.77760    9.90470    9.90470   55.09550   44.13300    2.70420    0.00340    0.00340   22.65880   63.50420   63.50420   63.81910    -999.25   80.38890   80.38890   22.65880    0.11720    0.11720   92.42500   -5.58600   22.05470
 13050.00000   15.28290    -999.25    9.57480    9.53510    9.53510   95.76480   95.21540    2.63490    0.04390    0.04390   10.50250   59.26280   59.26280   50.84470    -999.25   42.01240   42.01240   10.50250    0.03800    0.03800   74.80040  -23.32140   15.28290
 13100.00000   29.90970    -999.25    9.62880    9.54030    9.54030   44.84770   41.16890    2.96510   -0.14920   -0.14920   24.29020   54.06450   54.06450   62.31390    -999.25   75.66640   75.66640   24.29020    0.05120    0.05120   83.42410  -15.00870   29.90970
 13150.00000   31.92330    -999.25   11.23280    9.75860    9.75860   32.37030   31.32740    2.62770    0.04810    0.04810   31.92090   57.37460   57.37460   26.01390    -999.25   73.75550   73.75550   31.92090    0.00910    0.00910   79.00840  -19.73550   31.92330
 13200.00000   18.05800    -999.25   12.12400    9.91950    9.91950   86.00480   44.46640    2.63120    0.04610    0.04610   22.48890   65.04520   65.04520   78.70750    -999.25   82.68600   82.68600   22.48890    0.11210    0.11210   88.87420  -10.18070   18.05800
 13250.00000   39.76360    -999.25   10.22630    9.50040    9.50040   28.92250   24.07150    2.67140    0.02260    0.02260   41.54290   55.63590   55.63590   47.67820    -999.25   51.78520   51.78520   41.54290    0.03300    0.03300   83.70370  -15.66220   39.76360
 13300.00000   23.37780    -999.25   10.41390   10.18640   10.18640   53.49970   49.63100    2.70610    0.00230    0.00230   20.14870   60.49750   60.49750   73.10940    -999.25   75.17080   75.17080   20.14870    0.07400    0.07400   88.53610  -11.14080   23.37780
 13350.00000   40.45750    -999.25   10.22450    9.65920    9.65920   28.22770   25.60050    2.68160    0.01660    0.01660   39.06170   58.13040   58.13040   67.31370    -999.25   73.01460   73.01460   39.06170    0.04310    0.04310   86.38770  -13.60020   40.45750
 13400.00000   33.79950    -999.25    9.89790    9.71230    9.71230   37.95460   33.50930    2.67460    0.02070    0.02070   29.84250   55.01990   55.01990   53.52580    -999.25   53.44350   53.44350   29.84250    0.05070    0.05070   88.31310  -11.98590   33.79950
 13450.00000   22.60440    -999.25    9.88410    9.75230    9.75230   57.28480   52.37470    2.70130    0.00510    0.00510   19.09320   60.60390   60.60390   88.86500    -999.25   90.91000   90.91000   19.09320    0.09570    0.09570   90.07220  -10.53780   22.60440
 13500.00000   21.79280    -999.25   10.03050    9.76410    9.76410   51.82740   48.62110    2.72440   -0.00840   -0.00840   20.56720   59.93740   59.93740   81.66310    -999.25   84.25380   84.25380   20.56720    0.08400    0.08400   91.93150   -8.98950   21.79280
 13550.00000   33.76980    -999.25    9.73350    9.58550    9.58550   34.53420   30.05480    2.64180    0.03990    0.03990   33.27260   57.52070   57.52070   36.31920    -999.25   38.15160   38.15160   33.27260    0.01270    0.01270   87.04650  -14.18550   33.76980
 13600.00000   31.21290    -999.25    9.95310    9.72800    9.72800   43.41820   40.92890    2.73870   -0.01680   -0.01680   24.43260   59.53420   59.53420   75.21860    -999.25   84.65190   84.65190   24.43260    0.08430    0.08430   96.90580   -4.63720   31.21290
 13650.00000   33.62820    -999.25    9.90860   10.03590   10.03590   38.85440   34.34950    2.68200    0.01640    0.01640   29.11250   56.56360   56.56360   70.09480    -999.25   66.21820   66.21820   29.11250    0.05100    0.05100   96.41140   -5.44270   33.62820
 13700.00000   39.69370    -999.25    9.75340    9.54770    9.54770   25.92530   20.05330    2.66470    0.02650    0.02650   49.86710   53.78740   53.78740   38.62900    -999.25   38.92650   38.92650   49.86710    0.00750    0.00750   89.79460  -12.37050   39.69370
 13750.00000   41.06670    -999.25    9.19870    9.25480    9.25480   27.52900   21.25720    2.67260    0.02190    0.02190   47.04290   54.11680   54.11680   36.30820    -999.25   36.10690   36.10690   47.04290    0.01950    0.01950   90.48270  -11.99340   41.06670
 13800.00000   56.89260    -999.25    9.41030    9.30440    9.30440   28.16950   21.17760    2.68440    0.01500    0.01500   47.21960   54.04150   54.04150   35.62570    -999.25   46.69920   46.69920   47.21960    0.01740    0.01740   95.87500   -5.74930   56.89260
 13850.00000   31.21340    -999.25    9.56230    9.31340    9.31340   42.34650   38.15910    2.63820    0.04200    0.04200   26.20610   55.14920   55.14920   41.79250    -999.25   49.28790   49.28790   26.20610    0.01860    0.01860   91.25160   -7.77670   31.21340
 13900.00000   17.29180    -999.25    9.46440    9.40990    9.40990   60.37950   59.20170    2.64280    0.03930    0.03930   16.89140   57.25520   57.25520   26.04310    -999.25   28.17960   28.17960   16.89140    0.00260    0.00260   83.63320  -12.79910   17.29180
 13950.00000   22.84660    -999.25    9.73240    9.45230    9.45230   48.50850   44.94660    2.65610    0.03150    0.03150   22.24860   56.98660   56.98660   35.02720    -999.25   44.30190   44.30190   22.24860    0.00320    0.00320   86.29090   -7.54550   22.84660
 14000.00000   36.83520    -999.25   10.15810    9.66550    9.66550   33.97490   29.71040    2.67070    0.02300    0.02300   33.65830   59.60820   59.60820   42.56430    -999.25   52.61160   52.61160   33.65830    0.00140    0.00140   84.65030   -6.59010   36.83520
 14050.00000   46.36070    -999.25   10.29710    9.62280    9.62280   26.32920   22.00220    2.54160    0.09850    0.09850   45.44990   56.15940   56.15940   23.30240    -999.25   25.59450   25.59450   45.44990   -0.00630   -0.00630   70.91510  -17.72930   46.36070
 14100.00000   14.48250    -999.25    9.42900    9.48790    9.48790   87.95450   70.16460    2.49080    0.12820    0.12820   14.25220   56.85520   56.85520   38.84840    -999.25   36.00550   36.00550   14.25220    0.01620    0.01620   77.42400   -8.62440   14.48250
 14150.00000   25.23280    -999.25    9.41430    9.17960    9.17960   43.02660   39.11220    2.65220    0.03380    0.03380   25.56750   57.49170   57.49170   47.83480    -999.25   51.73810   51.73810   25.56750    0.00940    0.00940   76.40640   -6.19170   25.23280
 14200.00000   10.52240    -999.25    -999.25    9.23630    9.23630  111.06570   90.80590    -999.25    -999.25    -999.25   11.01250   58.64760   58.64760    -999.25    -999.25   66.09010   66.09010   11.01250    -999.25    -999.25   68.61580   -9.30280   10.52240
