~Version ---------------------------------------------------
VERS. 2.0 : CWLS log ASCII Standard -VERSION 2.0
WRAP. YES : MULTIPLE LINES PER DEPTH STEP
~Well ------------------------------------------------------
STRT.FT                   1000.0 : START DEPTH
STOP.FT                  11500.0 : STOP DEPTH
STEP.FT                 50.00000 : STEP LENGTH
NULL.                    -999.25 : NULL VALUE
COMP. KAISER-FRANCIS OIL COMPANY : COMPANY
WELL.            D.C. MCMANUS #1 : WELL
FLD .              AUSTIN PIERCE : FIELD
LOC .                            : LOCATION
CNTY.                   GONZALES : COUNTY
STAT.                      TEXAS : STATE
CTRY.   UNITED STATES OF AMERICA : COUNTRY
SRVC.               Schlumberger : SERVICE COMPANY
DATE.                01-Dec-1996 : LOGDATE
API .             42177320060000 : API NUMBER
UWI .             42177320060000 : UNIQUE WELL ID
SLAT.WGS84          29.374572664 : SURFACE LATITUDE
SLON.WGS84        -97.3289574079 : SURFACE LONGITUDE
~Curve Information -----------------------------------------
DEPT    .FT    : DEPTH FEET
AO10ED  .OHMM  : 10 INCH ARRAY RESISTIVITY ONE FOOT RESOLUTION
AO20ED  .OHMM  : 20 INCH ARRAY RESISTIVITY ONE FOOT RESOLUTION
AO30ED  .OHMM  : 30 INCH ARRAY RESISTIVITY ONE FOOT RESOLUTION
AO60ED  .OHMM  : 60 INCH ARRAY RESISTIVITY ONE FOOT RESOLUTION
AO90ED  .OHMM  : 90 INCH ARRAY RESISTIVITY ONE FOOT RESOLUTION
CALWS   .IN    : CALIPER [DCALED+BITED]
CONDWS  .MMHO  : CONDUCTIVITY [1000/DRESWS]
DCALRED .IN    : DIFFERENTIAL CALIPER FROM RESISTIVITY LOG
DCORWS  .G/C3  : DENSITY CORRECTION [HDRAED]
DENWS   .G/C3  : BULK DENSITY [M=2.71 F=1.0] [CALCULATED FROM DPOWS]
DPHZLSED.V/V   : DENSITY POROSITY [M=2.71 F=1.0] FROM DENSITY LOG
DPOWS   .V/V   : DENSITY POROSITY [M=2.71 F=1.0] [DPHZLSED]
DRESWS  .OHMM  : DEEP RESISTIVITY [AO90ED]
DTED    .US/F  : DELTA TIME FROM SONIC LOG
DTWS    .US/F  : DELTA TIME [DTED]
GRRED   .GAPI  : GAMMA RAY FROM RESISTIVITY LOG
GRWS    .GAPI  : GAMMA RAY [GRRED, CSG ABOVE 1070F]
HDRAED  .G/C3  : DENSITY CORRECTION FROM DENSITY LOG
MRESWS  .OHMM  : MEDIUM RESISTIVITY [AO30ED]
NPHILSED.V/V   : NEUTRON POROSITY LIMESTONE FROM DENSITY LOG
NPOWS   .V/V   : NEUTRON POROSITY LIMESTONE [NPHILSED]
SPRED   .MV    : SPONTANEOUS POTENTIAL FROM RESISTIVITY LOG
SPWS    .MV    : SPONTANEOUS POTENTIAL [BASELINE 0 MV] [SPRED]
SRESWS  .OHMM  : SHALLOW RESISTIVITY [AO10ED]
TENRED  .LBF   : TENSION FROM RESISTIVITY LOG
~Params ----------------------------------------------------
PD  .                     GL : PERMANENT DATUM
EPD .FT               257.26 : ELEVATION PERMANENT DATUM
LMF .                     KB : LOG MEASURED FROM
DAPD.FT                 16.3 : FEET ABOVE PERMANENT DATUM
DMF .                     KB : DRILLING MEASURED FROM
EKB .FT               275.58 : KELLY BUSHING
EDF .FT                  275 : DRILLING FLOOR
EGL .FT               257.26 : GROUND LEVEL
DATE.               12/01/96 : RUN DATE
RUN .                      1 : RUN NUMBER
DD  .FT                11530 : DEPTH DRILLER
DL  .FT                11500 : DEPTH LOGGER
BLI .FT                11500 : BOTTOM LOG INTERVAL
TLI .FT                 1070 : TOP LOG INTERVAL
CS  .IN                9.625 : CASING SIZE
CBD .FT                 1061 : CASING BOTTOM DRILLER
CBL .FT                 1070 : CASING BOTTOM LOGGER
BS  .IN                 8.75 : BIT SIZE
BSD .FT                11530 : BIT SIZE AT DEPTH
DFT .                 LOLIME : DRILLING FLUID TYPE
DFD .                   10.1 : DRILLING FLUID DENSITY
DFV .                     47 : DRILLING FLUID VISCOSITY
DFPH.                    9.5 : DRILLING FLUID PH
MSS .                MUD PIT : MUD SAMPLE SOURCE
RMS .OHMM               4.36 : RESISTIVITY MUD SAMPLE
MST .FT                   75 : MUD SAMPLE TEMPERATURE
RMF .OHMM                3.7 : RESISTIVITY MUD FILTRATE SAMPLE
MFST.FT                   75 : MUD FILTRATE SAMPLE TEMPERATURE
RMC .OHMM                6.5 : RESISTIVITY MUD CAKE
MCST.FT                   75 : MUD CAKE SAMPLE TEMPERATURE
MFSS.              MUD PRESS : MUD FILTRATE SAMPLE SOURCE
MCSS.                   CALC : MUD CAKE SAMPLE SOURCE
RMB .OHMM              1.515 : RESISTIVITY MUD AT BHT
TCS .HRS                 430 : TIME CURCULATED STOPPED
TLAB.HRS                 900 : TIME LOGGER AT BOTTOM
LUN .                   3075 : LOGGING UNIT NUMBER
LUL .               VICTORIA : LOGGING UNIT LOCATION
ENGI.                  NAHRI : RECORDING ENGINEER
WITN.                   RUSS : WITNESSED BY
CLNT.                A2DTECH : CLIENT CODE
ORIG.               5" PRINT : ORIGIN OF DATA
UWI .         42177320060000 : UNIQUE WELL ID
DICO. A2D Technologies, Inc. : DIGITIZING COMPANY
~Other -----------------------------------------------------
~ASCII -----------------------------------------------------
# ...
 2400.00000    0.77100    0.81970    0.82870    0.90750    0.91940    -999.25 1087.66590    -999.25    -999.25    -999.25    -999.25    -999.25    0.91940    -999.25    -999.25   85.09850   85.09850    -999.25    0.82870    -999.25    -999.25  -28.89380   -3.86680    0.77100 1477.42140
 2450.00000    0.58980    0.61210    0.66760    0.69220    0.69900    -999.25 1430.61510    -999.25    -999.25    -999.25    -999.25    -999.25    0.69900    -999.25    -999.25  124.39020  124.39020    -999.25    0.66760    -999.25    -999.25  -29.45000   -2.37330    0.58980 1489.62670
 2500.00000    0.90800    0.93260    0.93990    1.00920    1.02070    -999.25  979.71980    -999.25    -999.25    -999.25    -999.25    -999.25    1.02070    -999.25    -999.25  100.00510  100.00510    -999.25    0.93990    -999.25    -999.25  -33.47420   -4.17820    0.90800 1497.35180
 2550.00000    0.81300    0.85460    0.86220    0.92370    0.93240    -999.25 1072.50110    -999.25    -999.25    -999.25    -999.25    -999.25    0.93240    -999.25    -999.25  114.89350  114.89350    -999.25    0.86220    -999.25    -999.25  -38.35290   -6.83750    0.81300 1572.84280
 2600.00000    0.88940    0.92440    0.96090    1.08960    1.11030    -999.25  900.65750    -999.25    -999.25    -999.25    -999.25    -999.25    1.11030    -999.25    -999.25   90.58430   90.58430    -999.25    0.96090    -999.25    -999.25  -39.17830   -5.44360    0.88940 1525.88000
 2650.00000    1.00990    1.06370    1.10580    1.19840    1.21000    -999.25  826.44620    -999.25    -999.25    -999.25    -999.25    -999.25    1.21000    -999.25    -999.25  101.34660  101.34660    -999.25    1.10580    -999.25    -999.25  -38.50080   -2.54680    1.00990 1540.89830
 2700.00000    1.14820    1.21010    1.31130    1.31020    1.32330    -999.25  755.68650    -999.25    -999.25    -999.25    -999.25    -999.25    1.32330    -999.25    -999.25   87.43850   87.43850    -999.25    1.31130    -999.25    -999.25  -39.34780   -1.81310    1.14820 1542.06470
 2750.00000    2.01380    1.88510    1.79290    1.70550    1.65070    -999.25  605.80360    -999.25    -999.25    -999.25    -999.25    -999.25    1.65070    -999.25    -999.25  107.86820  107.86820    -999.25    1.79290    -999.25    -999.25  -51.64140  -13.94760    2.01380 1556.74770
 2800.00000    1.16150    1.23430    1.30650    1.40960    1.42310    -999.25  702.69130    -999.25    -999.25    -999.25    -999.25    -999.25    1.42310    -999.25    -999.25   94.03020   94.03020    -999.25    1.30650    -999.25    -999.25  -49.66590  -11.81290    1.16150 1562.44490
 2850.00000    1.43480    1.44290    1.56210    1.63840    1.73830    -999.25  575.27470    -999.25    -999.25    -999.25    -999.25    -999.25    1.73830    -999.25    -999.25  105.96040  105.96040    -999.25    1.56210    -999.25    -999.25  -44.14990   -6.13780    1.43480 1585.59360
 2900.00000    1.50600    1.43320    1.35830    1.33820    1.28630    -999.25  777.42360    -999.25    -999.25    -999.25    -999.25    -999.25    1.28630    -999.25    -999.25   87.83640   87.83640    -999.25    1.35830    -999.25    -999.25  -47.29210   -9.12090    1.50600 1580.67800
 2950.00000    0.79500    0.82260    0.82940    0.85340    0.86810    -999.25 1151.94100    -999.25    -999.25    -999.25    -999.25    -999.25    0.86810    -999.25    -999.25  104.23120  104.23120    -999.25    0.82940    -999.25    -999.25  -38.29140    0.03890    0.79500 1596.03380
 3000.00000    1.70140    1.62830    1.46760    1.27550    1.26100    -999.25  793.02140    -999.25    -999.25    -999.25    -999.25    -999.25    1.26100    -999.25    -999.25   84.34060   84.34060    -999.25    1.46760    -999.25    -999.25  -55.38150  -16.89200    1.70140 1616.78260
 3050.00000    0.80200    0.79020    0.77700    0.72710    0.71870    -999.25 1391.40110    -999.25    -999.25    -999.25    -999.25    -999.25    0.71870    -999.25    -999.25   88.82750   88.82750    -999.25    0.77700    -999.25    -999.25  -39.14590   -0.49730    0.80200 1599.83940
 3100.00000    1.53650    1.45970    1.38650    1.25780    1.24620    -999.25  802.43950    -999.25    -999.25    -999.25    -999.25    -999.25    1.24620    -999.25    -999.25  100.92540  100.92540    -999.25    1.38650    -999.25    -999.25  -54.79920  -15.58560    1.53650 1582.58090
 3150.00000    1.19210    1.24730    1.26060    1.32220    1.33550    -999.25  748.78320    -999.25    -999.25    -999.25    -999.25    -999.25    1.33550    -999.25    -999.25  102.12270  102.12270    -999.25    1.26060    -999.25    -999.25  -45.66090   -5.86540    1.19210 1619.98580
 3200.00000    0.96390    1.01880    1.02790    1.08140    1.09270    -999.25  915.16420    -999.25    -999.25    -999.25    -999.25    -999.25    1.09270    -999.25    -999.25   85.88040   85.88040    -999.25    1.02790    -999.25    -999.25  -44.49650   -4.11910    0.96390 1642.71250
 3250.00000    0.98080    1.06160    1.07330    1.07290    1.08650    -999.25  920.38650    -999.25    -999.25    -999.25    -999.25    -999.25    1.08650    -999.25    -999.25  109.06790  109.06790    -999.25    1.07330    -999.25    -999.25  -42.28000   -1.32080    0.98080 1618.28550
 3300.00000    1.73460    1.81950    1.86540    1.92330    1.94250    -999.25  514.80050    -999.25    -999.25    -999.25    -999.25    -999.25    1.94250    -999.25    -999.25   96.37660   96.37660    -999.25    1.86540    -999.25    -999.25  -47.69160   -6.16200    1.73460 1636.06520
 3350.00000    1.34050    1.32580    1.31250    1.29130    1.28060    -999.25  780.88400    -999.25    -999.25    -999.25    -999.25    -999.25    1.28060    -999.25    -999.25  109.40000  109.40000    -999.25    1.31250    -999.25    -999.25  -49.00440   -6.90520    1.34050 1637.68130
 3400.00000    2.19270    2.09600    2.01620    1.91530    1.87650    -999.25  532.90700    -999.25    -999.25    -999.25    -999.25    -999.25    1.87650    -999.25    -999.25  104.59130  104.59130    -999.25    2.01620    -999.25    -999.25  -47.85240   -5.18360    2.19270 1678.03650
 3450.00000    1.20310    1.15890    1.11340    1.06630    1.04900    -999.25  953.28880    -999.25    -999.25    -999.25    -999.25    -999.25    1.04900    -999.25    -999.25  124.40030  124.40030    -999.25    1.11340    -999.25    -999.25  -48.08760   -4.84920    1.20310 1671.43810
 3500.00000    1.41990    1.43460    1.44860    1.44890    1.46610    -999.25  682.08170    -999.25    -999.25    -999.25    -999.25    -999.25    1.46610    -999.25    -999.25   77.61630   77.61630    -999.25    1.44860    -999.25    -999.25  -50.40560   -6.59760    1.41990 1652.80370
 3550.00000    1.14530    1.17740    1.20040    1.30700    1.32790    -999.25  753.06870    -999.25    -999.25    -999.25    -999.25    -999.25    1.32790    -999.25    -999.25   88.67870   88.67870    -999.25    1.20040    -999.25    -999.25  -48.94270   -4.56510    1.14530 1668.44060
 3600.00000    1.34530    1.30590    1.23750    1.27330    1.24030    -999.25  806.25650    -999.25    -999.25    -999.25    -999.25    -999.25    1.24030    -999.25    -999.25   85.98720   85.98720    -999.25    1.23750    -999.25    -999.25  -49.74640   -4.79920    1.34530 1738.46350
 3650.00000    1.08440    1.13210    1.14630    1.23990    1.25630    -999.25  795.98820    -999.25    -999.25    -999.25    -999.25    -999.25    1.25630    -999.25    -999.25   87.37860   87.37860    -999.25    1.14630    -999.25    -999.25  -47.55020   -2.03340    1.08440 1731.00670
 3700.00000    0.65430    0.68510    0.69160    0.75360    0.77090    -999.25 1297.18510    -999.25    -999.25    -999.25    -999.25    -999.25    0.77090    -999.25    -999.25   86.84930   86.84930    -999.25    0.69160    -999.25    -999.25  -48.17960   -2.09320    0.65430 1704.45950
 3750.00000    0.81290    0.87220    0.89070    0.93380    0.96030    -999.25 1041.34120    -999.25    -999.25    -999.25    -999.25    -999.25    0.96030    -999.25    -999.25   95.44420   95.44420    -999.25    0.89070    -999.25    -999.25  -49.24880   -2.59280    0.81290 1693.91540
