~Version ---------------------------------------------------
VERS.      2.0 : CWLS log ASCII Standard -VERSION 2.0
WRAP.       NO : One line per depth step
CREA. 01/14/16 : LAS Creation Date
~Well ------------------------------------------------------
STRT.FT                 1850.0 : START DEPTH
STOP.FT                10350.0 : STOP DEPTH
STEP.FT               50.00000 : STEP LENGTH
NULL.                  -999.25 : NULL VALUE
COMP.       BRG LONE STAR, LTD : COMPANY
WELL.      ELLISON GAS UNIT #2 : WELL
FLD .               BEAR GRASS : FIELD
LOC .                          : LOCATION
CNTY.                     LEON : COUNTY
STAT.                    TEXAS : STATE
CTRY. UNITED STATES OF AMERICA : COUNTRY
SRVC.              Weatherford : SERVICE COMPANY
DATE.              23-Jun-2010 : LOGDATE
API .           42289318670000 : API NUMBER
UWI .           42289318670000 : UNIQUE WELL ID
SLAT.WGS84       31.3769769316 : SURFACE LATITUDE
SLON.WGS84      -96.1967743319 : SURFACE LONGITUDE
~Curve Information -----------------------------------------
DEPT  .FT    : Depth Curve
CONDWS.MMHO  : CONDUCTIVITY [1000/DRESWS]
DRESWS.OHMM  : DEEP RESISTIVITY [ILDED]
GRRED .GAPI  : GAMMA RAY FROM AIT-RSFE LOG
GRWS  .GAPI  : GAMMA RAY [GRRED]
ILDED .OHMM  : DEEP INDUCTION RESISTIVITY FROM AIT-RSFE LOG
ILMED .OHMM  : MEDIUM INDUCTION RESISTIVITY FROM AIT-RSFE LOG
MRESWS.OHMM  : MEDIUM RESISTIVITY [ILMED]
SFEED .OHMM  : SHALLOW FOCUSED ELECTRIC LOG FROM AIT-RSFE LOG
SPRED .MV    : SPONTANEOUS POTENTIAL FROM AIT-RSFE LOG
SPWS  .MV    : SPONTANEOUS POTENTIAL [BASELINE 0 MV, SPRED]
SRESWS.OHMM  : SHALLOW RESISTIVITY [SFEED]
TENRED.LBF   : TENSION FROM AIT-RSFE LOG
~Params ----------------------------------------------------
PD  .                     GL : PERMANENT DATUM
EPD .FT                  488 : ELEVATION PERMANENT DATUM
LMF .                     KB : LOG MEASURED FROM
DAPD.FT                 14.6 : FEET ABOVE PERMANENT DATUM
DMF .                     KB : DRILLING MEASURED FROM
EKB .FT                502.6 : KELLY BUSHING
EDF .FT                501.6 : DRILLING FLOOR
EGL .FT                  488 : GROUND LEVEL
DATE.               06/23/10 : RUN DATE
RUN .                      1 : RUN NUMBER
DD  .FT                10400 : DEPTH DRILLER
DL  .FT                10398 : DEPTH LOGGER
BLI .FT                10397 : BOTTOM LOG INTERVAL
TLI .FT                 1893 : TOP LOG INTERVAL
CS  .IN                8.625 : CASING SIZE
CBD .FT                 1893 : CASING BOTTOM DRILLER
CBL .FT                 1893 : CASING BOTTOM LOGGER
BS  .IN                7.875 : BIT SIZE
BSD .FT                10400 : BIT SIZE AT DEPTH
DFT .             WATER BASE : DRILLING FLUID TYPE
DFD .                   10.6 : DRILLING FLUID DENSITY
DFV .                     43 : DRILLING FLUID VISCOSITY
DFPH.                      8 : DRILLING FLUID PH
DFL .                   14.1 : DRILLING FLUID LOSS
MSS .                MUD PIT : MUD SAMPLE SOURCE
RMS .OHMM               0.79 : RESISTIVITY MUD SAMPLE
MST .DEGF                 82 : MUD SAMPLE TEMPERATURE
RMF .OHMM               0.59 : RESISTIVITY MUD FILTRATE SAMPLE
MFST.DEGF                 82 : MUD FILTRATE SAMPLE TEMPERATURE
RMC .OHMM               0.98 : RESISTIVITY MUD CAKE
MCST.DEGF                 82 : MUD CAKE SAMPLE TEMPERATURE
MFSS.                   CALC : MUD FILTRATE SAMPLE SOURCE
MCSS.                   CALC : MUD CAKE SAMPLE SOURCE
RMB .OHMM               0.26 : RESISTIVITY MUD AT BHT
TCS .HRS                   6 : TIME CIRCULATED STOPPED
LUN .                  13097 : LOGGING UNIT NUMBER
LUL .                  TYLER : LOGGING UNIT LOCATION
ENGI.                 PORTER : RECORDING ENGINEER
WITN.                  FLYNN : WITNESSED BY
CLNT.                A2DTECH : CLIENT CODE
ORIG.               2" PRINT : ORIGIN OF DATA
UWI .         42289318670000 : UNIQUE WELL ID
DICO. A2D Technologies, Inc. : DIGITIZING COMPANY
~Other -----------------------------------------------------
AIT-RSFE LOG RUN
INDUCTION TOOL FAILED ON BOTTOM
~ASCII -----------------------------------------------------
 1850.00000    -999.25    -999.25   59.86180   59.86180    -999.25    -999.25    -999.25    -999.25    -999.25    -999.25    -999.25    -999.25
 1900.00000  628.93080    1.59000   80.99700   80.99700    1.59000    2.59300    2.59300    2.05710  -57.83740   -3.57510    2.05710  999.87380
 1950.00000  680.92060    1.46860   85.41080   85.41080    1.46860    2.31880    2.31880    2.08370  -62.14250   -7.88020    2.08370 1039.85730
 2000.00000  668.49390    1.49590   93.33620   93.33620    1.49590    2.38300    2.38300    2.20010  -61.48640   -7.22410    2.20010 1000.11740
 2050.00000  693.24090    1.44250  100.97850  100.97850    1.44250    2.33120    2.33120    2.16930  -60.50490   -6.24260    2.16930  988.58790
 2100.00000  910.91270    1.09780   93.98790   93.98790    1.09780    1.77510    1.77510    1.70400  -59.71830   -5.45600    1.70400 1040.39940
 2150.00000  851.49860    1.17440   85.73230   85.73230    1.17440    1.77510    1.77510    1.72390  -59.36500   -5.10270    1.72390 1065.98010
 2200.00000  827.47210    1.20850   84.22830   84.22830    1.20850    1.80280    1.80280    1.69480  -58.11770   -3.85540    1.69480 1102.06480
 2250.00000  752.84200    1.32830  106.73260  106.73260    1.32830    2.05100    2.05100    1.97450  -59.07570   -4.81340    1.97450 1122.21510
 2300.00000  853.82510    1.17120   97.47780   97.47780    1.17120    1.72920    1.72920    1.67180  -56.85460   -3.33400    1.67180 1120.72670
 2350.00000  584.11210    1.71200   92.41460   92.41460    1.71200    3.19850    3.19850    2.55160  -61.37890   -9.07420    2.55160 1121.00220
 2400.00000  647.71030    1.54390   98.25590   98.25590    1.54390    2.72500    2.72500    2.34350  -58.67380   -7.58510    2.34350 1118.39670
 2450.00000  603.20910    1.65780   92.45210   92.45210    1.65780    2.55900    2.55900    2.36800  -57.34550   -7.47270    2.36800 1153.62120
 2500.00000 1081.08110    0.92500   73.33080   73.33080    0.92500    3.07870    3.07870    1.76810  -54.03440   -5.37750    1.76810 1162.79810
 2550.00000 1221.89640    0.81840   74.08300   74.08300    0.81840    1.74470    1.74470    1.38850  -50.08710   -2.64610    1.38850 1207.87180
 2600.00000 1390.82060    0.71900   77.48610   77.48610    0.71900    1.16250    1.16250    1.00700  -49.86240   -3.42430    1.00700 1213.56930
 2650.00000  906.61830    1.10300   83.09020   83.09020    1.10300    1.61700    1.61700    1.56550  -53.74100   -7.87300    1.56550 1200.17710
 2700.00000 1108.89330    0.90180   92.21580   92.21580    0.90180    1.33270    1.33270    1.30400  -49.33140   -4.03360    1.30400 1265.54630
 2750.00000 1582.77940    0.63180   89.98090   89.98090    0.63180    1.79580    1.79580    1.19710  -50.64850   -5.92090    1.19710 1236.28140
 2800.00000  888.25720    1.12580   75.91150   75.91150    1.12580    3.21910    3.21910    2.06990  -56.47700  -12.31960    2.06990 1285.57900
 2850.00000  506.14970    1.97570   66.57390   66.57390    1.97570    4.76690    4.76690    3.12560  -54.80500  -11.21780    3.12560 1279.81400
 2900.00000  812.87600    1.23020   76.08640   76.08640    1.23020    1.98210    1.98210    1.57180  -49.66860   -6.65160    1.57180 1278.45830
 2950.00000 1405.28390    0.71160   86.00120   86.00120    0.71160    2.21100    2.21100    1.30670  -44.79990   -2.35310    1.30670 1327.10120
 3000.00000 1329.25690    0.75230  113.59530  113.59530    0.75230    1.44090    1.44090    1.06990  -43.45590   -1.57930    1.06990 1323.45370
 3050.00000 1163.60250    0.85940   96.90030   96.90030    0.85940    2.77480    2.77480    1.51220  -46.69710   -4.59500    1.51220 1360.68350
 3100.00000 1082.95430    0.92340   75.11010   75.11010    0.92340    2.96200    2.96200    1.66150  -48.09820   -5.73740    1.66150 1303.91850
 3150.00000 1374.57040    0.72750  102.28360  102.28360    0.72750    2.27850    2.27850    1.30660  -47.79760   -5.17810    1.30660 1365.71070
 3200.00000 1621.27110    0.61680   98.19400   98.19400    0.61680    1.86980    1.86980    1.10870  -44.87050   -2.25240    1.10870 1367.71500
 3250.00000  968.80450    1.03220   94.69600   94.69600    1.03220    1.51340    1.51340    1.36320  -48.11500   -6.20130    1.36320 1402.68990
 3300.00000 1465.20150    0.68250   86.90870   86.90870    0.68250    2.07020    2.07020    1.28840  -44.86680   -3.65750    1.28840 1405.99040
 3350.00000 1421.06010    0.70370  105.37580  105.37580    0.70370    2.17770    2.17770    1.34990  -41.86500   -1.36020    1.34990 1436.85850
 3400.00000 1520.91250    0.65750   93.25260   93.25260    0.65750    2.02770    2.02770    1.26870  -43.35320   -3.55280    1.26870 1440.07320
 3450.00000 1818.51250    0.54990  111.61290  111.61290    0.54990    1.64680    1.64680    1.03090  -42.35350   -3.25750    1.03090 1444.01170
 3500.00000 1440.29960    0.69430  101.16860  101.16860    0.69430    2.12100    2.12100    1.32830  -44.34020   -4.86700    1.32830 1444.81540
 3550.00000 1395.08930    0.71680   97.56350   97.56350    0.71680    1.70960    1.70960    1.26140  -45.02470   -4.98330    1.26140 1483.19400
 3600.00000 1484.34020    0.67370   90.33530   90.33530    0.67370    2.20320    2.20320    1.33780  -45.17710   -4.56760    1.33780 1473.19030
 3650.00000 1497.00600    0.66800   94.94110   94.94110    0.66800    2.04570    2.04570    1.26920  -43.90100   -2.72330    1.26920 1515.61450
 3700.00000    0.50000 2000.00000   88.79090   88.79090 2000.00000 2000.00000 2000.00000    1.15270  -43.71230   -1.96640    1.15270 1519.88530
 3750.00000   25.02870   39.95420   69.13410   69.13410   39.95420 2000.00000 2000.00000    2.82770  -73.78820  -32.10980    2.82770 1523.39700
 3800.00000   20.62660   48.48100   73.34500   73.34500   48.48100 2000.00000 2000.00000    3.89850  -70.79600  -29.33420    3.89850 1577.57950
 3850.00000   18.34750   54.50340   98.40750   98.40750   54.50340 2000.00000 2000.00000    2.08530  -47.45470   -6.20940    2.08530 1600.16370
 3900.00000   17.74800   56.34430  103.56200  103.56200   56.34430 2000.00000 2000.00000    1.82500  -44.34470   -3.31600    1.82500 1578.97800
 3950.00000   14.08080   71.01870   97.78990   97.78990   71.01870 2000.00000 2000.00000    1.60340  -42.70400   -1.89190    1.60340 1564.36620
 4000.00000   15.68120   63.77070  100.28080  100.28080   63.77070 2000.00000 2000.00000    1.84390  -43.83950   -3.24390    1.84390 1639.66030
 4050.00000   19.30510   51.79990   93.19930   93.19930   51.79990 2000.00000 2000.00000    1.77780  -42.95820   -2.57920    1.77780 1643.39250
 4100.00000   21.46460   46.58840   88.20330   88.20330   46.58840 2000.00000 2000.00000    2.06380  -46.61320   -6.45080    2.06380 1660.56360
 4150.00000    3.12860  319.62950  100.71960  100.71960  319.62950 2000.00000 2000.00000    1.63970  -43.92340   -3.97750    1.63970 1604.36330
 4200.00000    0.50170 1993.06600   90.73140   90.73140 1993.06600 2000.00000 2000.00000    1.57230  -45.20120   -5.47190    1.57230 1680.11350
 4250.00000    6.27890  159.26410   99.72270   99.72270  159.26410 2000.00000 2000.00000    1.50390  -44.03380   -4.52100    1.50390 1721.01100
 4300.00000   10.22530   97.79650   89.60210   89.60210   97.79650 2000.00000 2000.00000    1.39690  -45.55700   -6.26080    1.39690 1732.33260
 4350.00000    0.50000 2000.00000  100.27640  100.27640 2000.00000 2000.00000 2000.00000    1.40240  -44.82670   -5.74710    1.40240 1690.27320
 4400.00000   33.39340   29.94600   84.52740   84.52740   29.94600 2000.00000 2000.00000    1.35160  -44.46520   -5.60210    1.35160 1738.97200
 4450.00000    6.98000  143.26750   95.37300   95.37300  143.26750  884.08710  884.08710    1.34820  -42.66470   -4.01820    1.34820 1785.12520
 4500.00000    0.50000 2000.00000   69.33530   69.33530 2000.00000 2000.00000 2000.00000    3.13780  -46.70880   -8.27890    3.13780 1760.23230
 4550.00000    0.50000 2000.00000   95.31030   95.31030 2000.00000 2000.00000 2000.00000    1.69480  -42.39430   -4.18090    1.69480 1802.86270
 4600.00000    0.50000 2000.00000   98.21830   98.21830 2000.00000 2000.00000 2000.00000    1.59520  -40.60720   -2.60560    1.59520 1822.31380
