~Version ---------------------------------------------------
VERS. 2.0 : CWLS log ASCII Standard -VERSION 2.0
WRAP. YES : MULTIPLE LINES PER DEPTH STEP
~Well ------------------------------------------------------
STRT.FT                 1000.0 : START DEPTH
STOP.FT                10200.0 : STOP DEPTH
STEP.FT               50.00000 : STEP LENGTH
NULL.                  -999.25 : NULL VALUE
COMP.          TEXAS CRUDE INC : COMPANY
WELL.                KILLAM #1 : WELL
FLD .          STUART CITY, W. : FIELD
LOC .                          : LOCATION
CNTY.                 LA SALLE : COUNTY
STAT.                    TEXAS : STATE
CTRY. UNITED STATES OF AMERICA : COUNTRY
SRVC.             Schlumberger : SERVICE COMPANY
DATE.              15-Jun-1994 : LOGDATE
API .           42283315470000 : API NUMBER
UWI .           42283315470000 : UNIQUE WELL ID
SLAT.WGS84       28.1852380975 : SURFACE LATITUDE
SLON.WGS84      -99.3650729919 : SURFACE LONGITUDE
~Curve Information -----------------------------------------
DEPT    .FT    : DEPTH FEET
CALDED  .IN    : CALIPER FROM DENSITY LOG
CALWS   .IN    : CALIPER [CALDED]
CONDWS  .MMHO  : CONDUCTIVITY [1000/DRESWS]
DCORWS  .G/C3  : DENSITY CORRECTION [DRHOED]
DENWS   .G/C3  : BULK DENSITY [M=2.71 F=1.0] [CALCULATED FROM DPOWS]
DPHILSED.V/V   : DENSITY POROSITY LIMESTONE FROM DENSITY LOG
DPOWS   .V/V   : DENSITY POROSITY [M=2.71 F=1.0] [DPHILSED]
DRESWS  .OHMM  : DEEP RESISTIVITY [IDPHED]
DRHOED  .G/C3  : DENSITY CORRECTION FROM DENSITY LOG
GRDED   .GAPI  : GAMMA RAY FROM DENSITY LOG
GRRED   .GAPI  : GAMMA RAY FROM RESISTIVITY LOG
GRWS    .GAPI  : GAMMA RAY [GRRED]
IDPHED  .OHMM  : INDUCTION DEEP PHASE RESISTIVITY
IMPHED  .OHMM  : INDUCTION MEDIUM PHASE RESISTIVITY
MRESWS  .OHMM  : MEDIUM RESISTIVITY [IMPHED]
NPHILSED.V/V   : NEUTRON POROSITY LIMESTONE FROM DENSITY LOG
NPOWS   .V/V   : NEUTRON POROSITY LIMESTONE [NPHILSED]
RHOBED  .G/C3  : BULK DENSITY FROM DENSITY LOG [NOT USED FOR WSR]
SFLUED  .OHMM  : SPHERICALLY FOCUSED LOG RESISTIVITY
SPRED   .MV    : SPONTANEOUS POTENTIAL FROM RESISTIVITY LOG
SPWS    .MV    : SPONTANEOUS POTENTIAL [BASELINE 0 MV] [SPRED]
SRESWS  .OHMM  : SHALLOW RESISTIVITY [SFLUED]
TENDED  .LBF   : TENSION FROM DENSITY LOG
TENRED  .LBF   : TENSION FROM RESISTIVITY LOG
~Params ----------------------------------------------------
PD  .                     GL : PERMANENT DATUM
EPD .F                 510.4 : ELEVATION PERMANENT DATUM
LMF .                     KB : LOG MEASURED FROM
DAPD.F                    17 : FEET ABOVE PERMANENT DATUM
DMF .                     KB : DRILLING MEASURED FROM
EKB .F                 527.4 : KELLING BUSHING
EDF .F                 256.4 : DRILLING FLOOR
EGL .F                 510.4 : GROUND LEVEL
DATE.               06/15/94 : RUN DATE
RUN .                      1 : RUN NUMBER
DD  .F                 10239 : DEPTH DRILLER
DL  .F                 10220 : DEPTH LOGGER
BLI .F                 10215 : BOTTOM LOG INTERVAL
TLI .F                  1116 : TOP LOG INTERVAL
CS  .IN                9.625 : CASING SIZE
CBD .F                  1120 : CASING BOTTOM DRILLER
CBL .F                  1116 : CASING BOTTOM LOGGER
BS  .IN                 8.75 : BIT SIZE
BSD .F                 10239 : BIT SIZE AT DEPTH
DFT .                    CLS : DRILLING FLUID TYPE
DFD .                   12.2 : DRILLING FLUID DENSITY
DFV .                     48 : DRILLING FLUID VISCOSITY
DFPH.                    4.8 : DRILLING FLUID PH
DFL .                     10 : DRILLING FLUID LOSS
MSS .        CIRCULATING PIT : MUD SAMPLE SOURCE
RMS .OHMM               1.64 : RESISTIVITY MUD SAMPLE
MST .F                    96 : MUD SAMPLE TEMPERATURE
RMF .OHMM               1.51 : RESISTIVITY MUD FILTRATE SAMPLE
MFST.F                    80 : MUD FILTRATE SAMPLE TEMPERATURE
RMC .OHMM               2.46 : RESISTIVITY MUD CAKE
MCST.F                    96 : MUD CAKE SAMPLE TEMPERATURE
MFSS.               MEASURED : MUD FILTRATE SAMPLE SOURCE
MCSS.             CALCULATED : MUD CAKE SAMPLE SOURCE
RMB .OHMM              0.727 : RESISTIVITY MUD AT BHT
TCS .HRS                1100 : TIME CURCULATED STOPPED
TLAB.HRS                1645 : TIME LOGGER AT BOTTOM
LUN .                   2023 : LOGGING UNIT NUMBER
LUL .              LAREDO TX : LOGGING UNIT LOCATION
ENGI.           J T STUBHART : RECORDING ENGINEER
WITN.           DOUG O BRIEN : WITNESSED BY
CLNT.                A2DTECH : CLIENT CODE
ORIG.               5" PRINT : ORIGIN OF DATA
UWI .         42283315470000 : UNIQUE WELL ID
DICO. A2D Technologies, Inc. : DIGITIZING COMPANY
~Other -----------------------------------------------------
~ASCII -----------------------------------------------------
# ...
 2450.00000    -999.25    -999.25  110.11640    -999.25    -999.25    -999.25    -999.25    9.08130    -999.25    -999.25   63.50380   63.50380    9.08130    8.63050    8.63050    -999.25    -999.25    -999.25   10.57930  -10.11140  -13.97520   10.57930    -999.25  971.68160
 2500.00000    -999.25    -999.25   38.71200    -999.25    -999.25    -999.25    -999.25   25.83180    -999.25    -999.25   43.21520   43.21520   25.83180   19.40160   19.40160    -999.25    -999.25    -999.25   20.28380   -6.78290  -11.51540   20.28380    -999.25 1094.05050
 2550.00000    -999.25    -999.25   32.90580    -999.25    -999.25    -999.25    -999.25   30.38980    -999.25    -999.25   32.52810   32.52810   30.38980   21.65350   21.65350    -999.25    -999.25    -999.25   22.04290   -0.29270   -5.89390   22.04290    -999.25 1090.89930
 2600.00000    -999.25    -999.25   30.92950    -999.25    -999.25    -999.25    -999.25   32.33160    -999.25    -999.25   24.39610   24.39610   32.33160   20.17650   20.17650    -999.25    -999.25    -999.25   22.17560    3.29290   -3.17700   22.17560    -999.25 1037.40030
 2650.00000    -999.25    -999.25   33.35190    -999.25    -999.25    -999.25    -999.25   29.98330    -999.25    -999.25   36.62520   36.62520   29.98330   19.77960   19.77960    -999.25    -999.25    -999.25   20.74760    1.24420   -6.09430   20.74760    -999.25 1020.95810
 2700.00000    -999.25    -999.25   30.44490    -999.25    -999.25    -999.25    -999.25   32.84620    -999.25    -999.25   29.34070   29.34070   32.84620   20.65410   20.65410    -999.25    -999.25    -999.25   21.65520    8.04840   -0.14700   21.65520    -999.25 1047.71300
 2750.00000    -999.25    -999.25   94.43050    -999.25    -999.25    -999.25    -999.25   10.58980    -999.25    -999.25   44.54010   44.54010   10.58980   11.80620   11.80620    -999.25    -999.25    -999.25   16.59630   -9.19910  -17.07750   16.59630    -999.25 1050.80360
 2800.00000    -999.25    -999.25   99.88910    -999.25    -999.25    -999.25    -999.25   10.01110    -999.25    -999.25   50.88250   50.88250   10.01110    9.06580    9.06580    -999.25    -999.25    -999.25    8.64020  -14.99820  -22.55970    8.64020    -999.25 1084.77200
 2850.00000    -999.25    -999.25  211.61340    -999.25    -999.25    -999.25    -999.25    4.72560    -999.25    -999.25   68.78440   68.78440    4.72560    4.12030    4.12030    -999.25    -999.25    -999.25    3.90350   -1.93440   -9.17890    3.90350    -999.25 1090.36620
 2900.00000    -999.25    -999.25  136.07480    -999.25    -999.25    -999.25    -999.25    7.34890    -999.25    -999.25   66.68540   66.68540    7.34890    7.18990    7.18990    -999.25    -999.25    -999.25    6.70150   -3.37410  -10.30170    6.70150    -999.25 1117.59680
 2950.00000    -999.25    -999.25  147.39700    -999.25    -999.25    -999.25    -999.25    6.78440    -999.25    -999.25   74.69890   74.69890    6.78440    6.58460    6.58460    -999.25    -999.25    -999.25    7.76280   -7.12870  -13.73940    7.76280    -999.25 1098.14420
 3000.00000    -999.25    -999.25  166.21510    -999.25    -999.25    -999.25    -999.25    6.01630    -999.25    -999.25   63.44610   63.44610    6.01630    5.83160    5.83160    -999.25    -999.25    -999.25    5.42540    0.07490   -6.03070    5.42540    -999.25 1243.30480
 3050.00000    -999.25    -999.25  205.30930    -999.25    -999.25    -999.25    -999.25    4.87070    -999.25    -999.25   75.68250   75.68250    4.87070    4.14140    4.14140    -999.25    -999.25    -999.25    4.30270   -0.06740   -4.96020    4.30270    -999.25 1254.64210
 3100.00000    -999.25    -999.25   86.39980    -999.25    -999.25    -999.25    -999.25   11.57410    -999.25    -999.25   54.18650   54.18650   11.57410   11.26040   11.26040    -999.25    -999.25    -999.25   11.08430  -16.90370  -20.58370   11.08430    -999.25 1301.88620
 3150.00000    -999.25    -999.25  169.59500    -999.25    -999.25    -999.25    -999.25    5.89640    -999.25    -999.25   67.58210   67.58210    5.89640    5.79330    5.79330    -999.25    -999.25    -999.25    6.05800   -6.08320   -8.55040    6.05800    -999.25 1297.95520
 3200.00000    -999.25    -999.25  149.13800    -999.25    -999.25    -999.25    -999.25    6.70520    -999.25    -999.25   61.92630   61.92630    6.70520    7.16490    7.16490    -999.25    -999.25    -999.25    8.08440  -21.09200  -22.34640    8.08440    -999.25 1301.88050
 3250.00000    -999.25    -999.25  143.03290    -999.25    -999.25    -999.25    -999.25    6.99140    -999.25    -999.25   42.03170   42.03170    6.99140    8.15610    8.15610    -999.25    -999.25    -999.25   10.96590  -30.30030  -30.34190   10.96590    -999.25 1342.35880
 3300.00000    -999.25    -999.25  197.12590    -999.25    -999.25    -999.25    -999.25    5.07290    -999.25    -999.25   53.97570   53.97570    5.07290    5.61450    5.61450    -999.25    -999.25    -999.25    6.19880  -16.47800  -15.30680    6.19880    -999.25 1343.88050
 3350.00000    -999.25    -999.25  471.09810    -999.25    -999.25    -999.25    -999.25    2.12270    -999.25    -999.25   76.84370   76.84370    2.12270    2.07700    2.07700    -999.25    -999.25    -999.25    1.77790   -6.13160   -3.74760    1.77790    -999.25 1320.00850
 3400.00000    -999.25    -999.25  204.08580    -999.25    -999.25    -999.25    -999.25    4.89990    -999.25    -999.25   76.36300   76.36300    4.89990    6.35800    6.35800    -999.25    -999.25    -999.25    9.80460  -35.94340  -32.73550    9.80460    -999.25 1359.60300
 3450.00000    -999.25    -999.25  165.12280    -999.25    -999.25    -999.25    -999.25    6.05610    -999.25    -999.25   63.31480   63.31480    6.05610    7.47470    7.47470    -999.25    -999.25    -999.25   10.27050  -49.16050  -45.55020   10.27050    -999.25 1383.42090
 3500.00000    -999.25    -999.25  183.77620    -999.25    -999.25    -999.25    -999.25    5.44140    -999.25    -999.25   68.30110   68.30110    5.44140    5.22610    5.22610    -999.25    -999.25    -999.25    4.68590  -34.60550  -30.59280    4.68590    -999.25 1409.29970
 3550.00000    -999.25    -999.25  186.66120    -999.25    -999.25    -999.25    -999.25    5.35730    -999.25    -999.25   77.19200   77.19200    5.35730    5.23920    5.23920    -999.25    -999.25    -999.25    5.19880  -26.44990  -22.03480    5.19880    -999.25 1399.95020
 3600.00000    -999.25    -999.25  234.37870    -999.25    -999.25    -999.25    -999.25    4.26660    -999.25    -999.25   76.08870   76.08870    4.26660    4.33850    4.33850    -999.25    -999.25    -999.25    4.78430  -13.34610   -8.52860    4.78430    -999.25 1423.45610
 3650.00000    -999.25    -999.25  266.93720    -999.25    -999.25    -999.25    -999.25    3.74620    -999.25    -999.25   76.76780   76.76780    3.74620    3.31360    3.31360    -999.25    -999.25    -999.25    3.75630  -11.09250   -5.87260    3.75630    -999.25 1465.01370
 3700.00000    -999.25    -999.25  191.23020    -999.25    -999.25    -999.25    -999.25    5.22930    -999.25    -999.25   78.42740   78.42740    5.22930    5.31950    5.31950    -999.25    -999.25    -999.25    5.79680  -22.50670  -16.88440    5.79680    -999.25 1440.61720
 3750.00000    -999.25    -999.25  183.25090    -999.25    -999.25    -999.25    -999.25    5.45700    -999.25    -999.25   62.17370   62.17370    5.45700    6.81920    6.81920    -999.25    -999.25    -999.25   10.47170  -52.37890  -46.35420   10.47170    -999.25 1473.00620
 3800.00000    -999.25    -999.25  252.00980    -999.25    -999.25    -999.25    -999.25    3.96810    -999.25    -999.25   81.55400   81.55400    3.96810    3.88710    3.88710    -999.25    -999.25    -999.25    5.27820  -10.06750   -3.64040    5.27820    -999.25 1488.53530
 3850.00000    -999.25    -999.25  270.89260    -999.25    -999.25    -999.25    -999.25    3.69150    -999.25    -999.25   82.62380   82.62380    3.69150    3.53860    3.53860    -999.25    -999.25    -999.25    4.00070   -9.75210   -2.92260    4.00070    -999.25 1500.24980
