~Version ---------------------------------------------------
VERS.      2.0 : CWLS log ASCII Standard -VERSION 2.0
WRAP.      YES : MULTIPLE LINES PER DEPTH STEP
CREA. 08/31/18 : LAS CREATION DATE
~Well ------------------------------------------------------
STRT.FT                 2300.0 : START DEPTH
STOP.FT                11300.0 : STOP DEPTH
STEP.FT               50.00000 : STEP LENGTH
NULL.                  -999.25 : NULL VALUE
COMP.         HUNT OIL COMPANY : COMPANY
WELL.          PIPHER L. A. #1 : WELL
FLD .                  WILDCAT : FIELD
LOC .                          : LOCATION
CNTY.                 GONZALES : COUNTY
STAT.                    TEXAS : STATE
CTRY. UNITED STATES OF AMERICA : COUNTRY
SRVC.             Schlumberger : SERVICE COMPANY
DATE.              06-May-1999 : LOGDATE
API .           42177320410000 : API NUMBER
UWI .           42177320410000 : UNIQUE WELL ID
SLAT.WGS84       29.2698822473 : SURFACE LATITUDE
SLON.WGS84      -97.7138948507 : SURFACE LONGITUDE
~Curve Information -----------------------------------------
DEPT    .FT    : DEPTH FEET
AHT10ED .OHMM  : 10 INCH RESISTIVITY TWO FOOT RESOLUTION FROM AIT LOG
AHT20ED .OHMM  : 20 INCH RESISTIVITY TWO FOOT RESOLUTION FROM AIT LOG
AHT30ED .OHMM  : 30 INCH RESISTIVITY TWO FOOT RESOLUTION FROM AIT LOG
AHT60ED .OHMM  : 60 INCH RESISTIVITY TWO FOOT RESOLUTION FROM AIT LOG
AHT90ED .OHMM  : 90 INCH RESISTIVITY TWO FOOT RESOLUTION FROM AIT LOG
CALWS   .IN    : CALIPER [DCALRED+BITED]
CONDWS  .MMHO  : CONDUCTIVITY [1000/DRESWS]
DCALRED .IN    : DIFFERENTIAL CALIPER FROM RES. LOG
DCORWS  .G/C3  : DENSITY CORRECTION [HDRAED]
DENWS   .G/C3  : BULK DENSITY [M=2.71 F=1.0] [CALCULATED FROM DPOLSWS]
DPHZLSED.V/V   : DENSITY POROSITY [M=2.71 F=1.0] FROM DENSITY LOG
DPOLSWS .V/V   : DENSITY POROSITY [M=2.71 F=1.0] [DPHZLSED]
DRESWS  .OHMM  : DEEP RESISTIVITY [AHT90ED]
DTLFED  .US/F  : DELTA TIME LONG SPACING FAR DETECTOR FROM SONIC LOG
DTLNED  .US/F  : DELTA TIME LONG SPACING NEAR DETECTOR FROM SONIC LOG
DTWS    .US/F  : DELTA TIME [DTLNED]
GRRED   .GAPI  : GAMMA RAY FROM RESISTIVITY LOG
GRWS    .GAPI  : GAMMA RAY [GRRED]
HDRAED  .G/C3  : DENSITY CORRECTION FROM DENSITY LOG
MRESWS  .OHMM  : MEDIUM RESISTIVITY [AHT30ED]
NPORLSED.V/V   : NEUTRON POROSITY LIMESTONE FROM DENSITY LOG
NPOLSWS .V/V   : NEUTRON POROSITY LIMESTONE [NPORLSED]
PEFWS   .B/E   : PHOTOELECTRIC FACTOR [PEFZED]
PEFZED  .B/E   : PHOTOELECTRIC FACTOR STANDARD RESOLUTION FROM DENSITY LOG
SPRED   .MV    : SPONTANEOUS POTENTIAL FROM RESISTIVITY LOG
SPWS    .MV    : SPONTANEOUS POTENTIAL [BASELINE 0 MV] [SPRED]
SRESWS  .OHMM  : SHALLOW RESISTIVITY [AHT10ED]
TENRED  .LBF   : TENSION FROM RESISTIVITY LOG
~Params ----------------------------------------------------
PD  .                     GL : PERMANENT DATUM
EPD .FT                  349 : ELEVATION PERMANENT DATUM
LMF .                     KB : LOG MEASURED FROM
DAPD.FT                 14.5 : FEET ABOVE PERMANENT DATUM
DMF .                     KB : DRILLING MEASURED FROM
EKB .FT                363.5 : KELLY BUSHING
EDF .FT                362.5 : DRILLING FLOOR
EGL .FT                  349 : GROUND LEVEL
DATE.               05/06/99 : RUN DATE
RUN .                      1 : RUN NUMBER
DD  .FT                11318 : DEPTH DRILLER
DL  .FT                11300 : DEPTH LOGGER
BLI .FT                11292 : BOTTOM LOG INTERVAL
TLI .FT                 2462 : TOP LOG INTERVAL
CS  .IN                9.625 : CASING SIZE
CBD .FT                 2469 : CASING BOTTOM DRILLER
CBL .FT                 2462 : CASING BOTTOM LOGGER
BS  .IN                 8.75 : BIT SIZE
BSD .FT                11318 : BIT SIZE AT DEPTH
DFT .              FRESH MUD : DRILLING FLUID TYPE
DFD .                   10.2 : DRILLING FLUID DENSITY
DFV .                     42 : DRILLING FLUID VISCOSITY
DFPH.                     11 : DRILLING FLUID PH
DFL .                      6 : DRILLING FLUID LOSS
MSS .              CIRC TANK : MUD SAMPLE SOURCE
RMS .OHMM              0.812 : RESISTIVITY MUD SAMPLE
MST .DEGF                 75 : MUD SAMPLE TEMPERATURE
RMF .OHMM               0.51 : RESISTIVITY MUD FILTRATE SAMPLE
MFST.DEGF                 75 : MUD FILTRATE SAMPLE TEMPERATURE
RMC .OHMM              1.218 : RESISTIVITY MUD CAKE
MCST.DEGF                 75 : MUD CAKE SAMPLE TEMPERATURE
MFSS.                     MP : MUD FILTRATE SAMPLE SOURCE
MCSS.                   CALC : MUD CAKE SAMPLE SOURCE
RMB .OHMM               0.28 : RESISTIVITY MUD AT BHT
TCS .HRS                1930 : TIME CIRCULATED STOPPED
TLAB.HRS                 630 : TIME LOGGER AT BOTTOM
LUN .                   2129 : LOGGING UNIT NUMBER
LUL .               VICTORIA : LOGGING UNIT LOCATION
ENGI.    VORIS WILBECK BOWEN : RECORDING ENGINEER
WITN.     SIMON SKILES BLACK : WITNESSED BY
CLNT.                A2DTECH : CLIENT CODE
ORIG.         1" 2" 5" PRINT : ORIGIN OF DATA
UWI .         42177320410000 : UNIQUE WELL ID
DICO. A2D Technologies, Inc. : DIGITIZING COMPANY
~Other -----------------------------------------------------
~ASCII -----------------------------------------------------
# ...
 4800.00000    1.28250    1.33840    1.37830    1.45630    1.52090   21.88810  657.50540   13.13810    0.04440    1.49350    0.71140    0.71140    1.52090  117.57200  109.07060  109.07060   63.79920   63.79920    0.04440    1.37830    0.44700    0.44700    7.36100    7.36100    2.55280  -11.82650    1.28250 1866.22380
 4850.00000    0.99900    1.06920    1.22180    1.36170    1.42520   21.80890  701.65590   13.05890    0.01540    1.52410    0.69350    0.69350    1.42520  103.02160  101.10180  101.10180   57.39320   57.39320    0.01540    1.22180    0.51880    0.51880    9.58880    9.58880   -8.48950  -22.60770    0.99900 1890.79030
 4900.00000    0.63870    0.69970    0.77700    0.86810    0.95840   21.93180 1043.40570   13.18180   -0.00810    1.41230    0.75890    0.75890    0.95840  120.96870  123.00750  123.00750   50.66890   50.66890   -0.00810    0.77700    0.51150    0.51150    5.97470    5.97470   -5.62250  -19.47970    0.63870 1902.32600
 4950.00000    0.87140    0.89690    0.93420    0.98340    1.01570   21.84170  984.54270   13.09170    0.16360    2.20860    0.29320    0.29320    1.01570  111.58530  111.10190  111.10190   66.08910   66.08910    0.16360    0.93420    0.50690    0.50690    3.80960    3.80960  -13.02470  -26.62080    0.87140 1937.58540
 5000.00000    0.88800    0.91400    0.94750    0.97730    1.00950   17.15520  990.58940    8.40520    0.01140    2.29570    0.24230    0.24230    1.00950   -1.40890  113.95530  113.95530   65.34560   65.34560    0.01140    0.94750    0.40000    0.40000    3.63240    3.63240  -13.90930  -27.24430    0.88800 1931.01570
 5050.00000    0.90530    0.96560    1.01650    1.11020    1.14650   18.63980  872.21980    9.88980    0.04240    2.33310    0.22040    0.22040    1.14650  109.32800  111.57530  111.57530   76.14830   76.14830    0.04240    1.01650    0.33940    0.33940    3.47120    3.47120  -13.43300  -26.50700    0.90530 1972.09160
 5100.00000    1.94200    2.01290    2.14750    2.25230    2.32790   15.58370  429.57170    6.83370    0.04300    2.54290    0.09770    0.09770    2.32790   91.86890   91.04330   91.04330   72.47280   72.47280    0.04300    2.14750    0.27420    0.27420    3.34110    3.34110  -15.59460  -28.40750    1.94200 1939.88270
 5150.00000    2.90870    2.99400    3.14570    3.30230    3.53920   17.35820  282.54970    8.60820    0.03290    2.49230    0.12730    0.12730    3.53920   81.95380   84.12360   84.12360   68.84250   68.84250    0.03290    3.14570    0.20810    0.20810    2.62920    2.62920  -17.17370  -29.72560    2.90870 1937.60710
 5200.00000    1.81900    1.87350    1.88200    1.94270    2.00670   18.08200  498.33060    9.33200    0.02660    2.44600    0.15440    0.15440    2.00670   97.33770   96.46990   96.46990   73.66450   73.66450    0.02660    1.88200    0.24960    0.24960    3.39710    3.39710  -20.32160  -32.61240    1.81900 1894.80570
 5250.00000    1.40160    1.46730    1.53240    1.65710    1.71270   21.95580  583.87340   13.20580    0.26850    2.31650    0.23010    0.23010    1.71270  104.06840  105.08710  105.08710   75.93550   75.93550    0.26850    1.53240    0.29620    0.29620    0.96360    0.96360  -22.14570  -34.17540    1.40160 1978.78810
 5300.00000    1.34140    1.38170    1.45070    1.51380    1.56480   21.98990  639.05930   13.23990    0.31130    2.30220    0.23850    0.23850    1.56480   99.58690   99.29520   99.29520   70.00600   70.00600    0.31130    1.45070    0.27050    0.27050    4.51600    4.51600  -23.68600  -35.45470    1.34140 1933.28470
 5350.00000    1.18720    1.22470    1.25470    1.28760    1.32800   21.94410  753.01200   13.19410    0.25400    2.24130    0.27410    0.27410    1.32800  103.34710  104.21910  104.21910   74.58120   74.58120    0.25400    1.25470    0.25520    0.25520    1.16100    1.16100  -22.41780  -33.92540    1.18720 1971.81630
 5400.00000    1.01950    1.05290    1.07990    1.11410    1.14980   21.97230  869.71650   13.22230    0.29420    2.27990    0.25150    0.25150    1.14980  107.28600  106.76760  106.76760   75.12790   75.12790    0.29420    1.07990    0.38210    0.38210    1.18400    1.18400  -16.79790  -28.04450    1.01950 1991.47180
 5450.00000    1.27210    1.29590    1.32690    1.36030    1.41390   21.79440  707.26360   13.04440    0.01680    2.45400    0.14970    0.14970    1.41390  102.04580  101.75710  101.75710   71.95250   71.95250    0.01680    1.32690    0.30700    0.30700    3.44630    3.44630  -19.62990  -30.61540    1.27210 1955.09580
 5500.00000    1.55250    1.63410    1.71620    1.77030    1.82860   21.92080  546.86650   13.17080    0.10620    2.09290    0.36090    0.36090    1.82860   99.80380   97.90320   97.90320   55.72770   55.72770    0.10620    1.71620    0.33400    0.33400    3.18370    3.18370  -18.99740  -29.72180    1.55250 2013.40030
 5550.00000    1.57890    1.62510    1.71610    1.77020    1.82850   18.58580  546.89640    9.83580    0.05900    2.49970    0.12300    0.12300    1.82850   96.48760   95.59470   95.59470   62.17020   62.17020    0.05900    1.71610    0.27620    0.27620    3.19960    3.19960  -16.62380  -27.08720    1.57890 2020.21750
 5600.00000    1.42000    1.47700    1.54530    1.59400    1.64650   21.02950  607.34890   12.27950    0.15160    2.34060    0.21600    0.21600    1.64650  101.72300   98.64400   98.64400   55.45310   55.45310    0.15160    1.54530    0.33760    0.33760    3.96690    3.96690  -13.34820  -23.55050    1.42000 2006.06880
 5650.00000    2.50890    2.58160    2.71640    2.83680    2.93030   12.38100  341.26200    3.63100    0.00660    2.55520    0.09050    0.09050    2.93030   84.32100   83.87890   83.87890   59.17040   59.17040    0.00660    2.71640    0.19710    0.19710    4.39110    4.39110  -11.22990  -21.17120    2.50890 2065.29350
 5700.00000    1.74820    1.79940    1.88230    1.94150    2.02950   14.79850  492.73220    6.04850    0.08010    1.97930    0.42730    0.42730    2.02950   97.07310   95.21860   95.21860   56.00680   56.00680    0.08010    1.88230    0.38980    0.38980    4.86880    4.86880  -41.80300  -51.48320    1.74820 2082.01320
 5750.00000    1.42970    1.52500    1.58790    1.74960    1.68820   10.27270  592.34690    1.52270    0.11610    2.27140    0.25650    0.25650    1.68820   90.09410   94.37930   94.37930   71.85870   71.85870    0.11610    1.58790    0.33710    0.33710    3.12370    3.12370  -15.28200  -24.70110    1.42970 2099.47340
 5800.00000    1.05350    1.08880    1.12100    1.15630    1.19440   18.50690  837.24050    9.75690    0.10270    2.26800    0.25850    0.25850    1.19440  101.99950  100.92550  100.92550   71.28160   71.28160    0.10270    1.12100    0.36220    0.36220    3.39090    3.39090  -13.09100  -22.24910    1.05350 2042.63170
 5850.00000    1.36990    1.41000    1.49190    1.59980    1.65260   17.70850  605.10710    8.95850    0.14130    2.30110    0.23910    0.23910    1.65260   93.02450   94.70440   94.70440   74.43740   74.43740    0.14130    1.49190    0.31910    0.31910    3.24860    3.24860   -9.68390  -18.58090    1.36990 2115.98780
 5900.00000    1.25450    1.29940    1.32960    1.37170    1.41680   17.48980  705.81590    8.73980    0.11580    2.35880    0.20540    0.20540    1.41680   94.92740   95.95960   95.95960   70.33840   70.33840    0.11580    1.32960    0.31200    0.31200    2.89080    2.89080  -10.60770  -19.24370    1.25450 2050.69510
 5950.00000    1.64160    1.68960    1.76540    1.84710    1.91670   19.35520  521.73010   10.60520    0.13140    2.33260    0.22070    0.22070    1.91670   93.41630   93.85530   93.85530   82.86950   82.86950    0.13140    1.76540    0.31290    0.31290    2.92280    2.92280   -9.09230  -17.46720    1.64160 2116.04710
 6000.00000    1.35740    1.39720    1.42640    1.47130    1.51970   20.06270  658.02460   11.31270    0.10480    2.36120    0.20400    0.20400    1.51970   94.16420   90.39090   90.39090   79.51210   79.51210    0.10480    1.42640    0.32700    0.32700    2.61790    2.61790   -8.02760  -16.14140    1.35740 2095.58300
