~Version ---------------------------------------------------
VERS. 2.0 : CWLS log ASCII Standard -VERSION 2.0
WRAP. YES : Multiple lines per depth step
~Well ------------------------------------------------------
STRT.FT                   3650.0 : START DEPTH
STOP.FT                   7750.0 : STOP DEPTH
STEP.FT                 50.00000 : STEP LENGTH
NULL.                    -999.25 : NULL VALUE
COMP. CHAMPLIN EXPLORATION, INC. : COMPANY
WELL.           SPITZENBERGER #1 : WELL
FLD .                   GIDDINGS : FIELD
LOC .                            : LOCATION
CNTY.                        LEE : COUNTY
STAT.                      TEXAS : STATE
CTRY.   UNITED STATES OF AMERICA : COUNTRY
SRVC.               Schlumberger : SERVICE COMPANY
DATE.                05-Jul-1979 : LOGDATE
API .             42287305130000 : API NUMBER
UWI .             42287305130000 : UNIQUE WELL ID
SLAT.WGS84         30.3689100217 : SURFACE LATITUDE
SLON.WGS84        -96.8269770979 : SURFACE LONGITUDE
~Curve Information -----------------------------------------
DEPT    .FT    : DEPTH FEET
CALDED  .IN    : CALIPER FROM COMPENSATED NEUTRON FORMATION DENSITY LOG
CALWS   .IN    : CALIPER [CALDED]
CONDWS  .MMHO  : CONDUCTIVITY [1000/DRESWS]
CORRED  .G/C3  : DENSITY CORRECTION FROM COMPENSATED NEUTRON FORMATION DENSITY LOG
DCORWS  .G/C3  : DENSITY CORRECTION [CORRED]
DENWS   .G/C3  : BULK DENSITY [RHOBED]
DPHILSED.V/V   : DENSITY POROSITY LIMESTONE [M=2.71 F=1.0] FROM COMPENSATED NEUTRON FORMATION DENSITY LOG
DPOWS   .V/V   : DENSITY POROSITY LIMESTONE [DPHILSED]
DRESWS  .OHMM  : DEEP RESISTIVITY [ILDED]
GRDED   .GAPI  : GAMMA RAY  FROM COMPENSATED NEUTRON FORMATION DENSITY LOG
GRED    .GAPI  : GAMMA RAY IN CASING FROM CEMENT EVALUATION LOG [ADJ. TO GRDED]
GRWS    .GAPI  : GAMMA RAY [GRDED SPLICED TO GRED AFTER RESCALING IT FROM 0-90 TO 0-150]
ILDED   .OHMM  : DEEP INDUCTION  FROM DUAL INDUCTION-SFL LOG
ILMED   .OHMM  : MEDIUM INDUCTION  FROM DUAL INDUCTION-SFL LOG
MRESWS  .OHMM  : MEDIUM RESISTIVITY [ILMED]
NPHILSED.V/V   : NEUTRON POROSITY LIMESTONE  FROM COMPENSATED NEUTRON FORMATION DENSITY LOG
NPOWS   .V/V   : NEUTRON POROSITY LIMESTONE [NPHILSED]
RHOBED  .G/C3  : BULK DENSITY FROM FORMATION DENSITY LOG
SFLED   .OHMM  : SPHERICALLY FOCUSED LOG FROM DUAL INDUCTION-SFL LOG
SPRED   .MV    : SPONTANEOUS POTENTIAL FROM DUAL INDUCTION-SFL LOG
SPWS    .MV    : SPONTANEOUS POTENTIAL [BASELINE 0 MV, SPRED]
SRESWS  .OHMM  : SHALLOW RESISTIVITY [SFLED]
~Params ----------------------------------------------------
PD  .                     GL : PERMANENT DATUM
EPD .FT                  324 : ELEVATION PERMANENT DATUM
LMF .                     KB : LOG MEASURED FROM
DAPD.FT                   11 : FEET ABOVE PERMANENT DATUM
DMF .                     KB : DRILLING MEASURED FROM
EKB .FT                  335 : KELLY BUSHING
EDF .FT                  334 : DRILLING FLOOR
EGL .FT                  324 : GROUND LEVEL
DATE.               07/05/79 : RUN DATE
RUN .                      1 : RUN NUMBER
DD  .FT                 7775 : DEPTH DRILLER
DL  .FT                 7780 : DEPTH LOGGER
BLI .FT                 7774 : BOTTOM LOG INTERVAL
TLI .FT                 3611 : TOP LOG INTERVAL
CS  .IN                9.625 : CASING SIZE
CBD .FT                 3650 : CASING BOTTOM DRILLER
CBL .FT                 3611 : CASING BOTTOM LOGGER
BS  .IN                 8.75 : BIT SIZE
BSD .FT                 7775 : BIT SIZE AT DEPTH
DFT .                    LNS : DRILLING FLUID TYPE
DFD .                    9.8 : DRILLING FLUID DENSITY
DFV .                     45 : DRILLING FLUID VISCOSITY
DFPH.                   10.5 : DRILLING FLUID PH
DFL .                    9.6 : DRILLING FLUID LOSS
MSS .                   TANK : MUD SAMPLE SOURCE
RMS .OHMM               1.09 : RESISTIVITY MUD SAMPLE
MST .DEGF                 98 : MUD SAMPLE TEMPERATURE
RMF .OHMM               0.82 : RESISTIVITY MUD FILTRATE SAMPLE
MFST.DEGF                 98 : MUD FILTRATE SAMPLE TEMPERATURE
RMC .OHMM               1.63 : RESISTIVITY MUD CAKE
MCST.DEGF                 98 : MUD CAKE SAMPLE TEMPERATURE
MFSS.                      C : MUD FILTRATE SAMPLE SOURCE
MCSS.                      C : MUD CAKE SAMPLE SOURCE
RMB .OHMM               0.57 : RESISTIVITY MUD AT BHT
TCS .HRS                1300 : TIME CIRCULATED STOPPED
TLAB.HRS                1800 : TIME LOGGER AT BOTTOM
LUN .                   8096 : LOGGING UNIT NUMBER
LUL .                BRENHAM : LOGGING UNIT LOCATION
CLNT.                A2DTECH : CLIENT CODE
ORIG.            2" 5" PRINT : ORIGIN OF DATA
UWI .         42287305130000 : UNIQUE WELL ID
DICO. A2D Technologies, Inc. : DIGITIZING COMPANY
~Other -----------------------------------------------------
~ASCII -----------------------------------------------------
# ...
 6850.00000   10.59460   10.59460  215.98740   -0.00670   -0.00670    2.58700    0.07150    0.07150    4.62990   38.81650   26.68350   38.81650    4.62990    4.85260    4.85260    0.08630    0.08630    2.58700    5.78970 -105.18200   -9.78010    5.78970
 6900.00000   10.44110   10.44110  136.86630   -0.00250   -0.00250    2.58680    0.07080    0.07080    7.30640   23.98950   21.43780   23.98950    7.30640    7.38340    7.38340    0.05650    0.05650    2.58680    9.55330 -100.74110  -12.29040    9.55330
 6950.00000   10.68680   10.68680  164.44660   -0.00210   -0.00210    2.60860    0.05680    0.05680    6.08100   35.14720   24.63960   35.14720    6.08100    6.20560    6.20560    0.06100    0.06100    2.60860    6.83620  -86.36480   -4.26540    6.83620
 7000.00000   10.46650   10.46650  133.45080   -0.00510   -0.00510    2.58510    0.07210    0.07210    7.49340   27.61860   32.91660   27.61860    7.49340    7.58170    7.58170    0.05810    0.05810    2.58510    8.78380  -95.47400  -16.99350    8.78380
 7050.00000   10.44130   10.44130  101.34790   -0.00470   -0.00470    2.62080    0.05060    0.05060    9.86700   31.08420   26.50630   31.08420    9.86700    9.93850    9.93850    0.04020    0.04020    2.62080   13.11860  -81.84970   -6.98810   13.11860
 7100.00000   10.41920   10.41920  143.31160   -0.00430   -0.00430    2.61450    0.05490    0.05490    6.97780   40.92820   28.07760   40.92820    6.97780    7.08460    7.08460    0.06300    0.06300    2.61450    8.56510  -79.77200   -8.52930    8.56510
 7150.00000   10.51770   10.51770  187.88160    0.00450    0.00450    2.59970    0.06410    0.06410    5.32250   46.84260   31.69880   46.84260    5.32250    5.40290    5.40290    0.08030    0.08030    2.59970    6.39920  -77.63900  -10.01520    6.39920
 7200.00000   10.44930   10.44930  214.04570   -0.01650   -0.01650    2.57080    0.08010    0.08010    4.67190   33.06140   29.35760   33.06140    4.67190    4.99890    4.99890    0.07960    0.07960    2.57080    5.96570  -95.40770  -29.31190    5.96570
 7250.00000   10.13760   10.13760  193.77220   -0.00300   -0.00300    2.60680    0.05910    0.05910    5.16070   53.02500   39.20730   53.02500    5.16070    5.18080    5.18080    0.11070    0.11070    2.60680    4.95300  -74.89080  -10.32300    4.95300
 7300.00000    9.98490    9.98490  103.39230    0.01640    0.01640    2.59280    0.06620    0.06620    9.67190   34.42170   29.79730   34.42170    9.67190    9.80950    9.80950    0.05130    0.05130    2.59280   11.21590  -83.43010  -20.39030   11.21590
 7350.00000    9.89490    9.89490  104.64410   -0.01120   -0.01120    2.56490    0.08370    0.08370    9.55620   38.09810   32.57380   38.09810    9.55620    9.56000    9.56000    0.05830    0.05830    2.56490   14.37000  -87.51350  -26.00160   14.37000
 7400.00000    9.88490    9.88490  144.07150    0.00780    0.00780    2.57160    0.08160    0.08160    6.94100   55.09920   41.99560   55.09920    6.94100    6.89290    6.89290    0.07380    0.07380    2.57160    8.96700  -84.33870  -24.35480    8.96700
 7450.00000    9.58230    9.58230   64.89880   -0.00300   -0.00300    2.54280    0.09600    0.09600   15.40860   27.98970   26.80930   27.98970   15.40860   12.19280   12.19280    0.09580    0.09580    2.54280   21.02690  -85.64400  -27.18810   21.02690
 7500.00000   10.16060   10.16060  467.53000    0.23270    0.23270    2.55890    0.08680    0.08680    2.13890  128.29180   66.88930  128.29180    2.13890    2.19920    2.19920    0.27000    0.27000    2.55890    3.14790  -62.12610   -5.19820    3.14790
 7550.00000    9.46500    9.46500  117.67340    0.02500    0.02500    2.52360    0.10770    0.10770    8.49810  104.89340   57.45290  104.89340    8.49810    8.68880    8.68880    0.24670    0.24670    2.52360   12.35960  -58.19900   -2.79910   12.35960
 7600.00000   11.03790   11.03790  420.38000    0.14220    0.14220    2.38470    0.19150    0.19150    2.37880  123.86850   65.50260  123.86850    2.37880    2.36870    2.36870    0.34850    0.34850    2.38470    3.54580  -69.48630  -15.61440    3.54580
 7650.00000    9.93550    9.93550  147.68870   -0.00350   -0.00350    2.65440    0.03330    0.03330    6.77100   47.69350   29.16090   47.69350    6.77100    6.73290    6.73290    0.05940    0.05940    2.65440   14.00400  -61.54210   -9.19810   14.00400
 7700.00000    9.59140    9.59140   41.61810    0.00790    0.00790    2.66610    0.02610    0.02610   24.02800   26.50700   22.46880   26.50700   24.02800   18.01000   18.01000    0.01980    0.01980    2.66610   39.20360  -64.42930  -13.61330   39.20360
 7750.00000    -999.25    -999.25  184.32160    -999.25    -999.25    -999.25    -999.25    -999.25    5.42530    -999.25    -999.25    -999.25    5.42530    5.96840    5.96840    -999.25    -999.25    -999.25    6.70600  -52.64520   -3.35720    6.70600
