~Version ---------------------------------------------------
VERS. 2.0 : CWLS log ASCII Standard -VERSION 2.0
WRAP. YES : Multiple lines per depth step
~Well ------------------------------------------------------
STRT.FT                         300.0 : START DEPTH
STOP.FT                       13900.0 : STOP DEPTH
STEP.FT                      50.00000 : STEP LENGTH
NULL.                         -999.25 : NULL VALUE
COMP. MOBIL PRODUCING TX. & N.M. INC. : COMPANY
WELL.               J. V. FORD JR. #1 : WELL
FLD .                         WILDCAT : FIELD
LOC .                                 : LOCATION
CNTY.                             BEE : COUNTY
STAT.                           TEXAS : STATE
CTRY.        UNITED STATES OF AMERICA : COUNTRY
SRVC.                    Schlumberger : SERVICE COMPANY
DATE.                     24-Oct-1988 : LOGDATE
API .                  42025324790000 : API NUMBER
UWI .                  42025324790000 : UNIQUE WELL ID
SLAT.WGS84              28.6662336968 : SURFACE LATITUDE
SLON.WGS84             -98.0215217404 : SURFACE LONGITUDE
~Curve Information -----------------------------------------
DEPT    .FT    : DEPTH FEET
CALMED  .IN    : CALIPER FROM MSFL [DEP ADJ TO SFLUED]
CALWS   .IN    : CALIPER [DCALED+BITED]
CONDWS  .MMHO  : CONDUCTIVITY [1000/DRESWS]
DCALED  .IN    : DIFFERENTIAL CALIPER FROM DENSITY LOG [DEP ADJ TO GRRED]
DCORWS  .G/C3  : DENSITY CORRECTION [DRHOED]
DENWS   .G/C3  : BULK DENSITY [M=2.71, F= 1] [CAL FROM DPOLSWS]
DPHILSED.V/V   : DENSITY POROSITY [M=2.71 F=1.0] FROM DENSITY LOG [DEP ADJ TO GRRED]
DPHISSED.V/V   : DENSITY POROSITY [M=2.68 F=1.0] FROM DENSITY LOG [DEP ADJ TO GRRED]
DPOLSWS .V/V   : DENSITY POROSITY [M=2.71, F= 1] [76 DPOLSCAL 12989 DPHILSED]
DRESWS  .OHMM  : DEEP RESISTIVITY [ILDED]
DRHOED  .G/C3  : DENSITY CORRECTION FROM DENSITY LOG [DEP ADJ TO GRRED]
DTED    .US/F  : DELTA TIME FROM SONIC LOG
DTLED   .US/F  : DELTA TIME LONG SPACING FROM SONIC LOG
DTWS    .US/F  : DELTA TIME [76 DTED 543.5 DTLED 1373.5 DTED 2134 DTLED 3009.5 DTED 3022 DTLED 3172 DTED 8805 DTLED 8815 DTED 9717.5 DTLED 9901 DTED 12984.5 DTLED 13003.5 DTED]
GRDED   .GAPI  : GAMMA RAY FROM DENSITY LOG [DEP ADJ TO GRRED]
GRMED   .GAPI  : GAMMA RAY FROM MSFL LOG [DEP ADJ TO GRRED]
GRRED   .GAPI  : GAMMA RAY FROM RESISTIVITY LOG
GRWS    .GAPI  : GAMMA RAY [76 GRRED 3494.5 GRDEDNRM 3506 GRDED 9027 GRRED 13030.5 GRDED]
ILDED   .OHMM  : INDUCTION LOG DEEP RESISTIVITY
ILMED   .OHMM  : INDUCTION LOG MEDIUM RESISTIVITY
MRESWS  .OHMM  : MEDIUM RESISTIVITY [ILMED]
MSFLED  .OHMM  : MICROSPHERICALLY FOCUSED LOG RESISTIVITY [DEP ADJ TO SFLUED]
NPHILSED.V/V   : NEUTRON POROSITY LIMESTONE FROM DENSITY LOG [DEP ADJ TO GRRED]
NPHISSED.V/V   : NEUTRON POROSITY SANDSTONE FROM DENSITY LOG [DEP ADJ TO GRRED]
NPOLSWS .V/V   : NEUTRON POROSITY LIMESTONE [76 NPOLSCAL 12989 NPHILSED]
SFLUED  .OHMM  : SPHERICALLY FOCUSED LOG RESISTIVITY
SPRED   .MV    : SPONTANEOUS POTENTIAL FROM RESISTIVITY LOG
SPWS    .MV    : SPONTANEOUS POTENTIAL [BASELINE 0 MV] [SPRED]
SRESWS  .OHMM  : SHALLOW RESISTIVITY [SFLUED]
TENDED  .LBF   : TENSION FROM DENSITY LOG [DEP ADJ TO GRRED]
TENMED  .LBF   : TENSION FROM MSFL LOG [DEP ADJ TO SFLUED]
TENRED  .LBF   : TENSION FROM RESISTIVITY LOG
~Params ----------------------------------------------------
PD  .                     GL : PERMANENT DATUM
EPD .FT                  350 : ELEVATION PERMANENT DATUM
LMF .                     KB : LOG MEASURED FROM
DAPD.FT                 26.5 : FEET ABOVE PERMANENT DATUM
DMF .                     KB : DRILLING MEASURED FROM
EKB .FT                376.5 : KELLY BUSHING
EDF .FT                375.5 : DRILLING FLOOR
EGL .FT                  350 : GROUND LEVEL
DATE.               10/14/88 : RUN DATE
RUN .                      2 : RUN NUMBER
DD  .FT                13900 : DEPTH DRILLER
DL  .FT                13881 : DEPTH LOGGER
BLI .FT                13881 : BOTTOM LOG INTERVAL
TLI .FT                 3505 : TOP LOG INTERVAL
CS  .IN                9.625 : CASING SIZE
CBD .FT                 3510 : CASING BOTTOM DRILLER
CBL .FT                 3505 : CASING BOTTOM LOGGER
BS  .IN                  8.5 : BIT SIZE
BSD .FT                13900 : BIT SIZE AT DEPTH
DFT .            LIGNITE CLS : DRILLING FLUID TYPE
DFD .                   11.6 : DRILLING FLUID DENSITY
DFV .                     23 : DRILLING FLUID VISCOSITY
DFPH.                     10 : DRILLING FLUID PH
DFL .                    5.9 : DRILLING FLUID LOSS
MSS .               MUD TANK : MUD SAMPLE SOURCE
RMS .OHMM               1.08 : RESISTIVITY MUD SAMPLE
MST .DEGF                 75 : MUD SAMPLE TEMPERATURE
RMF .OHMM               0.72 : RESISTIVITY MUD FILTRATE SAMPLE
MFST.DEGF                 75 : MUD FILTRATE SAMPLE TEMPERATURE
RMC .OHMM               1.59 : RESISTIVITY MUD CAKE
MCST.DEGF                 75 : MUD CAKE SAMPLE TEMPERATURE
MFSS.                   MEAS : MUD FILTRATE SAMPLE SOURCE
MCSS.                   CALC : MUD CAKE SAMPLE SOURCE
RMB .OHMM              0.289 : RESISTIVITY MUD AT BHT
TCS .HRS                1500 : TIME CIRCULATED STOPPED
TLAB.HRS                1500 : TIME LOGGER AT BOTTOM
LUN .                   8248 : LOGGING UNIT NUMBER
LUL .             PLEASANTON : LOGGING UNIT LOCATION
ENGI.                 HOOPER : RECORDING ENGINEER
WITN.           WEIMER CARAM : WITNESSED BY
CLNT.                A2DTECH : CLIENT CODE
ORIG.               5" PRINT : ORIGIN OF DATA
UWI .         42025324790000 : UNIQUE WELL ID
DICO. A2D Technologies, Inc. : DIGITIZING COMPANY
~Other -----------------------------------------------------
~ASCII -----------------------------------------------------
# ...
 10200.00000    -999.25    9.69340  506.17530    1.19340   -0.01630    2.58210    -999.25    0.07480    0.07480    1.97560   -0.01630   89.80200   89.94560   89.80200   95.88360    -999.25   90.85190   90.85190    1.97560    2.02520    2.02520    -999.25    -999.25    0.26700    0.22300    2.32300   -0.07970   -2.39120    2.32300 3438.37890    -999.25 3595.25610
 10250.00000    -999.25   10.64070  636.78050    2.14070    0.07850    2.46890    -999.25    0.14100    0.14100    1.57040    0.07850   93.66510   95.30110   93.66510   90.39360    -999.25   81.30830   81.30830    1.57040    1.60380    1.60380    -999.25    -999.25    0.30740    0.26340    1.80940   -0.51550   -2.85110    1.80940 3754.08400    -999.25 3588.92480
 10300.00000    -999.25   10.16710  560.69530    1.66710    0.09810    2.40970    -999.25    0.17560    0.17560    1.78350    0.09810   89.72510   91.70230   89.72510   83.19300    -999.25   81.98580   81.98580    1.78350    1.81140    1.81140    -999.25    -999.25    0.31270    0.26880    2.03320   -0.48620   -2.84580    2.03320 3600.07450    -999.25 3613.14090
 10350.00000    -999.25   11.59140  631.63210    3.09140    0.05400    2.46910    -999.25    0.14090    0.14090    1.58320    0.05400   89.92910   92.02160   89.92910   80.23860    -999.25   72.92860   72.92860    1.58320    1.60880    1.60880    -999.25    -999.25    0.30570    0.26170    1.72810   -0.16800   -2.55170    1.72810 3471.42430    -999.25 3639.27440
 10400.00000    -999.25   12.48980  589.30990    3.98980    0.07290    2.40130    -999.25    0.18050    0.18050    1.69690    0.07290   90.37620   90.91190   90.37620   68.40840    -999.25   61.33170   61.33170    1.69690    1.72950    1.72950    -999.25    -999.25    0.31980    0.27590    1.75540   -0.47270   -2.88040    1.75540 3698.69900    -999.25 3644.38400
 10450.00000    -999.25   10.24150  500.62580    1.74150    0.10190    2.47710    -999.25    0.13620    0.13620    1.99750    0.10190   86.11570   86.56990   86.11570   72.72960    -999.25   69.01570   69.01570    1.99750    2.06130    2.06130    -999.25    -999.25    0.24360    0.19970    2.08700   -1.57910   -4.01090    2.08700 3517.63550    -999.25 3644.47020
 10500.00000    -999.25   10.02030  500.55060    1.52030    0.08920    2.45260    -999.25    0.15050    0.15050    1.99780    0.08920   88.62560   87.77980   88.62560   72.94500    -999.25   69.51850   69.51850    1.99780    2.05480    2.05480    -999.25    -999.25    0.27460    0.23060    2.24900   -1.16030   -3.61610    2.24900 3661.32910    -999.25 3649.66160
 10550.00000    -999.25   10.10660  446.05020    1.60660   -0.00550    2.57350    -999.25    0.07980    0.07980    2.24190   -0.00550   83.41530   83.80200   83.41530   69.50100    -999.25   67.29980   67.29980    2.24190    2.28590    2.28590    -999.25    -999.25    0.23730    0.19350    2.74500   -0.44500   -2.92480    2.74500 3601.59350    -999.25 3674.00240
 10600.00000    -999.25   10.54470  339.87010    2.04470   -0.00840    2.58170    -999.25    0.07500    0.07500    2.94230   -0.00840   81.29930   80.76190   81.29930   56.96170    -999.25   63.28450   63.28450    2.94230    2.97500    2.97500    -999.25    -999.25    0.23370    0.18990    3.09160   -1.16950   -3.67340    3.09160 3605.78120    -999.25 3678.71310
 10650.00000    -999.25   11.02940  361.12820    2.52940   -0.01280    2.58480    -999.25    0.07320    0.07320    2.76910   -0.01280   78.60980   77.95990   78.60980   64.20180    -999.25   52.45830   52.45830    2.76910    2.92780    2.92780    -999.25    -999.25    0.24490    0.20100    3.59360   -1.20070   -3.72860    3.59360 3634.08590    -999.25 3668.72190
 10700.00000    -999.25   11.85160  514.56210    3.35160   -0.00290    2.54770    -999.25    0.09490    0.09490    1.94340   -0.00290   88.49450   89.02670   88.49450   68.81030    -999.25   64.80440   64.80440    1.94340    2.00290    2.00290    -999.25    -999.25    0.31850    0.27460    1.90410   -0.61210   -3.16410    1.90410 4088.98020    -999.25 3700.97730
 10750.00000    -999.25   12.19440  507.40810    3.69440    0.07660    2.45080    -999.25    0.15160    0.15160    1.97080    0.07660   91.16310   90.26780   91.16310   74.74280    -999.25   71.59390   71.59390    1.97080    1.92430    1.92430    -999.25    -999.25    0.29830    0.25430    2.26920    0.13010   -2.44820    2.26920 3623.09200    -999.25 3695.59160
 10800.00000    -999.25   12.17150  553.92460    3.67150    0.03460    2.40730    -999.25    0.17700    0.17700    1.80530    0.03460   92.09950   92.52760   92.09950   75.00640    -999.25   69.64940   69.64940    1.80530    1.87540    1.87540    -999.25    -999.25    0.38450    0.34130    1.94320   -0.21540   -2.82490    1.94320 3572.97730    -999.25 3715.04760
 10850.00000    -999.25   11.70170  452.18180    3.20170    0.02310    2.39620    -999.25    0.18350    0.18350    2.21150    0.02310   88.54930   91.04440   88.54930   68.19510    -999.25   64.06950   64.06950    2.21150    2.29400    2.29400    -999.25    -999.25    0.31660    0.27270    2.36520   -0.57220   -3.21290    2.36520 3622.37280    -999.25 3733.41800
 10900.00000    -999.25   12.67890  489.18890    4.17890    0.05420    2.41950    -999.25    0.16990    0.16990    2.04420    0.05420   89.75200   91.52470   89.75200   65.36140    -999.25   63.06680   63.06680    2.04420    1.98150    1.98150    -999.25    -999.25    0.42020    0.37780    2.36950   -0.43910   -3.11100    2.36950 3798.78860    -999.25 3753.41870
 10950.00000    -999.25   12.55000  536.33680    4.05000    0.01380    2.32900    -999.25    0.22280    0.22280    1.86450    0.01380   89.91110   92.03590   89.91110   63.95640    -999.25   61.03950   61.03950    1.86450    1.82360    1.82360    -999.25    -999.25    0.35970    0.31620    1.90800   -1.99240   -4.69550    1.90800 3922.02730    -999.25 3846.87040
 11000.00000    -999.25   13.10380  545.49420    4.60380    0.05780    2.34750    -999.25    0.21200    0.21200    1.83320    0.05780   90.66260   92.40670   90.66260   62.67070    -999.25   59.59930   59.59930    1.83320    1.77760    1.77760    -999.25    -999.25    0.40490    0.36210    1.92890   -1.80160   -4.53590    1.92890 3704.73850    -999.25 3799.49780
 11050.00000    -999.25   12.64580  489.28460    4.14580    0.04770    2.33930    -999.25    0.21680    0.21680    2.04380    0.04770   85.75670   87.64770   85.75670   66.02610    -999.25   62.37160   62.37160    2.04380    1.96580    1.96580    -999.25    -999.25    0.36500    0.32150    2.21730   -1.20170   -3.96720    2.21730 3858.49120    -999.25 3748.11130
 11100.00000    -999.25   12.45760  491.64210    3.95760    0.02870    2.37710    -999.25    0.19470    0.19470    2.03400    0.02870   87.59280   87.92180   87.59280   65.93620    -999.25   58.85280   58.85280    2.03400    2.12900    2.12900    -999.25    -999.25    0.38940    0.34630    2.23350   -1.73530   -4.53200    2.23350 3787.49190    -999.25 3773.11280
 11150.00000    -999.25   12.57780  379.63630    4.07780   -0.00350    2.58550    -999.25    0.07280    0.07280    2.63410   -0.00350   83.92750   85.68610   83.92750   66.51830    -999.25   57.31200   57.31200    2.63410    2.56620    2.56620    -999.25    -999.25    0.30170    0.25770    2.83860   -0.34290   -3.17090    2.83860 3713.70970    -999.25 3792.61380
 11200.00000    -999.25   12.79070  355.54290    4.29070    0.07050    2.35260    -999.25    0.20900    0.20900    2.81260    0.07050   78.86700   81.48010   78.86700   61.76110    -999.25   61.26900   61.26900    2.81260    2.72270    2.72270    -999.25    -999.25    0.40000    0.35710    3.29320   -1.10280   -3.96200    3.29320 3740.07450 4201.41890 3819.10600
 11250.00000   13.23200   12.62160  257.20170    4.12160    0.04310    2.57610    -999.25    0.07830    0.07830    3.88800    0.04310   75.72410   74.84280   75.72410   53.47240   65.08870   55.78400   55.78400    3.88800    3.82220    3.82220    5.84480    -999.25    0.28210    0.23810    4.35060   -0.68500   -3.57540    4.35060 3709.22140 4235.11960 3860.04390
