~Version ---------------------------------------------------
VERS. 2.0 : CWLS log ASCII Standard -VERSION 2.0
WRAP. YES : Multiple lines per depth step
~Well ------------------------------------------------------
STRT.FT                    300.0 : START DEPTH
STOP.FT                   7750.0 : STOP DEPTH
STEP.FT                 50.00000 : STEP LENGTH
NULL.                    -999.25 : NULL VALUE
COMP. CHAMPLIN PETROLEUM COMPANY : COMPANY
WELL.             ALVIN DRGAC #1 : WELL
FLD .                CALDWELL NE : FIELD
LOC .                            : LOCATION
CNTY.                   BURLESON : COUNTY
STAT.                      TEXAS : STATE
CTRY.   UNITED STATES OF AMERICA : COUNTRY
SRVC.               Schlumberger : SERVICE COMPANY
DATE.                03-Apr-1981 : LOGDATE
API .             42051312420000 : API NUMBER
UWI .             42051312420000 : UNIQUE WELL ID
SLAT.WGS84         30.6064505753 : SURFACE LATITUDE
SLON.WGS84        -96.6018284968 : SURFACE LONGITUDE
~Curve Information -----------------------------------------
DEPT    .FT    : DEPTH FEET
CALRED  .IN    : CALIPER FROM RESISTIVITY FROM DUAL INDUCTION-SFL-COMPENSATED NEUTRON-FORMATION DENSITY LOG
CALWS   .IN    : CALIPER [CALRED SPL. TO DCALED+BIT SIZE @ 3487']
CONDWS  .MMHO  : CONDUCTIVITY [1000/DRESWS]
DCALED  .IN    : DIFFERENTIAL CALIPER FROM DUAL INDUCTION-SFL-COMPENSATED NEUTRON-FORMATION DENSITY LOG
DCORWS  .G/C3  : DENSITY CORRECTION [DRHOED]
DENWS   .G/C3  : BULK DENSITY [M=2.71 F=1.0] [CALCULATED FROM DPOWS]
DPHILSED.V/V   : DENSITY POROSITY LIMESTONE [M=2.71 F=1.0] FROM DUAL INDUCTION-SFL-COMPENSATED NEUTRON-FORMATION DENSITY LOG
DPHISSED.V/V   : DENSITY POROSITY SANDSTONE [M=2.65 F=1.0]  FROM DUAL INDUCTION-SFL-COMPENSATED NEUTRON-FORMATION DENSITY LOG
DPOWS   .V/V   : DENSITY POROSITY [DPHISSED  CONVERTED TO LIMESTONE (M=2.71, F=1.0) SPL. TO DPHILSED @ 6250']
DRESWS  .OHMM  : DEEP RESISTIVITY [ILDED]
DRHOED  .G/C3  : DENSITY CORRECTION FROM DUAL INDUCTION-SFL-COMPENSATED NEUTRON-FORMATION DENSITY LOG
DTED    .US/F  : COMPRESSIONAL SONIC FROM INDUCTION-VELOCITY LOG
DTWS    .US/F  : COMPRESSIONAL SONIC [VELED]
GRRED   .GAPI  : GAMMA RAY FROM FROM DUAL INDUCTION-SFL-COMPENSATED NEUTRON-FORMATION DENSITY-VELOCITY LOG [ GRRED IN CASING FROM 67' - 90']
GRWS    .GAPI  : GAMMA RAY [GRRED, GRRED+30 FROM 3520' to 3542']
GUARDED .OHMM  : GUARD RESISTIVITY FROM INDUCTION-VELOCITY LOG
ILDED   .OHMM  : DEEP INDUCTION FROM DUAL INDUCTION-SFL-COMPENSATED NEUTRON-FORMATION DENSITY-VELOCITY LOG
ILMED   .OHMM  : MEDIUM INDUCTION FROM DUAL INDUCTION-SFL-COMPENSATED NEUTRON-FORMATION DENSITY-VELOCITY LOG
MRESWS  .OHMM  : MEDIUM RESISTIVITY [ILMED]
NPHILSED.V/V   : NEUTRON POROSITY LIMESTONE FROM DUAL INDUCTION-SFL-COMPENSATED NEUTRON-FORMATION DENSITY LOG
NPHISSED.V/V   : NEUTRON POROSITY SANDSTONE FROM DUAL INDUCTION-SFL-COMPENSATED NEUTRON-FORMATION DENSITY LOG
NPOWS   .V/V   : NEUTRON POROSITY LIMESTONE[NPHISSED MATRIX CONVERTED TO LIMESTONE SPL. TO NPHILSED @ 6250']
SFLUED  .OHMM  : SHALLOW FOCUS RESISTIVITY UNAVERAGED FROM DUAL INDUCTION-SFL-COMPENSATED NEUTRON-FORMATION DENSITY-VELOCITY LOG
SPRED   .MV    : SPONTANEOUS POTENTIAL ROM DUAL INDUCTION-SFL-COMPENSATED NEUTRON-FORMATION DENSITY-VELOCITY LOG
SPWS    .MV    : SPONTANEOUS POTENTIAL [BASELINE 0 MV] [SPRED]
SRESWS  .OHMM  : SHALLOW RESISTIVITY [SFLUED SPLICED GUARDED AT 3540']
~Params ----------------------------------------------------
PD  .                     GL : PERMANENT DATUM
EPD .FT                  353 : ELEVATION PERMANENT DATUM
LMF .                     KB : LOG MEASURED FROM
DAPD.FT                   18 : FEET ABOVE PERMANENT DATUM
DMF .                     KB : DRILLING MEASURED FROM
EKB .FT                  371 : KELLY BUSHING
EDF .FT                  370 : DRILLING FLOOR
EGL .FT                  353 : GROUND LEVEL
DATE.               04/03/81 : RUN DATE
RUN .                      1 : RUN NUMBER
DD  .FT                 7797 : DEPTH DRILLER
DL  .FT                 7760 : DEPTH LOGGER
BLI .FT                 7754 : BOTTOM LOG INTERVAL
TLI .FT                 3537 : TOP LOG INTERVAL
CS  .IN                9.625 : CASING SIZE
CBD .FT                 3543 : CASING BOTTOM DRILLER
CBL .FT                 3537 : CASING BOTTOM LOGGER
BS  .IN                 8.75 : BIT SIZE
BSD .FT                 7797 : BIT SIZE AT DEPTH
DFT .             LOW SOLIDS : DRILLING FLUID TYPE
DFD .                    9.4 : DRILLING FLUID DENSITY
DFV .                     43 : DRILLING FLUID VISCOSITY
DFPH.                    9.5 : DRILLING FLUID PH
DFL .                    6.8 : DRILLING FLUID LOSS
MSS .               FLOWLINE : MUD SAMPLE SOURCE
RMS .OHMM               1.99 : RESISTIVITY MUD SAMPLE
MST .DEGF                 75 : MUD SAMPLE TEMPERATURE
RMF .OHMM               1.49 : RESISTIVITY MUD FILTRATE SAMPLE
MFST.DEGF                 75 : MUD FILTRATE SAMPLE TEMPERATURE
RMC .OHMM               2.98 : RESISTIVITY MUD CAKE
MCST.DEGF                 75 : MUD CAKE SAMPLE TEMPERATURE
MFSS.                      M : MUD FILTRATE SAMPLE SOURCE
MCSS.                      C : MUD CAKE SAMPLE SOURCE
RMB .OHMM               0.87 : RESISTIVITY MUD AT BHT
TCS .HRS                 700 : TIME CIRCULATED STOPPED
TLAB.HRS                1430 : TIME LOGGER AT BOTTOM
LUN .                   8138 : LOGGING UNIT NUMBER
LUL .                BRENHAM : LOGGING UNIT LOCATION
ENGI.              STAVINOHA : RECORDING ENGINEER
WITN.                  VODAK : WITNESSED BY
CLNT.                A2DTECH : CLIENT CODE
ORIG.            2" 5" PRINT : ORIGIN OF DATA
UWI .         42051312420000 : UNIQUE WELL ID
DICO. A2D Technologies, Inc. : DIGITIZING COMPANY
~Other -----------------------------------------------------
~ASCII -----------------------------------------------------
# ...
 3000.00000   11.73850   11.73850  135.23020    -999.25    -999.25    -999.25    -999.25    -999.25    -999.25    7.39480    -999.25  136.98910  136.98910   73.09000   73.09000   20.89530    7.39480    9.33170    9.33170    -999.25    -999.25    -999.25    -999.25  -43.20590  -21.56740   20.89530
 3050.00000   12.15870   12.15870  106.99540    -999.25    -999.25    -999.25    -999.25    -999.25    -999.25    9.34620    -999.25  103.83870  103.83870   78.05410   78.05410   13.00900    9.34620   10.75610   10.75610    -999.25    -999.25    -999.25    -999.25  -66.38400  -44.79150   13.00900
 3100.00000   12.44640   12.44640  153.80360    -999.25    -999.25    -999.25    -999.25    -999.25    -999.25    6.50180    -999.25  111.54300  111.54300   69.17510   69.17510   10.81460    6.50180    7.56650    7.56650    -999.25    -999.25    -999.25    -999.25  -76.49680  -54.95030   10.81460
 3150.00000   12.34500   12.34500  164.24410    -999.25    -999.25    -999.25    -999.25    -999.25    -999.25    6.08850    -999.25  108.70880  108.70880   64.37120   64.37120   11.64230    6.08850    6.69390    6.69390    -999.25    -999.25    -999.25    -999.25  -55.94460  -34.44400   11.64230
 3200.00000   11.85400   11.85400  219.02450    -999.25    -999.25    -999.25    -999.25    -999.25    -999.25    4.56570    -999.25   99.04560   99.04560  113.32460  113.32460    7.80620    4.56570    5.14070    5.14070    -999.25    -999.25    -999.25    -999.25  -50.24360  -28.78900    7.80620
 3250.00000   12.99460   12.99460  130.52440    -999.25    -999.25    -999.25    -999.25    -999.25    -999.25    7.66140    -999.25  101.02330  101.02330   69.09800   69.09800   11.64580    7.66140    8.41400    8.41400    -999.25    -999.25    -999.25    -999.25  -63.11080  -41.70220   11.64580
 3300.00000   12.31690   12.31690  142.96740    -999.25    -999.25    -999.25    -999.25    -999.25    -999.25    6.99460    -999.25  102.33590  102.33590   98.15440   98.15440   10.00610    6.99460    7.54210    7.54210    -999.25    -999.25    -999.25    -999.25  -58.43730  -37.07470   10.00610
 3350.00000   13.11560   13.11560  237.90830    -999.25    -999.25    -999.25    -999.25    -999.25    -999.25    4.20330    -999.25  111.35840  111.35840   91.58020   91.58020    7.36140    4.20330    4.45830    4.45830    -999.25    -999.25    -999.25    -999.25  -54.99460  -33.67790    7.36140
 3400.00000   12.58160   12.58160  169.97260    -999.25    -999.25    -999.25    -999.25    -999.25    -999.25    5.88330    -999.25   82.77140   82.77140   66.02150   66.02150   12.82190    5.88330    7.32450    7.32450    -999.25    -999.25    -999.25    -999.25  -59.28960  -38.01890   12.82190
 3450.00000   13.24020   13.24020  331.64200    -999.25    -999.25    -999.25    -999.25    -999.25    -999.25    3.01530    -999.25  106.05390  106.05390  124.41170  124.41170    6.27880    3.01530    3.29040    3.29040    -999.25    -999.25    -999.25    -999.25  -39.49820  -18.27350    6.27880
 3500.00000    -999.25    -999.25  266.72360    -999.25    -999.25    -999.25    -999.25    -999.25    -999.25    3.74920    -999.25    -999.25    -999.25  106.07040  106.07040    7.15360    3.74920    3.99660    3.99660    -999.25    -999.25    -999.25    -999.25  -48.76540  -27.58670    7.15360
 3550.00000    -999.25    5.24390  115.21800    1.49390    0.07990    2.48000    -999.25    0.10300    0.13450    8.67920    0.07990    -999.25    -999.25   62.51710   62.51710    -999.25    8.67920   14.70840   14.70840    0.07990    0.21030    0.16670   31.55940  -47.13770  -26.00490   31.55940
 3600.00000    -999.25    5.80720  412.74560    2.05720    0.05700    2.37470    -999.25    0.16690    0.19610    2.42280    0.05700    -999.25    -999.25   83.73040   83.73040    -999.25    2.42280    2.51960    2.51960    0.05700    0.36050    0.31700    2.91530  -25.78620   -4.69940    2.91530
 3650.00000    -999.25    5.52690  521.24060    1.77690    0.06050    2.31000    -999.25    0.20600    0.23390    1.91850    0.06050    -999.25    -999.25   85.09930   85.09930    -999.25    1.91850    2.03100    2.03100    0.06050    0.40250    0.35970    2.11040  -24.32790   -3.28710    2.11040
 3700.00000    -999.25    6.31590  509.65800    2.56590    0.07030    2.32540    -999.25    0.19670    0.22490    1.96210    0.07030    -999.25    -999.25   82.39570   82.39570    -999.25    1.96210    2.01850    2.01850    0.07030    0.41510    0.37250    2.18490  -23.28890   -2.29410    2.18490
 3750.00000    -999.25    5.48220  413.75320    1.73220    0.08680    2.32660    -999.25    0.19600    0.22420    2.41690    0.08680    -999.25    -999.25   91.26840   91.26840    -999.25    2.41690    2.55380    2.55380    0.08680    0.35770    0.31420    2.89820  -24.32440   -3.37550    2.89820
 3800.00000    -999.25    5.66960  417.67610    1.91960    0.05960    2.35140    -999.25    0.18100    0.20970    2.39420    0.05960    -999.25    -999.25   86.36390   86.36390    -999.25    2.39420    2.53370    2.53370    0.05960    0.39670    0.35380    2.72990  -23.10900   -2.32870    2.72990
 3850.00000    -999.25    6.34890  421.62070    2.59890    0.09840    2.26230    -999.25    0.23500    0.26180    2.37180    0.09840    -999.25    -999.25   86.27500   86.27500    -999.25    2.37180    2.50740    2.50740    0.09840    0.36330    0.31980    2.80900  -23.59040   -3.05380    2.80900
 3900.00000    -999.25    7.81100  532.28300    4.06100    0.07210    2.32590    -999.25    0.19640    0.22460    1.87870    0.07210    -999.25    -999.25   93.34720   93.34720    -999.25    1.87870    1.92590    1.92590    0.07210    0.38170    0.33850    1.95840  -22.94840   -2.65550    1.95840
 3950.00000    -999.25    9.34650  635.72790    5.59650    0.09270    2.38890    -999.25    0.15830    0.18780    1.57300    0.09270    -999.25    -999.25   94.18290   94.18290    -999.25    1.57300    1.63290    1.63290    0.09270    0.40080    0.35790    1.79880  -22.94590   -2.89670    1.79880
 4000.00000    -999.25   10.47700  477.34980    6.72700    0.09630    2.43660    -999.25    0.12940    0.15990    2.09490    0.09630    -999.25    -999.25   91.54220   91.54220    -999.25    2.09490    2.17780    2.17780    0.09630    0.31030    0.26640    2.36620  -23.88410   -4.07870    2.36620
 4050.00000    -999.25   12.60950  646.99790    8.85950    0.08030    2.44200    -999.25    0.12600    0.15670    1.54560    0.08030    -999.25    -999.25   95.57680   95.57680    -999.25    1.54560    1.60430    1.60430    0.08030    0.34910    0.30550    1.70920  -21.33540   -1.77370    1.70920
 4100.00000    -999.25   10.66510  684.08810    6.91510    0.06330    2.44480    -999.25    0.12440    0.15510    1.46180    0.06330    -999.25    -999.25   93.17380   93.17380    -999.25    1.46180    1.51710    1.51710    0.06330    0.36150    0.31800    1.61290  -20.84420   -1.52620    1.61290
 4150.00000    -999.25   10.71240  698.56790    6.96240    0.09460    2.44960    -999.25    0.12150    0.15230    1.43150    0.09460    -999.25    -999.25   93.31980   93.31980    -999.25    1.43150    1.49660    1.49660    0.09460    0.36070    0.31720    1.64150  -22.56000   -3.48570    1.64150
 4200.00000    -999.25    8.38000  756.31520    4.63000    0.09910    2.42460    -999.25    0.13660    0.16690    1.32220    0.09910    -999.25    -999.25  101.21350  101.21350    -999.25    1.32220    1.37600    1.37600    0.09910    0.42730    0.38500    1.54570  -20.72510   -1.89450    1.54570
 4250.00000    -999.25    6.25320  643.74920    2.50320    0.05730    2.42080    -999.25    0.13890    0.16910    1.55340    0.05730    -999.25    -999.25   97.32650   97.32650    -999.25    1.55340    1.62220    1.62220    0.05730    0.35370    0.31010    1.79450  -19.81040   -1.22350    1.79450
 4300.00000    -999.25    7.55300  775.25390    3.80300    0.08320    2.36220    -999.25    0.17440    0.20340    1.28990    0.08320    -999.25    -999.25   94.47700   94.47700    -999.25    1.28990    1.34530    1.34530    0.08320    0.40020    0.35730    1.37120  -24.09130   -5.74810    1.37120
