~Version ---------------------------------------------------
VERS. 2.0 : CWLS log ASCII Standard -VERSION 2.0
WRAP. YES : MULTIPLE LINES PER DEPTH STEP
~Well ------------------------------------------------------
STRT.FT                        2500.0 : START DEPTH
STOP.FT                       11350.0 : STOP DEPTH
STEP.FT                      50.00000 : STEP LENGTH
NULL.                         -999.25 : NULL VALUE
COMP. UNION PACIFIC RESOURCES COMPANY : COMPANY
WELL.             BOZKA-BOZKA UNIT #1 : WELL
FLD .                     PEACH CREEK : FIELD
LOC .                                 : LOCATION
CNTY.                        GONZALES : COUNTY
STAT.                           TEXAS : STATE
CTRY.        UNITED STATES OF AMERICA : COUNTRY
SRVC.                    Schlumberger : SERVICE COMPANY
DATE.                     08-Oct-1991 : LOGDATE
API .                  42177319460000 : API NUMBER
UWI .                  42177319460000 : UNIQUE WELL ID
SLAT.WGS84              29.4649895079 : SURFACE LATITUDE
SLON.WGS84             -97.2961371962 : SURFACE LONGITUDE
~Curve Information -----------------------------------------
DEPT    .FT    : DEPTH FEET
C1ED    .IN    : CALIPER 1 FROM CALIPER LOG
C2ED    .IN    : CALIPER 2 FROM CALIPER LOG
CALRED  .IN    : CALIPER FROM RESISTIVITY LOG
CALWS   .IN    : CALIPER [CALRED]
CONDWS  .MMHO  : CONDUCTIVITY [1000/DRESWS]
DCORWS  .G/C3  : DENSITY CORRECTION [DRHOED]
DENWS   .G/C3  : BULK DENSITY [M=2.65 F=1.0] [CALCULATED FROM DPOWS]
DPHISSED.V/V   : DENSITY POROSITY SANDSTONE [M=2.65 F=1.0] FROM DENSITY LOG, DEPTH ADJUSTED WITH [GRRED]
DPOWS   .V/V   : DENSITY POROSITY [DPHISSED]
DRESWS  .OHMM  : DEEP RESISTIVITY [ILDED]
DRHOED  .G/C3  : DENSITY CORRECTION FROM DENSITY LOG, DEPTH ADJUSTED WITH [GRRED]
GRDED   .GAPI  : GAMMA RAY FROM DENSITY LOG, DEPTH ADJUSTED WITH [GRRED]
GRRED   .GAPI  : GAMMA RAY FROM RESISTIVITY LOG
GRWS    .GAPI  : GAMMA RAY [GRRED]
ILDED   .OHMM  : INDUCTION LOG DEEP RESISTIVITY
ILMED   .OHMM  : INDUCTION LOG MEDIUM RESISTIVITY
MRESWS  .OHMM  : MEDIUM RESISTIVITY [ILMED]
NPHISSED.V/V   : NEUTRON POROSITY SANDSTONE FROM DENSITY LOG, DEPTH ADJUSTED WITH [GRRED]
NPOWS   .V/V   : NEUTRON POROSITY SANDSTONE [NPHISSED]
PEFED   .B/E   : PHOTOELECTRIC FACTOR FROM DENSITY LOG, DEPTH ADJUSTED WITH [GRRED]
PEFWS   .B/E   : PHOTOELECTRIC FACTOR [PEFED]
SFLUED  .OHMM  : SPHERICALLY FOCUSED LOG RESISTIVITY
SPRED   .MV    : SPONTANEOUS POTENTIAL FROM RESISTIVITY LOG
SPWS    .MV    : SPONTANEOUS POTENTIAL [BASELINE 0 MV] [SPRED]
SRESWS  .OHMM  : SHALLOW RESISTIVITY [SFLUED]
TENDED  .LBF   : TENSION FROM DENSITY LOG, DEPTH ADJUSTED WITH [GRRED]
TENRED  .LBF   : TENSION FROM RESISTIVITY LOG
~Params ----------------------------------------------------
PD  .                     GL : PERMANENT DATUM
EPD .FT                  312 : ELEVATION PERMANENT DATUM
LMF .                    RKB : LOG MEASURED FROM
DAPD.FT                   24 : FEET ABOVE PERMANENT DATUM
DMF .                    RKB : DRILLING MEASURED FROM
EKB .FT                  336 : KELLY BUSHING
EDF .FT                  335 : DRILLING FLOOR
EGL .FT                  312 : GROUND LEVEL
DATE.               10/09/91 : RUN DATE
RUN .                      1 : RUN NUMBER
DD  .FT                11400 : DEPTH DRILLER
DL  .FT                11376 : DEPTH LOGGER
BLI .FT                11370 : BOTTOM LOG INTERVAL
TLI .FT                 2518 : TOP LOG INTERVAL
CS  .IN                10.75 : CASING SIZE
CBD .FT                 2520 : CASING BOTTOM DRILLER
CBL .FT                 2518 : CASING BOTTOM LOGGER
BS  .IN                9.875 : BIT SIZE
BSD .FT                11400 : BIT SIZE AT DEPTH
DFT .          NEW DRILL GEL : DRILLING FLUID TYPE
DFD .                    9.6 : DRILLING FLUID DENSITY
MSS .              CIRC TANK : MUD SAMPLE SOURCE
MST .DEGF                 75 : MUD SAMPLE TEMPERATURE
RMF .OHMM               2.01 : RESISTIVITY MUD FILTRATE SAMPLE
MFST.DEGF                 75 : MUD FILTRATE SAMPLE TEMPERATURE
RMC .OHMM               4.02 : RESISTIVITY MUD CAKE
MCST.DEGF                 75 : MUD CAKE SAMPLE TEMPERATURE
MFSS.                   MEAS : MUD FILTRATE SAMPLE SOURCE
MCSS.                   CALC : MUD CAKE SAMPLE SOURCE
TCS .HRS                2200 : TIME CIRCULATED STOPPED
TLAB.HRS                2020 : TIME LOGGER AT BOTTOM
LUL .               ALICE TX : LOGGING UNIT LOCATION
ENGI.             ROTAN CAMP : RECORDING ENGINEER
WITN.                   SVOR : WITNESSED BY
CLNT.                A2DTECH : CLIENT CODE
ORIG.         1" 2" 5" PRINT : ORIGIN OF DATA
UWI .         42177319460000 : UNIQUE WELL ID
DICO. A2D Technologies, Inc. : DIGITIZING COMPANY
~Other -----------------------------------------------------
~ASCII -----------------------------------------------------
# ...
 3800.00000    -999.25    -999.25    -999.25    -999.25  331.23550    -999.25    -999.25    -999.25    -999.25    3.01900    -999.25   57.73380   58.07060   58.07060    3.01900    4.14890    4.14890    0.36410    0.36410    -999.25    -999.25    6.90230  -76.41150  -68.03150    6.90230 2301.57500 1223.14700
 3850.00000    -999.25    -999.25    -999.25    -999.25  349.65040    -999.25    -999.25    -999.25    -999.25    2.86000    -999.25   60.92520   60.74300   60.74300    2.86000    4.16710    4.16710    0.34760    0.34760    -999.25    -999.25    8.18230  -72.78790  -64.64350    8.18230 2369.39970 1233.35420
 3900.00000    -999.25    -999.25    -999.25    -999.25  594.95480    -999.25    -999.25    -999.25    -999.25    1.68080    -999.25   41.42820   42.27350   42.27350    1.68080    2.08750    2.08750    0.44840    0.44840    -999.25    -999.25    3.96830  -77.50960  -69.60080    3.96830 2399.81960 1233.23300
 3950.00000    -999.25    -999.25    -999.25    -999.25  796.81270    -999.25    -999.25    -999.25    -999.25    1.25500    -999.25   44.99210   45.36180   45.36180    1.25500    1.32390    1.32390    0.42220    0.42220    -999.25    -999.25    2.55810  -74.68950  -67.01630    2.55810 2415.83940 1237.47360
 4000.00000    -999.25    -999.25    -999.25    -999.25  354.74830    -999.25    -999.25    -999.25    -999.25    2.81890    -999.25   70.14050   70.31790   70.31790    2.81890    2.93780    2.93780    0.42080    0.42080    -999.25    -999.25    3.66340  -36.09570  -28.65810    3.66340 2466.89970 1253.81850
 4050.00000    -999.25    -999.25    -999.25    -999.25  399.87210    -999.25    -999.25    -999.25    -999.25    2.50080    -999.25   46.79170   46.34840   46.34840    2.50080    3.69980    3.69980    0.29930    0.29930    -999.25    -999.25    7.64930  -79.31910  -72.11710    7.64930 2430.41190 1246.35250
 4100.00000    -999.25    -999.25    -999.25    -999.25  701.95140    -999.25    -999.25    -999.25    -999.25    1.42460    -999.25   41.51540   41.44190   41.44190    1.42460    1.77870    1.77870    0.35590    0.35590    -999.25    -999.25    3.81840  -82.87320  -75.90670    3.81840 2519.12280 1253.03200
 4150.00000    -999.25    -999.25    -999.25    -999.25  586.92330    -999.25    -999.25    -999.25    -999.25    1.70380    -999.25   71.57440   72.42090   72.42090    1.70380    2.12500    2.12500    0.34690    0.34690    -999.25    -999.25    3.73890  -51.73390  -45.00300    3.73890 2482.68870 1248.92240
 4200.00000    -999.25    -999.25    -999.25    -999.25  477.62340    -999.25    -999.25    -999.25    -999.25    2.09370    -999.25   65.13630   65.33190   65.33190    2.09370    2.30280    2.30280    0.49730    0.49730    -999.25    -999.25    3.03250  -38.87330  -32.37800    3.03250 2528.37840 1263.33590
 4250.00000    -999.25    -999.25    -999.25    -999.25  515.22490    -999.25    -999.25    -999.25    -999.25    1.94090    -999.25   61.75160   61.60320   61.60320    1.94090    2.49540    2.49540    0.34460    0.34460    -999.25    -999.25    3.74200  -49.28220  -42.01800    3.74200 2521.52860 1256.86320
 4300.00000    -999.25    -999.25    -999.25    -999.25  791.76560    -999.25    -999.25    -999.25    -999.25    1.26300    -999.25   51.84120   51.98550   51.98550    1.26300    1.67380    1.67380    0.32890    0.32890    -999.25    -999.25    4.50040  -80.28180  -73.33280    4.50040 2538.94480 1269.90490
 4350.00000    -999.25    -999.25    -999.25    -999.25  560.78960    -999.25    -999.25    -999.25    -999.25    1.78320    -999.25   41.65530   40.67020   40.67020    1.78320    2.52470    2.52470    0.33690    0.33690    -999.25    -999.25    5.57730  -81.88310  -75.24940    5.57730 2565.74410 1263.18970
 4400.00000    -999.25    -999.25    -999.25    -999.25  495.31920    -999.25    -999.25    -999.25    -999.25    2.01890    -999.25   85.84230   86.00710   86.00710    2.01890    1.95570    1.95570    0.38340    0.38340    -999.25    -999.25    2.26810  -12.42730   -6.10890    2.26810 2624.76370 1275.89360
 4450.00000    -999.25    -999.25    -999.25    -999.25  599.98800    -999.25    -999.25    -999.25    -999.25    1.66670    -999.25   64.01870   62.69170   62.69170    1.66670    2.11640    2.11640    0.32770    0.32770    -999.25    -999.25    4.60800  -62.80180  -56.79870    4.60800 2563.29930 1276.89700
 4500.00000    -999.25    -999.25    -999.25    -999.25  547.85520    -999.25    -999.25    -999.25    -999.25    1.82530    -999.25   77.39700   77.67800   77.67800    1.82530    2.01750    2.01750    0.36160    0.36160    -999.25    -999.25    2.39140  -26.34710  -20.65920    2.39140 2571.75590 1270.58840
 4550.00000    -999.25    -999.25    -999.25    -999.25  560.19270    -999.25    -999.25    -999.25    -999.25    1.78510    -999.25   73.96430   71.66840   71.66840    1.78510    1.90110    1.90110    0.31930    0.31930    -999.25    -999.25    3.18480  -16.07650  -10.70390    3.18480 2602.88770 1273.39200
 4600.00000    -999.25    -999.25    -999.25    -999.25  582.17380    -999.25    -999.25    -999.25    -999.25    1.71770    -999.25   82.05390   81.36350   81.36350    1.71770    1.79640    1.79640    0.34990    0.34990    -999.25    -999.25    2.29050   -6.13490   -1.07760    2.29050 2658.27200 1280.96080
 4650.00000    -999.25    -999.25    -999.25    -999.25  849.47330    -999.25    -999.25    -999.25    -999.25    1.17720    -999.25   54.25470   53.71970   53.71970    1.17720    1.57180    1.57180    0.34310    0.34310    -999.25    -999.25    3.86950  -79.31890  -74.57690    3.86950 2659.23490 1292.63510
 4700.00000    -999.25    -999.25    -999.25    -999.25  861.02980    -999.25    -999.25    -999.25    -999.25    1.16140    -999.25   52.17420   52.73260   52.73260    1.16140    1.48810    1.48810    0.29340    0.29340    -999.25    -999.25    3.88470  -86.51800  -82.09130    3.88470 2624.12790 1289.68570
 4750.00000    -999.25    -999.25    -999.25    -999.25  495.34380    -999.25    -999.25    -999.25    -999.25    2.01880    -999.25   62.71820   62.70010   62.70010    2.01880    2.48610    2.48610    0.29440    0.29440    -999.25    -999.25    4.77570  -54.94360  -50.83210    4.77570 2662.91190 1289.88460
 4800.00000    -999.25    -999.25    -999.25    -999.25  722.43900    -999.25    -999.25    -999.25    -999.25    1.38420    -999.25   90.07810   90.82450   90.82450    1.38420    1.31860    1.31860    0.44580    0.44580    -999.25    -999.25    1.74370   -6.64460   -2.84840    1.74370 2652.50440 1288.65250
 4850.00000    -999.25    -999.25    -999.25    -999.25  612.07000    -999.25    -999.25    -999.25    -999.25    1.63380    -999.25   58.26060   59.55600   59.55600    1.63380    2.38360    2.38360    0.30790    0.30790    -999.25    -999.25    5.74820  -82.14370  -78.64370    5.74820 2718.08080 1293.14260
 4900.00000    -999.25    -999.25    -999.25    -999.25  885.42590    -999.25    -999.25    -999.25    -999.25    1.12940    -999.25   85.44240   85.46250   85.46250    1.12940    1.06980    1.06980    0.43520    0.43520    -999.25    -999.25    1.40210   -5.23060   -1.98450    1.40210 2674.09620 1296.24650
 4950.00000    -999.25    -999.25    -999.25    -999.25  724.21780    -999.25    -999.25    -999.25    -999.25    1.38080    -999.25   83.77290   84.86850   84.86850    1.38080    1.30840    1.30840    0.39860    0.39860    -999.25    -999.25    1.69650   -9.51900   -6.52670    1.69650 2701.80520 1292.24560
 5000.00000    -999.25    -999.25    -999.25    -999.25  714.23470    -999.25    -999.25    -999.25    -999.25    1.40010    -999.25   90.36750   87.37250   87.37250    1.40010    1.32260    1.32260    0.38620    0.38620    -999.25    -999.25    1.75730   -5.60100   -2.86250    1.75730 2704.94210 1299.37060
 5050.00000    -999.25    -999.25    -999.25    -999.25  773.57460    -999.25    -999.25    -999.25    -999.25    1.29270    -999.25   89.33010   89.01010   89.01010    1.29270    1.32560    1.32560    0.41700    0.41700    -999.25    -999.25    1.64440   -8.05010   -5.56540    1.64440 2772.28470 1309.12760
