~Version ---------------------------------------------------
VERS. 2.0 : CWLS log ASCII Standard -VERSION 2.0
WRAP.  NO : ONE LINE PER DEPTH STEP
~Well ------------------------------------------------------
STRT.F                   2050.0 : START DEPTH
STOP.F                  10350.0 : STOP DEPTH
STEP.F                 50.00000 : STEP LENGTH
NULL.                   -999.25 : NULL VALUE
COMP. JOHN H YOUNG INCORPORATED : COMPANY
WELL.                 LANELL #1 : WELL
FLD .             WHITE KITCHEN : FIELD
LOC .                           : LOCATION
CNTY.                  LA SALLE : COUNTY
STAT.                     TEXAS : STATE
CTRY.  UNITED STATES OF AMERICA : COUNTRY
SRVC.              Schlumberger : SERVICE COMPANY
DATE.               22-Jan-1993 : LOGDATE
API .            42283315220000 : API NUMBER
UWI .            42283315220000 : UNIQUE WELL ID
SLAT.WGS84        28.3644037948 : SURFACE LATITUDE
SLON.WGS84       -98.9509534343 : SURFACE LONGITUDE
~Curve Information -----------------------------------------
DEPT.F                 : 
GRR .GAPI 06 310 01 00 : GAMMA RAY FROM RES.
SPR .MV   06 010 01 00 : SPONTANEOUS POTENTIAL FROM RES.
DCAL.IN   06 280 30 00 : DIFFERENTIAL CALIPER FROM RES
IDER.OHMM 06 120 46 00 : INDUCTION DEEP ENHANCED RESOLUTION PHASOR RES.
IMER.OHMM 06 120 44 00 : INDUCTION MEDIUM ENHANCED RESOLUTION PHASOR RES
SFLU.OHMM 06 220 01 00 : SPHERICALLY FOCUSED LOG UNAVERAGED RES.
DT  .US/F 60 520 00 00 : INTERVAL TRANSIT TIME
CALD.IN   45 280 60 00 : CALIPER FROM DENSITY LOG
PEF .B/E  45 358 01 00 : PHOTOELECTRIC FACTOR
DRHO.G/C3 45 356 01 00 : DENSITY CORRECTION
RHOB.G/C3 45 350 01 00 : BULK DENSITY
NPHI.DEC  42 890 01 00 : NEUTRON POROSITY LIMESTONE
DPHI.DEC  45 890 10 00 : DENSITY POROSITY LIMESTONE
~Params ----------------------------------------------------
PD  .                     GL : PERMANENT DATUM
EPD .F                   421 : ELEVATION PERMANENT DATUM
LMF .                    RKB : LOG MEASURED FROM
DAPD.F                  19.4 : FEET ABOVE PERMANENT DATUM
DMF .                    RKB : DRILLING MEASURED FROM
EKB .F                 440.4 : KELLING BUSHING
EDF .F                 439.4 : DRILLING FLOOR
EGL .F                   421 : GROUND LEVEL
DATE.            22-JAN-1993 : RUN DATE
RUN .                      1 : RUN NUMBER
DD  .F                 10380 : DEPTH DRILLER
DL  .F                 10388 : DEPTH LOGGER
BLI .F                 10382 : BOTTOM LOG INTERVAL
TLI .F                  2141 : TOP LOG INTERVAL
CS  .IN                9.625 : CASING SIZE
CBD .F                  2135 : CASING BOTTOM DRILLER
CBL .F                  2141 : CASING BOTTOM LOGGER
BS  .IN                 8.75 : BIT SIZE
BSD .F                 10380 : BIT SIZE AT DEPTH
DFT .                POLYMER : DRILLING FLUID TYPE
DFD .                    9.6 : DRILLING FLUID DENSITY
DFV .                     35 : DRILLING FLUID VISCOSITY
DFPH.                    8.8 : DRILLING FLUID PH
DFL .                    7.2 : DRILLING FLUID LOSS
MSS .                 MUDPIT : MUD SAMPLE SOURCE
RMS .OHMM                  4 : RESISTIVITY MUD SAMPLE
MST .F                    75 : MUD SAMPLE TEMPERATURE
RMF .OHMM                3.7 : RESISTIVITY MUD FILTRATE SAMPLE
MFST.F                    75 : MUD FILTRATE SAMPLE TEMPERATURE
RMC .OHMM                  6 : RESISTIVITY MUD CAKE
MCST.F                    75 : MUD CAKE SAMPLE TEMPERATURE
MFSS.                   MEAS : MUD FILTRATE SAMPLE SOURCE
MCSS.                   CALC : MUD CAKE SAMPLE SOURCE
RMB .OHMM              1.417 : RESISTIVITY MUD AT BHT
TCS .HRS                2030 : TIME CURCULATED STOPPED
TLAB.HRS                 100 : TIME LOGGER AT BOTTOM
LUN .                   2024 : LOGGING UNIT NUMBER
LUL .                 LAREDO : LOGGING UNIT LOCATION
ENGI.           BRIAN HOOVER : RECORDING ENGINEER
WITN.       MR. MARK O'KOREN : WITNESSED BY
CLNT.                A2DTECH : CLIENT CODE
ORIG.               5" PRINT : ORIGIN OF DATA
UWI .         42283315220000 : UNIQUE WELL ID
DICO. A2D Technologies, Inc. : DIGITIZING COMPANY
~Other -----------------------------------------------------
~ASCII -----------------------------------------------------
# ...
 4650.00000   86.13740  -36.55870    0.34540    4.25680    4.72440    4.61900   83.47300    9.06770    2.66720    0.07820    2.38540    0.25860    0.15950
 4700.00000   57.02140  -88.50630    0.48440    5.22580    7.45150   16.17100   81.73650    9.20300    2.56340    0.02080    2.34330    0.22790    0.18200
 4750.00000   89.95470  -15.60540    1.77440    2.51860    2.54990    2.52480   93.41290   10.40600    2.49380    0.03740    2.45450    0.29770    0.11850
 4800.00000   88.10240  -21.16450    1.33730    3.38270    3.48500    3.92000   89.82040    9.95490    2.70650    0.02510    2.41620    0.31580    0.14140
 4850.00000   93.63690  -21.41570    0.76630    3.23510    3.25200    3.58280   94.01270    9.39850    2.70380    0.04050    2.32080    0.30090    0.19820
 4900.00000   66.18980  -97.46970    0.19530    3.07050    4.56460   14.14940   85.02970    8.94840    2.26040    0.01380    2.27670    0.26040    0.22790
 4950.00000   46.91150  -77.44030    0.25540    3.85760    5.31510   15.00760   83.98190    9.01800    2.43890    0.00630    2.30580    0.24230    0.20950
 5000.00000  107.53010  -15.53090    2.12140    2.21620    2.21880    2.25360   97.30560   10.80480    2.75200    0.07500    2.32690    0.36980    0.20230
 5050.00000  106.40060  -18.10240    1.75950    2.99040    3.01360    2.96300   89.90960   10.47450    2.64700    0.04530    2.42980    0.29320    0.13560
 5100.00000   89.90960  -16.71190    2.84000    2.37740    2.52390    2.60600   91.24380   11.46840    2.60540    0.05140    2.26000    0.35350    0.23450
 5150.00000  110.91890  -14.67610    2.43910    2.00000    1.98970    1.81850   97.59040   10.90990    2.60540    0.10390    2.26210    0.39950    0.20530
 5200.00000  106.17470  -14.78940    2.32900    2.90370    2.92070    2.96760   90.51190   11.00000    2.79610    0.12830    2.38770    0.30340    0.15850
 5250.00000   99.84940  -15.26630    1.18710    3.13490    3.07680    4.40940   95.10390    9.95710    3.10530    0.06910    2.56570    0.25820    0.05060
 5300.00000   97.59150  -17.40460    1.93190    2.12840    2.16190    1.92200   92.31660   10.63960    2.57530    0.05570    2.32630    0.34470    0.19730
 5350.00000  105.51320  -14.30710    2.59950    2.08620    2.07400    2.11750   90.81330   11.30030    2.66570    0.11140    2.07740    0.35650    0.34000
 5400.00000   58.87480  -60.87350    0.76630    2.76800    3.34040    8.16300   85.84340    9.48170    2.28920    0.00780    2.30580    0.25460    0.20620
 5450.00000   93.07230  -19.00630    1.16100    2.98680    2.99290    2.85130   86.29620    9.90580    2.43970    0.01980    2.45790    0.26880    0.11650
 5500.00000   47.20120  -71.56600    0.19530    3.50170    4.62830   10.61810   74.99640    8.82040    2.26790    0.09340    2.41470    0.23310    0.14300
 5550.00000  112.58490  -16.59640    1.30090    2.90530    2.92720    3.29750   88.40360    9.85890    2.84640    0.11740    2.46480    0.31580    0.12420
 5600.00000  119.00390  -13.88550    -999.25    2.34960    2.34370    2.58230   94.57830   11.03000    2.72590    0.14590    2.26150    0.49900    0.23820
 5650.00000  103.01200  -14.38200    -999.25    2.23400    2.25360    2.28840   98.94580    -999.25    -999.25    -999.25    -999.25    -999.25    -999.25
 5700.00000  105.44840  -15.39140    -999.25    3.36640    3.36320    3.68890    -999.25    -999.25    -999.25    -999.25    -999.25    -999.25    -999.25
 5750.00000  103.83900  -13.43370    -999.25    2.51270    2.51740    2.51740    -999.25    -999.25    -999.25    -999.25    -999.25    -999.25    -999.25
 5800.00000  101.97540  -13.43370    -999.25    2.03160    2.03950    2.14700    -999.25    -999.25    -999.25    -999.25    -999.25    -999.25    -999.25
 5850.00000  109.79070  -13.58430    -999.25    2.01100    2.00350    2.00350    -999.25    -999.25    -999.25    -999.25    -999.25    -999.25    -999.25
 5900.00000  104.81930  -13.28310    -999.25    1.64800    1.63920    1.63920    -999.25    -999.25    -999.25    -999.25    -999.25    -999.25    -999.25
 5950.00000   95.61770  -13.28310    -999.25    1.86970    1.88250    1.75660    -999.25    -999.25    -999.25    -999.25    -999.25    -999.25    -999.25
 6000.00000   74.54820  -14.48820    -999.25    3.35930    3.34570    3.48720    -999.25    -999.25    -999.25    -999.25    -999.25    -999.25    -999.25
 6050.00000   84.26130  -14.03600    -999.25    2.58310    2.55250    2.67060    -999.25    -999.25    -999.25    -999.25    -999.25    -999.25    -999.25
 6100.00000   86.06930  -14.77590    -999.25    2.61910    2.62410    2.63060    -999.25    -999.25    -999.25    -999.25    -999.25    -999.25    -999.25
 6150.00000   85.69350  -13.58390    -999.25    2.24950    2.31680    2.11750    -999.25    -999.25    -999.25    -999.25    -999.25    -999.25    -999.25
 6200.00000   90.58660  -13.13250    -999.25    2.19480    2.17970    2.16190    -999.25    -999.25    -999.25    -999.25    -999.25    -999.25    -999.25
 6250.00000   86.74660  -13.13250    -999.25    2.19480    2.19480    2.30360    -999.25    -999.25    -999.25    -999.25    -999.25    -999.25    -999.25
 6300.00000   77.38930  -15.39160    -999.25    3.07520    3.12980    3.16540    -999.25    -999.25    -999.25    -999.25    -999.25    -999.25    -999.25
 6350.00000   82.90610  -12.53010    -999.25    2.09270    2.05400    2.07710    -999.25    -999.25    -999.25    -999.25    -999.25    -999.25    -999.25
 6400.00000  107.07830  -10.42120    -999.25    1.13340    1.13340    1.16510    -999.25    -999.25    -999.25    -999.25    -999.25    -999.25    -999.25
 6450.00000   88.27670  -13.14400    -999.25    3.17010    3.20490    3.45700    -999.25    -999.25    -999.25    -999.25    -999.25    -999.25    -999.25
 6500.00000  114.30720  -14.96150    -999.25    2.43350    2.32280    2.46720    -999.25    -999.25    -999.25    -999.25    -999.25    -999.25    -999.25
 6550.00000   84.48720  -16.29520    -999.25    2.26830    2.27160    2.35120    -999.25    -999.25    -999.25    -999.25    -999.25    -999.25    -999.25
 6600.00000  101.34110  -16.33800    -999.25    1.41750    1.45530    1.49700    -999.25    -999.25    -999.25    -999.25    -999.25    -999.25    -999.25
 6650.00000   73.19410  -16.29530    -999.25    2.58900    2.58900    2.67400    -999.25    -999.25    -999.25    -999.25    -999.25    -999.25    -999.25
 6700.00000   56.70110  -17.55030    -999.25    4.49060    4.39080    5.19330    -999.25    -999.25    -999.25    -999.25    -999.25    -999.25    -999.25
 6750.00000   85.92640  -16.59640    -999.25    1.92870    1.94040    1.92570    -999.25    -999.25    -999.25    -999.25    -999.25    -999.25    -999.25
 6800.00000   81.77710  -14.83930    -999.25    2.51740    2.62490    2.70870    -999.25    -999.25    -999.25    -999.25    -999.25    -999.25    -999.25
 6850.00000   78.77990  -16.74670    -999.25    1.98970    1.97950    1.99310    -999.25    -999.25    -999.25    -999.25    -999.25    -999.25    -999.25
 6900.00000   79.09890  -15.69280    -999.25    2.06290    2.07720    2.08980    -999.25    -999.25    -999.25    -999.25    -999.25    -999.25    -999.25
 6950.00000   81.77750  -16.14480    -999.25    2.10600    2.11030    2.28730    -999.25    -999.25    -999.25    -999.25    -999.25    -999.25    -999.25
 7000.00000   79.51810  -14.67170    -999.25    2.54630    2.55360    2.61940    -999.25    -999.25    -999.25    -999.25    -999.25    -999.25    -999.25
 7050.00000   80.87330  -15.75290    -999.25    1.99310    1.97420    2.00000    -999.25    -999.25    -999.25    -999.25    -999.25    -999.25    -999.25
 7100.00000   77.97330  -15.34790    -999.25    5.79600    4.06120    3.77120    -999.25    -999.25    -999.25    -999.25    -999.25    -999.25    -999.25
 7150.00000   71.38550  -16.44570    -999.25    2.64190    2.52910    2.76870    -999.25    -999.25    -999.25    -999.25    -999.25    -999.25    -999.25
 7200.00000   82.22870  -16.76930    -999.25    2.00240    1.99310    2.04880    -999.25    -999.25    -999.25    -999.25    -999.25    -999.25    -999.25
