~Version ---------------------------------------------------
VERS. 2.0 : CWLS log ASCII Standard -VERSION 2.0
WRAP.  NO : ONE LINE PER DEPTH STEP
~Well ------------------------------------------------------
STRT.F                  3750.0 : START DEPTH
STOP.F                  8500.0 : STOP DEPTH
STEP.F                50.00000 : STEP LENGTH
NULL.                  -999.25 : NULL VALUE
COMP.      SAGE ENERGY COMPANY : COMPANY
WELL.                PROSKE #1 : WELL
FLD .                 GIDDINGS : FIELD
LOC .                          : LOCATION
CNTY.                 BURLESON : COUNTY
STAT.                    TEXAS : STATE
CTRY. UNITED STATES OF AMERICA : COUNTRY
SRVC.                          : SERVICE COMPANY
DATE.                          : LOGDATE
API .           42051325170000 : API NUMBER
UWI .           42051325170000 : UNIQUE WELL ID
SLAT.WGS84       30.5580326108 : SURFACE LATITUDE
SLON.WGS84      -96.5647570268 : SURFACE LONGITUDE
~Curve Information -----------------------------------------
DEPT.F                 : 
SPR .MV   07 310 01 00 : SPONTANEOUS POTENTIAL FROM RESISTIVITY
GRR .GAPI 07 310 01 00 : GAMMA RAY FROM RESISTIVITY
RILD.OHMM 07 120 46 00 : DEEP INDUCTION RESISTIVITY
RILM.OHMM 07 120 44 00 : INDUCTION LOG MEDIUM RESISTIVITY
RFOC.OHMM 07 220 04 00 : RESISTIVITY FOCUSED LOG RES.
TENR.LBS  07 635 01 00 : TENSION FROM RESISTIVITY
NPHI.DEC  42 890 01 00 : NEUTRON POROSITY SANDSTONE
DPHI.DEC  45 890 12 00 : DENSITY POROSITY SANDSTONE
~Params ----------------------------------------------------
EKB .F                 361.0 : KELLY BUSHING
EGL .F                   345 : ELEVATION GROUND LEVEL
EDF .F                   360 : ELEVATION DERRICK FLOOR
EPD .F                   345 : ELEVATION PERMANENT DATUM
TD  .F                8510.0 : TOTAL DEPTH
DATE.            04-FEB-1984 : DATE LOGGED
CLNT.                A2DTECH : CLIENT CODE
SL  .  3800' FNL & 3200' FWL : SURFACE LOCATION
PD  .                     GL : PERMANENT DATUM
LMF .                     KB : LOG MEASURED FROM
DMF .                     KB : DRILLING MEASURED FROM
DAPD.F                    16 : FEET ABOVE PERMANENT DATUM
DD  .F                  8510 : DEPTH DRILLER
DL  .F                  8498 : DEPTH LOGGER
BLI .F                  8496 : BOTTOM LOG INTERVAL
TLI .F                  3726 : TOP LOG INTERVAL
CS1 .IN                9.625 : CASING SIZE
CBD1.         8.625" @ 3730' : CASING DRILLER 1
CBL1.F                  3726 : CASING LOGGER 1
BS1 .IN                7.875 : BIT SIZE
BSD1.F                  8510 : DEPTH DRILLED WITH BIT1
DFT .         LIGNOSULFONATE : TYPE FLUID IN HOLE
DFD .                    9.2 : DENSITY
DFV .                     48 : VISCOSITY
DFPH.                    9.5 : PH
MSS .                   TANK : SOURCE OF SAMPLE
RMS .OHMM                3.8 : RM
RMF .OHMM                2.8 : RMF
MFSS.                   MEAS : SOURCE RMF.
MCSS.                   CALC : SOURCE RMC.
RMB .OHMM               1.09 : RM. AT BHT
BHT .F                   208 : BHT.
TCS .HRS                 500 : TIME CIRC. STOPPED
LUN .                HL-6354 : LOGGING UNIT NUMBER
LUL .               BERUMONT : LOGGING UNIT LOCATION
ENGI.                  DWYER : RECORDED BY
WITN.                  BAKER : WITNESSED BY
UWI .         42051325170000 : UNIQUE WELL ID
DICO. A2D TECHNOLOGIES, INC. : DIGITIZING COMPANY
DFL .                    8.0 : FLUID LOSS
RMC .OHMM               4.75 : RMC
~Other -----------------------------------------------------
~ASCII -----------------------------------------------------
 3750.00000   -9.76040   75.41560    7.08170    9.66760   10.48320    -999.25    -999.25    -999.25
 3800.00000  -14.30540   74.09870    4.95780    6.32460    8.02770    1.05360    -999.25    -999.25
 3850.00000  -12.81060   62.27380    5.06270    6.36880    6.42600    0.00000    -999.25    -999.25
 3900.00000  -12.06280   72.10050    4.90640    5.95410    9.17600   30.45750    -999.25    -999.25
 3950.00000   -1.06470  105.73590    3.85280    4.02380    4.45910   14.50930    -999.25    -999.25
 4000.00000    3.13340   78.02240    2.35270    2.44210    2.93670    2.87890    -999.25    -999.25
 4050.00000  -15.25730   86.00300    3.47700    4.20740    5.61140    3.92800    -999.25    -999.25
 4100.00000  -13.35820   88.64210    3.25310    3.90000    4.82560    9.16340    -999.25    -999.25
 4150.00000   -8.41130   81.51020    2.82210    2.93220    3.58760   12.82890    -999.25    -999.25
 4200.00000   -5.86300   88.69760    2.85170    2.94660    3.44100   16.49440    -999.25    -999.25
 4250.00000   -6.72670   93.29950    2.33890    2.43160    2.59150   20.15990    -999.25    -999.25
 4300.00000   -3.87300   76.96830    2.34330    2.40780    2.52950   23.82540    -999.25    -999.25
 4350.00000   -4.62680   80.96000    2.48140    2.49000    4.08570   26.54780    -999.25    -999.25
 4400.00000  -10.62900   82.24230    2.26670    2.33470    2.85580   23.90380    -999.25    -999.25
 4450.00000   -6.72670   91.56010    2.03940    2.06690    2.36660   21.25980    -999.25    -999.25
 4500.00000   -9.27930   88.92280    2.39520    2.43650    2.51230   18.61580    -999.25    -999.25
 4550.00000   -8.75440   91.44820    1.77230    1.95290    2.05420   15.97170    -999.25    -999.25
 4600.00000   -4.59650   92.11680    1.49920    1.50890    1.81890   13.32770    -999.25    -999.25
 4650.00000   -1.68620   92.96530    1.43220    1.46240    1.75780    0.00000    -999.25    -999.25
 4700.00000   -5.07510   91.01800    1.54070    1.55690    2.02100    3.09580    -999.25    -999.25
 4750.00000   -9.72880   87.57450    1.55690    1.52350    1.91710    9.04490    -999.25    -999.25
 4800.00000   -5.37560   85.10510    1.31750    1.33140    1.75040   14.99390    -999.25    -999.25
 4850.00000   -2.22220   91.93240    1.34070    1.32120    1.58980   20.94300    -999.25    -999.25
 4900.00000   -4.17420  106.77860    1.58980    1.58970    1.93830   15.24490    -999.25    -999.25
 4950.00000   -9.72970   87.99280    1.23970    1.23760    1.59370    8.69630    -999.25    -999.25
 5000.00000   -1.92190   79.04280    1.76460    1.65720    1.60650    6.91890    0.46980    0.28560
 5050.00000   -1.92190   92.66530    0.72690    0.77390    1.26370   33.88560    0.44280    0.20810
 5100.00000   -7.32730   86.67810    2.17410    2.18730    2.37690    9.19390    0.25240    0.11720
 5150.00000   -4.62390   83.08640    1.52480    1.53720    1.92400    5.06350    0.33220    0.17570
 5200.00000   -5.22520   87.20160    1.49350    1.50900    1.80720   55.71120    0.32420    0.15590
 5250.00000   -4.32530   85.32930    1.09770    1.06760    1.53860   16.82990    0.40060    0.21440
 5300.00000  -11.23120   82.18560    1.12670    1.17460    1.53940   23.33380    0.36420    0.16730
 5350.00000  -11.98250   82.63580    1.30390    1.29370    1.64010    7.05050    0.37170    0.17810
 5400.00000   -7.92750   80.16750    1.37370    1.40010    1.73250   10.78060    0.34400    0.23810
 5450.00000   -5.22420   77.02100    1.31750    1.30050    1.66360    1.15480    0.32280    0.16050
 5500.00000   -5.97480   81.90490    1.26370    1.23610    1.65940   10.04620    0.35030    0.14580
 5550.00000   -4.17420   86.11540    1.06940    1.05000    1.38810   13.51200    0.34040    0.16790
 5600.00000   -4.92350   77.69870    1.82070    1.82080    2.07000   25.06260    0.28820    0.10700
 5650.00000   -6.12610   93.99600    2.97330    2.91190    3.06780   23.50250    0.25820    0.10900
 5700.00000   -6.57540   81.39970    1.43220    1.43220    1.70530   21.94250    0.30990    0.18380
 5750.00000   -4.47450   85.40420    1.34130    1.33140    1.63820   20.38240    0.28380    0.14230
 5800.00000   -6.57510   95.88320    1.24620    1.32290    1.54340   18.82240    0.35750    0.14190
 5850.00000   -5.97530  101.94750    1.15260    1.15650    1.44980   17.26240    0.37690    0.19430
 5900.00000   -5.82580   94.83550    1.19210    1.18750    1.46240    5.09320    0.36070    0.16850
 5950.00000   -6.57660   98.24100    1.10340    1.08060    1.40790   20.52600    -999.25    -999.25
 6000.00000   -2.37240  103.35010    0.91740    0.91580    1.19950    0.00000    -999.25    -999.25
 6050.00000   -7.02700  103.74320    1.44920    1.51450    1.64880    0.00000    -999.25    -999.25
 6100.00000   -8.67860   99.44060    1.62970    1.73550    1.93700    0.00000    -999.25    -999.25
 6150.00000   -7.47630   84.82470    1.58500    1.60640    1.77700    0.00000    -999.25    -999.25
 6200.00000   -6.72580   90.21330    1.55410    1.55270    1.83030    0.00000    -999.25    -999.25
 6250.00000   -7.77660   87.80050    1.35710    1.32220    1.68680    0.00000    -999.25    -999.25
 6300.00000   -5.82570   85.90980    1.36430    1.40240    1.69250    0.87520    -999.25    -999.25
 6350.00000   -6.42570  100.40130    1.10500    1.12070    1.45580    2.27450    -999.25    -999.25
 6400.00000   -5.07480   95.69930    1.34530    1.41190    1.54070    3.67380    -999.25    -999.25
 6450.00000   -5.97600   92.51500    1.25060    1.27890    1.54080    5.07310    -999.25    -999.25
 6500.00000   -2.67270   80.83760    1.43230    1.41330    1.67490    6.47250    -999.25    -999.25
 6550.00000   -3.57360   52.28460    2.48890    2.53090    2.90700    7.87180    -999.25    -999.25
 6600.00000   -6.96680   46.86910    3.07930    3.19860    3.52690    9.27110    -999.25    -999.25
 6650.00000   -6.05110   57.28910    3.58570    3.47730    3.60780   19.80320    -999.25    -999.25
 6700.00000   -8.37840   79.57940    2.31560    2.42170    2.62340   18.70140    -999.25    -999.25
 6750.00000   -6.72670   90.88500    2.12950    2.17480    2.51610   17.59970    -999.25    -999.25
 6800.00000   -7.47770   75.20560    2.68100    2.80260    3.03600   16.49790    -999.25    -999.25
 6850.00000   -8.52900   72.52990    3.02820    3.10580    3.32120   15.39620    -999.25    -999.25
 6900.00000   -6.27630   83.75750    2.31690    2.43390    2.64110   14.29450    -999.25    -999.25
 6950.00000   -4.02420   76.48370    2.67880    2.74600    2.98290   13.19270    -999.25    -999.25
 7000.00000   -6.57670   91.46790    1.53810    1.76730    2.12580   12.09100    -999.25    -999.25
 7050.00000   -5.37590   98.45860    1.62330    1.65560    1.89440   10.98920    -999.25    -999.25
 7100.00000   -5.96640  100.82440    1.43220    1.60640    1.98150    9.88750    -999.25    -999.25
 7150.00000   -5.09950   85.10480    1.71020    1.91310    2.28310    8.78580    -999.25    -999.25
 7200.00000   -5.97590   91.50450    1.49390    1.58980    1.85450    7.68400    -999.25    -999.25
 7250.00000   -6.12610   99.02550    1.58830    1.64030    1.98420   22.67090    -999.25    -999.25
 7300.00000   -6.42640   97.90470    1.44730    1.62340    2.06470   20.04440    -999.25    -999.25
 7350.00000   -6.03600   98.35330    1.55690    1.62320    1.99890   19.60490    -999.25    -999.25
 7400.00000   -4.17390   87.27640    1.41740    1.57610    1.99580   19.16540    -999.25    -999.25
 7450.00000   -5.83200   94.24690    1.42130    1.55690    1.95430   18.72590    -999.25    -999.25
 7500.00000   -9.27880   99.47500    1.37370    1.57960    1.93830   18.28640    -999.25    -999.25
 7550.00000   -9.42910   96.46750    1.52540    1.66810    2.04220   17.84690    -999.25    -999.25
 7600.00000   -7.09140   91.22330    1.67540    1.81740    2.21880   17.40740    -999.25    -999.25
 7650.00000   -7.17620   94.08770    1.65800    1.84180    2.21700   30.12070    -999.25    -999.25
 7700.00000   -7.02700   82.64830    1.74980    1.95370    2.29050   22.43510    0.23960    0.10560
