~Version ---------------------------------------------------
VERS. 2.0 : CWLS log ASCII Standard -VERSION 2.0
WRAP. YES : MULTIPLE LINES PER DEPTH STEP
~Well ------------------------------------------------------
STRT.FT                 1000.0 : START DEPTH
STOP.FT                10200.0 : STOP DEPTH
STEP.FT               50.00000 : STEP LENGTH
NULL.                  -999.25 : NULL VALUE
COMP.          TEXAS CRUDE INC : COMPANY
WELL.                KILLAM #1 : WELL
FLD .          STUART CITY, W. : FIELD
LOC .                          : LOCATION
CNTY.                 LA SALLE : COUNTY
STAT.                    TEXAS : STATE
CTRY. UNITED STATES OF AMERICA : COUNTRY
SRVC.             Schlumberger : SERVICE COMPANY
DATE.              15-Jun-1994 : LOGDATE
API .           42283315470000 : API NUMBER
UWI .           42283315470000 : UNIQUE WELL ID
SLAT.WGS84       28.1852380975 : SURFACE LATITUDE
SLON.WGS84      -99.3650729919 : SURFACE LONGITUDE
~Curve Information -----------------------------------------
DEPT    .FT    : DEPTH FEET
CALDED  .IN    : CALIPER FROM DENSITY LOG
CALWS   .IN    : CALIPER [CALDED]
CONDWS  .MMHO  : CONDUCTIVITY [1000/DRESWS]
DCORWS  .G/C3  : DENSITY CORRECTION [DRHOED]
DENWS   .G/C3  : BULK DENSITY [M=2.71 F=1.0] [CALCULATED FROM DPOWS]
DPHILSED.V/V   : DENSITY POROSITY LIMESTONE FROM DENSITY LOG
DPOWS   .V/V   : DENSITY POROSITY [M=2.71 F=1.0] [DPHILSED]
DRESWS  .OHMM  : DEEP RESISTIVITY [IDPHED]
DRHOED  .G/C3  : DENSITY CORRECTION FROM DENSITY LOG
GRDED   .GAPI  : GAMMA RAY FROM DENSITY LOG
GRRED   .GAPI  : GAMMA RAY FROM RESISTIVITY LOG
GRWS    .GAPI  : GAMMA RAY [GRRED]
IDPHED  .OHMM  : INDUCTION DEEP PHASE RESISTIVITY
IMPHED  .OHMM  : INDUCTION MEDIUM PHASE RESISTIVITY
MRESWS  .OHMM  : MEDIUM RESISTIVITY [IMPHED]
NPHILSED.V/V   : NEUTRON POROSITY LIMESTONE FROM DENSITY LOG
NPOWS   .V/V   : NEUTRON POROSITY LIMESTONE [NPHILSED]
RHOBED  .G/C3  : BULK DENSITY FROM DENSITY LOG [NOT USED FOR WSR]
SFLUED  .OHMM  : SPHERICALLY FOCUSED LOG RESISTIVITY
SPRED   .MV    : SPONTANEOUS POTENTIAL FROM RESISTIVITY LOG
SPWS    .MV    : SPONTANEOUS POTENTIAL [BASELINE 0 MV] [SPRED]
SRESWS  .OHMM  : SHALLOW RESISTIVITY [SFLUED]
TENDED  .LBF   : TENSION FROM DENSITY LOG
TENRED  .LBF   : TENSION FROM RESISTIVITY LOG
~Params ----------------------------------------------------
PD  .                     GL : PERMANENT DATUM
EPD .F                 510.4 : ELEVATION PERMANENT DATUM
LMF .                     KB : LOG MEASURED FROM
DAPD.F                    17 : FEET ABOVE PERMANENT DATUM
DMF .                     KB : DRILLING MEASURED FROM
EKB .F                 527.4 : KELLING BUSHING
EDF .F                 256.4 : DRILLING FLOOR
EGL .F                 510.4 : GROUND LEVEL
DATE.               06/15/94 : RUN DATE
RUN .                      1 : RUN NUMBER
DD  .F                 10239 : DEPTH DRILLER
DL  .F                 10220 : DEPTH LOGGER
BLI .F                 10215 : BOTTOM LOG INTERVAL
TLI .F                  1116 : TOP LOG INTERVAL
CS  .IN                9.625 : CASING SIZE
CBD .F                  1120 : CASING BOTTOM DRILLER
CBL .F                  1116 : CASING BOTTOM LOGGER
BS  .IN                 8.75 : BIT SIZE
BSD .F                 10239 : BIT SIZE AT DEPTH
DFT .                    CLS : DRILLING FLUID TYPE
DFD .                   12.2 : DRILLING FLUID DENSITY
DFV .                     48 : DRILLING FLUID VISCOSITY
DFPH.                    4.8 : DRILLING FLUID PH
DFL .                     10 : DRILLING FLUID LOSS
MSS .        CIRCULATING PIT : MUD SAMPLE SOURCE
RMS .OHMM               1.64 : RESISTIVITY MUD SAMPLE
MST .F                    96 : MUD SAMPLE TEMPERATURE
RMF .OHMM               1.51 : RESISTIVITY MUD FILTRATE SAMPLE
MFST.F                    80 : MUD FILTRATE SAMPLE TEMPERATURE
RMC .OHMM               2.46 : RESISTIVITY MUD CAKE
MCST.F                    96 : MUD CAKE SAMPLE TEMPERATURE
MFSS.               MEASURED : MUD FILTRATE SAMPLE SOURCE
MCSS.             CALCULATED : MUD CAKE SAMPLE SOURCE
RMB .OHMM              0.727 : RESISTIVITY MUD AT BHT
TCS .HRS                1100 : TIME CURCULATED STOPPED
TLAB.HRS                1645 : TIME LOGGER AT BOTTOM
LUN .                   2023 : LOGGING UNIT NUMBER
LUL .              LAREDO TX : LOGGING UNIT LOCATION
ENGI.           J T STUBHART : RECORDING ENGINEER
WITN.           DOUG O BRIEN : WITNESSED BY
CLNT.                A2DTECH : CLIENT CODE
ORIG.               5" PRINT : ORIGIN OF DATA
UWI .         42283315470000 : UNIQUE WELL ID
DICO. A2D Technologies, Inc. : DIGITIZING COMPANY
~Other -----------------------------------------------------
~ASCII -----------------------------------------------------
# ...
 5350.00000    -999.25    -999.25  322.42460    -999.25    -999.25    -999.25    -999.25    3.10150    -999.25    -999.25   69.39420   69.39420    3.10150    3.16460    3.16460    -999.25    -999.25    -999.25    3.26970   -3.49510   -3.66890    3.26970    -999.25 1927.36570
 5400.00000    -999.25    -999.25  329.76090    -999.25    -999.25    -999.25    -999.25    3.03250    -999.25    -999.25   67.07860   67.07860    3.03250    2.96380    2.96380    -999.25    -999.25    -999.25    3.38520   -6.68990   -6.66220    3.38520    -999.25 1916.01040
 5450.00000    -999.25    -999.25  340.66910    -999.25    -999.25    -999.25    -999.25    2.93540    -999.25    -999.25   66.95360   66.95360    2.93540    3.04180    3.04180    -999.25    -999.25    -999.25    3.38730   -6.54670   -6.31760    3.38730    -999.25 1907.94950
 5500.00000    -999.25    -999.25  458.84190    -999.25    -999.25    -999.25    -999.25    2.17940    -999.25    -999.25   61.21540   61.21540    2.17940    2.36640    2.36640    -999.25    -999.25    -999.25    3.10680   -8.75520   -8.32460    3.10680    -999.25 1938.29790
 5550.00000    -999.25    -999.25  321.12010    -999.25    -999.25    -999.25    -999.25    3.11410    -999.25    -999.25   66.67600   66.67600    3.11410    3.22630    3.22630    -999.25    -999.25    -999.25    3.38360  -11.06640  -10.43430    3.38360    -999.25 1912.70940
 5600.00000    -999.25    -999.25  318.77590    -999.25    -999.25    -999.25    -999.25    3.13700    -999.25    -999.25   59.54890   59.54890    3.13700    3.07510    3.07510    -999.25    -999.25    -999.25    3.54740  -12.73540  -11.90190    3.54740    -999.25 1984.85890
 5650.00000    -999.25    -999.25  264.07520    -999.25    -999.25    -999.25    -999.25    3.78680    -999.25    -999.25   58.58610   58.58610    3.78680    3.88390    3.88390    -999.25    -999.25    -999.25    3.83980  -11.54930  -10.51430    3.83980    -999.25 1944.00570
 5700.00000    -999.25    -999.25  295.14200    -999.25    -999.25    -999.25    -999.25    3.38820    -999.25    -999.25   60.84300   60.84300    3.38820    3.57870    3.57870    -999.25    -999.25    -999.25    4.04070  -10.44620   -9.20980    4.04070    -999.25 1981.48360
 5750.00000    -999.25    -999.25  299.09670    -999.25    -999.25    -999.25    -999.25    3.34340    -999.25    -999.25   67.32580   67.32580    3.34340    3.44860    3.44860    -999.25    -999.25    -999.25    3.58410   -8.89130   -7.45340    3.58410    -999.25 1995.33300
 5800.00000    -999.25    -999.25  317.17840    -999.25    -999.25    -999.25    -999.25    3.15280    -999.25    -999.25   62.28120   62.28120    3.15280    3.21000    3.21000    -999.25    -999.25    -999.25    3.55020   -7.99800   -6.35870    3.55020    -999.25 2034.43630
 5850.00000    -999.25    -999.25  449.19590    -999.25    -999.25    -999.25    -999.25    2.22620    -999.25    -999.25   64.81140   64.81140    2.22620    2.27860    2.27860    -999.25    -999.25    -999.25    2.42880   -6.03050   -4.18970    2.42880    -999.25 2029.58150
 5900.00000    -999.25    -999.25  304.21950    -999.25    -999.25    -999.25    -999.25    3.28710    -999.25    -999.25   55.07310   55.07310    3.28710    3.35550    3.35550    -999.25    -999.25    -999.25    3.33870   -7.45860   -5.41640    3.33870    -999.25 2082.02150
 5950.00000    -999.25    -999.25  355.61880    -999.25    -999.25    -999.25    -999.25    2.81200    -999.25    -999.25   63.47740   63.47740    2.81200    2.86930    2.86930    -999.25    -999.25    -999.25    3.22420   -6.33890   -4.09520    3.22420    -999.25 2091.52690
 6000.00000    -999.25    -999.25  483.13850    -999.25    -999.25    -999.25    -999.25    2.06980    -999.25    -999.25   68.73890   68.73890    2.06980    2.11210    2.11210    -999.25    -999.25    -999.25    2.33300   -3.58100   -1.13590    2.33300    -999.25 2063.04640
 6050.00000    -999.25    -999.25  266.07770    -999.25    -999.25    -999.25    -999.25    3.75830    -999.25    -999.25   65.76360   65.76360    3.75830    3.85480    3.85480    -999.25    -999.25    -999.25    4.35590   -4.97540   -2.39350    4.35590    -999.25 2103.44190
 6100.00000    -999.25    -999.25  404.30180    -999.25    -999.25    -999.25    -999.25    2.47340    -999.25    -999.25   73.55120   73.55120    2.47340    2.52390    2.52390    -999.25    -999.25    -999.25    2.88580   -3.98530   -1.27310    2.88580    -999.25 2134.46950
 6150.00000    -999.25    -999.25  314.79210    -999.25    -999.25    -999.25    -999.25    3.17670    -999.25    -999.25   65.81730   65.81730    3.17670    3.25370    3.25370    -999.25    -999.25    -999.25    3.11740   -4.59920   -1.75660    3.11740    -999.25 2107.39090
 6200.00000    -999.25    -999.25  356.35380    -999.25    -999.25    -999.25    -999.25    2.80620    -999.25    -999.25   66.67310   66.67310    2.80620    2.86500    2.86500    -999.25    -999.25    -999.25    3.11380   -3.79810   -0.82510    3.11380    -999.25 2107.67110
 6250.00000    -999.25    -999.25  365.36350    -999.25    -999.25    -999.25    -999.25    2.73700    -999.25    -999.25   67.17250   67.17250    2.73700    2.82670    2.82670    -999.25    -999.25    -999.25    2.97790   -4.82760   -1.72420    2.97790    -999.25 2125.34670
 6300.00000    -999.25    -999.25  362.51580    -999.25    -999.25    -999.25    -999.25    2.75850    -999.25    -999.25   68.86970   68.86970    2.75850    2.81480    2.81480    -999.25    -999.25    -999.25    3.01130   -3.87980   -0.56410    3.01130    -999.25 2149.15010
 6350.00000    -999.25    -999.25  352.32360    -999.25    -999.25    -999.25    -999.25    2.83830    -999.25    -999.25   64.78160   64.78160    2.83830    2.89670    2.89670    -999.25    -999.25    -999.25    3.10430   -6.72920   -2.97950    3.10430    -999.25 2181.57450
 6400.00000    -999.25    -999.25  369.31710    -999.25    -999.25    -999.25    -999.25    2.70770    -999.25    -999.25   71.44160   71.44160    2.70770    2.77190    2.77190    -999.25    -999.25    -999.25    2.86290   -7.02740   -2.84370    2.86290    -999.25 2183.22190
 6450.00000    -999.25    -999.25  339.87010    -999.25    -999.25    -999.25    -999.25    2.94230    -999.25    -999.25   70.84770   70.84770    2.94230    3.00260    3.00260    -999.25    -999.25    -999.25    3.14570   -9.14480   -4.52710    3.14570    -999.25 2228.71560
 6500.00000    -999.25    -999.25  395.38190    -999.25    -999.25    -999.25    -999.25    2.52920    -999.25    -999.25   64.33340   64.33340    2.52920    2.58090    2.58090    -999.25    -999.25    -999.25    2.70720  -10.82110   -5.76940    2.70720    -999.25 2227.15990
 6550.00000    -999.25    -999.25  373.46880    -999.25    -999.25    -999.25    -999.25    2.67760    -999.25    -999.25   73.49730   73.49730    2.67760    2.73230    2.73230    -999.25    -999.25    -999.25    3.00040  -10.70350   -5.21770    3.00040    -999.25 2221.98490
 6600.00000    -999.25    -999.25  375.53040    -999.25    -999.25    -999.25    -999.25    2.66290    -999.25    -999.25   65.42300   65.42300    2.66290    2.71940    2.71940    -999.25    -999.25    -999.25    3.04230  -12.20060   -6.28080    3.04230    -999.25 2237.00590
 6650.00000    -999.25    -999.25  458.94720    -999.25    -999.25    -999.25    -999.25    2.17890    -999.25    -999.25   65.48150   65.48150    2.17890    2.22490    2.22490    -999.25    -999.25    -999.25    2.40810  -11.14240   -4.78860    2.40810    -999.25 2278.44020
 6700.00000    -999.25    -999.25  400.48060    -999.25    -999.25    -999.25    -999.25    2.49700    -999.25    -999.25   76.52440   76.52440    2.49700    2.54830    2.54830    -999.25    -999.25    -999.25    2.69800  -11.95080   -5.16300    2.69800    -999.25 2270.97630
 6750.00000    -999.25    -999.25  329.41330    -999.25    -999.25    -999.25    -999.25    3.03570    -999.25    -999.25   71.52850   71.52850    3.03570    3.12180    3.12180    -999.25    -999.25    -999.25    3.42540  -11.89290   -4.67110    3.42540    -999.25 2305.06570
