~Version ---------------------------------------------------
VERS. 2.0 : CWLS log ASCII Standard -VERSION 2.0
WRAP.  NO : One line per depth step
~Well ------------------------------------------------------
STRT.FT                  750.0 : START DEPTH
STOP.FT                 6800.0 : STOP DEPTH
STEP.FT               50.00000 : STEP LENGTH
NULL.                  -999.25 : NULL VALUE
COMP.       GALAXY OIL COMPANY : COMPANY
WELL.      GEORGE W. STRAKE #1 : WELL
FLD .              ROCKY CREEK : FIELD
LOC .                          : LOCATION
CNTY.                   DIMMIT : COUNTY
STAT.                    TEXAS : STATE
CTRY. UNITED STATES OF AMERICA : COUNTRY
SRVC.                          : SERVICE COMPANY
DATE.                          : LOGDATE
API .           42127310890000 : API NUMBER
UWI .           42127310890000 : UNIQUE WELL ID
SLAT.WGS84        28.541421782 : SURFACE LATITUDE
SLON.WGS84      -99.9314651303 : SURFACE LONGITUDE
~Curve Information -----------------------------------------
DEPT  .FT                                     : DEPTH
SPWS  .MV :   SPONTANEOUS POTENTIAL [BASELINE : 0MV]
SPRED .MV                                     : SPONTANEOUS POTENTIAL FROM RESISTIVITY LOG
ILDED .OHMM                                   : INDUCTION LOG DEEP RESISTIVITY
CILDED.MMHO                                   : CONDUCTIVITY FROM RESISTIVITY LOG
LL8ED .OHMM                                   : 8 INCH LATEROLOG RESISTIVITY
SRESWS.OHMM                                   : SHALLOW RESISTIVITY [LL8ED]
DRESWS.OHMM                                   : DEEP RESISTIVITY [1000/CILDED IF ILDED < 1.  ELSE ILDED]
CONDWS.MMHO                                   : CONDUCTIVITY [1000/DRESWS]
GRWS  .GAPI             :   GAMMA RAY [SPLICE : 720 GRDED 6778.5 GRNED]
CALDED.IN                                     : CALIPER FROM DENSITY LOG
CALWS .IN                                     : CALIPER [CALDED]
DCORWS.G/C3                                   : DENSITY CORRECTION [DRHOED]
DENWS .G/C3                                   : BULK DENSITY [RHOBED]
DPHIED.V/V                                    : DENSITY POROSITY [M=2.71 F=1.0] FROM DENSITY LOG
DPOWS .V/V                                    : DENSITY POROSITY [M=2.71 F=1.0] [CALCULATED FROM RHOBED]
DRHOED.G/C3                                   : DENSITY CORRECTION FROM DENSITY LOG
GRDED .GAPI                                   : GAMMA RAY FROM DENSITY LOG
GRNED .GAPI                                   : GAMMA RAY FROM NEUTRON LOG
NEUTED.NAPI                                   : NEUTRON FROM NEUTRON LOG
NPHIED.V/V                                    : NEUTRON POROSITY LIMESTONE FROM DENSITY LOG
NPOWS .V/V                                    : NEUTRON POROSITY LIMESTONE [NPHIED]
RHOBED.G/C3                                   : BULK DENSITY FROM DENSITY LOG
~Params ----------------------------------------------------
EKB .F                727.35 : Kelly bushing
EGL .F                716.35 : Ground level
EDF .F                726.35 : Drilling floor
EPD .F                716.35 : Permanent datum
TD  .F                6812.0 : Total depth
DATE.            03-SEP-1976 : Date logged
CLNT.                A2DTECH : Client Code
SL  .  4300' FWL & 5420' FSL : Surface Location
PD  .                     GL : Permanent Datum
LMF .                     KB : Log Measured From
DMF .                     KB : Drilling Measured From
DAPD.F                    11 : Feet Above Permanent Datum
DD  .F                  6806 : Depth driller
DL  .F                  6812 : Depth logger
BLI .F                  6806 : Bottom log interval
TLI .F                   731 : Top log interval
CS1 .IN                8.625 : Casing size
CBD1.          8.625" @ 739' : Casing driller 1
CBL1.F                   731 : Casing logger 1
BS1 .IN                7.875 : Bit size
BSD1.F                  6806 : Depth drilled with bit1
DFT .              LIGNOSULF : Type fluid in hole
DFD .                   11.3 : Density
DFV .                     55 : Viscosity
DFPH.                    8.5 : pH
DFL .                    5.8 : Fluid loss
MSS .               MUD TANK : Source of sample
RMS .OHMM               0.61 : Rm
MFST.F                    86 : Rmf Meas. temp.
RMB .OHMM               0.32 : Rm. at BHT
BHT .F                   177 : BHT.
LUN .                   7769 : Logging unit number
LUL .                 LAREDO : Logging unit location
ENGI.                STECKER : Recorded By
WITN.                ELLIOTT : Witnessed by
ORIG.               5" PRINT : Origin of data
UWI .         42127310890000 : Unique Well ID
DICO. A2D TECHNOLOGIES, INC. : Digitizing Company
~Other -----------------------------------------------------
~ASCII -----------------------------------------------------
# ...
 3950.00000   -4.36330  -36.15900    2.67200  371.61200    2.90600    2.90600    2.67200  374.25150    -999.25    -999.25    -999.25    -999.25    -999.25    -999.25    -999.25    -999.25    -999.25    -999.25    -999.25    -999.25    -999.25    -999.25
 4000.00000   -6.35710  -38.30000    2.49500  376.73600    3.29000    3.29000    2.49500  400.80160   83.20500   10.55700   10.55700    0.00400    2.46600    0.11600    0.14270    0.00400   83.20500    -999.25    -999.25    0.21700    0.21700    2.46600
 4050.00000   -5.50560  -38.55600    4.68500  196.16200    5.39800    5.39800    4.68500  213.44720   46.96300    9.81200    9.81200    0.05800    2.54700    0.06900    0.09530    0.05800   46.96300    -999.25    -999.25    0.15000    0.15000    2.54700
 4100.00000   -6.45660  -40.69800    5.88300  165.68300    6.28100    6.28100    5.88300  169.98130   46.08500    8.93900    8.93900    0.00700    2.61200    0.02300    0.05730    0.00700   46.08500    -999.25    -999.25    0.14700    0.14700    2.61200
 4150.00000   -7.50460  -42.93700   12.93700   75.15000   16.03200   16.03200   12.93700   77.29770   41.06500    8.99500    8.99500    0.02700    2.61700    0.02500    0.05440    0.02700   41.06500    -999.25    -999.25    0.10600    0.10600    2.61700
 4200.00000   -4.34260  -39.79900    6.87100  146.10000    7.27000    7.27000    6.87100  145.53920   38.76600    9.57500    9.57500    0.00600    2.61700    0.03200    0.05440    0.00600   38.76600    -999.25    -999.25    0.10100    0.10100    2.61700
 4250.00000   -6.35630  -41.02900    8.04500  112.16400    8.93100    8.93100    8.04500  124.30080   49.00500    9.66600    9.66600    0.02500    2.65900    0.01300    0.02980    0.02500   49.00500    -999.25    -999.25    0.09700    0.09700    2.65900
 4300.00000   -6.33890  -40.24600    6.68100  150.01800    6.88000    6.88000    6.68100  149.67820   44.79600    9.57300    9.57300    0.02700    2.65800    0.01300    0.03040    0.02700   44.79600    -999.25    -999.25    0.11200    0.11200    2.65800
 4350.00000   -8.00260  -41.14400    9.27300  119.28500    8.46600    8.46600    9.27300  107.84000   38.09700    9.10700    9.10700    0.01100    2.60600    0.03300    0.06080    0.01100   38.09700    -999.25    -999.25    0.09600    0.09600    2.60600
 4400.00000   -8.00190  -40.41100   12.06700   82.25300   14.45800   14.45800   12.06700   82.87060   29.11300    8.78400    8.78400    0.00300    2.69400    0.00600    0.00940    0.00300   29.11300    -999.25    -999.25    0.07800    0.07800    2.69400
 4450.00000  -10.28110  -42.10000   17.70100   27.41800   30.95000   30.95000   17.70100   56.49400   36.27500    8.62200    8.62200    0.01600    2.69500   -0.02000    0.00880    0.01600   36.27500    -999.25    -999.25    0.06000    0.06000    2.69500
 4500.00000   -4.88220  -36.11100    6.36200  331.50500    3.69700    3.69700    6.36200  157.18330   72.11900    8.45900    8.45900    0.00400    2.23300    0.18900    0.27890    0.00400   72.11900    -999.25    -999.25    0.15500    0.15500    2.23300
 4550.00000   -4.88030  -35.98900   10.07000   74.77600   13.07000   13.07000   10.07000   99.30490   27.99500    8.56400    8.56400    0.02900    2.53600    0.06100    0.10180    0.02900   27.99500    -999.25    -999.25    0.06900    0.06900    2.53600
 4600.00000   -5.86600  -37.90100   14.65300   94.21700   10.46900   10.46900   14.65300   68.24540   29.20400    8.69100    8.69100    0.01300    2.60600    0.04200    0.06080    0.01300   29.20400    -999.25    -999.25    0.06200    0.06200    2.60600
 4650.00000   -7.24780  -40.20900   16.51700   55.69000   18.74900   18.74900   16.51700   60.54370   21.46200    8.64000    8.64000    0.01300    2.62200    0.01200    0.05150    0.01300   21.46200    -999.25    -999.25    0.04500    0.04500    2.62200
 4700.00000   -8.79550  -42.68300   25.13200   39.38200   34.78500   34.78500   25.13200   39.78990   22.45700    8.61900    8.61900    0.00300    2.68400   -0.00400    0.01520    0.00300   22.45700    -999.25    -999.25    0.04700    0.04700    2.68400
 4750.00000   -8.40380  -43.88600   39.53600   19.44200   39.09400   39.09400   39.53600   25.29340   13.55700    8.37800    8.37800    0.01600    2.70100   -0.01300    0.00530    0.01600   13.55700    -999.25    -999.25    0.03400    0.03400    2.70100
 4800.00000   -5.85010  -43.30300   21.77700   44.55400   22.33800   22.33800   21.77700   45.92000   20.53400    8.69900    8.69900    0.00500    2.66100    0.00700    0.02870    0.00500   20.53400    -999.25    -999.25    0.06200    0.06200    2.66100
 4850.00000   -5.47840  -44.90200   22.56100   41.37600   26.22200   26.22200   22.56100   44.32430   16.02900    8.60000    8.60000    0.00300    2.66400    0.00300    0.02690    0.00300   16.02900    -999.25    -999.25    0.04900    0.04900    2.66400
 4900.00000   -3.47370  -46.30200   16.47200   61.71500   16.70200   16.70200   16.47200   60.70910   20.34200    8.49100    8.49100    0.01400    2.65200    0.01000    0.03390    0.01400   20.34200   22.40400  463.50000    0.06400    0.06400    2.65200
 4950.00000   -4.52030  -56.86700   16.69000   60.65100   17.85200   17.85200   16.69000   59.91610   21.65500    8.46000    8.46000   -0.00100    2.66800   -0.00600    0.02460   -0.00100   21.65500   20.10700  452.71000    0.06800    0.06800    2.66800
 5000.00000   -7.89730  -59.35100   14.50400   69.78400   17.46000   17.46000   14.50400   68.94650   26.34500    8.48000    8.48000    0.01100    2.62200    0.02300    0.05150    0.01100   26.34500   27.83800  454.60200    0.06700    0.06700    2.62200
 5050.00000   -6.80390  -56.70000   17.65000   54.87400   19.85200   19.85200   17.65000   56.65720   33.63600    8.49700    8.49700    0.02400    2.66400    0.00600    0.02690    0.02400   33.63600   37.76500  444.75800    0.08400    0.08400    2.66400
 5100.00000   -1.68410  -49.96400   82.45300   12.20000   84.48700   84.48700   82.45300   12.12810   75.14300    8.99500    8.99500    0.13200    2.58300    0.02000    0.07430    0.13200   75.14300   56.08100  483.68100    0.05000    0.05000    2.58300
 5150.00000   -4.73290  -49.50100    -999.25   15.12100    -999.25    -999.25   66.13320   15.12100   42.93300    8.61700    8.61700    0.05900    2.63600    0.02300    0.04330    0.05900   42.93300   35.51900  529.07300    0.05600    0.05600    2.63600
 5200.00000   -3.55270  -44.80900    -999.25    4.48700    -999.25    -999.25  222.86610    4.48700   69.43700    8.59400    8.59400    0.02800    2.68500   -0.01200    0.01460    0.02800   69.43700   67.46900  501.55000    0.05500    0.05500    2.68500
 5250.00000   -1.62680  -40.20100    -999.25   15.83700    -999.25    -999.25   63.14330   15.83700   45.44300    8.58000    8.58000    0.06100    2.65700    0.02200    0.03100    0.06100   45.44300   37.48700  438.33900    0.09800    0.09800    2.65700
 5300.00000   -4.66870  -43.00700   49.73400   18.37500    -999.25    -999.25   49.73400   20.10700   41.04900    8.63400    8.63400    0.00700    2.61400    0.03800    0.05610    0.00700   41.04900   46.34700  401.35000    0.10800    0.10800    2.61400
 5350.00000   -3.23410  -41.75700   44.36100   19.89500   50.38500   50.38500   44.36100   22.54230   42.23000    8.48000    8.48000    0.00000    2.59300    0.04500    0.06840    0.00000   42.23000   45.51300  417.92300    0.10300    0.10300    2.59300
 5400.00000   -3.74860  -42.45600   38.34300   24.09200   59.92800   59.92800   38.34300   26.08040   39.73300    8.30700    8.30700    0.00800    2.57300    0.04900    0.08010    0.00800   39.73300   39.01100  415.11800    0.12300    0.12300    2.57300
 5450.00000   -5.26980  -43.29700   20.00300   45.36400   35.01000   35.01000   20.00300   49.99250   62.83800    8.79500    8.79500    0.00800    2.54000    0.07900    0.09940    0.00800   62.83800   57.38000  329.69400    0.17000    0.17000    2.54000
 5500.00000   -5.29030  -42.34900    -999.25   19.99600    -999.25    -999.25   50.01000   19.99600   68.07800    8.69000    8.69000    0.01900    2.60000    0.03200    0.06430    0.01900   68.07800   65.57100  482.54100    0.12800    0.12800    2.60000
