~Version ---------------------------------------------------
VERS. 2.0 : CWLS log ASCII Standard -VERSION 2.0
WRAP.  NO : ONE LINE PER DEPTH STEP
~Well ------------------------------------------------------
STRT.F                    3800.0 : START DEPTH
STOP.F                    8600.0 : STOP DEPTH
STEP.F                  50.00000 : STEP LENGTH
NULL.                    -999.25 : NULL VALUE
COMP. CHAMPLIN PETROLEUM COMPANY : COMPANY
WELL.         GREEN EMMA UNIT #1 : WELL
FLD .                   GIDDINGS : FIELD
LOC .                            : LOCATION
CNTY.                   BURLESON : COUNTY
STAT.                      TEXAS : STATE
CTRY.   UNITED STATES OF AMERICA : COUNTRY
SRVC.              Dresser Atlas : SERVICE COMPANY
DATE.                21-Jul-1981 : LOGDATE
API .             42051316460000 : API NUMBER
UWI .             42051316460000 : UNIQUE WELL ID
SLAT.WGS84         30.5312237791 : SURFACE LATITUDE
SLON.WGS84        -96.5858479606 : SURFACE LONGITUDE
~Curve Information -----------------------------------------
DEPT.F                 : 
GRR .GAPI 07 310 01 00 : GAMMA RAY FROM RES. LOG.
RFOC.OHMM 07 220 04 00 : RESISTIVITY FOCUSED LOG
RILD.OHMM 11 120 46 00 : INDUCTION LOG DEEP RESISTIVITY
RILM.OHMM 07 120 44 00 : INDUCTION LOG MEDIUM RESISTIVITY
SPR .MV   07 010 01 00 : SPONTANEOUS POTENTIAL FROM RES.
AC  .US/F 60 520 00 00 : ACOUSTIC
CALR.IN   07 280 01 00 : CALIPER FROM RESISTIVITY
~Params ----------------------------------------------------
PD  .                     GL : PERMANENT DATUM
EPD .FT                  345 : ELEVATION PERMANENT DATUM
LMF .                     KB : LOG MEASURED FROM
DAPD.FT                   18 : FEET ABOVE PERMANENT DATUM
DMF .                     KB : DRILLING MEASURED FROM
EKB .FT                  363 : KELLY BUSHING
EDF .FT                  362 : DRILLING FLOOR
EGL .FT                  345 : GROUND LEVEL
DATE.               07/21/81 : RUN DATE
RUN .                      1 : RUN NUMBER
DD  .FT                 8629 : DEPTH DRILLER
DL  .FT                 8618 : DEPTH LOGGER
BLI .FT                 8616 : BOTTOM LOG INTERVAL
TLI .FT                 3806 : TOP LOG INTERVAL
CS  .IN                9.625 : CASING SIZE
CBD .FT                 3800 : CASING BOTTOM DRILLER
CBL .FT                 3806 : CASING BOTTOM LOGGER
BS  .IN                 8.75 : BIT SIZE
BSD .FT                 8629 : BIT SIZE AT DEPTH
DFT .                  BENEX : DRILLING FLUID TYPE
DFD .                    9.2 : DRILLING FLUID DENSITY
DFV .                     34 : DRILLING FLUID VISCOSITY
DFPH.                    9.5 : DRILLING FLUID PH
MSS .               FLOWLINE : MUD SAMPLE SOURCE
RMS .OHMM                3.4 : RESISTIVITY MUD SAMPLE
MST .DEGF                 72 : MUD SAMPLE TEMPERATURE
RMF .OHMM               2.55 : RESISTIVITY MUD FILTRATE SAMPLE
MFST.DEGF                 72 : MUD FILTRATE SAMPLE TEMPERATURE
RMC .OHMM               4.25 : RESISTIVITY MUD CAKE
MCST.DEGF                 72 : MUD CAKE SAMPLE TEMPERATURE
MFSS.                   CALC : MUD FILTRATE SAMPLE SOURCE
MCSS.                   CALC : MUD CAKE SAMPLE SOURCE
RMB .OHMM               1.38 : RESISTIVITY MUD AT BHT
TCS .HRS                   4 : TIME CIRCULATED STOPPED
LUN .                   6300 : LOGGING UNIT NUMBER
LUL .                  BRYAN : LOGGING UNIT LOCATION
ENGI.                  BROWN : RECORDING ENGINEER
CLNT.                A2DTECH : CLIENT CODE
ORIG.            2" 5" PRINT : ORIGIN OF DATA
UWI .         42051316460000 : UNIQUE WELL ID
DICO. A2D Technologies, Inc. : DIGITIZING COMPANY
~Other -----------------------------------------------------
~ASCII -----------------------------------------------------
 3800.00000   40.95930    -999.25    -999.25    -999.25    -999.25    -999.25    -999.25
 3850.00000   56.95610    9.82730   11.32020   16.16240  -60.63440   97.03750    -999.25
 3900.00000   91.54300    4.93230    6.41210    7.73180  -31.40030  102.09980    -999.25
 3950.00000   96.81410    2.20690    2.49470    2.62050  -10.73200  103.99950    -999.25
 4000.00000   77.24970    5.38540    4.93920    5.21510  -33.82620   97.53770    -999.25
 4050.00000  106.87840    4.01470    4.30690    4.76540  -28.02030   97.78860    -999.25
 4100.00000   75.73840    6.73760    5.35010    5.46990  -33.96950   84.33040    -999.25
 4150.00000   69.70490    5.10950    2.99050    4.22900  -49.84920   98.59810    -999.25
 4200.00000  117.61490    1.99890    2.32230    2.15020   -3.89650  106.66620   26.03890
 4250.00000   93.22080    3.07480    2.71190    2.85680  -17.86150   95.43790   10.79350
 4300.00000  103.99700    3.06890    2.49050    2.79920  -10.51080   96.67960   10.65360
 4350.00000  108.57030    2.23420    2.23480    2.23830   -8.15860   99.29350   10.90790
 4400.00000  108.84020    1.99690    2.12950    2.08600   -7.37700  102.78850   10.82160
 4450.00000  105.61350    2.12600    2.46700    2.33920   -8.55870   97.05260   10.87350
 4500.00000   93.98790    2.49110    2.73050    2.59630  -11.50860   90.89570   10.31260
 4550.00000  105.70540    2.31660    2.49080    2.36230   -7.43440   91.28040   10.41530
 4600.00000   99.65880    2.18900    2.40250    2.30870   -7.61150   93.78470   10.71240
 4650.00000  105.48130    2.00540    1.86280    1.94530   -4.73870   98.39870   11.14230
 4700.00000  104.54960    1.80930    1.64480    1.69180   -3.17290   98.20170   11.07970
 4750.00000  103.09550    1.79550    1.59710    1.65730   -3.50380   99.96660   10.92970
 4800.00000  109.34760    1.86850    1.69290    1.78360   -5.70220   99.43050   11.21830
 4850.00000  101.44070    1.79240    1.52920    1.57870   -3.84840  107.50150   11.35770
 4900.00000  105.17360    1.65920    1.40580    1.45120   -5.57490  102.88410   11.73410
 4950.00000  116.10470    1.53250    1.30260    1.33990   -5.45160  105.36760   11.58980
 5000.00000  114.53240    1.85370    1.73410    1.79610   -5.19340   96.95940   11.10140
 5050.00000  104.78930    1.43810    1.18590    1.23850   -3.54210  106.18120   12.23640
 5100.00000   95.61310    1.21420    0.80190    0.82260   -2.15290  113.24770   12.01220
 5150.00000   82.05940    2.33640    2.89320    2.72810   -6.84040   87.54920   10.98740
 5200.00000   94.89680    2.04290    1.88060    1.96260   -9.08150  106.17820   11.25930
 5250.00000   96.02890    1.66440    1.43580    1.49580   -5.83590  102.73500   11.59770
 5300.00000   92.87520    1.73080    1.51480    1.61510   -5.05730  102.05730   11.75290
 5350.00000   97.74660    1.53820    1.21410    1.27330   -4.62230  104.10850   11.96220
 5400.00000   95.72770    1.71940    1.62580    1.65480   -5.84950  116.98880   11.63420
 5450.00000   93.93690    1.37950    1.01410    1.07890   -3.57570  108.85840   12.01720
 5500.00000   85.09140    1.61010    1.92160    2.11670   -5.40630   98.89140   11.28740
 5550.00000   93.51250    1.46540    1.10710    1.18900   -4.71860  105.33830   11.99000
 5600.00000   93.63210    1.34610    0.97650    1.02680   -4.52510  111.25680   12.20650
 5650.00000   93.99610    1.49540    1.14220    1.21990   -6.26740  105.10580   11.99350
 5700.00000   66.33750    2.67960    3.17860    3.10440   -7.02830   82.48750   10.59870
 5750.00000  113.56030    1.79480    1.05640    1.23850   -2.31050  101.72440   11.18940
 5800.00000   99.15210    1.56760    1.32170    1.42240   -3.31750   94.20410   11.24080
 5850.00000   97.40730    1.58000    1.25620    1.36700   -4.58670   96.12090   10.95470
 5900.00000  115.23210    1.39540    1.13320    1.17250   -4.16520  105.89800   13.15200
 5950.00000   90.07410    1.53980    1.34020    1.42830   -4.06220   97.97370   12.98220
 6000.00000  136.17510    1.26590    0.82130    0.90220   -2.37220  106.52410   12.69920
 6050.00000   96.26200    1.51420    1.22360    1.28800   -4.13770   97.43630   12.61090
 6100.00000  110.02560    1.24620    0.96050    1.01720   -3.67730  106.34470   12.17610
 6150.00000   99.22740    1.85440    1.74380    1.82690   -4.73630   87.61830   11.09580
 6200.00000  113.93570    1.72620    1.50360    1.60650   -3.24460   93.93540   11.73660
 6250.00000   97.78190    1.97690    1.81950    1.90480   -5.97400   91.82260   10.87330
 6300.00000   96.67980    1.79520    1.61030    1.69780   -6.72490   93.53420   11.20820
 6350.00000   85.76880    1.75730    1.55240    1.62220   -8.42630   94.52100   11.51500
 6400.00000   92.91700    1.72580    1.61230    1.65260   -9.56060  100.03220   12.64720
 6450.00000   89.63120    1.92510    1.66820    1.73410   -6.72260   95.41580   11.49430
 6500.00000  104.02960    1.61660    1.21830    1.32210   -5.95070  100.22870   12.33400
 6550.00000   94.58980    1.50260    1.21280    1.29940   -8.84860  101.10380   12.13680
 6600.00000   91.85680    1.64420    1.30600    1.40110   -6.54460   97.17710   11.77780
 6650.00000   78.75080    2.21400    2.82470    2.56200   -4.90070   86.87280   10.45360
 6700.00000   51.17550    3.09940    3.32600    3.50900  -16.87270   76.22960   10.42940
 6750.00000   63.89470    2.56880    3.01750    3.15130  -11.40650   79.59030   10.41950
 6800.00000   47.06220    4.31410    4.95330    5.41200  -18.95950   71.14180   10.40300
 6850.00000   90.03320    2.18970    1.94100    2.05510   -6.27740   88.15110   10.77430
 6900.00000   89.44700    2.65800    2.76080    2.87840   -3.77460   81.64890   10.58110
 6950.00000   98.36850    2.58700    2.56210    2.69710   -3.19640   83.36080   10.55410
 7000.00000  106.17320    2.17670    2.01730    2.09150   -5.00530   88.39570   10.77390
 7050.00000   93.17380    2.57480    2.31220    2.42930    0.40370   85.44020   10.54840
 7100.00000   89.28700    2.20990    1.95200    2.07740   -2.73680   89.29110   10.67840
 7150.00000  111.96040    1.87060    1.50570    1.59330   -8.73430   93.18400   12.39360
 7200.00000  100.23080    2.00680    1.63520    1.78500   -5.46630   92.05100   11.56610
 7250.00000   99.88840    2.21990    2.01440    2.15030   -0.16990   88.00440   10.77240
 7300.00000   95.30870    2.05670    1.73970    1.89880   -1.19990   92.44370   11.95450
 7350.00000  102.26470    1.95870    1.60020    1.74480   -7.63100   93.61690   12.58370
 7400.00000   97.01180    2.00200    1.60200    1.75090   -6.14630   91.68800   12.34600
 7450.00000   92.21740    1.89400    1.50230    1.65900   -4.29920   93.29030   12.62150
 7500.00000   96.69350    1.94720    1.56300    1.68130   -9.17930   93.58710   12.91680
 7550.00000  102.55850    1.94470    1.49210    1.63080  -18.35430   93.77740   12.94280
 7600.00000   96.72740    1.95420    1.58190    1.73600  -17.73220   91.98700   12.29140
 7650.00000   99.70940    2.17840    1.81290    1.97400  -18.15130   90.13350   11.17950
 7700.00000   97.28890    2.19610    1.75090    1.90380  -80.04310   89.83610   11.47850
 7750.00000   92.83280    2.43130    1.98060    2.23380  -80.00510   85.28030   11.10250
 7800.00000   88.08030    2.72890    1.52590    1.71980  -95.34380   82.79190   11.02250
 7850.00000   34.57190    8.80530    9.91510   10.38530 -149.82510   63.11480   10.40060
 7900.00000   47.35570   24.71280   27.79140   35.56500 -139.43200   62.43850   10.36080
 7950.00000   92.57300    3.56140    2.03860    2.21710  -84.81850   93.78420   13.69140
 8000.00000   87.87240    1.99180    1.35270    1.40440 -110.78790   97.28330   17.40720
 8050.00000   91.37900    2.71080    2.26420    2.10320  -86.08400   98.15720   15.74990
 8100.00000  107.19730    4.05340    3.36310    3.13940  -84.02470   94.75000   13.00370
 8150.00000   91.37350   11.02340    7.00990    7.91810  -63.65820   86.13870   11.14920
 8200.00000  118.22020    4.96090    3.63070    3.91250  -63.66880   96.92910   14.47060
 8250.00000   90.58190    3.61310    2.68840    2.48160  -98.20200   95.47770   16.03650
