~Version ---------------------------------------------------
VERS. 2.0 : CWLS log ASCII Standard -VERSION 2.0
WRAP.  NO : ONE LINE PER DEPTH STEP
~Well ------------------------------------------------------
STRT.F                  2450.0 : START DEPTH
STOP.F                 15800.0 : STOP DEPTH
STEP.F                50.00000 : STEP LENGTH
NULL.                  -999.25 : NULL VALUE
COMP.     MARATHON OIL COMPANY : COMPANY
WELL.                 CAZEY #1 : WELL
FLD .                  WILDCAT : FIELD
LOC .                          : LOCATION
CNTY.                ROBERTSON : COUNTY
STAT.                    TEXAS : STATE
CTRY. UNITED STATES OF AMERICA : COUNTRY
SRVC.        STRATAGRAPH, INC. : SERVICE COMPANY
DATE.              30-Dec-1995 : LOGDATE
API .           42395304440000 : API NUMBER
UWI .           42395304440000 : UNIQUE WELL ID
SLAT.WGS84       31.0729547384 : SURFACE LATITUDE
SLON.WGS84      -96.4245842071 : SURFACE LONGITUDE
~Curve Information -----------------------------------------
DEPT.F                 : 
DTCO.US/F 60 523 00 00 : COMPRESSIONAL-WAVE INTERVAL TRANSIT TIME ACAUSTIC SLOWNESS
SPR .MV   07 010 01 00 : SPONTANEOUS POTENTIAL
TEND.LB   45 635 01 00 : TENSION FROM DENSITY LOG
DCAL.IN   07 280 30 00 : DIFFERENTIAL CALIPER
SFLU.OHMM 07 220 01 00 : SPHERICALLY FOCUSED LOG UNAVERAGED RESISTIVITY
ILM .OHMM 07 120 44 00 : INDUCTION LOG MEDIUM
ILD .OHMM 07 120 46 00 : INDUCTION LOG DEEP
PEF .B/E  45 358 01 00 : PHOTOELECTRIC FACTOR
DRHO.G/C3 45 356 01 00 : DENSITY CORRECTION
DT  .US/F 60 520 00 00 : INTERVAL TRANSIT TIME
DPHI.DEC  45 890 10 00 : DENSITY POROSITY LIMESTONE
GRD .GAPI 45 310 01 00 : GAMMA RAY FROM DENSITY LOG
IDPH.OHMM 07 120 46 00 : INDUCTION DEEP PHASOR RES.
IMPH.OHMM 07 120 44 00 : INDUCTION MEDIUM PHASOR RES.
NPHI.DEC  42 890 01 00 : NEUTRON POROSITY LIMESTONE
DTLF.US/F 60 523 00 00 : ACOUSTIC TRANSIT TIME, LONG SPACED, FAR ARRAY
DTLN.US/F 60 523 00 00 : ACOUSTIC TRANSIT TIME, LONG SPACED, NEAR ARRAY
~Params ----------------------------------------------------
EKB .F                 421.0 : Kelly bushing
EGL .F                 390.0 : Ground level
EDF .F                 420.0 : Drilling floor
EPD .F                 390.0 : Permanent datum
TD  .F               15800.0 : Total depth
DATE.            31-DEC-1995 : Date logged
CLNT.                A2DTECH : Client Code
SL  . 344' FNWL & 1230' FNEL : Surface Location
PD  .                     GL : Permanent Datum
LMF .                     KB : Log Measured From
DMF .                     KB : Drilling Measured From
DAPD.F                    31 : Feet Above Permanent Datum
DD  .F                 15800 : Depth driller
DL  .F                 15796 : Depth logger
BLI .F                 15793 : Bottom log interval
CS1 .IN                7.875 : Casing size
CBD1.        7.875" @ 14300' : Casing driller 1
CBL1.F                 14292 : Casing logger 1
BS1 .IN                  8.5 : Bit size
BSD1.F                 15800 : Depth drilled with bit1
DFT .                THERMEX : Type fluid in hole
DFD .                   16.2 : Density
DFPH.                   10.5 : pH
MSS .              CIRC TANK : Source of sample
RMS .OHMM              1.932 : Rm
RMF .OHMM              1.872 : Rmf
RMC .OHMM              2.181 : Rmc
MFSS.                   MEAS : Source Rmf.
MCSS.                   CALC : Source Rmc.
RMB .OHMM              0.423 : Rm. at BHT
BHT .F                   358 : BHT.
TCS .HRS                 130 : Time Circ. stopped
TLAB.HRS                1130 : Time logger at bottom
LUN .                   8400 : Logging unit number
LUL .                    LER : Logging unit location
ENGI.                 CORLEA : Recorded By
WITN.              FAIRHURST : Witnessed by
ORIG.               5" PRINT : Origin of data
UWI .         42395304440000 : Unique Well ID
DICO. A2D TECHNOLOGIES, INC. : Digitizing Company
~Other -----------------------------------------------------
~ASCII -----------------------------------------------------
 2450.00000  131.51200    -999.25    -999.25    -999.25    -999.25    -999.25    -999.25    -999.25    -999.25    -999.25    -999.25   42.83000    -999.25    -999.25    -999.25    -999.25    -999.25
 2500.00000  100.24000  -22.97000 2620.07910    5.36900    2.13000    1.45500    2.25800    -999.25    -999.25    -999.25    -999.25   53.54500    -999.25    -999.25    -999.25  101.63300  103.20900
 2550.00000   96.53900  -20.54800 2500.00000    9.36400    1.46300    1.62600    1.76700    -999.25    -999.25    -999.25    -999.25   48.10300    -999.25    -999.25    -999.25  105.50800   95.76500
 2600.00000  107.40500  -20.59900 2860.00000    9.51400    1.56700    1.86200    2.00100    -999.25    -999.25    -999.25    -999.25   49.21300    -999.25    -999.25    -999.25  104.09100  105.63800
 2650.00000  100.88200  -20.57800 2651.10300    8.69100    1.22400    1.28000    1.36500    -999.25    -999.25    -999.25    -999.25   56.55100    -999.25    -999.25    -999.25  -59.43550   95.06400
 2700.00000  119.92100  -20.59900 2605.96410    9.36400    1.18400    1.31700    1.40100    -999.25    -999.25    -999.25    -999.25   59.40200    -999.25    -999.25    -999.25  113.03500  118.20000
 2750.00000  109.03100  -23.49400 2678.12500    9.36400    1.81300    1.91900    2.00600    -999.25    -999.25    -999.25    -999.25   72.22400    -999.25    -999.25    -999.25  121.01400  112.26600
 2800.00000  109.94300  -20.68500 2732.32100    9.35600    1.47500    1.68100    1.77500    -999.25    -999.25    -999.25    -999.25   64.45600    -999.25    -999.25    -999.25  123.59800  103.32000
 2850.00000  110.89500  -24.95500 2607.93600    9.33400    1.87700    2.10000    2.30500    -999.25    -999.25    -999.25    -999.25   59.35500    -999.25    -999.25    -999.25  108.42000  110.44500
 2900.00000  121.41800  -24.59900 2691.74900    9.32400    1.27900    1.37300    1.43500    -999.25    -999.25    -999.25    -999.25   78.14800    -999.25    -999.25    -999.25  123.48200  121.71000
 2950.00000  126.46400  -21.52000 2609.34500    9.33300    1.09100    1.10600    1.08900    -999.25    -999.25    -999.25    -999.25   72.54300    -999.25    -999.25    -999.25  126.15700  125.78500
 3000.00000  128.34900  -23.10400 2700.00000    9.31100    1.08700    1.05800    1.07900    -999.25    -999.25    -999.25    -999.25   77.91200    -999.25    -999.25    -999.25  127.67900  128.01700
 3050.00000  121.12200  -25.00100 2607.36790    9.32400    1.30000    1.26700    1.34400    -999.25    -999.25    -999.25    -999.25   68.30900    -999.25    -999.25    -999.25  115.96600  119.10400
 3100.00000  113.92500  -26.30800 2723.58010    9.15600    1.61600    1.78800    1.85200    -999.25    -999.25    -999.25    -999.25   66.30700    -999.25    -999.25    -999.25  109.08500  111.07400
 3150.00000  117.68200  -28.03600 2792.27390    9.23900    1.55800    1.81400    1.83800    -999.25    -999.25    -999.25    -999.25   46.95600    -999.25    -999.25    -999.25  114.91200  115.84500
 3200.00000  118.62100  -27.04000 2854.36890    6.94100    1.56100    2.13700    2.25800    -999.25    -999.25    -999.25    -999.25   96.75000    -999.25    -999.25    -999.25  106.50100  121.01400
 3250.00000  108.52800  -20.20000 2860.00000    8.13300    1.18500    1.38700    1.41300    -999.25    -999.25    -999.25    -999.25   55.94900    -999.25    -999.25    -999.25  105.70600  131.87700
 3300.00000   86.47400  -21.36700 2780.00000    5.57300    1.35900    1.48900    1.53100    -999.25    -999.25    -999.25    -999.25   64.30800    -999.25    -999.25    -999.25   96.95800  103.12100
 3350.00000  100.93900  -23.96900 2860.00000    2.62000    1.58800    1.89100    1.93300    -999.25    -999.25    -999.25    -999.25   68.69500    -999.25    -999.25    -999.25  108.09000   90.79500
 3400.00000  102.59300  -21.13100 2860.00000    6.74500    1.02700    1.13900    1.15100    -999.25    -999.25    -999.25    -999.25   73.22600    -999.25    -999.25    -999.25  113.16100   99.34400
 3450.00000   87.22000  -21.38300 2860.00000    9.03400    1.00400    1.18800    1.25000    -999.25    -999.25    -999.25    -999.25   53.10100    -999.25    -999.25    -999.25   69.72200   93.18100
 3500.00000  102.13800  -24.95600 2851.59910    4.43100    1.46500    1.73900    1.73900    -999.25    -999.25    -999.25    -999.25   84.20100    -999.25    -999.25    -999.25   97.73500   99.08000
 3550.00000  110.47500  -21.37400 2956.50490    5.96000    1.09000    1.26200    1.28600    -999.25    -999.25    -999.25    -999.25   86.35700    -999.25    -999.25    -999.25  126.58100   87.29500
 3600.00000  113.87400  -21.78200 2900.00000    9.32400    1.13600    1.23600    1.21700    -999.25    -999.25    -999.25    -999.25   55.23400    -999.25    -999.25    -999.25  112.24700  109.48300
 3650.00000  114.38200  -20.23700 2860.00000    7.21000    0.99000    1.08500    1.09000    -999.25    -999.25    -999.25    -999.25   74.38600    -999.25    -999.25    -999.25  112.26600  113.50900
 3700.00000  123.73300  -24.15400 2824.40600    9.11400    1.17700    1.41200    1.54300    -999.25    -999.25    -999.25    -999.25   67.46200    -999.25    -999.25    -999.25  162.96200   81.35200
 3750.00000  144.58500  -21.33500 2820.00000    9.32400    0.94400    0.95700    0.99100    -999.25    -999.25    -999.25    -999.25   72.56800    -999.25    -999.25    -999.25  137.81100  113.55900
 3800.00000  113.66900  -20.73700 2825.67310    9.36400    1.06800    1.08200    1.10000    -999.25    -999.25    -999.25    -999.25   71.70300    -999.25    -999.25    -999.25  115.86400  115.62500
 3850.00000   98.21100  -22.98100 2835.53100    9.40400    1.02600    1.04100    1.04300    -999.25    -999.25    -999.25    -999.25   78.93800    -999.25    -999.25    -999.25   65.93950  -60.00000
 3900.00000  100.26200  -23.65000 2938.49100    9.36400    1.02200    1.04600    1.05900    -999.25    -999.25    -999.25    -999.25   77.05800    -999.25    -999.25    -999.25  144.47300   88.31000
 3950.00000   84.65300  -21.78500 2860.00000    9.35600    1.01800    1.03200    1.04600    -999.25    -999.25    -999.25    -999.25   67.85600    -999.25    -999.25    -999.25  -59.35800  -59.50300
 4000.00000  110.50900  -21.82200 2935.65210    9.34700    0.92900    0.94700    0.94900    -999.25    -999.25    -999.25    -999.25   75.84300    -999.25    -999.25    -999.25  -60.00000  111.07300
 4050.00000  101.46000  -26.37600 2958.92410    8.72600    1.27800    1.37700    1.39600    -999.25    -999.25    -999.25    -999.25   78.96400    -999.25    -999.25    -999.25  112.33800   77.27600
 4100.00000  107.30800  -20.89100 3009.51610    5.96600    1.03200    1.14200    1.15200    -999.25    -999.25    -999.25    -999.25   76.05600    -999.25    -999.25    -999.25  105.09700  108.48900
 4150.00000  115.62100  -23.33100 3029.00100    4.55100    1.00100    1.00300    1.02100    -999.25    -999.25    -999.25    -999.25   73.57500    -999.25    -999.25    -999.25  111.50000   60.62700
 4200.00000  115.10700  -21.85400 3060.00000    4.42700    1.03000    1.03000    1.04100    -999.25    -999.25    -999.25    -999.25   66.72800    -999.25    -999.25    -999.25  110.27800  110.47700
 4250.00000  100.66500  -24.63600 3020.00000    3.35500    1.60700    1.75300    1.73900    -999.25    -999.25    -999.25    -999.25   58.10500    -999.25    -999.25    -999.25   94.95200   92.98200
 4300.00000  103.09900  -26.04900 3140.00000    5.12900    1.28600    1.28100    1.30400    -999.25    -999.25    -999.25    -999.25   51.44800    -999.25    -999.25    -999.25   40.09900  106.70000
 4350.00000  114.42800  -30.82600 3300.00000    5.04500    1.71700    1.73400    1.74000    -999.25    -999.25    -999.25    -999.25   47.62000    -999.25    -999.25    -999.25  118.72700   93.38000
 4400.00000  103.63600  -31.67200 3228.36890    5.42200    1.55800    1.58000    1.60100    -999.25    -999.25    -999.25    -999.25   45.16200    -999.25    -999.25    -999.25  102.69200  105.71200
 4450.00000   99.04100  -30.70300 3327.96410    6.37700    1.74000    1.82700    1.83800    -999.25    -999.25    -999.25    -999.25   47.66600    -999.25    -999.25    -999.25  225.38800   59.44000
