~Version ---------------------------------------------------
VERS. 2.0 : CWLS log ASCII Standard -VERSION 2.0
WRAP.  NO : ONE LINE PER DEPTH STEP
~Well ------------------------------------------------------
STRT.F                             300.0 : START DEPTH
STOP.F                           21950.0 : STOP DEPTH
STEP.F                          50.00000 : STEP LENGTH
NULL.                            -999.25 : NULL VALUE
COMP. PAN AMERICAN PETROLEUM CORPORATION : COMPANY
WELL.                  A. M. FOERSTER #1 : WELL
FLD .                            WILDCAT : FIELD
LOC .                                    : LOCATION
CNTY.                           LA SALLE : COUNTY
STAT.                              TEXAS : STATE
CTRY.           UNITED STATES OF AMERICA : COUNTRY
SRVC.                       Schlumberger : SERVICE COMPANY
DATE.                        20-Aug-1964 : LOGDATE
API .                     42283002040000 : API NUMBER
UWI .                     42283002040000 : UNIQUE WELL ID
SLAT.WGS84                 28.3371650608 : SURFACE LATITUDE
SLON.WGS84                -98.9649233845 : SURFACE LONGITUDE
~Curve Information -----------------------------------------
DEPT .F                 : 
ASN  .OHMM 05 041 16 00 : AMPLIFIED SHORT NORMAL RESISTIVITY
CILD .MMHO 05 110 46 00 : INDUCTION DEEP CONDUCTIVITY
SPR  .MV   05 010 01 00 : SPONTANEOUS POTENTIAL FROM RESISTIVITY
ILD  .OHMM 05 120 46 00 : INDUCTION DEEP RESISTIVITY
DT   .US/F 60 520 31 00 : DELTA-T (INTERVAL TRANSIT TIME)
CALS .IN   60 280 50 00 : CALIPER
GRN1 .GAPI 35 310 01 00 : GAMMA RAY
GRN2 .GAPI 35 310 01 00 : GAMMA RAY
GRN3 .GAPI 35 310 01 00 : GAMMA RAY
NEUT .NAPI 35 330 01 00 : NEUTRON
NEUT1.NAPI 35 330 01 00 : NEUTRON
~Params ----------------------------------------------------
PD  .                     GL : PERMANENT DATUM
EPD .F                   445 : ELEVATION PERMANENT DATUM
LMF .                     KB : LOG MEASURED FROM
DAPD.F                  28.5 : FEET ABOVE PERMANENT DATUM
DMF .                     KB : DRILLING MEASURED FROM
EKB .F                 473.5 : KELLING BUSHING
EDF .F                   471 : DRILLING FLOOR
EGL .F                   445 : GROUND LEVEL
DATE.               08/20/64 : RUN DATE
RUN .                     11 : RUN NUMBER
DD  .F                 21995 : DEPTH DRILLER
DL  .F                 21992 : DEPTH LOGGER
BLI .F                 21991 : BOTTOM LOG INTERVAL
TLI .F                 20005 : TOP LOG INTERVAL
CS  .IN                9.625 : CASING SIZE
CBD .F                 15993 : CASING BOTTOM DRILLER
CBL .F                 15993 : CASING BOTTOM LOGGER
BS  .IN                  8.5 : BIT SIZE
BSD .F                 21995 : BIT SIZE AT DEPTH
DFT .    XP 20 O E SPER CAUS : DRILLING FLUID TYPE
DFD .                   18.4 : DRILLING FLUID DENSITY
DFV .                     54 : DRILLING FLUID VISCOSITY
DFPH.                    8.9 : DRILLING FLUID PH
DFL .                      4 : DRILLING FLUID LOSS
MSS .                MUD PIT : MUD SAMPLE SOURCE
RMS .OHMM               0.15 : RESISTIVITY MUD SAMPLE
MST .F                   120 : MUD SAMPLE TEMPERATURE
RMF .OHMM              0.089 : RESISTIVITY MUD FILTRATE SAMPLE
MFST.F                    75 : MUD FILTRATE SAMPLE TEMPERATURE
RMC .OHMM               0.32 : RESISTIVITY MUD CAKE
MCST.F                    75 : MUD CAKE SAMPLE TEMPERATURE
MFSS.                      M : MUD FILTRATE SAMPLE SOURCE
MCSS.                      M : MUD CAKE SAMPLE SOURCE
RMB .OHMM              0.046 : RESISTIVITY MUD AT BHT
TCS .HRS                  10 : TIME CURCULATED STOPPED
LUN .                   4526 : LOGGING UNIT NUMBER
LUL .                    KEN : LOGGING UNIT LOCATION
ENGI.                  HARSH : RECORDING ENGINEER
WITN.          FREEMAN WALSH : WITNESSED BY
CLNT.                A2DTECH : CLIENT CODE
ORIG.               1" PRINT : ORIGIN OF DATA
UWI .         42283002040000 : UNIQUE WELL ID
DICO. A2D Technologies, Inc. : DIGITIZING COMPANY
~Other -----------------------------------------------------
~ASCII -----------------------------------------------------
# ...
 15450.00000   13.28610   37.39530 -103.78900   34.75830   49.66430   12.64670    -999.25    -999.25    -999.25 3212.78980    -999.25
 15500.00000   29.41460   16.27030  -91.67910   59.37500   49.26170   13.07700    -999.25    -999.25    -999.25 3171.09740    -999.25
 15550.00000   33.55670   -2.46360  -85.51260  431.69150   50.55920   12.88500    -999.25    -999.25    -999.25 3000.72710    -999.25
 15600.00000   11.42860   56.11980  -91.26140   19.24610   51.43200   13.15570    -999.25    -999.25    -999.25 2950.42580    -999.25
 15650.00000   16.88490   37.31310  -66.71610   31.53510   51.23020   12.73650    -999.25    -999.25    -999.25 2834.58450    -999.25
 15700.00000   18.81360   15.82090  -75.38380   62.65080   48.76960   12.79640    -999.25    -999.25    -999.25 3046.41460    -999.25
 15750.00000   13.10740   62.69670  -56.56260   16.70620   50.11220   12.64670    -999.25    -999.25    -999.25 2729.20560    -999.25
 15800.00000   18.84930   12.53730  -71.61960   47.59930   48.76960   12.73650    -999.25    -999.25    -999.25 2634.72070    -999.25
 15850.00000   28.90620    7.46300  -72.21400   94.79290   48.81430   12.64300 1382.05470    -999.25    -999.25 1922.14590    -999.25
 15900.00000   15.04460   19.40300  -55.27490   39.13820   49.03800   12.85630 1358.57130    -999.25    -999.25 1625.75840    -999.25
 15950.00000   16.06410   37.60990  -53.19530   15.21570   50.78290   12.58680 1280.72640    -999.25    -999.25 1610.57500    -999.25
 16000.00000    -999.25   10.74630 -133.43240    -999.25   49.04480   12.99100 1350.67260    -999.25    -999.25 1733.53310    -999.25
 16050.00000   38.90090   29.55220  -76.96850   38.49060   52.84340   11.08980 1076.33480    -999.25    -999.25 2256.00810    -999.25
 16100.00000   22.05570   58.20900  -87.66590   14.58340   51.70150   10.05690 1019.73830    -999.25    -999.25 2017.96410    -999.25
 16150.00000   11.36630  119.21210  -64.58650    8.18450   56.14870   10.10170 1102.03830    -999.25    -999.25 1650.54170    -999.25
 16200.00000   17.76790   77.61890  -73.30230   19.08880   50.81190   10.53600  996.64510    -999.25    -999.25 1570.35930    -999.25
 16250.00000   11.36600  156.88930  -67.38450    9.04070   60.71640    9.98490 1019.07270    -999.25    -999.25 1477.22410    -999.25
 16300.00000   27.15980   29.89990  -65.87420   31.34960   54.26860   11.41920 1034.73490    -999.25    -999.25 2205.94950    -999.25
 16350.00000   30.65480   41.61610  -62.95200   25.27230   51.88060   12.14050  945.20180    -999.25    -999.25 1952.09700    -999.25
 16400.00000   29.91120   41.19400  -60.13640   38.54170   51.34330   11.73110  925.92300    -999.25    -999.25 2297.91630    -999.25
 16450.00000   21.56360   46.56490  -61.21840   21.50010   52.20900   10.88020  884.44130    -999.25    -999.25 2189.00170    -999.25
 16500.00000    9.06250  163.04610  -71.71540    9.47480   54.59700    9.89210  889.65950    -999.25    -999.25 1784.16810    -999.25
 16550.00000    5.58020  267.91060  -65.97510    3.76950   69.55220   11.07490  828.61510    -999.25    -999.25 1361.55960    -999.25
 16600.00000    5.92260  305.61050  -65.37890    3.57140   58.98490   10.14670  830.40360    -999.25    -999.25 1687.14560    -999.25
 16650.00000   39.95540   30.07460  -72.36280   29.38990   56.47760    9.57780  796.14510    -999.25    -999.25 1986.52710    -999.25
 16700.00000   31.54770   29.20390  -77.56310   36.16070   56.71640    9.51800  541.10540    -999.25    -999.25 2095.00240    -999.25
 16750.00000    6.77810  284.60210  -84.91830    3.49700   60.86570    9.74010  561.39120    -999.25    -999.25 2022.46500    -999.25
 16800.00000   18.07540   82.38810  -66.27040    9.97020   57.68840    9.57780  558.66670    -999.25    -999.25 2250.00000    -999.25
 16850.00000   14.22620    6.56800  -95.98780   36.49560   64.64320    9.66770  534.23170    -999.25    -999.25 1847.27760    -999.25
 16900.00000    8.11010  174.92540  -51.41160    8.11010   69.85070   10.17660    -999.25  539.13560    -999.25 1384.63900    -999.25
 16950.00000    5.24550  264.17910  -22.49860    3.50870   65.64180   10.40500    -999.25  539.73170    -999.25 1443.11380    -999.25
 17000.00000    5.80360  210.94530  -27.27250    4.40920   61.35830   10.00730    -999.25  500.43870    -999.25 1721.55690    -999.25
 17050.00000    8.05360  185.07390  -37.50640    2.97620   58.92530    9.69600    -999.25  501.89740    -999.25 1637.72450    -999.25
 17100.00000    5.77000  419.40300  -94.94430    0.39620   71.70160    9.00900    -999.25  453.95360    -999.25 2035.19460    -999.25
 17150.00000    3.89620  482.95990  -49.01590    1.28890   67.49250   10.20890    -999.25  483.88370    -999.25 1312.35460    -999.25
 17200.00000    9.58330  148.74270  -63.97610    6.10120   54.77610    9.47310    -999.25  354.24360    -999.25    -999.25 1467.36270
 17250.00000   23.64780   44.32810  -51.14650   26.52530   53.59020    9.02390    -999.25  377.56300    -999.25    -999.25 2383.29610
 17300.00000   30.43150   53.35580  -62.30790   18.05570   55.73140    8.98330    -999.25  317.59170    -999.25    -999.25 2377.33060
 17350.00000    4.86610  244.08150  -43.59750    3.19940   74.59660    9.69760    -999.25  331.78000    -999.25    -999.25  895.94190
 17400.00000   11.07140  141.13290  -58.15710    5.05410   54.40390    9.27840    -999.25  294.68700    -999.25    -999.25 1435.94340
 17450.00000    4.56580  412.68660  -68.64710    1.78570   73.13430   12.82630    -999.25  335.02290    -999.25    -999.25  835.85680
 17500.00000   16.16340   71.89060  -67.14100   12.40300   72.50470    9.15870    -999.25  266.26860    -999.25    -999.25 1549.29260
 17550.00000    4.30810  317.00920  -35.72450    1.92220   72.26870   10.40120    -999.25  299.46270    -999.25    -999.25 1014.76310
 17600.00000    4.22620  357.46270  -19.73090    1.98400   72.60270   10.16170    -999.25  357.00860    -999.25    -999.25 1058.42710
 17650.00000    5.73680  285.82090  -14.42450    3.29830   62.12320    9.33830    -999.25  331.85140    -999.25    -999.25 1204.50940
 17700.00000    6.14590  285.07920  -22.27210    2.82740   73.34330   10.26650    -999.25  337.45460    -999.25    -999.25 1319.01170
 17750.00000    3.95830  318.28400  -17.26460    2.05840   78.29860   10.35630    -999.25  278.55740    -999.25    -999.25 1298.73220
 17800.00000    3.58460  346.56480  -22.12260    2.58980   71.38370    9.98200    -999.25  310.98600    -999.25    -999.25 1141.23790
 17850.00000    3.49200  391.80800  -20.22940    3.14980   72.49060    9.71260    -999.25  303.35620    -999.25    -999.25 1068.12060
 17900.00000    4.13180  372.28360  -29.64790    1.33930   71.14390    9.56290    -999.25  323.38540    -999.25    -999.25 1165.10070
 17950.00000    3.67050  437.88230  -31.29080    2.30660   75.32300    8.90420    -999.25  258.07890    -999.25    -999.25 1027.29310
 18000.00000    2.55900  430.59700  -13.45290    2.01040   76.08080    8.94910    -999.25    -999.25  260.29730    -999.25 1077.99760
 18050.00000    7.04610   73.50750  -11.80870   10.45390   66.01870    9.68260    -999.25    -999.25  264.59510    -999.25 1268.89600
 18100.00000    4.18170  249.25370  -15.54560    4.93580   66.08830    9.82920    -999.25    -999.25  224.95510    -999.25 1202.58370
 18150.00000    5.67190  181.71640  -16.44250    6.21270   65.01100    9.09880    -999.25    -999.25  228.39840    -999.25 1224.75740
 18200.00000    3.27380  308.95520  -16.29300    5.28360   70.18810    9.03890    -999.25    -999.25  240.71720    -999.25 1077.50180
 18250.00000    4.54580  244.66460  -24.36570    4.03710   61.26160    9.03940    -999.25    -999.25  156.05970    -999.25 1342.14250
 18300.00000    3.89890  274.39330  -23.26870    4.19760   68.65250    9.06890    -999.25    -999.25  176.11910    -999.25 1046.68860
 18350.00000    4.26340  217.10920  -39.91020    8.33360   85.50490    9.78740    -999.25    -999.25  174.32840    -999.25  973.11520
 18400.00000    4.86300  128.47220  -23.84500    6.99360   75.33280    9.98200    -999.25    -999.25  180.05890    -999.25  781.21410
