~Version ---------------------------------------------------
VERS.      2.0 : CWLS log ASCII Standard -VERSION 2.0
WRAP.      YES : Multiple lines per depth step
CREA. 09/17/18 : LAS Creation Date
~Well ------------------------------------------------------
STRT.FT                 1100.0 : START DEPTH
STOP.FT                 9550.0 : STOP DEPTH
STEP.FT               50.00000 : STEP LENGTH
NULL.                  -999.25 : NULL VALUE
COMP.     BURK ROYALTY COMPANY : COMPANY
WELL.             KING UNIT #1 : WELL
FLD .               JACQUELINE : FIELD
LOC .                          : LOCATION
CNTY.                 ATASCOSA : COUNTY
STAT.                    TEXAS : STATE
CTRY. UNITED STATES OF AMERICA : COUNTRY
SRVC.             Schlumberger : SERVICE COMPANY
DATE.              17-Aug-1994 : LOGDATE
API .           42013340230000 : API NUMBER
UWI .           42013340230000 : UNIQUE WELL ID
SLAT.WGS84         28.87747446 : SURFACE LATITUDE
SLON.WGS84      -98.2411771051 : SURFACE LONGITUDE
~Curve Information -----------------------------------------
DEPT    .FT    : DEPTH FEET
CALWS   .IN    : CALIPER [DCALRED+BIT]
CONDWS  .MMHO  : DEEP CONDUCTIVITY [1000/DRESWS]
DCALRED .IN    : DIFFERENTIAL CALIPER FROM PISFL-LDT-CNL LOG
DCORWS  .G/C3  : DENSITY CORRECTION [DRHOED]
DENWS   .G/C3  : BULK DENSITY [CALC. FROM DPOLSWS]
DPOLSWS .V/V   : DENSITY POROSITY (LS) [M=2.71 F=1.00] [PHNDLSED]
DRESWS  .OHMM  : DEEP RESISTIVITY [IDERED]
DRHOED  .G/C3  : DENSITY CORRECTION  FROM PISFL-LDT-CNL LOG
GRRED   .GAPI  : GAMMA RAY  FROM PISFL-LDT-CNL LOG
GRWS    .GAPI  : GAMMA RAY [GRRED]
IDERED  .OHMM  : INDUCTION DEEP ENHANCED RESOLUTION PHASE RESISTIVITY
IMERED  .OHMM  : INDUCTION MEDIUM ENHANCED RESOLUTION PHASE RESISTIVITY
MRESWS  .OHMM  : MEDIUM RESISTIVITY [IMERED]
NPHILSED.V/V   : NEUTRON POROSITY LIMESTONE  FROM PISFL-LDT-CNL LOG
NPOLSWS .V/V   : NEUTRON POROSITY LIMESTONE [NPHILSED]
PEFED   .B/E   : PHOTOELECTRIC FACTOR  FROM PISFL-LDT-CNL LOG
PEFWS   .B/E   : PHOTOELECTRIC FACTOR [PEFED]
DPHILSED.V/V   : DENSITY POROSITY (LS)  FROM PISFL-LDT-CNL LOG
SFLUED  .OHMM  : SPHERICALLY FOCUSED LOG RESISTIVITY
SPRED   .MV    : SPONTANEOUS POTENTIAL  FROM PISFL-LDT-CNL LOG
SPWS    .MV    : SPONTANEOUS POTENTIAL [BASELINE 0 MV] [SPRED]
SRESWS  .OHMM  : SHALLOW RESISTIVITY [SFLUED]
TENRED  .LBF   : TENSION  FROM PISFL-LDT-CNL LOG
~Params ----------------------------------------------------
PD  .                     GL : PERMANENT DATUM
EPD .FT                  279 : ELEVATION PERMANENT DATUM
LMF .                     KB : LOG MEASURED FROM
DAPD.FT                 14.4 : FEET ABOVE PERMANENT DATUM
DMF .                     KB : DRILLING MEASURED FROM
EKB .FT                293.4 : KELLY BUSHING
EDF .FT                292.4 : DRILLING FLOOR
EGL .FT                  279 : GROUND LEVEL
DATE.               08/17/94 : RUN DATE
RUN .                      1 : RUN NUMBER
DD  .FT                 9532 : DEPTH DRILLER
DL  .FT                 9524 : DEPTH LOGGER
BLI .FT                 9515 : BOTTOM LOG INTERVAL
TLI .FT                 1095 : TOP LOG INTERVAL
CS  .IN                8.625 : CASING SIZE
CBD .FT                 1095 : CASING BOTTOM DRILLER
CBL .FT                 1100 : CASING BOTTOM LOGGER
BS  .IN                7.875 : BIT SIZE
BSD .FT                 9532 : BIT SIZE AT DEPTH
DFT .         LIGNOSULFONATE : DRILLING FLUID TYPE
DFD .                   10.3 : DRILLING FLUID DENSITY
DFV .                     41 : DRILLING FLUID VISCOSITY
DFPH.                    8.5 : DRILLING FLUID PH
DFL .                    7.6 : DRILLING FLUID LOSS
MSS .               FLOWLINE : MUD SAMPLE SOURCE
RMS .OHMM              3.123 : RESISTIVITY MUD SAMPLE
MST .FT                   75 : MUD SAMPLE TEMPERATURE
RMF .OHMM              2.469 : RESISTIVITY MUD FILTRATE SAMPLE
MFST.FT                   75 : MUD FILTRATE SAMPLE TEMPERATURE
RMC .OHMM               1.98 : RESISTIVITY MUD CAKE
MCST.FT                   75 : MUD CAKE SAMPLE TEMPERATURE
MFSS.               MEASURED : MUD FILTRATE SAMPLE SOURCE
MCSS.               MEASURED : MUD CAKE SAMPLE SOURCE
RMB .OHMM              1.266 : RESISTIVITY MUD AT BHT
TCS .HRS                  30 : TIME CURCULATED STOPPED
TLAB.HRS                 830 : TIME LOGGER AT BOTTOM
LUN .                   2017 : LOGGING UNIT NUMBER
LUL .               VICTORIA : LOGGING UNIT LOCATION
ENGI.         DAVID BUMBAUGH : RECORDING ENGINEER
WITN.            JACK AUSTIN : WITNESSED BY
CLNT.                A2DTECH : CLIENT CODE
ORIG.           5" 10" PRINT : ORIGIN OF DATA
UWI .         42013340230000 : UNIQUE WELL ID
DICO. A2D Technologies, Inc. : DIGITIZING COMPANY
~Other -----------------------------------------------------
PISFL-LDT-CNL LOGGED I COMBO.
GAPS ON NEUTRON/DENSITY DUE TO INTERVALS NOT RECORDED ON LOG IMAGE.
~ASCII -----------------------------------------------------
# ...
 5750.00000   11.13280  426.87610    1.25780    0.05100    2.47500    0.13740    2.34260    0.05100   97.81570   97.81570    2.34260    2.25620    2.25620    0.30130    0.30130    -999.25    -999.25    0.13740    2.36630   -5.57580   -4.45520    2.36630 2576.21680
 5800.00000   11.13250  349.74820    1.25750    0.08800    2.40440    0.17870    2.85920    0.08800   89.20420   89.20420    2.85920    2.74960    2.74960    0.28560    0.28560    -999.25    -999.25    0.17870    2.98810  -12.17390  -10.94280    2.98810 2657.42580
 5850.00000   11.24460  524.68650    1.36960    0.07750    2.40750    0.17690    1.90590    0.07750  102.78650  102.78650    1.90590    1.87340    1.87340    0.30900    0.30900    -999.25    -999.25    0.17690    2.07350   -6.37990   -5.03830    2.07350 2650.57400
 5900.00000   11.52170  489.78790    1.64670    0.07300    2.45010    0.15200    2.04170    0.07300  110.28890  110.28890    2.04170    2.02080    2.02080    0.32510    0.32510    -999.25    -999.25    0.15200    2.27080   -6.47680   -5.70910    2.27080 2604.77540
 5950.00000    9.95550  325.88150    0.08050    0.06920    2.36990    0.19890    3.06860    0.06920   70.91100   70.91100    3.06860    3.35450    3.35450    0.22900    0.22900    -999.25    -999.25    0.19890    6.10070  -39.63320  -39.56030    6.10070 2683.33280
 6000.00000   10.56360  228.38870    0.68860    0.02340    2.45500    0.14910    4.37850    0.02340   70.15830   70.15830    4.37850    4.36160    4.36160    0.15810    0.15810    -999.25    -999.25    0.14910    5.89200  -22.41690  -23.03880    5.89200 2655.82910
 6050.00000   10.95280  466.78800    1.07780    0.08420    2.51030    0.11680    2.14230    0.08420  107.16060  107.16060    2.14230    2.20990    2.20990    0.27040    0.27040    -999.25    -999.25    0.11680    2.40550   -2.87960   -3.56400    2.40550 2639.71660
 6100.00000   10.80040  319.84650    0.92540    -999.25    -999.25    -999.25    3.12650    -999.25  103.06850  103.06850    3.12650    3.21080    3.21080    -999.25    -999.25    -999.25    -999.25    -999.25    3.62110  -11.49700  -12.18140    3.62110 2703.27170
 6150.00000   11.06690  398.53340    1.19190    -999.25    -999.25    -999.25    2.50920    -999.25  104.38090  104.38090    2.50920    2.47650    2.47650    -999.25    -999.25    -999.25    -999.25    -999.25    2.63510   -3.64730   -4.33170    2.63510 2678.90140
 6200.00000   10.86140  398.53340    0.98640    -999.25    -999.25    -999.25    2.50920    -999.25  103.47190  103.47190    2.50920    2.56340    2.56340    -999.25    -999.25    -999.25    -999.25    -999.25    2.70710   -2.81540   -3.49980    2.70710 2773.86910
 6250.00000   10.68090  441.32570    0.80590    -999.25    -999.25    -999.25    2.26590    -999.25  105.76350  105.76350    2.26590    2.29430    2.29430    -999.25    -999.25    -999.25    -999.25    -999.25    2.24870   -2.21530   -2.89970    2.24870 2816.59790
 6300.00000   10.53170  492.78080    0.65670    -999.25    -999.25    -999.25    2.02930    -999.25  106.62620  106.62620    2.02930    2.04420    2.04420    -999.25    -999.25    -999.25    -999.25    -999.25    2.21790   -3.71260   -4.39700    2.21790 2872.74050
 6350.00000   10.35780  453.74110    0.48280    -999.25    -999.25    -999.25    2.20390    -999.25  106.66170  106.66170    2.20390    2.20260    2.20260    -999.25    -999.25    -999.25    -999.25    -999.25    2.43220   -4.61080   -5.29520    2.43220 2891.26220
 6400.00000   11.19120  649.22420    1.31620    -999.25    -999.25    -999.25    1.54030    -999.25  107.22010  107.22010    1.54030    1.53940    1.53940    -999.25    -999.25    -999.25    -999.25    -999.25    1.71850   -3.43370   -4.11810    1.71850 2832.08400
 6450.00000   11.42720  690.65540    1.55220    -999.25    -999.25    -999.25    1.44790    -999.25  109.13150  109.13150    1.44790    1.43830    1.43830    -999.25    -999.25    -999.25    -999.25    -999.25    1.60410   -2.81440   -3.49880    1.60410 2889.64280
 6500.00000   12.05740  781.61640    2.18240    -999.25    -999.25    -999.25    1.27940    -999.25  103.74180  103.74180    1.27940    1.26930    1.26930    -999.25    -999.25    -999.25    -999.25    -999.25    1.42670   -3.43370   -4.11810    1.42670 2936.73140
 6550.00000   12.02430  915.49940    2.14930    -999.25    -999.25    -999.25    1.09230    -999.25  125.29860  125.29860    1.09230    1.08280    1.08280    -999.25    -999.25    -999.25    -999.25    -999.25    1.14420   -4.01200   -4.69640    1.14420 2948.64840
 6600.00000   12.53170  787.02970    2.65670    -999.25    -999.25    -999.25    1.27060    -999.25  111.82630  111.82630    1.27060    1.28660    1.28660    -999.25    -999.25    -999.25    -999.25    -999.25    1.41720   -3.11250   -3.79690    1.41720 2999.35060
 6650.00000   13.33760  809.91330    3.46260    -999.25    -999.25    -999.25    1.23470    -999.25  108.92550  108.92550    1.23470    1.25370    1.25370    -999.25    -999.25    -999.25    -999.25    -999.25    1.39750   -3.71260   -4.39700    1.39750 2989.25980
 6700.00000   13.27790  789.82700    3.40290    -999.25    -999.25    -999.25    1.26610    -999.25  104.86490  104.86490    1.26610    1.25810    1.25810    -999.25    -999.25    -999.25    -999.25    -999.25    1.28650   -1.63610   -2.32050    1.28650 3027.30180
 6750.00000   11.78560 1010.30510    1.91060    -999.25    -999.25    -999.25    0.98980    -999.25  103.29340  103.29340    0.98980    0.97370    0.97370    -999.25    -999.25    -999.25    -999.25    -999.25    0.96620    1.37580    0.69140    0.96620 3023.52540
 6800.00000   10.47210  337.55270    0.59710    -999.25    -999.25    -999.25    2.96250    -999.25   72.75450   72.75450    2.96250    2.94240    2.94240    -999.25    -999.25    -999.25    -999.25    -999.25    3.16020   -1.13760   -1.82200    3.16020 3010.03220
 6850.00000   11.40960  756.02930    1.53460    -999.25    -999.25    -999.25    1.32270    -999.25   85.47340   85.47340    1.32270    1.36410    1.36410    -999.25    -999.25    -999.25    -999.25    -999.25    1.47280   -3.41320   -4.09760    1.47280 2992.01680
 6900.00000   11.77820  667.06690    1.90320    -999.25    -999.25    -999.25    1.49910    -999.25   91.54530   91.54530    1.49910    1.51800    1.51800    -999.25    -999.25    -999.25    -999.25    -999.25    1.63760   -2.52160   -3.20600    1.63760 3079.54080
 6950.00000   10.77060  473.75400    0.89560    -999.25    -999.25    -999.25    2.11080    -999.25   74.32630   74.32630    2.11080    2.11350    2.11350    -999.25    -999.25    -999.25    -999.25    -999.25    2.34860   -4.62220   -5.30660    2.34860 3071.84060
 7000.00000   11.78540  605.73020    1.91040    -999.25    -999.25    -999.25    1.65090    -999.25   84.65570   84.65570    1.65090    1.67560    1.67560    -999.25    -999.25    -999.25    -999.25    -999.25    1.82740   -2.51420   -3.19860    1.82740 2996.94360
 7050.00000   10.88990  506.04730    1.01490    -999.25    -999.25    -999.25    1.97610    -999.25   81.46540   81.46540    1.97610    2.02670    2.02670    -999.25    -999.25    -999.25    -999.25    -999.25    2.13890   -2.74960   -3.43400    2.13890 2980.07300
 7100.00000   11.54820  581.93670    1.67320    -999.25    -999.25    -999.25    1.71840    -999.25   88.92220   88.92220    1.71840    1.70480    1.70480    -999.25    -999.25    -999.25    -999.25    -999.25    1.97260   -2.52940   -3.21380    1.97260 3014.79350
 7150.00000   11.78540  695.41030    1.91040    -999.25    -999.25    -999.25    1.43800    -999.25   93.95390   93.95390    1.43800    1.42720    1.42720    -999.25    -999.25    -999.25    -999.25    -999.25    1.57690   -1.91820   -2.60260    1.57690 3031.90720
 7200.00000   11.09890  705.06940    1.22390    -999.25    -999.25    -999.25    1.41830    -999.25   92.56390   92.56390    1.41830    1.42670    1.42670    -999.25    -999.25    -999.25    -999.25    -999.25    1.60360   -3.72090   -4.40530    1.60360 3045.62740
 7250.00000   10.86000  815.39470    0.98500    -999.25    -999.25    -999.25    1.22640    -999.25   94.15340   94.15340    1.22640    1.24960    1.24960    -999.25    -999.25    -999.25    -999.25    -999.25    1.48690   -1.31740   -2.00180    1.48690 3079.58960
