~Version ---------------------------------------------------
VERS.      2.0 : CWLS log ASCII Standard -VERSION 2.0
WRAP.      YES : Multiple lines per depth step
CREA. 07/19/12 : LAS Creation Date
~Well ------------------------------------------------------
STRT.FT                  3700.0 : START DEPTH
STOP.FT                  8100.0 : STOP DEPTH
STEP.FT                50.00000 : STEP LENGTH
NULL.                   -999.25 : NULL VALUE
COMP. BRITTANY DRILLING COMPANY : COMPANY
WELL.           WENKE UNIT A #1 : WELL
FLD .                  GIDDINGS : FIELD
LOC .                           : LOCATION
CNTY.                       LEE : COUNTY
STAT.                     TEXAS : STATE
CTRY.  UNITED STATES OF AMERICA : COUNTRY
SRVC.              Schlumberger : SERVICE COMPANY
DATE.               14-Apr-1981 : LOGDATE
API .            42287309140000 : API NUMBER
UWI .            42287309140000 : UNIQUE WELL ID
SLAT.WGS84        30.1151179696 : SURFACE LATITUDE
SLON.WGS84       -97.0048315462 : SURFACE LONGITUDE
~Curve Information -----------------------------------------
DEPT    .FT    : DEPTH FEET
CALDED  .IN    : CALIPER FROM COMPENSATED NEUTRON-FORMATION DENSITY LOG
CALRED  .IN    : CALIPER FROM DUAL INDUCTION-SFL-SONIC LOG
CALWS   .IN    : CALIPER [CALRED SPL. TO CALDED @ 8077.5']
CONDWS  .MMHO  : CONDUCTIVITY [1000/DRESWS]
DCORWS  .G/C3  : DENSITY CORRECTION [DRHOED]
DENWS   .G/C3  : FORMATION BULK DENSITY [RHOBED]
DPHILSED.V/V   : DENSITY POROSITY LIMESTONE [M=2.71 F=1.0] FROM COMPENSATED NEUTRON-FORMATION DENSITY LOG
DPOWS   .V/V   : DENSITY POROSITY LIMESTONE [DPHILSED]
DRESWS  .OHMM  : DEEP RESISTIVITY [ILDED]
DRHOED  .G/C3  : DENSITY CORRECTION FROM COMPENSATED NEUTRON-FORMATION DENSITY LOG
DTED    .US/F  : INTERVAL TRANSIT TIME FROM DUAL INDUCTION-SFL-SONIC LOG
DTWS    .US/F  : COMPRESSIONAL SONIC [DTED]
GRDED   .GAPI  : GAMMA RAY FROM COMPENSATED NEUTRON-FORMATION DENSITY LOG
GRWS    .GAPI  : GAMMA RAY [GRDED]
ILDED   .OHMM  : DEEP INDUCTION FROM DUAL INDUCTION-SFL-SONIC LOG
ILMED   .OHMM  : MEDIUM INDUCTION FROM DUAL INDUCTION-SFL-SONIC LOG
MRESWS  .OHMM  : MEDIUM RESISTIVITY [ILMED]
NPHILSED.V/V   : NEUTRON POROSITY LIMESTONE FROM COMPENSATED NEUTRON-FORMATION DENSITY LOG
NPOWS   .V/V   : NEUTRON POROSITY LIMESTONE[NPHILSED]
RHOBED  .G/C3  : BULK DENSITY FROM COMPENSATED NEUTRON-FORMATION DENSITY LOG
SFLUED  .OHMM  : SHALLOW FOCUS RESISTIVITY UNAVERAGED FROM DUAL INDUCTION-SFL-SONIC LOG
SPRED   .MV    : SPONTANEOUS POTENTIAL FROM DUAL INDUCTION-SFL-SONIC LOG
SPWS    .MV    : SPONTANEOUS POTENTIAL [BASELINE 0 MV, SPRED]
SRESWS  .OHMM  : SHALLOW RESISTIVITY [SFLUED]
~Params ----------------------------------------------------
PD  .                     GL : PERMANENT DATUM
EPD .FT                  432 : ELEVATION PERMANENT DATUM
LMF .                    RKB : LOG MEASURED FROM
DAPD.FT                   16 : FEET ABOVE PERMANENT DATUM
DMF .                    RKB : DRILLING MEASURED FROM
EKB .FT                  448 : KELLY BUSHING
EDF .FT                  447 : DRILLING FLOOR
EGL .FT                  432 : GROUND LEVEL
DATE.               04/14/81 : RUN DATE
RUN .                      1 : RUN NUMBER
DD  .FT                 8140 : DEPTH DRILLER
DL  .FT                 8136 : DEPTH LOGGER
BLI .FT                 8129 : BOTTOM LOG INTERVAL
TLI .FT                 3699 : TOP LOG INTERVAL
CS  .IN                8.625 : CASING SIZE
CBD .FT                 3700 : CASING BOTTOM DRILLER
CBL .FT                 3699 : CASING BOTTOM LOGGER
BS  .IN                7.875 : BIT SIZE
BSD .FT                 8140 : BIT SIZE AT DEPTH
DFT .             LOW SOLIDS : DRILLING FLUID TYPE
DFD .                    9.2 : DRILLING FLUID DENSITY
DFV .                     38 : DRILLING FLUID VISCOSITY
DFPH.                    9.5 : DRILLING FLUID PH
DFL .                    6.6 : DRILLING FLUID LOSS
MSS .               CIRC PIT : MUD SAMPLE SOURCE
RMS .OHMM                2.6 : RESISTIVITY MUD SAMPLE
MST .DEGF                 75 : MUD SAMPLE TEMPERATURE
RMF .OHMM               3.54 : RESISTIVITY MUD FILTRATE SAMPLE
MFST.DEGF                 75 : MUD FILTRATE SAMPLE TEMPERATURE
RMC .OHMM                3.9 : RESISTIVITY MUD CAKE
MCST.DEGF                 75 : MUD CAKE SAMPLE TEMPERATURE
MFSS.                      M : MUD FILTRATE SAMPLE SOURCE
MCSS.                      C : MUD CAKE SAMPLE SOURCE
RMB .OHMM               0.98 : RESISTIVITY MUD AT BHT
TCS .HRS                2000 : TIME CIRCULATED STOPPED
TLAB.HRS                 155 : TIME LOGGER AT BOTTOM
LUN .                   8005 : LOGGING UNIT NUMBER
LUL .               VICTORIA : LOGGING UNIT LOCATION
ENGI.              BENAVIDES : RECORDING ENGINEER
WITN.                 KURTIN : WITNESSED BY
CLNT.                A2DTECH : CLIENT CODE
ORIG.               5" PRINT : ORIGIN OF DATA
UWI .         42287309140000 : UNIQUE WELL ID
DICO. A2D Technologies, Inc. : DIGITIZING COMPANY
~Other -----------------------------------------------------
~ASCII -----------------------------------------------------
# ...
 6600.00000    -999.25   12.86380   12.86380  763.53360    -999.25    -999.25    -999.25    -999.25    1.30970    -999.25   98.07210   98.07210    -999.25    -999.25    1.30970    1.37640    1.37640    -999.25    -999.25    -999.25    1.54430  -18.35450  -12.29050    1.54430
 6650.00000   14.51300   13.07830   13.07830  785.48430    0.02180    2.45010    0.15210    0.15210    1.27310    0.02180   99.06440   99.06440   90.72340   90.72340    1.27310    1.32280    1.32280    0.27060    0.27060    2.45010    1.50690  -14.98910   -9.14510    1.50690
 6700.00000   12.98080   12.07140   12.07140  809.12700    0.04060    2.44410    0.15330    0.15330    1.23590    0.04060  100.73900  100.73900   91.95130   91.95130    1.23590    1.28220    1.28220    0.28670    0.28670    2.44410    1.47710  -15.45200   -9.82800    1.47710
 6750.00000   11.20600   10.88330   10.88330  530.53210    0.07740    2.54180    0.09610    0.09610    1.88490    0.07740   89.58200   89.58200   81.18170   81.18170    1.88490    1.96110    1.96110    0.20670    0.20670    2.54180    2.39170  -12.29170   -6.88770    2.39170
 6800.00000    9.91140    9.63620    9.63620  222.37540   -0.00890    2.57400    0.07960    0.07960    4.49690   -0.00890   73.52670   73.52670   53.78240   53.78240    4.49690    4.68210    4.68210    0.10070    0.10070    2.57400    4.74360  -11.86090   -6.67690    4.74360
 6850.00000   10.92940   10.98410   10.98410  267.12970   -0.00540    2.57850    0.07390    0.07390    3.74350   -0.00540   77.62300   77.62300   66.56210   66.56210    3.74350    4.00290    4.00290    0.13720    0.13720    2.57850    4.01800   -8.40050   -3.43660    4.01800
 6900.00000   10.88340   10.81570   10.81570  263.74090    0.00160    2.60390    0.06000    0.06000    3.79160    0.00160   75.89350   75.89350   63.95190   63.95190    3.79160    3.93510    3.93510    0.14980    0.14980    2.60390    4.87240   -9.42020   -4.67630    4.87240
 6950.00000   10.49120   10.36660   10.36660  374.58800    0.00030    2.56820    0.07970    0.07970    2.66960    0.00030   84.07330   84.07330   76.01840   76.01840    2.66960    2.76970    2.76970    0.19090    0.19090    2.56820    3.27100  -14.36820   -9.27210    3.27100
 7000.00000   10.24200    9.96400    9.96400  215.91740   -0.01030    2.58070    0.07390    0.07390    4.63140   -0.01030   71.39990   71.39990   44.04130   44.04130    4.63140    5.13100    5.13100    0.16480    0.16480    2.58070    6.27710  -19.36270  -13.69190    6.27710
 7050.00000   11.19730   10.86380   10.86380  412.26910    0.02970    2.54440    0.09610    0.09610    2.42560    0.02970   87.25100   87.25100   79.83520   79.83520    2.42560    2.55300    2.55300    0.22150    0.22150    2.54440    2.83820  -22.24380  -15.99820    2.83820
 7100.00000   11.00370   10.58470   10.58470  392.31070    0.01620    2.56900    0.07960    0.07960    2.54900    0.01620   86.18110   86.18110   80.39510   80.39510    2.54900    2.65040    2.65040    0.18480    0.18480    2.56900    3.02300  -30.50870  -23.68840    3.02300
 7150.00000    9.91790    9.72720    9.72720  152.49250   -0.00070    2.62930    0.04610    0.04610    6.55770   -0.00070   63.45790   63.45790   27.72660   27.72660    6.55770    6.84540    6.84540    0.04910    0.04910    2.62930    6.83260  -39.45730  -32.06230    6.83260
 7200.00000   10.08160    9.91610    9.91610  125.84000   -0.01060    2.63250    0.04360    0.04360    7.94660   -0.01060   63.19090   63.19090   28.71350   28.71350    7.94660    8.24500    8.24500    0.04460    0.04460    2.63250    8.62970  -31.77520  -23.80550    8.62970
 7250.00000   10.02240    9.75420    9.75420   92.51040   -0.00620    2.63650    0.04150    0.04150   10.80960   -0.00620   60.79270   60.79270   24.90700   24.90700   10.80960   11.45320   11.45320    0.03720    0.03720    2.63650   11.57610  -34.22510  -25.68060   11.57610
 7300.00000    9.71080    9.52190    9.52190  116.54740    0.04820    2.62160    0.04910    0.04910    8.58020    0.04820   60.89580   60.89580   40.37130   40.37130    8.58020    9.62410    9.62410    0.09260    0.09260    2.62160   17.24530  -37.57210  -28.45290   17.24530
 7350.00000    9.78490    9.51330    9.51330   94.77330   -0.00070    2.66050    0.02790    0.02790   10.55150   -0.00070   58.88100   58.88100   21.49280   21.49280   10.55150   11.05950   11.05950    0.02740    0.02740    2.66050   13.30180  -34.55070  -24.85680   13.30180
 7400.00000    9.81130    9.58290    9.58290  108.15020   -0.01060    2.62950    0.04780    0.04780    9.24640   -0.01060   60.47770   60.47770   20.45700   20.45700    9.24640    9.75200    9.75200    0.04440    0.04440    2.62950   11.55650  -35.11320  -24.84460   11.55650
 7450.00000    9.80290    9.59140    9.59140  385.46040   -0.01330    2.47940    0.11110    0.11110    2.59430   -0.01330   89.68500   89.68500   53.59460   53.59460    2.59430    2.79080    2.79080    0.09220    0.09220    2.47940    1.82700  -31.30470  -20.46140    1.82700
 7500.00000   10.48480   10.23120   10.23120  225.42320    0.02870    2.54260    0.11630    0.11630    4.43610    0.02870   70.91870   70.91870   65.85030   65.85030    4.43610    4.81710    4.81710    0.14850    0.14850    2.54260    5.72390  -30.24640  -18.82830    5.72390
 7550.00000   10.57570   10.48380   10.48380  168.03050   -0.00410    2.62780    0.04640    0.04640    5.95130   -0.00410   64.99580   64.99580   28.77630   28.77630    5.95130    6.17510    6.17510    0.05350    0.05350    2.62780    6.65670  -30.77560  -18.78280    6.65670
 7600.00000   10.40440   10.08640   10.08640  143.00830    0.00200    2.61670    0.05240    0.05240    6.99260    0.00200   64.39790   64.39790   29.93000   29.93000    6.99260    7.25790    7.25790    0.05030    0.05030    2.61670    7.87020  -35.74600  -23.17850    7.87020
 7650.00000    9.79200    9.31400    9.31400   99.03930   -0.00130    2.62790    0.04600    0.04600   10.09700   -0.00130   61.55040   61.55040   33.38700   33.38700   10.09700   10.92080   10.92080    0.04140    0.04140    2.62790   12.99060  -29.71870  -16.57650   12.99060
 7700.00000    9.37790    9.00990    9.00990   61.46730    0.01840    2.62960    0.04850    0.04850   16.26880    0.01840   62.68130   62.68130   36.42820   36.42820   16.26880   16.88290   16.88290    0.03230    0.03230    2.62960   21.13810  -31.66860  -17.95160   21.13810
 7750.00000    9.35670    8.12360    8.12360   41.29620    0.02270    2.58120    0.07450    0.07450   24.21530    0.02270   62.68350   62.68350   40.80500   40.80500   24.21530   25.50460   25.50460    0.05970    0.05970    2.58120   19.75370  -43.25460  -28.96290   19.75370
 7800.00000    9.57070    9.28750    9.28750   29.36750    0.10440    2.44510    0.15840    0.15840   34.05130    0.10440   60.06150   60.06150   20.82740   20.82740   34.05130   42.63080   42.63080    0.04990    0.04990    2.44510  111.18460  -42.59920  -27.73280  111.18460
 7850.00000    9.13790    8.87780    8.87780  144.10050   -0.00130    2.46450    0.14180    0.14180    6.93960   -0.00130   92.23150   92.23150   96.18490   96.18490    6.93960    7.21740    7.21740    0.27610    0.27610    2.46450   10.00920  -23.85970   -8.63120   10.00920
 7900.00000   12.20620   11.87720   11.87720  407.89690    0.15940    2.37330    0.19690    0.19690    2.45160    0.15940  106.63410  106.63410   98.15590   98.15590    2.45160    2.56420    2.56420    0.33230    0.33230    2.37330    3.09510  -34.19820  -18.96970    3.09510
 7950.00000    9.30980    8.37390    8.37390  240.26330    0.00050    2.64440    0.03210    0.03210    4.16210    0.00050   66.01550   66.01550   56.48090   56.48090    4.16210    4.33900    4.33900    0.13620    0.13620    2.64440    6.44230  -32.90960  -17.68110    6.44230
 8000.00000    8.84260    8.55950    8.55950   29.27270    0.00220    2.68890    0.01000    0.01000   34.16150    0.00220   55.24980   55.24980   19.38160   19.38160   34.16150   32.96670   32.96670    0.01670    0.01670    2.68890   32.50400  -36.16150  -20.93300   32.50400
