~Version ---------------------------------------------------
VERS. 2.0 : CWLS log ASCII Standard -VERSION 2.0
WRAP.  NO : ONE LINE PER DEPTH STEP
~Well ------------------------------------------------------
STRT.F                  2500.0 : START DEPTH
STOP.F                 14650.0 : STOP DEPTH
STEP.F                50.00000 : STEP LENGTH
NULL.                  -999.25 : NULL VALUE
COMP.     MARATHON OIL COMPANY : COMPANY
WELL.           BROUNKOWSKI #1 : WELL
FLD .                  WILDCAT : FIELD
LOC .                          : LOCATION
CNTY.                ROBERTSON : COUNTY
STAT.                    TEXAS : STATE
CTRY. UNITED STATES OF AMERICA : COUNTRY
SRVC.             Schlumberger : SERVICE COMPANY
DATE.              02-Oct-1995 : LOGDATE
API .           42395304350000 : API NUMBER
UWI .           42395304350000 : UNIQUE WELL ID
SLAT.WGS84       31.2546896053 : SURFACE LATITUDE
SLON.WGS84      -96.3452160282 : SURFACE LONGITUDE
~Curve Information -----------------------------------------
DEPT.F                 : 
SPR .MV   06 010 01 00 : SPONTANEOUS POTENTIAL
AO20.OHMM 06 120 20 00 : 20-IN. RESISTIVITY, 1-FT RESOLUTION
AO30.OHMM 06 120 30 00 : 30-IN. RESISTIVITY, 1-FT RESOLUTION
AO90.OHMM 06 120 90 00 : 90-IN. RESISTIVITY, 1-FT RESOLUTION
IMPH.OHMM 06 120 44 00 : INDUCTION MEDIUM PHASOR RES.
IDPH.OHMM 06 120 46 00 : INDUCTION DEEP PHASOR RES.
SFLU.OHMM 06 220 01 00 : SPHERICALLY FOCUSED LOG RESISTIVITY
DCAL.IN   06 280 30 00 : DIFFERENTIAL CALIPER
GRR .GAPI 06 310 01 00 : GAMMA RAY
DTLN.US/F 60 523 00 00 : ACOUSTIC TRANSIT TIME, LONG SPACED, NEAR ARRAY
NPHI.DEC  42 890 01 00 : NEUTRON POROSITY LIMESTONE
DPHI.DEC  45 890 10 00 : DENSITY POROSITY LIMESTONE
PEF .B/E  45 358 01 00 : PHOTOELECTRIC FACTOR
DRHO.G/C3 45 356 01 00 : DENSITY CORRECTION
TEND.LB   45 635 01 00 : TENSION FROM DENSITY LOG
AO60.OHMM 06 120 60 00 : 60-IN. RESISTIVITY, 1-FT RESOLUTION
DTLF.US/F 60 523 00 00 : ACOUSTIC TRANSIT TIME, LONG SPACED, FAR ARRAY
~Params ----------------------------------------------------
EKB .F                    414.0 : Kelly bushing
EGL .F                    383.0 : Ground level
EDF .F                    413.0 : Drilling floor
EPD .F                    383.0 : Permanent datum
TD  .F                  14691.0 : Total depth
DATE.               02-OCT-1995 : DATE LOGGED
CLNT.                   A2DTECH : CLIENT CODE
SL  . 17650' FNWL & 22170' FNEL : SURFACE LOCATION
PD  .                        GL : PERMANENT DATUM
LMF .                       RKB : LOG MEASURED FROM
DMF .                       RKB : DRILLING MEASURED FROM
DL  .F                    14691 : DEPTH LOGGER
BLI .F                    14685 : BOTTOM LOG INTERVAL
CS1 .IN                       7 : CASING SIZE
CBD1.                7" @ 3340' : CASING DRILLER 1
BS1 .IN                   5.875 : BIT SIZE
DFT .                   THERMEX : TYPE FLUID IN HOLE
DFD .                      16.7 : DENSITY
DFV .                        44 : VISCOSITY
DFPH.                       9.1 : PH
DFL .                         3 : FLUID LOSS
MSS .                  FLOWLINE : SOURCE OF SAMPLE
RMS .OHMM                 1.665 : RM
RMF .OHMM                 0.856 : RMF
RMC .OHMM                 1.875 : RMC
MFSS.                      MEAS : SOURCE RMF.
MCSS.                      CALC : SOURCE RMC.
RMB .OHMM                 0.494 : RM. AT BHT
BHT .F                      323 : BHT.
TCS .HRS                    200 : TIME CIRC. STOPPED
TLAB.                      1530 : TIME LOGGER AT BOTTOM
LUN .                      2019 : LOGGING UNIT NUMBER
LUL .                     TYLER : LOGGING UNIT LOCATION
ENGI.                   GARDNER : RECORDED BY
WITN.              EICHELBERGER : WITNESSED BY
ORIG.                  5" PRINT : ORIGIN OF DATA
UWI .            42395304350000 : UNIQUE WELL ID
DICO.    A2D TECHNOLOGIES, INC. : DIGITIZING COMPANY
DD  .F                    14706 : Depth driller
TLI .F                    10122 : Top log interval
CBL1.F                    10322 : Casing logger 1
BSD1.F                    14706 : Depth drilled with bit1
~Other -----------------------------------------------------
~ASCII -----------------------------------------------------
# ...
 12700.00000  -25.87000    -999.25    -999.25    -999.25   18.49380   13.92470   18.10310    0.85980   99.20400   74.75070    0.05980    0.04530    3.57560    0.03690 8650.60160    -999.25   71.73770
 12750.00000  -59.18620    -999.25    -999.25    -999.25   39.04830   27.92110   31.54630    0.36250   36.17810   63.68980    0.02020    0.24860    5.21210    0.08180 8650.60250    -999.25   61.85350
 12800.00000  -45.94580    -999.25    -999.25    -999.25   30.74230   36.87940   53.21930    1.09480   45.43230   54.35110    0.02160   -0.03220    4.36430   -0.00070 8770.79690    -999.25   55.11830
 12850.00000  -15.22710    -999.25    -999.25    -999.25    7.16990    5.66800   19.45860    1.08030   69.18740   59.90580    0.21990    0.12720    5.09600    0.01820 8801.20510    -999.25   62.44160
 12900.00000  -60.49440    -999.25    -999.25    -999.25   23.73600   30.41940   38.63360    0.03050   39.45240   60.99110    0.01650    0.10900    2.31640   -0.01480 8951.80760    -999.25   60.80560
 12950.00000  -27.46000    -999.25    -999.25    -999.25   13.41990   16.88450   19.09580   -0.00180   82.63860   60.68080    0.07960    0.01580    3.24750    0.00760 8800.68260    -999.25   61.10780
 13000.00000  -54.80770    -999.25    -999.25    -999.25   63.12270   76.18920   78.17920   -0.00070   25.70220   58.97960    0.01010    0.07510    2.23710    0.00930 8658.99120    -999.25   58.40970
 13050.00000   -3.63510    -999.25    -999.25    -999.25    4.19290    4.14450    5.41860    0.75010  118.25560   76.88270    0.17660    0.28560    7.18180    0.01820 8909.83690    -999.25   75.62870
 13100.00000   -3.03180    -999.25    -999.25    -999.25    6.48150    5.09270    7.54290    1.06790   88.34940   66.26140    0.12350    0.06230    4.15140    0.00980 8891.54790    -999.25   67.69370
 13150.00000   -1.51720    -999.25    -999.25    -999.25    4.66480    4.33710    6.42700    0.65540  140.13980   75.65070    0.17080    0.10840    4.46970    0.01060 8710.84380    -999.25    -999.25
 13200.00000   -0.77520    -999.25    -999.25    -999.25    4.24040    4.20010    5.30230    0.61070  130.05370   77.03870    0.17710    0.04790    4.12310    0.05170 8710.84380    -999.25   76.37780
 13250.00000    0.77920    -999.25    -999.25    -999.25    3.59680    3.40010    4.23830    0.30880   58.51470   79.98930    -999.25    0.06720    4.30300    0.05860 8834.23440    -999.25   80.52570
 13300.00000    2.86700    -999.25    -999.25    -999.25    5.13670    4.57550    5.77670    -999.25   64.31890   78.78430    -999.25    -999.25    -999.25    -999.25 8710.84380    -999.25   58.46040
 13350.00000    -999.25    -999.25    -999.25    -999.25    6.10940    6.01310    7.87200    -999.25   95.67050   79.66240    -999.25    -999.25    -999.25    -999.25 7024.09620    -999.25  102.55550
 13400.00000    -999.25    -999.25    -999.25    -999.25    4.53240    4.22530    5.59500    -999.25  104.48350   81.50960    -999.25    -999.25    -999.25    -999.25    -999.25    -999.25  106.59050
 13450.00000    -999.25    -999.25    -999.25    -999.25   10.19740   13.83370    9.74700    -999.25  105.49900   87.76510    -999.25    -999.25    -999.25    -999.25    -999.25    -999.25   91.45660
 13500.00000    -999.25    -999.25    -999.25    -999.25    7.89390   10.03760   11.19550    -999.25  106.63440   85.98390    -999.25    -999.25    -999.25    -999.25    -999.25    -999.25   86.56200
 13550.00000    -999.25    -999.25    -999.25    -999.25    6.24080    7.52380    7.15160    -999.25  120.28030  110.42300    -999.25    -999.25    -999.25    -999.25    -999.25    -999.25  117.50470
 13600.00000    -999.25    -999.25    -999.25    -999.25    6.76930    7.52470    8.76080    -999.25  108.51000  115.81450    -999.25    -999.25    -999.25    -999.25    -999.25    -999.25  113.76630
 13650.00000    -999.25    -999.25    -999.25    -999.25    5.85380    7.80400    8.04190    -999.25  115.65570   97.21580    -999.25    -999.25    -999.25    -999.25    -999.25    -999.25  130.05890
 13700.00000    -999.25    -999.25    -999.25    -999.25   10.98630   12.97620    7.95650    -999.25  124.28010   99.27980    -999.25    -999.25    -999.25    -999.25    -999.25    -999.25   96.57690
 13750.00000    -999.25    -999.25    -999.25    -999.25    3.11950    3.33980    4.23790    -999.25  106.57890   96.55790    -999.25    -999.25    -999.25    -999.25    -999.25    -999.25  109.28200
 13800.00000    -999.25    -999.25    -999.25    -999.25    6.86970    6.01240    6.22490    -999.25  128.89150  106.04940    -999.25    -999.25    -999.25    -999.25    -999.25    -999.25   98.07130
 13850.00000    -999.25    -999.25    -999.25    -999.25    2.77430    3.06690    3.42310    -999.25  116.52490   95.70990    -999.25    -999.25    -999.25    -999.25    -999.25    -999.25   99.11790
 13900.00000    -999.25    -999.25    -999.25    -999.25    2.60210    2.53000    3.64980    -999.25  120.37760   86.13970    -999.25    -999.25    -999.25    -999.25    -999.25    -999.25   85.96410
 13950.00000    -999.25    -999.25    -999.25    -999.25    2.54690    2.54950    3.76830    -999.25  123.43780   85.58050    -999.25    -999.25    -999.25    -999.25    -999.25    -999.25    -999.25
 14000.00000    -999.25    -999.25    -999.25    -999.25    2.74430    2.90740    3.53530    -999.25  135.69400   87.07120    -999.25    -999.25    -999.25    -999.25    -999.25    -999.25   85.06770
 14050.00000    -999.25    -999.25    -999.25    -999.25    1.99250    1.89610    2.56630    -999.25  139.13770   85.06170    0.19920    0.05540    -999.25    0.13750 5054.05370    -999.25   85.81390
 14100.00000    -999.25    -999.25    -999.25    -999.25   76.56690  293.85690  174.08120    -999.25   56.48210   61.29930    0.05170    0.12010    8.92750   -0.03320 5322.60550    -999.25   60.55310
 14150.00000    -999.25    -999.25    -999.25    -999.25  149.96100  578.41000  237.30610    -999.25   19.50450   49.87810    0.00520    0.01240    7.61330   -0.03960 5234.21000    -999.25   49.94020
 14200.00000    -999.25    -999.25    -999.25    -999.25  881.14090  490.70610  272.58140    -999.25   11.55860   57.90120    0.02890    0.11040    7.71350   -0.03510 5326.07760    -999.25   57.71300
 14250.00000    -999.25    -999.25    -999.25    -999.25  206.52590  951.75210  296.92250    -999.25    8.48780   53.58020    0.01430    0.09800    6.85810   -0.03310 5474.47460    -999.25   53.52770
 14300.00000    -999.25    -999.25    -999.25    -999.25   53.26620  512.16830  309.95330    -999.25   19.30030   52.03060    0.02630    0.14760    7.62330   -0.03810 5564.56490    -999.25   50.98730
 14350.00000    -999.25    -999.25    -999.25    -999.25 2047.15670  195.82230  153.20340    -999.25   15.26900   56.18340    0.04890    0.13870    7.55770   -0.02020 5564.46680    -999.25   55.32130
 14400.00000    -999.25    -999.25    -999.25    -999.25  153.21880  480.33030  485.15870    -999.25   23.01090   49.72550    0.00240    0.02020    6.65170   -0.04050 5598.35300    -999.25   28.86370
 14450.00000    -999.25    -999.25    -999.25    -999.25  226.54300 1999.49980  468.77320    -999.25   33.43830   49.61390    0.00160    0.02830    5.71500   -0.02620 5324.32420    -999.25   49.49170
 14500.00000    -999.25    -999.25    -999.25    -999.25   52.16510 2014.86390  431.50370    -999.25   25.86630   49.87880   -0.00390    0.02820    6.18530   -0.03840 5624.62450    -999.25   40.52270
 14550.00000    -999.25    -999.25    -999.25    -999.25   26.91450   65.77460   51.00850    -999.25   18.18740   45.59440    0.00430    0.03720    7.11480   -0.02770 5564.56400    -999.25   33.49730
 14600.00000    -999.25    -999.25    -999.25    -999.25   30.59740   34.99970   35.07590    -999.25    9.55310   51.76280   -0.00110    0.04390    9.50150   -0.05000 5684.68510    -999.25   52.48080
 14650.00000    -999.25    -999.25    -999.25    -999.25   78.23580   87.79010   81.58030    -999.25    -999.25    -999.25    -999.25    -999.25    -999.25    -999.25 4963.96390    -999.25    -999.25
