~Version ---------------------------------------------------
VERS.      2.0 : CWLS log ASCII Standard -VERSION 2.0
WRAP.      YES : Multiple lines per depth step
CREA. 01/03/13 : LAS Creation Date
~Well ------------------------------------------------------
STRT.FT                   3950.0 : START DEPTH
STOP.FT                   8600.0 : STOP DEPTH
STEP.FT                 50.00000 : STEP LENGTH
NULL.                    -999.25 : NULL VALUE
COMP. CHAMPLIN PETROLEUM COMPANY : COMPANY
WELL.             L J KOCUREK #1 : WELL
FLD .                   GIDDINGS : FIELD
LOC .                            : LOCATION
CNTY.                   BURLESON : COUNTY
STAT.                      TEXAS : STATE
CTRY.   UNITED STATES OF AMERICA : COUNTRY
SRVC.               Schlumberger : SERVICE COMPANY
DATE.                18-Apr-1980 : LOGDATE
API .             42051306120000 : API NUMBER
UWI .             42051306120000 : UNIQUE WELL ID
SLAT.WGS84         30.3823793957 : SURFACE LATITUDE
SLON.WGS84        -96.7071432424 : SURFACE LONGITUDE
~Curve Information -----------------------------------------
DEPT    .FT    : DEPTH FEET
CALDED  .IN    : CALIPER FROM CNFD LOG [ADJ. TO GRRED]
CALWS   .IN    : CALIPER [CALDED]
CONDWS  .MMHO  : CONDUCTIVITY [1000/DRESWS]
DCORWS  .G/C3  : DENSITY CORRECTION [DRHOED]
DENWS   .G/C3  : FORMATION BULK DENSITY [RHOBED]
DPHILSED.V/V   : DENSITY POROSITY LIMESTONE [M=2.71, F=1.0] FROM CNFD LOG [ADJ. TO GRRED]
DPHISSED.V/V   : DENSITY POROSITY SANDSTONE [M=2.65, F=0.81] FROM CNFD LOG [ADJ. TO GRRED]
DPOWS   .V/V   : DENSITY POROSITY LIMESTONE [DPHISSED CONVERTED TO LIMESTONE (M=2.71, F=1.0), SPL. TO DPHILSED @ 6790.5']
DRESWS  .OHMM  : DEEP RESISTIVITY [ILDED]
DRHOED  .G/C3  : BULK DENSITY CORRECTION FROM CNFD LOG [ADJ. TO GRRED]
DTED    .US/F  : DELTA-T (INTERVAL TRANSIT TIME) FROM DIL-SONIC LOG
DTWS    .US/F  : COMPRESSIONAL  SONIC [DTED]
GRDED   .GAPI  : GAMMA RAY FROM CNFD LOG [ADJ. TO GRRED]
GRRED   .GAPI  : GAMMA RAY FROM DIL-SONIC LOG
GRWS    .GAPI  : GAMMA RAY [GRDED]
ILDED   .OHMM  : DEEP INDUCTION FROM DIL-SONIC LOG
ILMED   .OHMM  : MEDIUM INDUCTION FROM DIL-SONIC LOG
MRESWS  .OHMM  : MEDIUM RESISTIVITY [ILMED]
NPHILSED.V/V   : NEUTRON POROSITY LIMESTONE FROM CNFD LOG [ADJ. TO GRRED]
NPHISSED.V/V   : NEUTRON POROSITY SANDSTONE FROM CNFD LOG [ADJ. TO GRRED]
NPOWS   .V/V   : NEUTRON POROSITY LIMESTONE [NPHISSED MATRIX CONVERTED TO LIMESTONE, SPL. TO NPHILSED @ 6790.5']
RHOBED  .G/C3  : BULK DENSITY FROM CNFD LOG [ADJ. TO GRRED]
SFLUED  .OHMM  : SHALLOW FOCUSED INDUCTION (UNAVERAGED) FROM DIL-SONIC LOG
SPHIED  .V/V   : SONIC POROSITY [DTM=47.5, DTF=189.0] FROM FDC-SONIC LOG
SPOWS   .V/V   : SONIC POROSITY [SPHIED]
SPRED   .MV    : SPONTANEOUS POTENTIAL FROM DIL-SONIC LOG
SPWS    .MV    : SPONTANEOUS POTENTIAL [BASELINE 0 MV, SPRED]
SRESWS  .OHMM  : SHALLOW RESISTIVITY [SFLUED]
~Params ----------------------------------------------------
PD  .                     GL : PERMANENT DATUM
EPD .FT                  328 : ELEVATION PERMANENT DATUM
LMF .                     KB : LOG MEASURED FROM
DAPD.FT                   16 : FEET ABOVE PERMANENT DATUM
DMF .                     KB : DRILLING MEASURED FROM
EKB .FT                  344 : KELLY BUSHING
EDF .FT                  343 : DRILLING FLOOR
EGL .FT                  328 : GROUND LEVEL
DATE.               04/18/80 : RUN DATE
RUN .                      2 : RUN NUMBER
DD  .FT                 8660 : DEPTH DRILLER
DL  .FT                 8613 : DEPTH LOGGER
BLI .FT                 8606 : BOTTOM LOG INTERVAL
TLI .FT                 3932 : TOP LOG INTERVAL
CS  .IN                9.625 : CASING SIZE
CBD .FT                 3987 : CASING BOTTOM DRILLER
CBL .FT                 3932 : CASING BOTTOM LOGGER
BS  .IN                 8.75 : BIT SIZE
BSD .FT                 8660 : BIT SIZE AT DEPTH
DFT .                BENT EX : DRILLING FLUID TYPE
DFD .                    9.6 : DRILLING FLUID DENSITY
DFV .                     43 : DRILLING FLUID VISCOSITY
DFPH.                    8.5 : DRILLING FLUID PH
DFL .                    7.1 : DRILLING FLUID LOSS
MSS .               FLOWLINE : MUD SAMPLE SOURCE
RMS .OHMM               4.13 : RESISTIVITY MUD SAMPLE
MST .DEGF                 75 : MUD SAMPLE TEMPERATURE
RMF .OHMM               3.63 : RESISTIVITY MUD FILTRATE SAMPLE
MFST.DEGF                 75 : MUD FILTRATE SAMPLE TEMPERATURE
RMC .OHMM               6.19 : RESISTIVITY MUD CAKE
MCST.DEGF                 75 : MUD CAKE SAMPLE TEMPERATURE
MFSS.                      M : MUD FILTRATE SAMPLE SOURCE
MCSS.                      C : MUD CAKE SAMPLE SOURCE
RMB .OHMM               1.59 : RESISTIVITY MUD AT BHT
TCS .HRS                1930 : TIME CIRCULATED STOPPED
TLAB.HRS                 230 : TIME LOGGER AT BOTTOM
LUN .                   8176 : LOGGING UNIT NUMBER
LUL .                BRENHAM : LOGGING UNIT LOCATION
ENGI.                   CATE : RECORDING ENGINEER
WITN.           WESLEY DAVIS : WITNESSED BY
CLNT.                A2DTECH : CLIENT CODE
ORIG.            2" 5" PRINT : ORIGIN OF DATA
UWI .         42051306120000 : UNIQUE WELL ID
DICO. A2D Technologies, Inc. : DIGITIZING COMPANY
~Other -----------------------------------------------------
~ASCII -----------------------------------------------------
 3950.00000   12.23960   12.23960   50.90900    0.09550    2.09040    -999.25    0.33960    0.40050   19.64290    0.09550  101.55470  101.55470   50.02540   68.04940   50.02540   19.64290   13.95450   13.95450    -999.25    0.36940    0.32610    2.09040   14.64230    -999.25    -999.25  -11.12310  -17.94580   14.64230
 4000.00000   10.79560   10.79560   85.44670    0.07250    2.30600    -999.25    0.21010    0.26120   11.70320    0.07250  100.45490  100.45490   71.51280   81.02010   71.51280   11.70320   10.78700   10.78700    -999.25    0.37680    0.33350    2.30600   10.03690    -999.25    -999.25  -16.14610  -22.96880   10.03690
 4050.00000   10.29210   10.29210  115.98510    0.07020    2.26210    -999.25    0.23070    0.28330    8.62180    0.07020   97.51250   97.51250   65.21530   82.91280   65.21530    8.62180    8.90140    8.90140    -999.25    0.28860    0.24460    2.26210   10.49730    -999.25    -999.25  -19.74650  -26.56920   10.49730
 4100.00000   10.12200   10.12200   56.54000    0.06310    2.54670    -999.25    0.05230    0.09140   17.68660    0.06310   66.17220   66.17220   49.90910   63.30870   49.90910   17.68660   19.54280   19.54280    -999.25    0.15100    0.10840    2.54670   50.94220    -999.25    -999.25  -17.23230  -24.05500   50.94220
 4150.00000   14.52940   14.52940  161.28510    0.01770    1.47140    -999.25    0.71490    0.80430    6.20020    0.01770  153.37410  153.37410   58.59640   63.14720   58.59640    6.20020    5.61180    5.61180    -999.25    0.59170    0.55000    1.47140    8.29870    -999.25    -999.25   -4.76020  -11.58290    8.29870
 4200.00000   12.21910   12.21910  170.77380    0.05520    1.52580    -999.25    0.63540    0.71880    5.85570    0.05520  141.76560  141.76560   55.35660   71.70950   55.35660    5.85570    6.64080    6.64080    -999.25    0.58150    0.53980    1.52580   15.86250    -999.25    -999.25   -4.00650  -10.59390   15.86250
 4250.00000    9.43580    9.43580  166.28970    0.05430    2.23480    -999.25    0.25050    0.30460    6.01360    0.05430   99.35480   99.35480   70.33060   88.70180   70.33060    6.01360    6.85930    6.85930    -999.25    0.30970    0.26580    2.23480    9.65270    -999.25    -999.25  -22.07130  -28.22290    9.65270
 4300.00000    9.87740    9.87740  166.67500    0.08800    2.24610    -999.25    0.24700    0.30090    5.99970    0.08800   98.09960   98.09960   55.72520   67.02620   55.72520    5.99970    6.86950    6.86950    -999.25    0.32070    0.27680    2.24610    7.94930    -999.25    -999.25  -25.96910  -31.41360    7.94930
 4350.00000    9.59860    9.59860  210.47760    0.08950    2.33530    -999.25    0.18790    0.23730    4.75110    0.08950   96.22080   96.22080   77.30130   87.73450   77.30130    4.75110    5.60800    5.60800    -999.25    0.34150    0.29780    2.33530    6.15550    -999.25    -999.25  -23.19980  -27.41060    6.15550
 4400.00000    9.23690    9.23690  190.42900    0.06370    2.20350    -999.25    0.27050    0.32620    5.25130    0.06370   97.14220   97.14220   46.66770   62.03710   46.66770    5.25130    6.30730    6.30730    -999.25    0.31980    0.27590    2.20350    8.96460    -999.25    -999.25  -45.72070  -48.69790    8.96460
 4450.00000    9.02590    9.02590  192.01600    0.07390    2.25590    -999.25    0.23790    0.29110    5.20790    0.07390   94.58860   94.58860   57.18210   74.03520   57.18210    5.20790    6.25660    6.25660    -999.25    0.31710    0.27320    2.25590    8.32790    -999.25    -999.25  -38.76130  -40.50480    8.32790
 4500.00000    9.28590    9.28590  203.99420    0.13950    2.39220    -999.25    0.15410    0.20090    4.90210    0.13950   95.02240   95.02240   80.95850   97.49480   80.95850    4.90210    5.06700    5.06700    -999.25    0.32320    0.27930    2.39220    5.84510    -999.25    -999.25  -15.90950  -16.41930    5.84510
 4550.00000   11.19640   11.19640  565.61090    0.23260    2.28760    -999.25    0.21960    0.27140    1.76800    0.23260  106.90100  106.90100   89.48630   96.69120   89.48630    1.76800    1.84680    1.84680    -999.25    0.39960    0.35670    2.28760    2.10870    -999.25    -999.25   -3.67080   -2.94690    2.10870
 4600.00000    9.48150    9.48150  308.74680    0.11170    2.37390    -999.25    0.16450    0.21210    3.23890    0.11170   99.50630   99.50630   88.79570   95.19970   88.79570    3.23890    3.34040    3.34040    -999.25    0.35640    0.31280    2.37390    3.30770    -999.25    -999.25  -19.56330  -18.43110    3.30770
 4650.00000    9.48420    9.48420  277.40790    0.14690    2.41790    -999.25    0.13440    0.17970    3.60480    0.14690   96.83260   96.83260   79.75830   83.53500   79.75830    3.60480    3.99810    3.99810    -999.25    0.32110    0.27720    2.41790    4.62510    -999.25    -999.25  -20.90950  -19.46080    4.62510
 4700.00000   11.02610   11.02610  382.55550    0.20680    2.38590    -999.25    0.15990    0.20710    2.61400    0.20680   99.60940   99.60940   72.49950   88.03580   72.49950    2.61400    2.70330    2.70330    -999.25    0.37860    0.33530    2.38590    2.87140    -999.25    -999.25   -9.54420   -7.77890    2.87140
 4750.00000   10.80120   10.80120  366.01880    0.12440    2.37810    -999.25    0.16320    0.21070    2.73210    0.12440   95.51610   95.51610   79.01000   84.61040   79.01000    2.73210    2.82280    2.82280    -999.25    0.32430    0.28040    2.37810    2.93390    -999.25    -999.25  -10.60660   -8.52480    2.93390
 4800.00000   10.51600   10.51600  364.75050    0.13390    2.39800    -999.25    0.15790    0.20500    2.74160    0.13390   96.05110   96.05110   76.81010   87.37920   76.81010    2.74160    2.83150    2.83150    -999.25    0.32270    0.27880    2.39800    3.00520    -999.25    -999.25   -8.98920   -6.59080    3.00520
 4850.00000   11.27810   11.27810  352.87060    0.11260    2.40860    -999.25    0.14640    0.19260    2.83390    0.11260   92.73520   92.73520   80.03840   95.77510   80.03840    2.83390    2.93040    2.93040    -999.25    0.30620    0.26220    2.40860    3.25360    -999.25    -999.25   -9.18040   -6.46550    3.25360
 4900.00000   11.99210   11.99210  368.54130    0.15850    2.43410    -999.25    0.12910    0.17400    2.71340    0.15850   87.35610   87.35610   73.95910   96.90190   73.95910    2.71340    3.06220    3.06220    -999.25    0.32030    0.27640    2.43410    3.24620    -999.25    -999.25   -7.46200   -4.43050    3.24620
 4950.00000   14.27810   14.27810  502.96750    0.18350    2.00070    -999.25    0.40810    0.47420    1.98820    0.18350   98.36810   98.36810   77.62380   95.94620   77.62380    1.98820    2.05510    2.05510    -999.25    0.44710    0.40530    2.00070    2.22980    -999.25    -999.25   -6.75790   -3.40990    2.22980
 5000.00000   14.97070   14.97070  521.53960    0.20120    2.00770    -999.25    0.37400    0.43750    1.91740    0.20120   98.63610   98.63610   75.06070  102.81520   75.06070    1.91740    1.97960    1.97960    -999.25    0.38910    0.34600    2.00770    2.03740    -999.25    -999.25   -9.90410   -6.23950    2.03740
 5050.00000   14.56250   14.56250  608.90210    0.19530    2.13000    -999.25    0.31070    0.36940    1.64230    0.19530  101.06310  101.06310   71.73510   97.80020   71.73510    1.64230    1.69590    1.69590    -999.25    0.43750    0.39550    2.13000    1.84940    -999.25    -999.25   -8.23720   -4.25610    1.84940
 5100.00000   13.38840   13.38840  561.26170    0.18190    2.29680    -999.25    0.21370    0.26500    1.78170    0.18190   98.61130   98.61130   71.02640   90.28660   71.02640    1.78170    1.83950    1.83950    -999.25    0.37150    0.32810    2.29680    2.02180    -999.25    -999.25   -7.38700   -3.08930    2.02180
 5150.00000   13.10970   13.10970  566.34760    0.25190    2.36240    -999.25    0.17280    0.22100    1.76570    0.25190   98.90410   98.90410   73.33450   94.10610   73.33450    1.76570    1.82330    1.82330    -999.25    0.39030    0.34730    2.36240    1.97380    -999.25    -999.25  -12.08990   -7.47570    1.97380
