~Version ---------------------------------------------------
VERS. 2.0 : CWLS log ASCII Standard -VERSION 2.0
WRAP.  NO : ONE LINE PER DEPTH STEP
~Well ------------------------------------------------------
STRT.F                  1000.0 : START DEPTH
STOP.F                  9950.0 : STOP DEPTH
STEP.F                50.00000 : STEP LENGTH
NULL.                  -999.25 : NULL VALUE
COMP.            HUNTER & HADA : COMPANY
WELL.   SAUNDER- EISENHAUER #1 : WELL
FLD .              BOOTH RANCH : FIELD
LOC .                          : LOCATION
CNTY.                     WEBB : COUNTY
STAT.                    TEXAS : STATE
CTRY. UNITED STATES OF AMERICA : COUNTRY
SRVC.             Schlumberger : SERVICE COMPANY
DATE.              16-Aug-1991 : LOGDATE
API .           42479352780000 : API NUMBER
UWI .           42479352780000 : UNIQUE WELL ID
SLAT.WGS84       27.9752631746 : SURFACE LATITUDE
SLON.WGS84      -99.6710434724 : SURFACE LONGITUDE
~Curve Information -----------------------------------------
DEPT.F                 : 
GRR .GAPI 07 310 01 00 : GAMMA RAY FROM RES. LOG.
SPR .MV   07 010 01 00 : SPONTANEOUS POTENTIAL FROM RES.
IDPH.OHMM 07 120 46 00 : INDUCTION DEEP PHASOR RES.
ASFL.OHMM 07 221 06 00 : AMPLIFIED SHALLOW FOCUSED LOG RESISTIVITY
CIDP.MMHO 07 110 46 00 : CONDUCTIVITY INDUCTION LOG DEEP
DRHO.G/C3 45 356 01 00 : DENSITY CORRECTION
ILD .OHMM 07 120 46 00 : INDUCTION LOG DEEP
ILM .OHMM 07 120 44 00 : INDUCTION LOG MEDIUM
DCAL.IN   07 280 30 00 : DIFFERENTIAL CALIPER
DPHI.DEC  45 890 10 00 : DENSITY POROSITY LIMESTONE
NPHI.DEC  42 890 01 00 : NEUTRON POROSITY LIMESTONE
~Params ----------------------------------------------------
PD  .                     GL : PERMANENT DATUM
EPD .F                 610.8 : ELEVATION PERMANENT DATUM
LMF .                    RKB : LOG MEASURED FROM
DAPD.F                  17.7 : FEET ABOVE PERMANENT DATUM
DMF .                    RKB : DRILLING MEASURED FROM
EKB .F                 615.5 : KELLING BUSHING
EDF .F                 617.5 : DRILLING FLOOR
EGL .F                 610.8 : GROUND LEVEL
DATE.                8-19-91 : RUN DATE
RUN .                      2 : RUN NUMBER
DL  .F                  9984 : DEPTH LOGGER
BLI .F                  9978 : BOTTOM LOG INTERVAL
TLI .F                  8848 : TOP LOG INTERVAL
CS  .IN                 5.25 : CASING SIZE
CBD .F                  6850 : CASING BOTTOM DRILLER
CBL .F                  6848 : CASING BOTTOM LOGGER
BS  .IN                 6.25 : BIT SIZE
DFT .                    CLS : DRILLING FLUID TYPE
DFD .                   12.4 : DRILLING FLUID DENSITY
DFV .                     60 : DRILLING FLUID VISCOSITY
DFPH.                     11 : DRILLING FLUID PH
DFL .                    4.8 : DRILLING FLUID LOSS
MSS .                MUD PIT : MUD SAMPLE SOURCE
RMS .OHMM               2.04 : RESISTIVITY MUD SAMPLE
MST .F                    75 : MUD SAMPLE TEMPERATURE
RMF .OHMM               1.73 : RESISTIVITY MUD FILTRATE SAMPLE
MFST.F                    75 : MUD FILTRATE SAMPLE TEMPERATURE
RMC .OHMM               2.65 : RESISTIVITY MUD CAKE
MCST.F                    75 : MUD CAKE SAMPLE TEMPERATURE
MFSS.                   MEAS : MUD FILTRATE SAMPLE SOURCE
MCSS.                   CALC : MUD CAKE SAMPLE SOURCE
TCS .HRS                1000 : TIME CURCULATED STOPPED
TLAB.HRS                1700 : TIME LOGGER AT BOTTOM
LUN .                   8129 : LOGGING UNIT NUMBER
LUL .                 LAREDO : LOGGING UNIT LOCATION
ENGI.                 WINTER : RECORDING ENGINEER
WITN.            HUNTER,HADA : WITNESSED BY
CLNT.                A2DTECH : CLIENT CODE
ORIG.         1" 2" 5" PRINT : ORIGIN OF DATA
UWI .         42479352780000 : UNIQUE WELL ID
DICO. A2D Technologies, Inc. : DIGITIZING COMPANY
~Other -----------------------------------------------------
~ASCII -----------------------------------------------------
# ...
 7100.00000   99.76160  -50.82040    -999.25    -999.25    -999.25    0.00000    3.73230    3.73420    0.55310    0.07460    0.20030
 7150.00000   92.21020  -51.04490    -999.25    -999.25    -999.25    0.01110    2.82410    2.86520    0.62780    0.11990    -999.25
 7200.00000  103.23560  -53.21430    -999.25    -999.25    -999.25   -0.01080    2.89860    3.02430    0.61960    0.09920    -999.25
 7250.00000  104.55040  -52.97620    -999.25    -999.25    -999.25   -0.00350    3.24540    3.23270    0.69700    0.09930    0.20530
 7300.00000  120.91390  -52.38910    -999.25    -999.25    -999.25   -0.00380    2.95470    3.11570    0.47770    0.09610    0.20630
 7350.00000  124.50140  -53.00620    -999.25    -999.25    -999.25   -0.02350    2.95830    2.98770    0.28250    0.10010    0.15900
 7400.00000  102.48600  -53.88820    -999.25    -999.25    -999.25    0.00200    3.56710    3.56910    0.37340    0.08020    0.18610
 7450.00000   81.73150  -57.91810    -999.25    -999.25    -999.25   -0.02230    4.77310    4.77580    0.25150    0.09780    0.15700
 7500.00000  113.81040  -55.29670    -999.25    -999.25    -999.25   -0.00180    3.20250    3.20430    0.37320    0.09950    0.19660
 7550.00000   98.89700  -55.99460    -999.25    -999.25    -999.25   -0.02380    4.23350    4.23560    0.22070    0.07160    0.16370
 7600.00000  109.17280  -55.59040    -999.25    -999.25    -999.25   -0.02360    4.08570    4.08780    0.21530    0.07460    0.16730
 7650.00000   96.23540  -56.42830    -999.25    -999.25    -999.25   -0.01940    4.35700    4.35920    0.22940    0.06510    0.15950
 7700.00000   97.57970  -58.57020    -999.25    -999.25    -999.25   -0.01950    4.73830    4.74070    0.24020    0.07570    0.15160
 7750.00000   90.49970  -62.17550    -999.25    -999.25    -999.25   -0.02220    5.22580    5.22840    0.34010    0.08430    0.14360
 7800.00000   94.24130  -57.37960    -999.25    -999.25    -999.25   -0.02130    4.27420    4.27640    0.20790    0.06600    0.16030
 7850.00000   98.51440  -56.19460    -999.25    -999.25    -999.25   -0.00690    3.76280    3.76480    0.36000    0.08590    0.18310
 7900.00000   94.14980  -58.84360    -999.25    -999.25    -999.25   -0.01460    4.91780    4.92030    0.37680    0.05450    0.14160
 7950.00000  105.04980  -57.34840    -999.25    -999.25    -999.25   -0.01370    4.83830    4.84070    0.24280    0.04800    0.15400
 8000.00000   97.16870  -55.66220    -999.25    -999.25    -999.25   -0.01840    4.54370    4.54610    0.38110    0.06600    0.14730
 8050.00000   89.29170  -58.93740    -999.25    -999.25    -999.25   -0.02120    6.14190    5.90350    0.51050    0.07350    0.12710
 8100.00000   88.22500  -61.60130    -999.25    -999.25    -999.25   -0.01390    4.16500    4.48050    0.37720    0.04820    0.14530
 8150.00000  103.32630  -54.90550    -999.25    -999.25    -999.25   -0.00020    3.59610    3.59790    1.16240    0.08490    0.17500
 8200.00000   97.09730  -56.07590    -999.25    -999.25    -999.25    0.00780    4.05560    3.88600    1.18050    0.07350    0.16450
 8250.00000   55.75010  -57.69470    -999.25    -999.25    -999.25   -0.00820    6.87570    6.87830    0.38740    0.03440    0.11340
 8300.00000   60.09150  -58.82040    -999.25    -999.25    -999.25   -0.02180   12.21680   12.66550    0.22220    0.02990    0.06760
 8350.00000   35.90400  -60.41200    -999.25    -999.25    -999.25   -0.01560   24.50200   23.44520    0.01440    0.03280    0.07420
 8400.00000   44.25670  -61.43480    -999.25    -999.25    -999.25   -0.02260   50.19620   19.62370    0.23810    0.02970    0.06650
 8450.00000   38.04150  -58.55250    -999.25    -999.25    -999.25   -0.01800   22.48430   35.44300    0.24260    0.03770    0.06250
 8500.00000   48.15490  -58.14370    -999.25    -999.25    -999.25   -0.01760   11.64910   11.67350    0.35930    0.03530    0.09980
 8550.00000   54.46890  -63.51720    -999.25    -999.25    -999.25   -0.02280   14.60870   13.63750    0.36650    0.03640    0.08310
 8600.00000   46.28500  -55.90410    -999.25    -999.25    -999.25    0.00670   12.50870   14.52380    0.37400    0.05370    0.07730
 8650.00000   53.96000  -57.32240    -999.25    -999.25    -999.25   -0.01160   11.38330   11.15520    0.54080    0.02740    0.08370
 8700.00000   61.86650  -54.25180    -999.25    -999.25    -999.25   -0.01910   11.94990    8.36550    0.71390    0.03910    0.12960
 8750.00000   87.55480  -53.87990    -999.25    -999.25    -999.25   -0.01100    5.71400    5.20080    0.71030    0.04920    0.16650
 8800.00000   72.06270  -53.53990    -999.25    -999.25    -999.25   -0.00930    5.99620    6.18320    0.86550    0.05550    0.14640
 8850.00000   62.81650  -54.62220    -999.25    -999.25    -999.25   -0.02310    6.76340    6.84230    0.85680    0.04000    0.13560
 8900.00000   43.96210  -56.34850    -999.25    -999.25    -999.25   -0.01320   10.32950    9.66760    0.48260    0.04920    0.08000
 8950.00000   49.67770  -56.87200    -999.25    -999.25    -999.25   -0.00870   16.40000   14.40560    0.49880    0.04160    0.08820
 9000.00000   53.47360  -60.26240    -999.25    -999.25    -999.25   -0.03060   12.24510   17.07200    0.35140    0.03870    0.12100
 9050.00000   81.49410  -61.68670    -999.25    -999.25    -999.25   -0.01880    5.51210    8.86870    0.23190    0.01710    0.09460
 9100.00000   86.62490  -56.76830    -999.25    -999.25    -999.25    0.00240    4.68760    4.70710    0.37090    0.04560    0.08170
 9150.00000   40.84290  -53.88520    -999.25    -999.25    -999.25    0.00520   24.51310   24.51590    0.49030    0.08550    0.06670
 9200.00000   66.49810  -60.93780    -999.25    -999.25    -999.25   -0.01500   36.95050   31.45630    0.36220    0.09060    0.08120
 9250.00000   39.74550  -59.99370    -999.25    -999.25    -999.25    0.00270   34.22110   26.68670    0.25230    0.07450    0.06680
 9300.00000   51.71050  -70.59540    -999.25    -999.25    -999.25   -0.01540   19.41830   17.46510    0.03390    0.11260    0.11430
 9350.00000   86.62640  -59.10520    -999.25    -999.25    -999.25   -0.02030   59.76290   48.85880    0.05040    0.17870    0.14370
 9400.00000  114.98800  -81.37020    -999.25    -999.25    -999.25   -0.01410   22.67330   23.62800    0.04550    0.02210    0.01030
 9450.00000   49.06510 -104.09870    -999.25    -999.25    -999.25   -0.02150   31.93910  137.67350    0.00010   -0.01330    0.04330
 9500.00000   27.55270 -209.78750    -999.25    -999.25    -999.25   -0.01620  213.27260 1364.15990    0.32240   -0.01760    0.00430
 9550.00000   37.90490 -155.36440    -999.25    -999.25    -999.25   -0.03020   52.31180   54.00720    0.00790    0.01660    0.00980
 9600.00000   43.34370 -213.48960    -999.25    -999.25    -999.25   -0.01120   35.02910   40.25210   -0.01350   -0.00360    0.00820
 9650.00000   17.30020 -229.54120    -999.25    -999.25    -999.25   -0.01320   37.47280   41.54770   -0.00810    0.04280    0.01450
 9700.00000    8.22540 -262.56810    -999.25    -999.25    -999.25   -0.02280   54.52020   69.85870   -0.39670    0.04020    0.01470
 9750.00000   10.47240 -241.76980    -999.25    -999.25    -999.25   -0.00370   27.93310   28.66970   -0.38410    0.03020    0.01490
 9800.00000   12.91740 -197.86240    -999.25    -999.25    -999.25    0.00520   19.52310   22.36610   -0.60180    0.05970    0.03050
 9850.00000    8.98910 -192.82760    -999.25    -999.25    -999.25    0.00420   31.14270   30.47490   -0.50510    0.04020    0.02380
 9900.00000   10.55180 -210.45220    -999.25    -999.25    -999.25    0.01270   16.85250   19.10430   -0.64300    0.04560    0.02680
 9950.00000    8.32250 -197.61370    -999.25    -999.25    -999.25    0.06530    7.79340    8.05140   -2.00260    0.10000    0.03920
