~Version ---------------------------------------------------
VERS. 2.0 : CWLS log ASCII Standard -VERSION 2.0
WRAP. YES : MULTIPLE LINES PER DEPTH STEP
~Well ------------------------------------------------------
STRT.FT                    1450.0 : START DEPTH
STOP.FT                    9350.0 : STOP DEPTH
STEP.FT                  50.00000 : STEP LENGTH
NULL.                     -999.25 : NULL VALUE
COMP.        MARATHON OIL COMPANY : COMPANY
WELL.                 PINNACLE #4 : WELL
FLD .                  BEAR GRASS : FIELD
LOC .                             : LOCATION
CNTY.                        LEON : COUNTY
STAT.                       TEXAS : STATE
CTRY.    UNITED STATES OF AMERICA : COUNTRY
SRVC. HALLIBURTON Sperry Drilling : SERVICE COMPANY
DATE.                 06-Mar-2000 : LOGDATE
API .              42289313140000 : API NUMBER
UWI .              42289313140000 : UNIQUE WELL ID
SLAT.WGS84          31.3279877769 : SURFACE LATITUDE
SLON.WGS84         -96.3002763309 : SURFACE LONGITUDE
~Curve Information -----------------------------------------
DEPT    .FT    : DEPTH FEET
GRRED   .GAPI  : GAMMA RAY FROM RESISTIVITY LOG
HRMED   .OHMM  : HRI MEDIUM RESISTIVITY
DFLED   .OHMM  : DIGITALLY FOCUSED LATEROLOG
HRDED   .OHMM  : HRI DEEP RESISTIVITY
SPRED   .MV    : SPONTANEOUS POTENTIAL FROM RESISTIVITY LOG
DCALED  .IN    : DIFFERENTIAL CALIPER FROM DENSITY LOG
TENRED  .LBF   : TENSION FROM RESISTIVITY LOG
PEFED   .B/E   : PHOTOELECTRIC FACTOR FROM DENSITY LOG
CORRED  .G/C3  : DENSITY CORRECTION FROM DENSITY LOG
DPORLSED.V/V   : DENSITY POROSITY LIMESTONE
NPORLSED.V/V   : NEUTRON POROSITY LIMESTONE FROM DENSITY LOG
SPWS    .MV    : SPONTANEOUS POTENTIAL [BASELINE 0 MV] [SPRED]
GRWS    .GAPI  : GAMMA RAY [GRRED]
CALWS   .IN    : CALIPER [DCALED+BIT]
DCORWS  .G/C3  : DENSITY CORRECTION [CORRED]
DRESWS  .OHMM  : DEEP RESISTIVITY [HRDED]
MRESWS  .OHMM  : MEDIUM RESISTIVITY [HRMED]
SRESWS  .OHMM  : SHALLOW RESISTIVITY [DFLED]
CONDWS  .MMHO  : CONDUCTIVITY [1000/DRESWS]
PEFWS   .B/E   : PHOTOELECTRIC FACTOR [PEFED]
DENWS   .G/C3  : BULK DENSITY [M=2.71 F=1.0] [CALCULATED FROM DPORLSED]
DPOWS   .V/V   : DENSITY POROSITY [M=2.71 F=1] [CALCULATED FROM DENWS]
NPOWS   .V/V   : NEUTRON POROSITY LIME [SWS CONV NPORLSED]
~Params ----------------------------------------------------
PD  .                     GL : PERMANENT DATUM
EPD .FT                  342 : ELEVATION PERMANENT DATUM
LMF .                     KB : LOG MEASURED FROM
DAPD.FT                   12 : FEET ABOVE PERMANENT DATUM
DMF .                     KB : DRILLING MEASURED FROM
EKB .FT                  354 : KELLY BUSHING
EDF .FT                  353 : DRILLING FLOOR
EGL .FT                  342 : GROUND LEVEL
DATE.               03/06/00 : RUN DATE
RUN .                      1 : RUN NUMBER
DD  .FT                 9350 : DEPTH DRILLER
DL  .FT                 9347 : DEPTH LOGGER
BLI .FT                 9335 : BOTTOM LOG INTERVAL
TLI .FT                 1520 : TOP LOG INTERVAL
CS  .IN                9.625 : CASING SIZE
CBD .FT                 1525 : CASING BOTTOM DRILLER
CBL .FT                 1520 : CASING BOTTOM LOGGER
BS  .IN                7.875 : BIT SIZE
BSD .FT                 9350 : BIT SIZE AT DEPTH
DFT .              FRESH MUD : DRILLING FLUID TYPE
DFD .                     10 : DRILLING FLUID DENSITY
DFV .                     55 : DRILLING FLUID VISCOSITY
DFPH.                    9.8 : DRILLING FLUID PH
DFL .                     15 : DRILLING FLUID LOSS
MSS .               MUD TANK : MUD SAMPLE SOURCE
RMS .OHMM               1.83 : RESISTIVITY MUD SAMPLE
MST .DEGF                 74 : MUD SAMPLE TEMPERATURE
RMF .OHMM               1.59 : RESISTIVITY MUD FILTRATE SAMPLE
MFST.DEGF                 74 : MUD FILTRATE SAMPLE TEMPERATURE
RMC .OHMM                2.3 : RESISTIVITY MUD CAKE
MCST.DEGF                 74 : MUD CAKE SAMPLE TEMPERATURE
MFSS.                   MEAS : MUD FILTRATE SAMPLE SOURCE
MCSS.                   MEAS : MUD CAKE SAMPLE SOURCE
TCS .HRS                 630 : TIME CIRCULATED STOPPED
TLAB.HRS                1241 : TIME LOGGER AT BOTTOM
LUN .                  53793 : LOGGING UNIT NUMBER
LUL .                   KILG : LOGGING UNIT LOCATION
ENGI.               REYNOLDS : RECORDING ENGINEER
WITN.                 EWBANK : WITNESSED BY
CLNT.                A2DTECH : CLIENT CODE
ORIG.         1" 2" 5" PRINT : ORIGIN OF DATA
UWI .         42289313140000 : UNIQUE WELL ID
DICO. A2D Technologies, Inc. : DIGITIZING COMPANY
~Other -----------------------------------------------------
~ASCII -----------------------------------------------------
# ...
 3000.00000  109.27860    1.24700    1.19590    1.27310  -74.31750    -999.25 2142.93410    -999.25    -999.25    -999.25    -999.25   -0.90630  109.27860    -999.25    -999.25    1.27310    1.24700    1.19590  785.48430    -999.25    -999.25    -999.25    -999.25
 3050.00000   81.87480    1.33880    1.37760    1.29240  -75.19240    -999.25 2152.95510    -999.25    -999.25    -999.25    -999.25   -2.25710   81.87480    -999.25    -999.25    1.29240    1.33880    1.37760  773.75430    -999.25    -999.25    -999.25    -999.25
 3100.00000   91.34080    1.25760    1.30490    1.20300  -74.05090    -999.25 2131.57470    -999.25    -999.25    -999.25    -999.25   -1.59140   91.34080    -999.25    -999.25    1.20300    1.25760    1.30490  831.25520    -999.25    -999.25    -999.25    -999.25
 3150.00000   99.57100    1.18450    1.21960    1.13560  -74.18770    -999.25 2186.07370    -999.25    -999.25    -999.25    -999.25   -2.20400   99.57100    -999.25    -999.25    1.13560    1.18450    1.21960  880.59180    -999.25    -999.25    -999.25    -999.25
 3200.00000   98.57150    1.10110    1.12420    1.05080  -72.48180    -999.25 2166.84280    -999.25    -999.25    -999.25    -999.25   -0.97390   98.57150    -999.25    -999.25    1.05080    1.10110    1.12420  951.65590    -999.25    -999.25    -999.25    -999.25
 3250.00000   96.24990    1.34760    1.41820    1.24740  -73.66350    -999.25 2149.89620    -999.25    -999.25    -999.25    -999.25   -2.39270   96.24990    -999.25    -999.25    1.24740    1.34760    1.41820  801.66740    -999.25    -999.25    -999.25    -999.25
 3300.00000  102.47810    1.43220    1.46060    1.42480  -74.87010    -999.25 2208.44800    -999.25    -999.25    -999.25    -999.25   -3.67060  102.47810    -999.25    -999.25    1.42480    1.43220    1.46060  701.85280    -999.25    -999.25    -999.25    -999.25
 3350.00000   92.11920    1.08030    1.08400    1.02430  -72.47820    -999.25 2216.43190    -999.25    -999.25    -999.25    -999.25   -1.34990   92.11920    -999.25    -999.25    1.02430    1.08030    1.08400  976.27650    -999.25    -999.25    -999.25    -999.25
 3400.00000   90.64240    1.21790    1.23560    1.15670  -73.41300    -999.25 2220.26830    -999.25    -999.25    -999.25    -999.25   -2.35600   90.64240    -999.25    -999.25    1.15670    1.21790    1.23560  864.52840    -999.25    -999.25    -999.25    -999.25
 3450.00000   84.84730    3.22660    3.66070    3.10390  -84.13190    -999.25 2214.31790    -999.25    -999.25    -999.25    -999.25  -11.99160   84.84730    -999.25    -999.25    3.10390    3.22660    3.66070  322.17530    -999.25    -999.25    -999.25    -999.25
 3500.00000  122.15590    1.44890    1.55500    1.39290  -74.31300    -999.25 2259.19310    -999.25    -999.25    -999.25    -999.25   -1.80860  122.15590    -999.25    -999.25    1.39290    1.44890    1.55500  717.92660    -999.25    -999.25    -999.25    -999.25
 3550.00000  110.06170    1.35600    1.37820    1.33070  -74.91410    -999.25 2273.51070    -999.25    -999.25    -999.25    -999.25   -2.58750  110.06170    -999.25    -999.25    1.33070    1.35600    1.37820  751.48410    -999.25    -999.25    -999.25    -999.25
 3600.00000   87.41060    1.49240    1.56680    1.44790  -73.26530    -999.25 2288.67800    -999.25    -999.25    -999.25    -999.25   -1.11660   87.41060    -999.25    -999.25    1.44790    1.49240    1.56680  690.65540    -999.25    -999.25    -999.25    -999.25
 3650.00000   94.77940    1.57220    1.70390    1.54650  -74.48800    -999.25 2319.99580    -999.25    -999.25    -999.25    -999.25   -2.51720   94.77940    -999.25    -999.25    1.54650    1.57220    1.70390  646.62140    -999.25    -999.25    -999.25    -999.25
 3700.00000   99.03450    1.77630    1.96260    1.70740  -73.85490    -999.25 2325.27540    -999.25    -999.25    -999.25    -999.25   -2.06200   99.03450    -999.25    -999.25    1.70740    1.77630    1.96260  585.68590    -999.25    -999.25    -999.25    -999.25
 3750.00000   92.95850    1.67920    1.81530    1.62730  -74.42910    -999.25 2327.70040    -999.25    -999.25    -999.25    -999.25   -2.81410   92.95850    -999.25    -999.25    1.62730    1.67920    1.81530  614.51480    -999.25    -999.25    -999.25    -999.25
 3800.00000  101.57820    1.29490    1.45690    1.25490  -72.86030    -999.25 2318.64210    -999.25    -999.25    -999.25    -999.25   -1.42320  101.57820    -999.25    -999.25    1.25490    1.29490    1.45690  796.87630    -999.25    -999.25    -999.25    -999.25
 3850.00000   98.22030    1.21720    1.37840    1.17920  -73.26130    -999.25 2345.81250    -999.25    -999.25    -999.25    -999.25   -2.00210   98.22030    -999.25    -999.25    1.17920    1.21720    1.37840  848.03250    -999.25    -999.25    -999.25    -999.25
 3900.00000   96.31640    0.99680    1.12000    0.96600  -73.17260    -999.25 2386.82520    -999.25    -999.25    -999.25    -999.25   -2.09120   96.31640    -999.25    -999.25    0.96600    0.99680    1.12000 1035.19670    -999.25    -999.25    -999.25    -999.25
 3950.00000   96.60220    0.95730    1.10570    0.92740  -71.80250    -999.25 2339.38920    -999.25    -999.25    -999.25    -999.25   -0.89900   96.60220    -999.25    -999.25    0.92740    0.95730    1.10570 1078.28330    -999.25    -999.25    -999.25    -999.25
 4000.00000   89.94550    1.05170    1.18030    1.01920  -71.31350    -999.25 2391.54390    -999.25    -999.25    -999.25    -999.25   -0.58790   89.94550    -999.25    -999.25    1.01920    1.05170    1.18030  981.16170    -999.25    -999.25    -999.25    -999.25
 4050.00000   88.39470    1.11980    1.28360    1.08460  -71.85600    -999.25 2435.58640    -999.25    -999.25    -999.25    -999.25   -1.30830   88.39470    -999.25    -999.25    1.08460    1.11980    1.28360  921.99890    -999.25    -999.25    -999.25    -999.25
 4100.00000   92.79580    1.64090    1.93470    1.59030  -72.32800    -999.25 2445.54350    -999.25    -999.25    -999.25    -999.25   -1.95820   92.79580    -999.25    -999.25    1.59030    1.64090    1.93470  628.81220    -999.25    -999.25    -999.25    -999.25
 4150.00000   63.53540    2.99710    3.59640    2.69740  -74.02540    -999.25 2459.34990    -999.25    -999.25    -999.25    -999.25   -3.39140   63.53540    -999.25    -999.25    2.69740    2.99710    3.59640  370.72740    -999.25    -999.25    -999.25    -999.25
 4200.00000   57.69130    2.66680    2.93240    2.58230  -72.84010    -999.25 2517.26030    -999.25    -999.25    -999.25    -999.25   -1.44340   57.69130    -999.25    -999.25    2.58230    2.66680    2.93240  387.25170    -999.25    -999.25    -999.25    -999.25
 4250.00000   94.88500    1.49620    1.76640    1.46170  -72.60280    -999.25 2529.70780    -999.25    -999.25    -999.25    -999.25   -1.48010   94.88500    -999.25    -999.25    1.46170    1.49620    1.76640  684.13490    -999.25    -999.25    -999.25    -999.25
 4300.00000   65.15360    1.88230    2.21420    1.83310  -72.01350    -999.25 2560.10770    -999.25    -999.25    -999.25    -999.25   -1.47450   65.15360    -999.25    -999.25    1.83310    1.88230    2.21420  545.52400    -999.25    -999.25    -999.25    -999.25
 4350.00000   54.48860    2.54150    3.32050    2.48350  -71.80190    -999.25 2544.06810    -999.25    -999.25    -999.25    -999.25   -1.84660   54.48860    -999.25    -999.25    2.48350    2.54150    3.32050  402.65750    -999.25    -999.25    -999.25    -999.25
 4400.00000   41.07140    3.11900    3.73150    3.01710  -83.00100    -999.25 2559.55910    -999.25    -999.25    -999.25    -999.25  -13.24410   41.07140    -999.25    -999.25    3.01710    3.11900    3.73150  331.44410    -999.25    -999.25    -999.25    -999.25
 4450.00000   37.18540    3.13740    4.00830    3.07440  -78.54810    -999.25 2578.60940    -999.25    -999.25    -999.25    -999.25   -8.79120   37.18540    -999.25    -999.25    3.07440    3.13740    4.00830  325.26670    -999.25    -999.25    -999.25    -999.25
 4500.00000   36.58130    3.25480    3.88180    3.14080  -74.54740    -999.25 2598.40160    -999.25    -999.25    -999.25    -999.25   -4.79050   36.58130    -999.25    -999.25    3.14080    3.25480    3.88180  318.39020    -999.25    -999.25    -999.25    -999.25
