~Version ---------------------------------------------------
VERS. 2.0 : CWLS log ASCII Standard -VERSION 2.0
WRAP. YES : MULTIPLE LINES PER DEPTH STEP
~Well ------------------------------------------------------
STRT.FT                         1600.0 : START DEPTH
STOP.FT                         9750.0 : STOP DEPTH
STEP.FT                       50.00000 : STEP LENGTH
NULL.                          -999.25 : NULL VALUE
COMP.       TXO PRODUCTION CORPORATION : COMPANY
WELL.                     RUSSELL A #2 : WELL
FLD .                       BEAR GRASS : FIELD
LOC .                                  : LOCATION
CNTY.                             LEON : COUNTY
STAT.                            TEXAS : STATE
CTRY.         UNITED STATES OF AMERICA : COUNTRY
SRVC. HALLIBURTON LOGGING SERVICES INC : SERVICE COMPANY
DATE.                      13-May-1989 : LOGDATE
API .                   42289310220000 : API NUMBER
UWI .                   42289310220000 : UNIQUE WELL ID
SLAT.WGS84               31.3787668011 : SURFACE LATITUDE
SLON.WGS84              -96.2164349167 : SURFACE LONGITUDE
~Curve Information -----------------------------------------
DEPT    .FT                                 : DEPTH FEET
CALDED  .IN                                 : CALIPER FROM SDN-DSN LOG
CALWS   .IN                                 : CALIPER [CALDED]
CONDWS  .MMHO                               : CONDUCTIVITY [1000/DRESWS]
DCORED  .G/C3                               : DENSITY CORRECTION FROM SDN-DSN LOG
DCORWS  .G/C3                               : DENSITY CORRECTION [DCORED]
DENED   .G/C3                               : BULK DENSITY FROM SDN-DSN LOG
DENWS   .G/C3                               : FORMATION BULK DENSITY [DENED]
DPORLSED.V/V :   DENSITY POROSITY [M:2.71,F : 1.0] FROM SDN-DSN LOG
DPOWS   .V/V                                : DENSITY POROSITY [DPORLSED]
DRESWS  .OHMM                               : INDUCTION DEEP [ILDED]
GRDED   .GAPI                               : GAMMA RAY FROM SDN-DSN LOG
GRWS    .GAPI                               : GAMMA RAY [GRDED]
GUARDED .OHMM                               : GUARD FROM DIL-GUARD LOG
ILDED   .OHMM                               : INDUCTION DEEP FROM DIL-GUARD LOG
ILMED   .OHMM                               : INDUCTION LOG MEDIUM FROM DIL-GUARD LOG
MRESWS  .OHMM                               : INDUCTION LOG MEDIUM [ILMED]
NPORLSED.V/V                                : NEUTRON POROSITY FROM SDN-DSN LOG
NPOWS   .V/V                                : NEUTRON POROSITY [NPORLSED]
PEED    .B/E                                : PHOTOELECTRIC FACTOR FROM SDN-DSN LOG
PEFWS   .B/E                                : PHOTOELECTRIC FACTOR [PEFED]
SPRED   .MV                                 : SPONTANEOUS POTENTIAL FROM DIL-GUARD LOG
SPWS    .MV                                 : SPONTANEOUS POTENTIAL [BASELINE 0 MV, SPRED]
SRESWS  .OHMM                               : SHALLOW RESISITVITY [GUARDED]
TENRED  .LBF                                : TENSION FROM DIL-GUARD LOG
~Params ----------------------------------------------------
PD  .                     GL : PERMANENT DATUM
EPD .FT                  523 : ELEVATION PERMANENT DATUM
LMF .                     KB : LOG MEASURED FROM
DAPD.FT                 13.5 : FEET ABOVE PERMANENT DATUM
DMF .                     KB : DRILLING MEASURED FROM
EKB .FT                536.5 : KELLY BUSHING
EDF .FT                535.5 : DRILLING FLOOR
EGL .FT                  523 : GROUND LEVEL
DATE.               05/13/89 : RUN DATE
RUN .                      1 : RUN NUMBER
DD  .FT                 9800 : DEPTH DRILLER
DL  .FT                 9781 : DEPTH LOGGER
BLI .FT                 9776 : BOTTOM LOG INTERVAL
TLI .FT                 1600 : TOP LOG INTERVAL
CS  .IN                8.625 : CASING SIZE
CBD .FT                 1600 : CASING BOTTOM DRILLER
CBL .FT                 1600 : CASING BOTTOM LOGGER
BS  .IN                7.875 : BIT SIZE
BSD .FT                 9800 : BIT SIZE AT DEPTH
DFT .             WATERBASED : DRILLING FLUID TYPE
DFD .                     10 : DRILLING FLUID DENSITY
DFV .                     39 : DRILLING FLUID VISCOSITY
DFPH.                      9 : DRILLING FLUID PH
DFL .                   12.4 : DRILLING FLUID LOSS
MSS .                MUD PIT : MUD SAMPLE SOURCE
RMS .OHMM                2.4 : RESISTIVITY MUD SAMPLE
MST .DEGF                 75 : MUD SAMPLE TEMPERATURE
RMF .OHMM                1.8 : RESISTIVITY MUD FILTRATE SAMPLE
MFST.DEGF                 75 : MUD FILTRATE SAMPLE TEMPERATURE
RMC .OHMM                  3 : RESISTIVITY MUD CAKE
MCST.DEGF                 75 : MUD CAKE SAMPLE TEMPERATURE
MFSS.                   MEAS : MUD FILTRATE SAMPLE SOURCE
MCSS.                   MEAS : MUD CAKE SAMPLE SOURCE
RMB .OHMM               0.77 : RESISTIVITY MUD AT BHT
TCS .HRS                 100 : TIME CIRCULATED STOPPED
TLAB.HRS                 600 : TIME LOGGER AT BOTTOM
LUN .                  50637 : LOGGING UNIT NUMBER
LUL .                  TYLER : LOGGING UNIT LOCATION
ENGI.                AUSTILL : RECORDING ENGINEER
WITN.                 CARSON : WITNESSED BY
CLNT.                A2DTECH : CLIENT CODE
ORIG.         1" 2" 5" PRINT : ORIGIN OF DATA
UWI .         42289310220000 : UNIQUE WELL ID
DICO. A2D Technologies, Inc. : DIGITIZING COMPANY
~Other -----------------------------------------------------
~ASCII -----------------------------------------------------
# ...
 7400.00000    -999.25    -999.25  149.53050    -999.25    -999.25    -999.25    -999.25    -999.25    -999.25    6.68760    -999.25    -999.25    8.55050    6.68760    7.92530    7.92530    -999.25    -999.25    -999.25    -999.25  -56.33200   -7.23400    8.55050 3387.80710
 7450.00000    -999.25    -999.25  249.13430    -999.25    -999.25    -999.25    -999.25    -999.25    -999.25    4.01390    -999.25    -999.25    7.66290    4.01390    5.00500    5.00500    -999.25    -999.25    -999.25    -999.25  -54.58930   -5.91280    7.66290 3409.79150
 7500.00000    -999.25    -999.25  436.70030    -999.25    -999.25    -999.25    -999.25    -999.25    -999.25    2.28990    -999.25    -999.25    2.79420    2.28990    2.60950    2.60950    -999.25    -999.25    -999.25    -999.25  -59.29330  -11.42080    2.79420 3388.75050
 7550.00000    -999.25    -999.25  302.46200    -999.25    -999.25    -999.25    -999.25    -999.25    -999.25    3.30620    -999.25    -999.25    3.85820    3.30620    3.36240    3.36240    -999.25    -999.25    -999.25    -999.25  -52.33210   -5.26360    3.85820 3414.12720
 7600.00000    -999.25    -999.25  108.00890    -999.25    -999.25    -999.25    -999.25    -999.25    -999.25    9.25850    -999.25    -999.25   12.96760    9.25850   12.85980   12.85980    -999.25    -999.25    -999.25    -999.25  -48.94280   -2.67830   12.96760 3457.95850
 7650.00000    -999.25    -999.25  201.28420    -999.25    -999.25    -999.25    -999.25    -999.25    -999.25    4.96810    -999.25    -999.25    5.61500    4.96810    5.27280    5.27280    -999.25    -999.25    -999.25    -999.25  -49.00640   -3.54600    5.61500 3459.55050
 7700.00000    -999.25    -999.25   42.75920    -999.25    -999.25    -999.25    -999.25    -999.25    -999.25   23.38680    -999.25    -999.25   38.88550   23.38680   26.53940   26.53940    -999.25    -999.25    -999.25    -999.25  -54.17320   -9.51680   38.88550 3508.63770
 7750.00000    -999.25    -999.25  393.43750    -999.25    -999.25    -999.25    -999.25    -999.25    -999.25    2.54170    -999.25    -999.25    4.60390    2.54170    2.70380    2.70380    -999.25    -999.25    -999.25    -999.25  -49.43780   -5.58540    4.60390 3464.60350
 7800.00000    9.94240    9.94240   46.41150   -0.00090   -0.00090    2.67480    2.67480    0.02010    0.02010   21.54640   36.30750   36.30750   32.31070   21.54640   26.17750   26.17750    0.04240    0.04240    4.93650    4.93650  -46.90190   -3.85350   32.31070 3508.87060
 7850.00000    9.38450    9.38450  109.41760    0.00810    0.00810    2.66020    2.66020    0.02870    0.02870    9.13930   36.12650   36.12650   14.27190    9.13930   13.47080   13.47080    0.08360    0.08360    4.87380    4.87380  -45.00710   -2.76270   14.27190 3556.68430
 7900.00000   14.74620   14.74620  445.93090   -0.00770   -0.00770    1.53070    1.53070    0.70410    0.70410    2.24250   45.93530   45.93530    2.51190    2.24250    2.42120    2.42120    0.32050    0.32050    3.66300    3.66300  -47.77570   -6.33540    2.51190 3629.15600
 7950.00000   10.81820   10.81820  205.44430   -0.03670   -0.03670    1.98670    1.98670    0.41470    0.41470    4.86750   42.99830   42.99830    8.61330    4.86750    5.72600    5.72600    0.19310    0.19310    5.72410    5.72410  -49.90280   -9.34850    8.61330 3549.77270
 8000.00000    9.88660    9.88660  123.99560    0.00360    0.00360    2.64700    2.64700    0.03810    0.03810    8.06480   43.12140   43.12140   10.71510    8.06480    8.23960    8.23960    0.09530    0.09530    4.67470    4.67470  -44.16220   -4.54210   10.71510 3588.91770
 8050.00000   10.61030   10.61030  241.04520    0.03390    0.03390    2.61760    2.61760    0.05410    0.05410    4.14860   48.99210   48.99210    5.65300    4.14860    4.34980    4.34980    0.15900    0.15900    4.52640    4.52640  -42.34770   -3.66180    5.65300 3591.92430
 8100.00000   10.40830   10.40830   22.72940    0.00360    0.00360    2.66510    2.66510    0.02680    0.02680   43.99580   33.77600   33.77600  188.30750   43.99580   58.01350   58.01350    0.02380    0.02380    4.99380    4.99380  -51.30990  -13.55820  188.30750 3563.71610
 8150.00000   10.02110   10.02110   86.24850   -0.00030   -0.00030    2.66270    2.66270    0.02740    0.02740   11.59440   46.50540   46.50540   17.26760   11.59440   14.24680   14.24680    0.07210    0.07210    4.84200    4.84200  -42.81430   -5.99690   17.26760 3629.59200
 8200.00000   10.09560   10.09560   43.99880    0.00070    0.00070    2.67370    2.67370    0.02070    0.02070   22.72790   34.87390   34.87390   71.68300   22.72790   29.56090   29.56090    0.03850    0.03850    4.86670    4.86670  -45.33330   -9.45010   71.68300 3662.32670
 8250.00000   10.29510   10.29510   71.40310    0.00650    0.00650    2.66940    2.66940    0.02370    0.02370   14.00500   31.51170   31.51170   28.35570   14.00500   16.59680   16.59680    0.05160    0.05160    4.65110    4.65110  -43.97710   -9.02810   28.35570 3659.80440
 8300.00000   10.03000   10.03000   42.55010    0.02130    0.02130    2.67670    2.67670    0.01840    0.01840   23.50170   30.67220   30.67220  122.47580   23.50170   35.97630   35.97630    0.03530    0.03530    5.14690    5.14690  -42.09150   -8.11900  122.47580 3681.68950
 8350.00000   10.25560   10.25560   49.91960    0.01890    0.01890    2.62670    2.62670    0.04840    0.04840   20.03220   40.87890   40.87890   20.27710   20.03220   20.33900   20.33900    0.07410    0.07410    4.77990    4.77990  -42.39630   -9.50410   20.27710 3729.44780
 8400.00000   11.18620   11.18620   72.09230   -0.00080   -0.00080    2.65350    2.65350    0.03310    0.03310   13.87110   25.44420   25.44420   31.07170   13.87110   18.40700   18.40700    0.05060    0.05060    5.03150    5.03150 -121.28770  -89.47570   31.07170 3745.92920
 8450.00000    9.78350    9.78350  110.43010   -0.00300   -0.00300    2.56890    2.56890    0.08070    0.08070    9.05550   14.84920   14.84920   37.51650    9.05550   13.19300   13.19300    0.06510    0.06510    5.21040    5.21040 -159.45710 -128.72530   37.51650 3655.36520
 8500.00000    9.87820    9.87820   29.29840   -0.00360   -0.00360    2.68450    2.68450    0.01410    0.01410   34.13160   17.78830   17.78830   93.90040   34.13160   60.11610   60.11610    0.03130    0.03130    4.89580    4.89580  -77.54440  -47.89280   93.90040 3763.88450
 8550.00000    9.77420    9.77420  128.20180    0.01310    0.01310    2.64960    2.64960    0.03540    0.03540    7.80020   52.80000   52.80000   11.03540    7.80020    8.03000    8.03000    0.12580    0.12580    4.56090    4.56090  -30.13460   -1.56320   11.03540 3758.11790
 8600.00000    9.26910    9.26910   23.37630   -0.00690   -0.00690    2.66360    2.66360    0.02740    0.02740   42.77830   45.62460   45.62460   51.56790   42.77830   55.76940   55.76940    0.04560    0.04560    4.82360    4.82360  -37.87070   -9.54790   51.56790 3767.26220
 8650.00000   10.43210   10.43210  124.64790    0.01020    0.01020    2.66170    2.66170    0.02870    0.02870    8.02260   60.02200   60.02200   11.33800    8.02260    8.16180    8.16180    0.10890    0.10890    4.61440    4.61440  -32.10270   -4.02840   11.33800 3898.61620
 8700.00000   11.20570   11.20570  206.17710    0.03010    0.03010    1.98400    1.98400    0.42290    0.42290    4.85020   64.97850   64.97850    5.61430    4.85020    4.23400    4.23400    0.19800    0.19800    5.96150    5.96150  -37.84180  -10.01610    5.61430 3901.83640
 8750.00000   10.75120   10.75120  259.35630    0.06490    0.06490    2.29310    2.29310    0.23450    0.23450    3.85570   69.23460   69.23460    5.47660    3.85570    3.98130    3.98130    0.22360    0.22360    5.50110    5.50110  -41.64950  -14.07240    5.47660 3898.94970
 8800.00000   13.31420   13.31420  249.01020    0.13640    0.13640    2.32860    2.32860    0.22730    0.22730    4.01590   89.29700   89.29700    4.59220    4.01590    4.08600    4.08600    0.28840    0.28840    5.13320    5.13320  -37.30040   -9.97190    4.59220 3823.53810
