~Version ---------------------------------------------------
VERS. 2.0 : CWLS log ASCII Standard -VERSION 2.0
WRAP.  NO : ONE LINE PER DEPTH STEP
~Well ------------------------------------------------------
STRT.F                    2450.0 : START DEPTH
STOP.F                    7450.0 : STOP DEPTH
STEP.F                  50.00000 : STEP LENGTH
NULL.                    -999.25 : NULL VALUE
COMP. CHAMPLIN PETROLEUM COMPANY : COMPANY
WELL.          J.B. BAGGETT #325 : WELL
FLD .                   PEARSALL : FIELD
LOC .                            : LOCATION
CNTY.                     DIMMIT : COUNTY
STAT.                      TEXAS : STATE
CTRY.   UNITED STATES OF AMERICA : COUNTRY
SRVC.              Dresser Atlas : SERVICE COMPANY
DATE.                11-Apr-1977 : LOGDATE
API .             42127311920000 : API NUMBER
UWI .             42127311920000 : UNIQUE WELL ID
SLAT.WGS84         28.6218591038 : SURFACE LATITUDE
SLON.WGS84        -99.4932910215 : SURFACE LONGITUDE
~Curve Information -----------------------------------------
DEPT.F                 : 
GRR .GAPI 07 310 01 00 : GAMMA RAY FROM RES. LOG
ILD .OHMM 07 120 46 00 : INDUCTION LOG DEEP
ILM .OHMM 07 120 44 00 : INDUCTION LOG MEDIUM
SFL .OHMM 07 220 01 00 : SHALLOW FOCUSED LOG RESISTIVITY
SPR .MV   07 010 01 00 : SPONTANEOUS POTENTIAL FROM RES. LOG
NPHI.DEC  42 890 03 00 : NEUTRON POROSITY SANDSTONE
DPHI.DEC  45 890 10 00 : DENSITY POROSITY LIMESTONE
CALD.IN   45 280 60 00 : CALIPER FROM DENSITY LOG
CORR.G/C3 45 356 01 00 : DENSITY CORRECTION
GRN .GAPI 35 310 01 00 : GAMMA RAY
NEUT.NAPI 35 330 01 00 : NEUTRON
RHOB.G/C3 45 350 01 00 : BULK DENSITY
~Params ----------------------------------------------------
PD  .                     GL : PERMANENT DATUM
EPD .FT               601.49 : ELEVATION PERMANENT DATUM
LMF .                     KB : LOG MEASURED FROM
DAPD.FT                   11 : FEET ABOVE PERMANENT DATUM
DMF .                     KB : DRILLING MEASURED FROM
EKB .FT                  612 : KELLY BUSHING
EDF .FT                  611 : DRILLING FLOOR
EGL .FT               601.49 : GROUND LEVEL
DATE.               04/11/77 : RUN DATE
RUN .                      1 : RUN NUMBER
DD  .FT                 7500 : DEPTH DRILLER
DL  .FT                 7498 : DEPTH LOGGER
BLI .FT                 7496 : BOTTOM LOG INTERVAL
TLI .FT                 2450 : TOP LOG INTERVAL
CS  .IN                8.625 : CASING SIZE
CBD .FT                 2449 : CASING BOTTOM DRILLER
CBL .FT                 2450 : CASING BOTTOM LOGGER
BS  .IN                7.875 : BIT SIZE
BSD .FT                 7500 : BIT SIZE AT DEPTH
DFT .           LIGINITE GEL : DRILLING FLUID TYPE
DFD .                    9.5 : DRILLING FLUID DENSITY
DFV .                     70 : DRILLING FLUID VISCOSITY
DFPH.                     11 : DRILLING FLUID PH
DFL .                      9 : DRILLING FLUID LOSS
MSS .                    PIT : MUD SAMPLE SOURCE
RMS .OHMM               2.14 : RESISTIVITY MUD SAMPLE
MST .DEGF                 66 : MUD SAMPLE TEMPERATURE
RMF .OHMM               1.95 : RESISTIVITY MUD FILTRATE SAMPLE
MFST.DEGF                 66 : MUD FILTRATE SAMPLE TEMPERATURE
RMC .OHMM               2.55 : RESISTIVITY MUD CAKE
MCST.DEGF                 66 : MUD CAKE SAMPLE TEMPERATURE
MFSS.                   MEAS : MUD FILTRATE SAMPLE SOURCE
MCSS.                   MEAS : MUD CAKE SAMPLE SOURCE
RMB .OHMM               0.79 : RESISTIVITY MUD AT BHT
TCS .HRS                   6 : TIME CIRCULATED STOPPED
LUN .                   6132 : LOGGING UNIT NUMBER
LUL .                 LAREDO : LOGGING UNIT LOCATION
ENGI.         SKINNER BIRKEY : RECORDING ENGINEER
WITN.              PRITCHARD : WITNESSED BY
CLNT.                A2DTECH : CLIENT CODE
ORIG.            2" 5" PRINT : ORIGIN OF DATA
UWI .         42127311920000 : UNIQUE WELL ID
DICO. A2D Technologies, Inc. : DIGITIZING COMPANY
~Other -----------------------------------------------------
~ASCII -----------------------------------------------------
# ...
 5250.00000   87.33780    2.57620    2.45150    3.29990  -22.81270    -999.25    -999.25    9.78760    -999.25   57.53580  332.26390    -999.25
 5300.00000   98.74560    2.91460    2.70540    3.27940  -28.78550    -999.25    -999.25    9.74010    -999.25   57.43410  306.27920    -999.25
 5350.00000   98.68900    2.00800    1.91720    2.68330  -19.35490    -999.25    -999.25   10.42230    -999.25   64.38550  230.08820    -999.25
 5400.00000   91.66780    2.15180    2.06160    2.86540  -16.06330    -999.25    -999.25   10.18260    -999.25   55.42920  190.59320    -999.25
 5450.00000  103.85640    2.66820    2.55330    3.21360  -20.82360    -999.25    -999.25    9.84380    -999.25   58.00760  188.88180    -999.25
 5500.00000   60.63650    3.49970    3.12380    3.49270  -45.47960    -999.25    -999.25    9.62980    -999.25   35.45110  225.38150    -999.25
 5550.00000   93.34870    3.58750    3.31700    3.76920  -26.88640    -999.25    -999.25    9.05540    -999.25   56.38700  356.07850    -999.25
 5600.00000   80.01980    3.67870    3.50270    3.68630  -20.63450    -999.25    -999.25    9.11370    -999.25   42.84980  312.06510    -999.25
 5650.00000   84.62900    3.67930    3.44010    3.86510  -19.66730    -999.25    -999.25    9.39900    -999.25   52.68910  317.61980    -999.25
 5700.00000   79.47970    3.32660    2.91870    3.32060  -17.87410    -999.25    -999.25    9.79060    -999.25   49.45600  273.18090    -999.25
 5750.00000   78.29490    3.13290    2.88990    3.28560  -18.88590    -999.25    -999.25   10.22230    -999.25   48.96770  259.21630    -999.25
 5800.00000   72.73380    3.40680    3.19710    3.52230  -24.10360    -999.25    -999.25    9.09070    -999.25   46.73340  423.06050    -999.25
 5850.00000   75.98830    3.80480    3.56680    3.60230  -51.11070    -999.25    -999.25    8.85200    -999.25   60.72030  590.57950    -999.25
 5900.00000   87.26730    2.75450    2.67940    3.35860  -40.92190    -999.25    -999.25   10.08880    -999.25   65.80440  326.64110    -999.25
 5950.00000   87.42200    2.43980    2.27380    2.67930  -49.75040    -999.25    -999.25    9.18400    -999.25   61.31600  328.21630    -999.25
 6000.00000   74.89730    3.46490    3.25420    3.48560  -45.13690    -999.25    -999.25    9.23190    -999.25   53.92220  474.17570    -999.25
 6050.00000   72.59170    2.60990    2.49030    3.01720  -45.31680    0.22850    0.44920    9.34210    0.06540   49.29000  353.28280    2.00000
 6100.00000   76.32230    3.02080    2.83330    3.71810  -50.31970    0.19220    0.05050    8.90480    0.07260   58.05080  511.65480    2.62360
 6150.00000   50.21650    6.13760    5.41020    5.65000  -57.67540    0.13010    0.07420    8.54910    0.04980   26.68950  734.96910    2.58310
 6200.00000   41.68940    6.68520    6.21640    6.49390  -58.22330    0.12490    0.03080    8.38550    0.03700   19.50510  815.61380    2.65730
 6250.00000   40.53230   10.15540    9.68920   14.58090  -62.96770    0.12030    0.06210    8.41650    0.08560   29.02950  833.62240    2.60380
 6300.00000   45.52500    9.32370    8.42580    9.39560  -61.62850    0.13120    0.02980    8.46370    0.01130   27.62020  717.38100    2.65900
 6350.00000   63.11220    4.47100    3.95380    5.11020  -56.05890    0.17790    0.05220    8.74690    0.04600   42.87840  511.60090    2.62070
 6400.00000   61.44100    4.95100    4.47910    5.81970  -56.07510    0.17050    0.05820    8.68110    0.05040   31.09630  499.12110    2.61050
 6450.00000   52.99710    9.28600    8.73840   12.82910  -58.08350    0.12250    0.05040    8.40540    0.03350   27.74450  610.93750    2.62380
 6500.00000   31.73690   15.18310   16.08130   35.27240  -53.90850    0.10140    0.04390    8.29570    0.06690   17.15570  599.88220    2.63490
 6550.00000   33.81290   14.09470   15.35060   40.98410  -49.54230    0.08740    0.03270    8.36380    0.04890   13.86250  585.69280    2.65410
 6600.00000   31.68520   21.16220   20.28860   25.11010  -55.92260    0.10810    0.10090    8.52190    0.10010    9.75170  405.47530    2.53750
 6650.00000   23.93900   20.41220   19.56570   23.60520  -57.33670    0.10030    0.27680    8.54230    0.10480   13.20120  440.17720    2.23670
 6700.00000   20.64750   17.58480   18.36650   17.00540  -58.86600    0.08840    0.04880    8.41190    0.09030   17.69220  542.38870    2.62660
 6750.00000   25.06790   16.67980   16.02670   13.25220  -49.74720    0.09790    0.03530    8.40420    0.04100   14.61510  412.44330    2.64960
 6800.00000   31.90590   11.74440   11.11890   12.94950  -44.53350    0.11260    0.05840    8.25880    0.03830   22.84630  426.82150    2.61010
 6850.00000   39.54270   61.41140   62.57510  131.47790  -61.83760    0.12700    0.02740    8.26750    0.05670   30.49380  548.60880    2.66310
 6900.00000   40.91470   25.42490   24.68090   28.82550  -51.99230    0.09590    0.06010    8.07280    0.03000   18.26040  494.59580    2.60720
 6950.00000   45.82040   17.58440   16.80210   25.92990  -46.95750    0.11910    0.03700    8.20590    0.06590   27.90310  469.16380    2.64670
 7000.00000   41.08520   69.87760   75.95950  281.21930  -68.88860    0.10600    0.06100    8.08120    0.02430   27.51950  557.25900    2.60570
 7050.00000   49.57130   45.09180   56.44530  480.90580  -44.74810    0.11000    0.05910    8.07530    0.02210   23.26390  474.71120    2.60890
 7100.00000   49.84650   20.29350   19.36580   28.57010  -32.88440    0.15270    0.07130    8.15780    0.00880   35.59980  430.75790    2.58810
 7150.00000   56.08470   31.50900   35.47290   73.13300  -33.81980    0.11860    0.05800    8.07620    0.03860   34.70140  476.33040    2.61080
 7200.00000   90.83660   45.06480   52.44020  139.37210  -37.75280    0.15110    0.11550    7.93840    0.05110   56.59100  419.63180    2.51250
 7250.00000  100.93690   71.62050   89.02300  351.09600  -38.22880    0.19370    0.09670    7.98490    0.02870   76.62880  385.57890    2.54460
 7300.00000   18.76650   93.59870  110.44530  767.10790  -51.33430    0.05190    0.00870    7.90610    0.03850   19.47220  721.61980    2.69510
 7350.00000   16.57520  102.26270  124.65640  484.41690  -57.03750    0.03430    0.04380    7.78330    0.02540    9.29580  864.07830    2.63510
 7400.00000   20.01330   65.11780   77.87250  148.93420  -47.38210    0.03000    0.00970    7.78960    0.02800   12.44710  993.87770    2.69340
 7450.00000   84.09560    3.98320    3.79930    5.74620  -24.77500    0.22270    0.22180    8.37010    0.19000    -999.25    -999.25    2.33070
