~Version ---------------------------------------------------
VERS.      2.0 : CWLS log ASCII Standard -VERSION 2.0
WRAP.      YES : Multiple lines per depth step
CREA. 09/17/12 : LAS Creation Date
~Well ------------------------------------------------------
STRT.FT                   3250.0 : START DEPTH
STOP.FT                   8300.0 : STOP DEPTH
STEP.FT                 50.00000 : STEP LENGTH
NULL.                    -999.25 : NULL VALUE
COMP. CHAMPLIN PETROLEUM COMPANY : COMPANY
WELL.       L W BRINKMAN UNIT #1 : WELL
FLD .                   GIDDINGS : FIELD
LOC .                            : LOCATION
CNTY.                   BURLESON : COUNTY
STAT.                      TEXAS : STATE
CTRY.   UNITED STATES OF AMERICA : COUNTRY
SRVC.               Schlumberger : SERVICE COMPANY
DATE.                19-Jul-1980 : LOGDATE
API .             42051307850000 : API NUMBER
UWI .             42051307850000 : UNIQUE WELL ID
SLAT.WGS84         30.3775896841 : SURFACE LATITUDE
SLON.WGS84        -96.7431946132 : SURFACE LONGITUDE
~Curve Information -----------------------------------------
DEPT    .FT    : DEPTH FEET
CALDED  .IN    : CALIPER FROM CNFD LOG [ADJ. TO GRRED]
CALWS   .IN    : CALIPER [CALDED]
CONDWS  .MMHO  : CONDUCTIVITY [1000/DRESWS]
DCORWS  .G/C3  : DENSITY CORRECTION [DRHOED]
DENWS   .G/C3  : FORMATION BULK DENSITY [RHOBED]
DPHILSED.V/V   : DENSITY POROSITY LIMESTONE [M=2.71 F=1.0] FROM CNFD LOG  [ADJ. TO GRRED]
DPOWS   .V/V   : DENSITY POROSITY LIMESTONE [DPHILSED]
DRESWS  .OHMM  : DEEP RESISTIVITY [ILDED]
DRHOED  .G/C3  : BULK DENSITY CORRECTION FROM CNFD LOG  [ADJ. TO GRRED]
DTED    .US/F  : DELTA-T (INTERVAL TRANSIT TIME)  FROM ISF SONIC LOG  [ADJ. TO GRRED]
DTWS    .US/F  : COMPRESSIONAL SONIC [DTED]
GRDED   .GAPI  : GAMMA RAY FROM CNFD LOG  [ADJ. TO GRRED]
GRED    .GAPI  : CASED HOLE GAMMA RAY FROM CEMENT LOG  [ADJ. TO GRRED]
GRRED   .GAPI  : GAMMA RAY FROM ISF SONIC LOG
GRWS    .GAPI  : GAMMA RAY [GRED SPL. TO GRDED @ 3799']
ILDED   .OHMM  : DEEP INDUCTION FROM ISF SONIC LOG
ILMED   .OHMM  : MEDIUM INDUCTION FROM ISF SONIC LOG
MRESWS  .OHMM  : MEDIUM RESISTIVITY [ILMED]
NPHILSED.V/V   : NEUTRON POROSITY LIMESTONE FROM CNFD LOG  [ADJ. TO GRRED]
NPOWS   .V/V   : NEUTRON POROSITY LIMESTONE [NPHILSED]
RHOBED  .G/C3  : BULK DENSITY FROM CNFD LOG  [ADJ. TO GRRED]
SFLUED  .OHMM  : SHALLOW FOCUSED RESISTIVITY (UNAVERAGED) FROM ISF SONIC LOG
SPHILSED.V/V   : SONIC POROSITY LIMESTONE FROM DEN-SON PLAYBACK LOG  [ADJ. TO DTED]
SPOWS   .V/V   : SONIC POROSITY LIMESTONE [SPHILSED]
SPRED   .MV    : SPONTANEOUS POTENTIAL FROM ISF SONIC LOG
SPWS    .MV    : SPONTANEOUS POTENTIAL [BASELINE 0 MV, SPRED]
SRESWS  .OHMM  : SHALLOW RESISTIVITY [SFLUED]
~Params ----------------------------------------------------
PD  .                     GL : PERMANENT DATUM
EPD .FT                  331 : ELEVATION PERMANENT DATUM
LMF .                     KB : LOG MEASURED FROM
DAPD.FT                 16.6 : FEET ABOVE PERMANENT DATUM
DMF .                     KB : DRILLING MEASURED FROM
EKB .FT                347.6 : KELLY BUSHING
EDF .FT                346.6 : DRILLING FLOOR
EGL .FT                  331 : GROUND LEVEL
DATE.             07/19/1980 : RUN DATE
RUN .                      1 : RUN NUMBER
BLI .FT                 8334 : BOTTOM LOG INTERVAL
TLI .FT                 3812 : TOP LOG INTERVAL
CS  .IN                9.625 : CASING SIZE
CBD .FT                 3818 : CASING BOTTOM DRILLER
CBL .FT                 3812 : CASING BOTTOM LOGGER
BS  .IN                 8.75 : BIT SIZE
DFT .                 BEN EX : DRILLING FLUID TYPE
DFD .                    9.3 : DRILLING FLUID DENSITY
DFV .                     45 : DRILLING FLUID VISCOSITY
DFPH.                      9 : DRILLING FLUID PH
DFL .                    5.8 : DRILLING FLUID LOSS
MSS .               MUD TANK : MUD SAMPLE SOURCE
RMS .OHMM               2.08 : RESISTIVITY MUD SAMPLE
MST .DEGF                 80 : MUD SAMPLE TEMPERATURE
RMF .OHMM               1.36 : RESISTIVITY MUD FILTRATE SAMPLE
MFST.DEGF                 80 : MUD FILTRATE SAMPLE TEMPERATURE
RMC .OHMM               3.12 : RESISTIVITY MUD CAKE
MCST.DEGF                 80 : MUD CAKE SAMPLE TEMPERATURE
MFSS.                      C : MUD FILTRATE SAMPLE SOURCE
MCSS.                      C : MUD CAKE SAMPLE SOURCE
RMB .OHMM              0.891 : RESISTIVITY MUD AT BHT
TCS .HRS                1330 : TIME CIRCULATED STOPPED
TLAB.HRS                2200 : TIME LOGGER AT BOTTOM
LUN .                   8176 : LOGGING UNIT NUMBER
LUL .                BRENHAM : LOGGING UNIT LOCATION
ENGI. KRONENBITTER ALEXANDER : RECORDING ENGINEER
WITN.                 SCHELL : WITNESSED BY
CLNT.                A2DTECH : CLIENT CODE
UWI .         42051307850000 : UNIQUE WELL ID
DICO. A2D Technologies, Inc. : DIGITIZING COMPANY
~Other -----------------------------------------------------
~ASCII -----------------------------------------------------
# ...
 4550.00000   10.32120   10.32120  415.05830    0.09450    2.40610    0.17890    0.17890    2.40930    0.09450   98.96940   98.96940   82.62380   63.60710  107.46940   82.62380    2.40930    2.47680    2.47680    0.30520    0.30520    2.40610    2.71290    -999.25    -999.25  -11.83190   -0.83290    2.71290
 4600.00000   10.58300   10.58300  332.28110    0.03810    2.40220    0.18170    0.18170    3.00950    0.03810   95.63060   95.63060   78.18280   55.42260   94.14670   78.18280    3.00950    3.11930    3.11930    0.28010    0.28010    2.40220    3.30140    -999.25    -999.25  -15.88610   -5.29710    3.30140
 4650.00000   11.93670   11.93670  398.16840    0.04330    2.31080    0.24290    0.24290    2.51150    0.04330   99.64750   99.64750   80.32620   53.12210  105.41110   80.32620    2.51150    2.62090    2.62090    0.27560    0.27560    2.31080    2.83980    -999.25    -999.25  -12.20190   -2.02300    2.83980
 4700.00000   12.35540   12.35540  366.46140    0.09480    2.30170    0.24290    0.24290    2.72880    0.09480   92.44220   92.44220   72.76510   54.97760   97.83080   72.76510    2.72880    2.82830    2.82830    0.32010    0.32010    2.30170    2.82400    -999.25    -999.25  -13.01470   -3.24590    2.82400
 4750.00000   13.56680   13.56680  504.46450    0.15100    2.31660    0.23340    0.23340    1.98230    0.15100   97.08010   97.08010   80.72830   40.46580   93.16800   80.72830    1.98230    2.06320    2.06320    0.32000    0.32000    2.31660    2.20560    -999.25    -999.25  -10.48990   -1.13120    2.20560
 4800.00000   14.38090   14.38090  546.38840    0.17920    2.19170    0.30080    0.30080    1.83020    0.17920   99.72930   99.72930   78.73210   51.51160   97.93860   78.73210    1.83020    1.88420    1.88420    0.35680    0.35680    2.19170    2.03960    -999.25    -999.25  -10.60980   -1.66110    2.03960
 4850.00000   14.69750   14.69750  456.53760    0.17340    2.33900    0.21580    0.21580    2.19040    0.17340   95.14110   95.14110   71.11030   46.21700  105.07020   71.11030    2.19040    2.26430    2.26430    0.37390    0.37390    2.33900    2.38950    -999.25    -999.25  -12.28750   -3.74890    2.38950
 4900.00000   13.98040   13.98040  600.99770    0.12980    2.25790    0.26520    0.26520    1.66390    0.12980   99.89610   99.89610   69.90420   41.99570   99.86260   69.90420    1.66390    1.72720    1.72720    0.38140    0.38140    2.25790    1.97020    -999.25    -999.25  -11.38810   -3.25960    1.97020
 4950.00000   12.45980   12.45980  641.60140    0.15130    2.26400    0.26050    0.26050    1.55860    0.15130  103.73220  103.73220   75.74120   49.64220   97.86330   75.74120    1.55860    1.58130    1.58130    0.38990    0.38990    2.26400    1.77780    -999.25    -999.25  -10.23380   -2.51540    1.77780
 5000.00000   12.71950   12.71950  660.41470    0.10880    2.29140    0.24600    0.24600    1.51420    0.10880  103.36710  103.36710   81.36320   43.56790   89.43410   81.36320    1.51420    1.56960    1.56960    0.37050    0.37050    2.29140    1.71930    -999.25    -999.25  -10.96610   -3.64730    1.71930
 5050.00000   12.78170   12.78170  715.97340    0.15650    2.30080    0.24130    0.24130    1.39670    0.15650  104.54590  104.54590   77.86520   58.08450   98.92640   77.86520    1.39670    1.44320    1.44320    0.36760    0.36760    2.30080    1.73000    -999.25    -999.25  -11.01230   -4.08640    1.73000
 5100.00000   13.00940   13.00940  608.27250    0.19190    2.32310    0.22690    0.22690    1.64400    0.19190  100.47220  100.47220   81.77790   48.23660   91.63030   81.77790    1.64400    1.71530    1.71530    0.34690    0.34690    2.32310    1.88630    -999.25    -999.25  -11.69320   -5.16020    1.88630
 5150.00000   12.50670   12.50670  894.13450    0.09830    2.20690    0.29470    0.29470    1.11840    0.09830  109.22640  109.22640   88.41650   62.32140  103.71770   88.41650    1.11840    1.15990    1.15990    0.35430    0.35430    2.20690    1.06920    -999.25    -999.25  -10.52320   -4.38320    1.06920
 5200.00000   12.96330   12.96330  627.35260    0.09550    2.38980    0.18820    0.18820    1.59400    0.09550   94.17200   94.17200   78.77690   55.14950   87.75550   78.77690    1.59400    1.65250    1.65250    0.25860    0.25860    2.38980    1.86600    -999.25    -999.25  -10.58450   -4.83740    1.86600
 5250.00000   11.59680   11.59680  637.59250    0.09780    2.39120    0.18540    0.18540    1.56840    0.09780  102.40590  102.40590   73.65010   49.40930   82.23640   73.65010    1.56840    1.64070    1.64070    0.34190    0.34190    2.39120    1.67880    -999.25    -999.25   -9.86920   -2.79400    1.67880
 5300.00000   11.33460   11.33460  627.94350    0.15810    2.40800    0.17690    0.17690    1.59250    0.15810   99.39680   99.39680   69.54970   41.65930   78.38700   69.54970    1.59250    1.65820    1.65820    0.28790    0.28790    2.40800    1.75780    -999.25    -999.25  -10.75480   -1.71490    1.75780
 5350.00000   15.51230   15.51230  783.08540    0.14360    2.12680    0.35100    0.35100    1.27700    0.14360  110.52530  110.52530   69.14970   40.28580   88.84650   69.14970    1.27700    1.33210    1.33210    0.42150    0.42150    2.12680    1.58430    -999.25    -999.25  -16.55830   -6.25890    1.58430
 5400.00000   13.68360   13.68360  952.19960    0.06170    2.19860    0.29870    0.29870    1.05020    0.06170  111.67040  111.67040   70.89690   46.68400  101.45540   70.89690    1.05020    1.08830    1.08830    0.43500    0.43500    2.19860    1.27050    -999.25    -999.25  -12.12620   -2.29360    1.27050
 5450.00000   10.61600   10.61600  516.63570    0.04910    2.45400    0.15160    0.15160    1.93560    0.04910   91.98220   91.98220   66.96690   43.09940   76.65870   66.96690    1.93560    2.00720    2.00720    0.25860    0.25860    2.45400    2.09280    -999.25    -999.25  -11.45580   -2.09000    2.09280
 5500.00000   10.72040   10.72040  522.57530    0.21940    2.50010    0.12100    0.12100    1.91360    0.21940   91.33350   91.33350   70.02880   39.56630   85.56280   70.02880    1.91360    1.98340    1.98340    0.24360    0.24360    2.50010    2.15870    -999.25    -999.25  -11.80110   -2.90220    2.15870
 5550.00000   12.02080   12.02080  567.24710    0.15390    2.40360    0.18380    0.18380    1.76290    0.15390   91.21740   91.21740   62.00030   43.01730   95.01990   62.00030    1.76290    1.84070    1.84070    0.27990    0.27990    2.40360    2.03560    -999.25    -999.25  -11.90420   -3.47210    2.03560
 5600.00000   15.37920   15.37920 1001.00100    0.18620    2.25710    0.25800    0.25800    0.99900    0.18620  109.00610  109.00610   67.32890   46.95120   95.16050   67.32890    0.99900    1.04780    1.04780    0.40860    0.40860    2.25710    1.23410    -999.25    -999.25  -14.23460   -6.26930    1.23410
 5650.00000   15.97160   15.97160  856.31100    0.09800    2.31030    0.23320    0.23320    1.16780    0.09800  103.08130  103.08130   60.18640   41.83200   96.82170   60.18640    1.16780    1.20790    1.20790    0.39810    0.39810    2.31030    1.45600    -999.25    -999.25  -11.90120   -4.40280    1.45600
 5700.00000   15.63510   15.63510  909.66980    0.15460    2.23180    0.28090    0.28090    1.09930    0.15460  107.04920  107.04920   60.85940   44.33670   87.45960   60.85940    1.09930    1.13940    1.13940    0.43970    0.43970    2.23180    1.31790    -999.25    -999.25   -8.89430   -1.86270    1.31790
 5750.00000   12.82640   12.82640 1029.23010    0.16750    2.30250    0.24050    0.24050    0.97160    0.16750  105.66780  105.66780   68.77350   45.64610   88.34930   68.77350    0.97160    1.01630    1.01630    0.38550    0.38550    2.30250    1.24090    -999.25    -999.25   -8.97540   -2.41060    1.24090
 5800.00000    9.68850    9.68850  369.54920    0.00950    2.52240    0.10890    0.10890    2.70600    0.00950   85.47490   85.47490   57.55890   36.00980   75.87050   57.55890    2.70600    2.91780    2.91780    0.24210    0.24210    2.52240    3.21250    -999.25    -999.25   -6.99320   -0.89520    3.21250
