~Version ---------------------------------------------------
VERS.      2.0 : CWLS log ASCII Standard -VERSION 2.0
WRAP.      YES : Multiple lines per depth step
CREA. 03/04/13 : LAS Creation Date
~Well ------------------------------------------------------
STRT.FT                 1400.0 : START DEPTH
STOP.FT                10150.0 : STOP DEPTH
STEP.FT               50.00000 : STEP LENGTH
NULL.                  -999.25 : NULL VALUE
COMP.     TXO PRODUCTION CORP. : COMPANY
WELL.               GUEST A #1 : WELL
FLD .               BEAR GRASS : FIELD
LOC .                          : LOCATION
CNTY.                     LEON : COUNTY
STAT.                    TEXAS : STATE
CTRY. UNITED STATES OF AMERICA : COUNTRY
SRVC.            Dresser Atlas : SERVICE COMPANY
DATE.              30-Oct-1981 : LOGDATE
API .           42289304700000 : API NUMBER
UWI .           42289304700000 : UNIQUE WELL ID
SLAT.WGS84        31.355337108 : SURFACE LATITUDE
SLON.WGS84       -96.287476523 : SURFACE LONGITUDE
~Curve Information -----------------------------------------
DEPT    .FT    : DEPTH FEET
ACED    .US/F  : ACOUSTIC FROM SONIC LOG
CALDED  .IN    : CALIPER FROM DENSITY LOG
CALSED  .IN    : CALIPER FROM SONIC LOG [ADJ. TO CALDED]
CALWS   .IN    : CALIPER [CALSED]
CNLSED  .V/V   : COMPENSATED NEUTRON POROSITY LIME FROM DENSITY LOG
CONDWS  .MMHO  : CONDUCTIVITY [1000/DRESWS]
CORRED  .G/C3  : DENSITY CORRECTION FROM DENSITY LOG
DCORWS  .G/C3  : DENSITY CORRECTION [CORRED]
DENED   .G/C3  : COMPENSATED BULK DENSITY FROM DENSITY LOG
DENWS   .G/C3  : FORMATION BULK DENSITY [DENED]
DPOWS   .V/V   : DENSITY POROSITY LIME [PORDLSED]
DRESWS  .OHMM  : DEEP RESISTIVITY [RILDED]
DTWS    .US/F  : COMPRESSIONAL SONIC [ACED]
GR1ED   .GAPI  : GAMMA RAY FROM CBL LOG [ADJ. TO GRDED]
GRDED   .GAPI  : GAMMA RAY FROM DENSITY LOG
GRED    .GAPI  : GAMMA RAY FROM CBL LOG [ADJ. TO GRDED]
GRSED   .GAPI  : GAMMA RAY FROM SONIC LOG [ADJ. TO GRDED]
GRWS    .GAPI  : GAMMA RAY [GRED SPL. TO GRDED 2138'- 2296' & 10100.5-10122']
MRESWS  .OHMM  : MEDIUM RESISTIVITY [RILMED]
NPOWS   .V/V   : NEUTRON POROSITY LIME [CNLSED]
PORDLSED.V/V   : DENSITY POROSITY LIME [M=2.71, F=1.0] FROM DENSITY LOG
RFOCED  .OHMM  : SHALLOW FOCUSED RESISTIVITY FROM RESISTIVITY LOG
RILDED  .OHMM  : DEEP INDUCTION RESISTIVITY FROM RESISTIVITY LOG
RILMED  .OHMM  : MEDIUM INDUCTION RESISTIVITY FROM RESISITIVITY LOG
SPRED   .MV    : SPONTANEOUS POTENTIAL FROM RESISTIVITY LOG
SPSED   .MV    : SPONTANEOUS POTENTIAL FROM SONIC LOG [ADJ. TO SPRED]
SPWS    .MV    : SPONATNEOUS POTENTIAL [BASELINE 0 MV, SPRED]
SRESWS  .OHMM  : SHALLOW RESISTIVITY [RFOCED]
TENDED  .LBF   : TENSION FROM DENSITY LOG
TENRED  .LBF   : TENSION FROM RESISTIVITY LOG
TENSED  .LBF   : TENSION FROM SONIC LOG
~Params ----------------------------------------------------
PD  .                     GL : PERMANENT DATUM
EPD .FT                  418 : ELEVATION PERMANENT DATUM
LMF .                     KB : LOG MEASURED FROM
DAPD.FT                   23 : FEET ABOVE PERMANENT DATUM
DMF .                     KB : DRILLING MEASURED FROM
EKB .FT                  441 : KELLY BUSHING
EDF .FT                  440 : DRILLING FLOOR
EGL .FT                  418 : GROUND LEVEL
DATE.               10/30/81 : RUN DATE
RUN .                      2 : RUN NUMBER
DD  .FT                10174 : DEPTH DRILLER
DL  .FT                10156 : DEPTH LOGGER
BLI .FT                10154 : BOTTOM LOG INTERVAL
TLI .FT                 9800 : TOP LOG INTERVAL
CS  .IN                8.625 : CASING SIZE
CBD .FT                 1350 : CASING BOTTOM DRILLER
BS  .IN                7.875 : BIT SIZE
BSD .FT                10174 : BIT SIZE AT DEPTH
DFT .                  LIGNO : DRILLING FLUID TYPE
DFD .                     10 : DRILLING FLUID DENSITY
DFPH.                     10 : DRILLING FLUID PH
DFL .                   10.5 : DRILLING FLUID LOSS
MSS .               FLOWLINE : MUD SAMPLE SOURCE
RMS .OHMM               1.48 : RESISTIVITY MUD SAMPLE
MST .DEGF                 90 : MUD SAMPLE TEMPERATURE
RMF .OHMM               1.11 : RESISTIVITY MUD FILTRATE SAMPLE
MFST.DEGF                 90 : MUD FILTRATE SAMPLE TEMPERATURE
RMC .OHMM               1.85 : RESISTIVITY MUD CAKE
MCST.DEGF                 90 : MUD CAKE SAMPLE TEMPERATURE
MFSS.                      C : MUD FILTRATE SAMPLE SOURCE
MCSS.                      C : MUD CAKE SAMPLE SOURCE
RMB .OHMM               0.51 : RESISTIVITY MUD AT BHT
TCS .HRS                 600 : TIME CIRCULATED STOPPED
LUN .                   6335 : LOGGING UNIT NUMBER
LUL .                  TYLER : LOGGING UNIT LOCATION
ENGI.                  BANKS : RECORDING ENGINEER
WITN.                  WYNNE : WITNESSED BY
CLNT.                A2DTECH : CLIENT CODE
ORIG.            2" 5" PRINT : ORIGIN OF DATA
UWI .         42289304700000 : UNIQUE WELL ID
DICO. A2D Technologies, Inc. : DIGITIZING COMPANY
~Other -----------------------------------------------------
TOOL RUN: CBL-DIL-SFL-CNFD-SONIC
~ASCII -----------------------------------------------------
# ...
 8300.00000   55.85300   10.09660    9.96360    9.96360    0.01990   38.54000   -0.03280   -0.03280    2.68320    2.68320    0.01440   25.94710   55.85300   36.58470   21.12440   43.73130   19.21390   21.12440   29.96450    0.01990    0.01440   27.06630   25.94710   29.96450  -95.33590  -62.26800  -55.91730   27.06630    2.14620    1.80090   -8.02800
 8350.00000   55.75300    9.98380    9.40970    9.40970    0.01910   31.86730   -0.04830   -0.04830    2.69420    2.69420    0.00670   31.38010   55.75300   20.55290   34.81280   33.46580   30.12500   34.81280   35.97740    0.01910    0.00670   43.57770   31.38010   35.97740  -48.00160  -40.91870   -9.84110   43.57770   -4.45470   -1.96490   -2.16440
 8400.00000   78.33770   12.70790   13.11000   13.11000    0.21560  332.01630    0.23870    0.23870    2.24800    2.24800    0.27790    3.01190   78.33770   70.96060   87.60790   58.08490   80.09270   87.60790    2.97180    0.21560    0.27790    4.30060    3.01190    2.97180  -42.46370  -25.86430   -5.56140    4.30060    5.22870    0.80590    0.55150
 8450.00000   69.71790   10.97860   10.16640   10.16640    0.10400  140.75590   -0.08510   -0.08510    2.04080    2.04080    0.37580    7.10450   69.71790   33.57360   56.17770   34.58250   51.96910   56.17770    8.30430    0.10400    0.37580    4.40600    7.10450    8.30430  -41.33630  -27.85580   -5.69210    4.40600    5.17480    7.77240    0.04190
 8500.00000   77.31400   12.53440   12.62240   12.62240    0.21090  225.47410    0.29660    0.29660    2.33100    2.33100    0.22170    4.43510   77.31400   81.98280  102.38850   73.61970   83.92640  102.38850    4.89490    0.21090    0.22170    5.01920    4.43510    4.89490  -38.18500  -22.27970   -3.79900    5.01920   11.49680   -1.70400    8.23360
 8550.00000   83.70470   15.00510   14.69940   14.69940    0.23140  365.33680    0.18760    0.18760    2.39210    2.39210    0.18420    2.73720   83.70470   70.07850  101.20880   55.95200   82.03890  101.20880    2.97510    0.23140    0.18420    3.56170    2.73720    2.97510  -36.34600  -15.60470   -3.21810    3.56170    7.42570    0.61500    9.54750
 8600.00000   47.47950    9.76650    9.34310    9.34310    0.04700  162.74980   -0.03110   -0.03110    2.67940    2.67940    0.01790    6.14440   47.47950   49.70070   55.53940   38.76580   43.50590   55.53940   11.59850    0.04700    0.01790   10.15690    6.14440   11.59850  -38.76600  -14.54990   -6.89630   10.15690    3.52710    3.03140    4.37250
 8650.00000   53.89210    9.99700    9.46040    9.46040    0.08200  117.78560    0.01550    0.01550    2.59450    2.59450    0.06780    8.49000   53.89210   43.13460   61.65180   44.83140   53.65870   61.65180   15.65030    0.08200    0.06780    7.98410    8.49000   15.65030  -37.21410   -4.78580   -6.60250    7.98410   -1.11210    3.09590    0.20420
 8700.00000   80.00100   13.99190   13.44960   13.44960    0.23080  298.97150    0.16810    0.16810    2.30460    2.30460    0.23710    3.34480   80.00100   61.25400   89.04620   56.14440   73.90680   89.04620    3.96620    0.23080    0.23710    5.03070    3.34480    3.96620  -33.43150   -5.33730   -4.07810    5.03070    0.02070    2.67080   -7.67020
 8750.00000   55.61530   10.51160   10.09310   10.09310    0.04800  107.05720   -0.01400   -0.01400    2.60680    2.60680    0.06040    9.34080   55.61530   27.34010   26.20980   45.26930   23.87950   26.20980   13.57070    0.04800    0.06040   29.10900    9.34080   13.57070 -117.34560  -94.38090  -88.62480   29.10900   -3.29930    8.74160    5.54160
 8800.00000   49.18830   10.55090   10.18350   10.18350    0.01220    9.75040   -0.02830   -0.02830    2.67420    2.67420    0.01990  102.55960   49.18830   57.64450   73.84240   52.16010   58.98070   73.84240   85.20930    0.01220    0.01990  128.47690  102.55960   85.20930  -55.74910  -59.54360  -27.50470  128.47690   -1.74920   -1.42930   -6.31870
 8850.00000   51.93190   11.50420   10.25010   10.25010    0.02050   12.85950    0.13110    0.13110    2.56460    2.56460    0.08500   77.76370   51.93190   36.44200   36.92250   33.99920   33.72100   36.92250   76.08280    0.02050    0.08500   89.42110   77.76370   76.08280  -80.45860  -53.08010  -52.69050   89.42110   -1.41700    4.21370    5.46230
 8900.00000   50.45820   10.79230   10.07300   10.07300    0.01750   23.81850   -0.03210   -0.03210    2.64420    2.64420    0.03760   41.98410   50.45820   31.86120   29.57990   37.44390   25.34810   29.57990   39.19310    0.01750    0.03760   57.37690   41.98410   39.19310  -93.08560  -71.56050  -65.79380   57.37690    4.30910    1.38160   -3.18650
 8950.00000   49.81640    9.96730    9.94440    9.94440    0.00980   18.53480   -0.02830   -0.02830    2.65210    2.65210    0.03390   53.95260   49.81640   34.55780   40.21820   42.04730   37.12010   40.21820   41.96930    0.00980    0.03390   69.76790   53.95260   41.96930  -92.41550  -83.48150  -65.60000   69.76790    5.08630    4.79380    7.70870
 9000.00000   52.76250    9.63300    9.57310    9.57310    0.01290   11.41780    0.02480    0.02480    2.55350    2.55350    0.09210   87.58230   52.76250   40.99860   42.87500   41.42530   34.98790   42.87500   42.26580    0.01290    0.09210  172.81430   87.58230   42.26580  -60.28490  -43.95870  -33.94570  172.81430    4.21980   -5.57380   -0.18450
 9050.00000   69.18270   10.61690   10.09970   10.09970    0.09320  175.17740    0.04490    0.04490    2.07530    2.07530    0.37110    5.70850   69.18270   53.02250   65.70790   50.80420   55.76280   65.70790    5.83130    0.09320    0.37110   16.62910    5.70850    5.83130  -33.34650  -16.96320   -7.48370   16.62910    2.14440    1.99170    1.31350
 9100.00000   59.09190    9.96590    9.79830    9.79830    0.02140   95.56120   -0.03220   -0.03220    2.67930    2.67930    0.01790   10.46450   59.09190   49.32050   78.88490   50.05170   56.01700   78.88490   14.36480    0.02140    0.01790   28.67660   10.46450   14.36480  -35.26890  -20.24490  -10.75510   28.67660   -2.43810   12.03480   23.60170
 9150.00000   67.20670   10.01650    9.43020    9.43020    0.06470  597.58580   -0.03320   -0.03320    2.50350    2.50350    0.12000    1.67340   67.20670   42.71090   44.23210   40.29790   42.23790   44.23210    1.96170    0.06470    0.12000    4.33910    1.67340    1.96170  -81.27300  -64.29100  -58.38390    4.33910   -1.14140   -1.67370    1.40460
 9200.00000   65.64550    9.72810    9.19140    9.19140    0.04470  291.19710   -0.02200   -0.02200    2.56930    2.56930    0.08040    3.43410   65.64550   59.21760   76.95610   53.35260   65.63290   76.95610    4.21750    0.04470    0.08040    4.45710    3.43410    4.21750  -50.97400  -41.81460  -30.04330    4.45710   -7.08530    1.97900   -0.49200
 9250.00000   69.39190    9.97510    9.51110    9.51110    0.04720  117.22230    0.00820    0.00820    2.45330    2.45330    0.15070    8.53080   69.39190   33.83820   41.98280   51.17050   35.97870   41.98280    9.31570    0.04720    0.15070    9.84890    8.53080    9.31570  -77.74720  -62.54330  -60.29500    9.84890   -0.23010    2.75000   -1.78990
 9300.00000   64.37260    9.76940    9.29530    9.29530    0.07370  175.80870   -0.02160   -0.02160    2.54660    2.54660    0.09460    5.68800   64.37260   85.58910  117.21530   80.46840  108.88790  117.21530    6.16320    0.07370    0.09460    5.90990    5.68800    6.16320  -19.43880  -12.34830   -5.46510    5.90990  191.52260    6.65760   -3.70980
 9350.00000   64.01000    9.50790    8.83790    8.83790    0.05740  218.46460   -0.02960   -0.02960    2.59710    2.59710    0.06470    4.57740   64.01000   60.14440   92.96700   54.97240   77.64580   92.96700    5.42260    0.05740    0.06470    5.41260    4.57740    5.42260  -30.07570  -24.07930  -18.35590    5.41260   -2.36520    2.28010    6.66540
 9400.00000   61.21650    9.29820    8.65340    8.65340    0.02350  142.52120   -0.05140   -0.05140    2.55640    2.55640    0.08860    7.01650   61.21650   38.54930   41.38580   37.76640   42.30230   41.38580    7.76860    0.02350    0.08860    7.42160    7.01650    7.76860  -45.26890  -42.68210  -35.43720    7.42160    4.81470   -0.73390    5.79670
