~Version ---------------------------------------------------
VERS. 2.0 : CWLS log ASCII Standard -VERSION 2.0
WRAP.  NO : ONE LINE PER DEPTH STEP
~Well ------------------------------------------------------
STRT.F                   300.0 : START DEPTH
STOP.F                 13300.0 : STOP DEPTH
STEP.F                50.00000 : STEP LENGTH
NULL.                  -999.25 : NULL VALUE
COMP.         DALECO RESOURCES : COMPANY
WELL.                 OLSON #1 : WELL
FLD .               CLAY CREEK : FIELD
LOC .                          : LOCATION
CNTY.               WASHINGTON : COUNTY
STAT.                    TEXAS : STATE
CTRY. UNITED STATES OF AMERICA : COUNTRY
SRVC.             Schlumberger : SERVICE COMPANY
DATE.              06-Jan-1984 : LOGDATE
API .           42477305280000 : API NUMBER
UWI .           42477305280000 : UNIQUE WELL ID
SLAT.WGS84           30.312105 : SURFACE LATITUDE
SLON.WGS84          -96.369064 : SURFACE LONGITUDE
~Curve Information -----------------------------------------
DEPT   .F                 : 
DCALR  .IN   07 280 01 00 : DIFFERENTIAL CALIPER FROM RESISTIVITY LOG
DPHI_LS.DEC  45 890 10 00 : DENSITY POROSITY LIMESTONE
DPHI_SS.DEC  45 890 12 00 : DENSITY POROSITY SANDSTONE
DRHO   .G/C3 45 356 01 00 : BULK DENSITY CORRECTION
GRR    .GAPI 07 310 01 00 : GAMMA RAY FROM RESISTIVITY LOG
ILD    .OHMM 07 120 46 00 : INDUCTION DEEP RESISTIVITY
ILM    .OHMM 07 120 44 00 : INDUCTION MEDIUM RESISTIVITY
NPHI_LS.DEC  42 890 01 00 : NEUTRON POROSITY LIMESTONE
NPHI_SS.DEC  42 890 03 00 : NEUTRON POROSITY SANDSTONE
SFLU   .OHMM 07 220 01 00 : SHALLOW FOCUSED RESISTIVITY (UNAVERAGED)
SPR    .MV   07 010 01 00 : SPONTANEOUS POTENTIAL FROM RESISTIVITY LOG
~Params ----------------------------------------------------
PD  .                     GL : PERMANENT DATUM
EPD .FT                  390 : ELEVATION PERMANENT DATUM
LMF .                     KB : LOG MEASURED FROM
DAPD.FT                   23 : MEASUREMENT ABOVE PERMANENT DATUM
DMF .                     KB : DRILLING MEASURED FROM
EKB .FT                  413 : KELLY BUSHING
EDF .FT                  412 : DRILLING FLOOR
EGL .FT                  390 : GROUND LEVEL
DATE.               01/06/84 : RUN DATE
RUN .                      3 : RUN NUMBER
DD  .FT                13320 : DEPTH DRILLER
DL  .FT                13323 : DEPTH LOGGER
BLI .FT                13317 : BOTTOM LOG INTERVAL
TLI .FT                11306 : TOP LOG INTERVAL
CS  .IN                7.625 : CASING SIZE
CBD .FT                11309 : CASING BOTTOM DRILLER
CBL .FT                11306 : CASING BOTTOM LOGGER
BS  .IN                  6.5 : BIT SIZE
BSD .FT                13320 : BIT SIZE AT DEPTH
DFT .                    LSN : DRILLING FLUID TYPE
DFD .                   10.4 : DRILLING FLUID DENSITY
DFV .                     45 : DRILLING FLUID VISCOSITY
DFPH.                      9 : DRILLING FLUID PH
DFL .                      4 : DRILLING FLUID LOSS
MSS .                   TANK : MUD SAMPLE SOURCE
RMS .OHMM               5.27 : RESISTIVITY MUD SAMPLE
MST .DEGF                107 : MUD SAMPLE TEMPERATURE
RMF .OHMM               3.95 : RESISTIVITY MUD FILTRATE SAMPLE
MFST.DEGF                107 : MUD FILTRATE SAMPLE TEMPERATURE
RMC .OHMM                7.9 : RESISTIVITY MUD CAKE
MCST.DEGF                107 : MUD CAKE SAMPLE TEMPERATURE
MFSS.                      C : MUD FILTRATE SAMPLE SOURCE
MCSS.                      C : MUD CAKE SAMPLE SOURCE
RMB .OHMM              2.513 : RESISTIVITY MUD AT BHT
TCS .HRS                1300 : TIME CIRCULATED STOPPED
TLAB.HRS                1930 : TIME LOGGER AT BOTTOM
LUN .                   8227 : LOGGING UNIT NUMBER
LUL .                BRENHAM : LOGGING UNIT LOCATION
ENGI.               BERDINIS : RECORDING ENGINEER
WITN.      ELLIS NORTH FILGO : WITNESSED BY
CLNT.                A2DTECH : CLIENT CODE
ORIG.            1" 5" PRINT : ORIGIN OF DATA
UWI .         42477305280000 : UNIQUE WELL ID
DICO. A2D Technologies, Inc. : DIGITIZING COMPANY
~Other -----------------------------------------------------
~ASCII -----------------------------------------------------
# ...
 9450.00000    9.38890    -999.25    0.56030    0.00340   76.64200    2.32110    2.17670    -999.25    0.44600    2.25320   -9.16520
 9500.00000    7.12090    -999.25    0.17250    0.10390   71.97920    2.02280    1.94320    -999.25    0.43750    2.17030  -10.29400
 9550.00000   11.76200    -999.25    0.24440    0.08820   66.56390    1.83370    1.73890    -999.25    0.42320    1.87160   -6.89250
 9600.00000   11.13320    -999.25    0.16970    0.10440   90.00480    2.05880    1.99220    -999.25    0.31490    2.09620   -8.40230
 9650.00000   11.77320    -999.25    0.51890   -0.01840   81.79590    2.20500    2.10770    -999.25    0.34480    2.15260   -8.59280
 9700.00000   11.30150    -999.25    0.59980   -0.03870   72.90360    2.11830    1.98110    -999.25    0.49710    1.98800   -9.66440
 9750.00000   10.41090    -999.25    0.12560    0.08100   93.53530    2.07960    1.95080    -999.25    0.30020    2.06010   -7.83530
 9800.00000    7.01920    -999.25    0.26760    0.02580   91.33740    1.72240    1.73260    -999.25    0.38470    1.80330   -5.14210
 9850.00000    7.20140    -999.25    0.15450    0.07470   86.97820    2.20500    2.02060    -999.25    0.31970    2.05160   -5.58320
 9900.00000    9.71740    -999.25    0.48400   -0.00400   62.74950    1.53750    1.39520    -999.25    0.60060    1.51020   -4.47750
 9950.00000    1.40820    -999.25    0.06370    0.00930   85.88770    4.46960    4.45200    -999.25    0.17080    4.99740   -6.70310
 10000.00000    1.83580    -999.25    0.06250    0.05070   87.17590    3.28010    3.39750    -999.25    0.21560    3.84040   -2.29650
 10050.00000    3.28380    -999.25    0.08400    0.04290   96.92210    2.57210    2.64240    -999.25    0.25710    3.01850    0.70840
 10100.00000    4.95990    -999.25    0.15670    0.04490   86.15760    1.89200    1.97950    -999.25    0.31870    2.03330    0.87260
 10150.00000   11.79500    -999.25    0.59990   -0.04620   55.42530    1.52700    1.40980    -999.25    0.59280    1.50350    1.81650
 10200.00000    7.92500    -999.25    0.41680    0.01930   63.08210    1.46290    1.39900    -999.25    0.51730    1.49210    2.39280
 10250.00000    6.85000    -999.25    0.15770    0.09810   79.33420    2.80610    2.18920    -999.25    0.32800    1.88720   -1.93320
 10300.00000   10.40800    -999.25    0.23850    0.09450   76.66010    1.50480    1.45160    -999.25    0.42780    1.52990    1.95210
 10350.00000    7.36590    -999.25    0.36610    0.02950   71.59000    2.02550    2.04000    -999.25    0.37710    2.09140    3.69930
 10400.00000   11.78470    -999.25    -999.25   -0.04750   76.82980    1.47700    1.27420    -999.25    0.44320    1.43340   -0.44830
 10450.00000    7.84370    -999.25    0.46590    0.01990   70.34610    1.99030    1.76730    -999.25    0.38380    1.97540   -0.72670
 10500.00000    1.63280    -999.25    0.14000    -999.25   70.34240    3.05050    3.15740    -999.25    0.24410    4.21960   -2.34000
 10550.00000    0.57520    -999.25    0.03150    0.09740   81.15490    3.02740    3.14730    -999.25    0.21730    3.70650   -4.26180
 10600.00000    1.19340    -999.25    0.04150    0.09020   87.02540    3.13090    3.31830    -999.25    0.25390    3.57420   -5.73150
 10650.00000    6.25330    -999.25    0.17310    0.08230   83.43280    2.25810    1.95090    -999.25    0.27790    2.09250   -4.93120
 10700.00000    6.94090    -999.25    0.17450    0.05590   92.53090    1.60380    1.58360    -999.25    0.37470    1.50380   -4.26440
 10750.00000    6.87530    -999.25    0.06370    0.05670   89.47670    2.48740    2.34340    -999.25    0.25530    2.09830   -7.63320
 10800.00000    6.25800    -999.25    0.14070    0.08500   90.28080    1.94850    1.87110    -999.25    0.32210    1.91100   -3.66370
 10850.00000    6.82770    -999.25    0.20270    0.09240   80.15270    1.78010    1.84970    -999.25    0.31280    2.01530   -5.77680
 10900.00000   10.03150    -999.25    0.15630    0.08320   90.83650    1.88910    1.84400    -999.25    0.31040    1.83060   -5.91360
 10950.00000   11.71180    -999.25    0.16540    0.08630   81.26660    2.24470    2.04230    -999.25    0.32130    2.08250   -7.56940
 11000.00000   11.74840    -999.25    0.60080   -0.05410   56.62920    1.85380    1.46760    -999.25    0.55050    1.63320   -1.65170
 11050.00000   11.75130    -999.25    0.46290    0.01120   64.93740    1.68000    1.47800    -999.25    0.40010    1.38380   -0.54090
 11100.00000   11.78910    -999.25    0.25650    0.07240   65.94670    2.00760    1.74690    -999.25    0.36060    1.57180   -1.46160
 11150.00000   11.71290    -999.25    0.59900   -0.06240   48.54170    2.04810    1.67900    -999.25    0.56420    1.78530   -1.41130
 11200.00000    6.26180    -999.25    0.22080    0.03500   79.50090    2.38780    2.32400    -999.25    0.32170    2.23540   -3.99460
 11250.00000    4.35220    -999.25    0.18710    0.07270   93.98630    1.68640    1.74780    -999.25    0.36890    1.82630   -4.39010
 11300.00000    3.76600    -999.25    0.49960    0.00680  -51.71200    5.47450    6.98140    -999.25    0.24520    2.00810   -4.18590
 11350.00000   -6.72360    -999.25    -999.25    -999.25   88.64210    1.44360    1.41480    -999.25    -999.25    1.53130   16.52460
 11400.00000   -6.70270    -999.25    -999.25    -999.25   93.39840    2.15310    1.97560    -999.25    -999.25    3.12560   16.26440
 11450.00000   -6.74450    -999.25    -999.25    -999.25   89.50440    1.92920    2.04180    -999.25    -999.25    2.97180   16.74300
 11500.00000   -6.76530    -999.25    -999.25    -999.25   92.92010    1.91140    1.98670    -999.25    -999.25    2.03920   16.60830
 11550.00000   -6.90660    -999.25    -999.25    -999.25  148.72230    1.13300    1.36050    -999.25    -999.25    1.76640   15.55240
 11600.00000   -6.76200    -999.25    -999.25    -999.25   89.27350    2.19060    2.09250    -999.25    -999.25    2.43860   16.20900
 11650.00000   -6.71990    -999.25    -999.25    -999.25  102.08260    1.85860    1.93760    -999.25    -999.25    2.11000   15.57620
 11700.00000   -6.71930    -999.25    -999.25    -999.25   69.39910    3.81880    3.68350    -999.25    -999.25    4.97360   15.70360
 11750.00000   -6.74900    -999.25    -999.25    -999.25   53.59750    6.81380    6.31540    -999.25    -999.25    6.80820   15.81320
 11800.00000   -6.70780    -999.25    -999.25    -999.25   56.06800    4.48980    4.83020    -999.25    -999.25    5.23020   15.27840
 11850.00000   -6.86330    -999.25    -999.25    -999.25   56.80570    5.58680    5.88690    -999.25    -999.25    6.13480   14.67060
 11900.00000   -6.79920    -999.25    -999.25    -999.25   79.30380    3.30380    3.48900    -999.25    -999.25    4.08740   14.69250
 11950.00000   -6.73840    -999.25    -999.25    -999.25   77.25360    3.74560    3.75290    -999.25    -999.25    4.44100   14.72790
 12000.00000   -6.71940    -999.25    -999.25    -999.25   65.24420    6.85870    6.58790    -999.25    -999.25    6.98610   12.98210
 12050.00000   -6.69650    -999.25    -999.25    -999.25   78.86770    3.93520    3.83910    -999.25    -999.25    4.31240   14.09650
 12100.00000   -6.75520    -999.25    -999.25    -999.25   58.60330    6.97010    6.67880    -999.25    -999.25    9.13350   13.11460
 12150.00000   -6.73410    -999.25    -999.25    -999.25   61.04030    7.29710    6.87790    -999.25    -999.25    8.41580   12.54950
 12200.00000   -6.83300    -999.25    -999.25    -999.25   59.54330    8.19680    8.62790    -999.25    -999.25    9.99760   13.25760
 12250.00000   -6.92100    -999.25    -999.25    -999.25   82.69950    6.87880    6.33540    -999.25    -999.25    3.88670   12.48460
 12300.00000   -6.72240    -999.25    -999.25    -999.25   71.58290    2.75870    2.71130    -999.25    -999.25    3.03760   13.99910
 12350.00000   -6.71690    -999.25    -999.25    -999.25   87.23100    2.71690    2.88270    -999.25    -999.25    3.17630   13.53850
 12400.00000   -6.77610    -999.25    -999.25    -999.25   85.30980    2.88730    2.92050    -999.25    -999.25    3.47290   13.19980
