~Version ---------------------------------------------------
VERS.      2.0 : CWLS log ASCII Standard -VERSION 2.0
WRAP.      YES : Multiple lines per depth step
CREA. 01/03/18 : LAS Creation Date
~Well ------------------------------------------------------
STRT.FT                         300.0 : START DEPTH
STOP.FT                        9400.0 : STOP DEPTH
STEP.FT                      50.00000 : STEP LENGTH
NULL.                         -999.25 : NULL VALUE
COMP. UNION PACIFIC RESOURCES COMPANY : COMPANY
WELL.         TILICEK-TILICEK UNIT #1 : WELL
FLD .                        GIDDINGS : FIELD
LOC .                                 : LOCATION
CNTY.                         FAYETTE : COUNTY
STAT.                           TEXAS : STATE
CTRY.        UNITED STATES OF AMERICA : COUNTRY
SRVC.                    Schlumberger : SERVICE COMPANY
DATE.                     03-Sep-1991 : LOGDATE
API .                  42149324840000 : API NUMBER
UWI .                  42149324840000 : UNIQUE WELL ID
SLAT.WGS84              29.8012186187 : SURFACE LATITUDE
SLON.WGS84             -97.0895436393 : SURFACE LONGITUDE
~Curve Information -----------------------------------------
DEPT    .FT    : DEPTH FEET
CALWS   .IN    : CALIPER [DCALRED+BIT]
CONDWS  .MMHO  : CONDUCTIVITY [1000/DRESWS]
DCALRED .IN    : DIFFERENTIAL CALIPER FROM PI-SFL-DENSITY-NEUTRON-GR LOG
DCORWS  .G/C3  : DENSITY CORRECTION [DRHOED]
DENWS   .G/C3  : FORMATION BULK DENSITY [CALC. FROM DPOSSWS M=2.65,F=1.0]
DPHISSED.V/V   : DENSITY POROSITY SANDSTONE [M=2.65,F=1.0] FROM PI-SFL-DENSITY-NEUTRON-GR LOG
DPOSSWS .V/V   : DENSITY POROSITY SANDSTONE [DPHISSED]
DRESWS  .OHMM  : DEEP RESISTIVITY [TOP ILDED 8695' IDPHED]
DRHOED  .G/C3  : DENSITY CORRECTION FROM PI-SFL-DENSITY-NEUTRON-GR LOG
GRRED   .GAPI  : GAMMA RAY FROM DIL-SFL-GR <8692'> PI-SFL-DENSITY-NEUTRON-GR LOG
GRWS    .GAPI  : GAMMA RAY [GRRED]
IDPHED  .OHMM  : DEEP RESISTIVITY FROM PI-SFL-DENSITY-NEUTRON-GR LOG
ILDED   .OHMM  : DEEP RESISTIVITY FROM DIL-SFL-GR LOG
ILMED   .OHMM  : MEDIUM INDUCTION FROM DIL-SFL-GR LOG
IMPHED  .OHMM  : MEDIUM INDUCTION FROM PI-SFL-DENSITY-NEUTRON-GR LOG
MRESWS  .OHMM  : MEDIUM RESISTIVITY [TOP ILMED 8695' IMPHED]
NPHISSED.V/V   : NEUTRON POROSITY SANDSTONE FROM PI-SFL-DENSITY-NEUTRON-GR LOG
NPOSSWS .V/V   : NEUTRON POROSITY SANDSTONE [NPHISSED]
SFLED   .OHMM  : SPHERICALLY FOCUSED LOG UNAVERAGED RESISTIVITY FROM PI-SFL-DENSITY-NEUTRON-GR LOG
SFLUED  .OHMM  : SPHERICALLY FOCUSED LOG UNAVERAGED RESISTIVITY FROM DIL-SFL-GR LOG
SPRED   .MV    : SPONTANEOUS POTENTIAL FROM DIL-SFL-GR <8692'> PI-SFL-DENSITY-NEUTRON-GR LOG
SPWS    .MV    : SPONTANEOUS POTENTIAL [BASELINE 0 MV, SPRED]
SRESWS  .OHMM  : SHALLOW RESISTIVITY [TOP SFLUED 8692' SFLED]
TENRED  .LBF   : TENSION FROM DIL-SFL-GR <8692'> PI-SFL-DENSITY-NEUTRON-GR LOG
~Params ----------------------------------------------------
PD  .                     GL : PERMANENT DATUM
EPD .F                   381 : ELEVATION PERMANENT DATUM
LMF .                    RKB : LOG MEASURED FROM
DAPD.F                    25 : FEET ABOVE PERMANENT DATUM
DMF .                    RKB : DRILLING MEASURED FROM
EKB .F                   406 : KELLING BUSHING
EDF .F                   405 : DRILLING FLOOR
EGL .F                   381 : GROUND LEVEL
DATE.               09/03/91 : RUN DATE
RUN .                      2 : RUN NUMBER
DD  .F                  9445 : DEPTH DRILLER
DL  .F                  9442 : DEPTH LOGGER
BLI .F                  9436 : BOTTOM LOG INTERVAL
TLI .F                  8692 : TOP LOG INTERVAL
CS  .IN                7.625 : CASING SIZE
CBD .F                  8700 : CASING BOTTOM DRILLER
CBL .F                  8692 : CASING BOTTOM LOGGER
BS  .IN                 6.75 : BIT SIZE
BSD .F                  9445 : BIT SIZE AT DEPTH
DFT .             GEL  BENEX : DRILLING FLUID TYPE
DFD .                    9.5 : DRILLING FLUID DENSITY
DFV .                     39 : DRILLING FLUID VISCOSITY
DFPH.                      7 : DRILLING FLUID PH
DFL .                     10 : DRILLING FLUID LOSS
MSS .                MUD PIT : MUD SAMPLE SOURCE
RMS .OHMM               2.07 : RESISTIVITY MUD SAMPLE
MST .F                    75 : MUD SAMPLE TEMPERATURE
RMF .OHMM               1.68 : RESISTIVITY MUD FILTRATE SAMPLE
MFST.F                    75 : MUD FILTRATE SAMPLE TEMPERATURE
RMC .OHMM               2.48 : RESISTIVITY MUD CAKE
MCST.F                    75 : MUD CAKE SAMPLE TEMPERATURE
MFSS.                   MEAS : MUD FILTRATE SAMPLE SOURCE
MCSS.                   CALC : MUD CAKE SAMPLE SOURCE
RMB .OHMM              0.781 : RESISTIVITY MUD AT BHT
TCS .HRS                1400 : TIME CURCULATED STOPPED
TLAB.HRS                1800 : TIME LOGGER AT BOTTOM
LUN .                   2908 : LOGGING UNIT NUMBER
LUL .                  LIBER : LOGGING UNIT LOCATION
ENGI.        RILEY  HAMILTON : RECORDING ENGINEER
WITN.                SCHULZE : WITNESSED BY
CLNT.                A2DTECH : CLIENT CODE
ORIG.               5" PRINT : ORIGIN OF DATA
UWI .         42149324840000 : UNIQUE WELL ID
DICO. A2D Technologies, Inc. : DIGITIZING COMPANY
~Other -----------------------------------------------------
DIL-PI-SFL-DENSITY-NEUTRON-GR LOG RUN
~ASCII -----------------------------------------------------
# ...
 6100.00000    -999.25  473.57450    -999.25    -999.25    -999.25    -999.25    -999.25    2.11160    -999.25   95.50050   95.50050    -999.25    2.11160    2.18290    -999.25    2.18290    -999.25    -999.25    -999.25    2.48730  -37.01070   -8.53230    2.48730 2236.07690
 6150.00000    -999.25  502.31060    -999.25    -999.25    -999.25    -999.25    -999.25    1.99080    -999.25  101.20550  101.20550    -999.25    1.99080    2.02780    -999.25    2.02780    -999.25    -999.25    -999.25    2.32690  -34.13980   -7.59280    2.32690 2218.33590
 6200.00000    -999.25  581.26020    -999.25    -999.25    -999.25    -999.25    -999.25    1.72040    -999.25  105.31150  105.31150    -999.25    1.72040    1.79900    -999.25    1.79900    -999.25    -999.25    -999.25    1.95810  -33.47590   -7.74010    1.95810 2203.08500
 6250.00000    -999.25  466.63560    -999.25    -999.25    -999.25    -999.25    -999.25    2.14300    -999.25   96.09570   96.09570    -999.25    2.14300    2.15870    -999.25    2.15870    -999.25    -999.25    -999.25    2.48480  -30.00420   -4.26840    2.48480 2291.12400
 6300.00000    -999.25  561.23020    -999.25    -999.25    -999.25    -999.25    -999.25    1.78180    -999.25  104.93220  104.93220    -999.25    1.78180    1.82190    -999.25    1.82190    -999.25    -999.25    -999.25    2.03080  -32.77150   -7.03570    2.03080 2292.24710
 6350.00000    -999.25  674.53630    -999.25    -999.25    -999.25    -999.25    -999.25    1.48250    -999.25  102.30890  102.30890    -999.25    1.48250    1.51490    -999.25    1.51490    -999.25    -999.25    -999.25    1.71830  -34.71070   -8.97490    1.71830 2292.24710
 6400.00000    -999.25  646.16180    -999.25    -999.25    -999.25    -999.25    -999.25    1.54760    -999.25  100.18480  100.18480    -999.25    1.54760    1.59050    -999.25    1.59050    -999.25    -999.25    -999.25    1.81560  -33.35860   -7.08430    1.81560 2329.35210
 6450.00000    -999.25  713.21590    -999.25    -999.25    -999.25    -999.25    -999.25    1.40210    -999.25  103.80370  103.80370    -999.25    1.40210    1.45700    -999.25    1.45700    -999.25    -999.25    -999.25    1.72050  -34.37910   -6.98290    1.72050 2315.94600
 6500.00000    -999.25  737.19130    -999.25    -999.25    -999.25    -999.25    -999.25    1.35650    -999.25  101.77560  101.77560    -999.25    1.35650    1.40190    -999.25    1.40190    -999.25    -999.25    -999.25    1.65100  -32.78350   -4.26550    1.65100 2348.17600
 6550.00000    -999.25  624.92190    -999.25    -999.25    -999.25    -999.25    -999.25    1.60020    -999.25   82.83240   82.83240    -999.25    1.60020    1.67120    -999.25    1.67120    -999.25    -999.25    -999.25    2.67350  -42.87030  -13.54010    2.67350 2442.03490
 6600.00000    -999.25  695.16860    -999.25    -999.25    -999.25    -999.25    -999.25    1.43850    -999.25   98.50880   98.50880    -999.25    1.43850    1.47400    -999.25    1.47400    -999.25    -999.25    -999.25    1.52420  -44.03760  -14.55320    1.52420 2430.39890
 6650.00000    -999.25  779.90950    -999.25    -999.25    -999.25    -999.25    -999.25    1.28220    -999.25   95.68420   95.68420    -999.25    1.28220    1.31390    -999.25    1.31390    -999.25    -999.25    -999.25    1.50680  -46.67820  -17.03970    1.50680 2407.17210
 6700.00000    -999.25  732.33250    -999.25    -999.25    -999.25    -999.25    -999.25    1.36550    -999.25   88.78280   88.78280    -999.25    1.36550    1.41080    -999.25    1.41080    -999.25    -999.25    -999.25    1.59030  -45.69290  -15.90020    1.59030 2383.73900
 6750.00000    -999.25  928.41890    -999.25    -999.25    -999.25    -999.25    -999.25    1.07710    -999.25   84.97260   84.97260    -999.25    1.07710    1.13970    -999.25    1.13970    -999.25    -999.25    -999.25    1.32330  -35.30980   -5.36300    1.32330 2371.76900
 6800.00000    -999.25  772.37970    -999.25    -999.25    -999.25    -999.25    -999.25    1.29470    -999.25   74.44190   74.44190    -999.25    1.29470    1.35900    -999.25    1.35900    -999.25    -999.25    -999.25    1.65590  -35.11720   -5.01620    1.65590 2371.76900
 6850.00000    -999.25  676.36120    -999.25    -999.25    -999.25    -999.25    -999.25    1.47850    -999.25   81.74900   81.74900    -999.25    1.47850    1.53170    -999.25    1.53170    -999.25    -999.25    -999.25    1.68280  -39.07750   -8.61740    1.68280 2371.76900
 6900.00000    -999.25  803.47100    -999.25    -999.25    -999.25    -999.25    -999.25    1.24460    -999.25   93.31860   93.31860    -999.25    1.24460    1.29240    -999.25    1.29240    -999.25    -999.25    -999.25    1.46920  -42.75860  -11.78470    1.46920 2390.93410
 6950.00000    -999.25  900.33310    -999.25    -999.25    -999.25    -999.25    -999.25    1.11070    -999.25   82.60250   82.60250    -999.25    1.11070    1.17740    -999.25    1.17740    -999.25    -999.25    -999.25    1.44230  -45.75910  -14.27140    1.44230 2431.90500
 7000.00000    -999.25  693.38510    -999.25    -999.25    -999.25    -999.25    -999.25    1.44220    -999.25   86.33870   86.33870    -999.25    1.44220    1.50380    -999.25    1.50380    -999.25    -999.25    -999.25    2.12340  -39.06050   -7.05900    2.12340 2472.87600
 7050.00000    -999.25  703.03710    -999.25    -999.25    -999.25    -999.25    -999.25    1.42240    -999.25   81.42300   81.42300    -999.25    1.42240    1.46750    -999.25    1.46750    -999.25    -999.25    -999.25    1.73350  -51.28130  -18.76610    1.73350 2501.84200
 7100.00000    -999.25  825.55930    -999.25    -999.25    -999.25    -999.25    -999.25    1.21130    -999.25   89.38520   89.38520    -999.25    1.21130    1.29320    -999.25    1.29320    -999.25    -999.25    -999.25    1.43550  -38.61720   -5.58820    1.43550 2521.23390
 7150.00000    -999.25  709.27020    -999.25    -999.25    -999.25    -999.25    -999.25    1.40990    -999.25   77.25580   77.25580    -999.25    1.40990    1.43990    -999.25    1.43990    -999.25    -999.25    -999.25    1.64280  -41.71110   -8.16830    1.64280 2538.50200
 7200.00000    -999.25  989.41330    -999.25    -999.25    -999.25    -999.25    -999.25    1.01070    -999.25   94.09580   94.09580    -999.25    1.01070    1.09580    -999.25    1.09580    -999.25    -999.25    -999.25    1.38150  -41.20440   -8.02220    1.38150 2553.69800
 7250.00000    -999.25  803.47100    -999.25    -999.25    -999.25    -999.25    -999.25    1.24460    -999.25   83.21220   83.21220    -999.25    1.24460    1.32310    -999.25    1.32310    -999.25    -999.25    -999.25    1.58950  -46.92090  -14.53010    1.58950 2568.89310
 7300.00000    -999.25  928.24650    -999.25    -999.25    -999.25    -999.25    -999.25    1.07730    -999.25   82.01570   82.01570    -999.25    1.07730    1.12230    -999.25    1.12230    -999.25    -999.25    -999.25    1.42790  -40.25240   -8.65290    1.42790 2584.75710
 7350.00000    -999.25  834.23710    -999.25    -999.25    -999.25    -999.25    -999.25    1.19870    -999.25   88.52850   88.52850    -999.25    1.19870    1.27880    -999.25    1.27880    -999.25    -999.25    -999.25    1.62350  -47.60760  -16.79940    1.62350 2600.70410
 7400.00000    -999.25  765.52090    -999.25    -999.25    -999.25    -999.25    -999.25    1.30630    -999.25   87.73170   87.73170    -999.25    1.30630    1.34960    -999.25    1.34960    -999.25    -999.25    -999.25    1.62570  -42.34170  -12.32480    1.62570 2610.33790
 7450.00000    -999.25  524.32890    -999.25    -999.25    -999.25    -999.25    -999.25    1.90720    -999.25   90.68720   90.68720    -999.25    1.90720    2.00530    -999.25    2.00530    -999.25    -999.25    -999.25    2.18790  -35.68580   -6.46020    2.18790 2610.33790
 7500.00000    -999.25  793.65080    -999.25    -999.25    -999.25    -999.25    -999.25    1.26000    -999.25  111.51640  111.51640    -999.25    1.26000    1.34690    -999.25    1.34690    -999.25    -999.25    -999.25    1.50200  -32.86740   -4.43320    1.50200 2599.59790
