~Version ---------------------------------------------------
VERS.      2.0 : CWLS log ASCII Standard -VERSION 2.0
WRAP.      YES : Multiple lines per depth step
CREA. 03/04/13 : LAS Creation Date
~Well ------------------------------------------------------
STRT.FT                 1400.0 : START DEPTH
STOP.FT                10150.0 : STOP DEPTH
STEP.FT               50.00000 : STEP LENGTH
NULL.                  -999.25 : NULL VALUE
COMP.     TXO PRODUCTION CORP. : COMPANY
WELL.               GUEST A #1 : WELL
FLD .               BEAR GRASS : FIELD
LOC .                          : LOCATION
CNTY.                     LEON : COUNTY
STAT.                    TEXAS : STATE
CTRY. UNITED STATES OF AMERICA : COUNTRY
SRVC.            Dresser Atlas : SERVICE COMPANY
DATE.              30-Oct-1981 : LOGDATE
API .           42289304700000 : API NUMBER
UWI .           42289304700000 : UNIQUE WELL ID
SLAT.WGS84        31.355337108 : SURFACE LATITUDE
SLON.WGS84       -96.287476523 : SURFACE LONGITUDE
~Curve Information -----------------------------------------
DEPT    .FT    : DEPTH FEET
ACED    .US/F  : ACOUSTIC FROM SONIC LOG
CALDED  .IN    : CALIPER FROM DENSITY LOG
CALSED  .IN    : CALIPER FROM SONIC LOG [ADJ. TO CALDED]
CALWS   .IN    : CALIPER [CALSED]
CNLSED  .V/V   : COMPENSATED NEUTRON POROSITY LIME FROM DENSITY LOG
CONDWS  .MMHO  : CONDUCTIVITY [1000/DRESWS]
CORRED  .G/C3  : DENSITY CORRECTION FROM DENSITY LOG
DCORWS  .G/C3  : DENSITY CORRECTION [CORRED]
DENED   .G/C3  : COMPENSATED BULK DENSITY FROM DENSITY LOG
DENWS   .G/C3  : FORMATION BULK DENSITY [DENED]
DPOWS   .V/V   : DENSITY POROSITY LIME [PORDLSED]
DRESWS  .OHMM  : DEEP RESISTIVITY [RILDED]
DTWS    .US/F  : COMPRESSIONAL SONIC [ACED]
GR1ED   .GAPI  : GAMMA RAY FROM CBL LOG [ADJ. TO GRDED]
GRDED   .GAPI  : GAMMA RAY FROM DENSITY LOG
GRED    .GAPI  : GAMMA RAY FROM CBL LOG [ADJ. TO GRDED]
GRSED   .GAPI  : GAMMA RAY FROM SONIC LOG [ADJ. TO GRDED]
GRWS    .GAPI  : GAMMA RAY [GRED SPL. TO GRDED 2138'- 2296' & 10100.5-10122']
MRESWS  .OHMM  : MEDIUM RESISTIVITY [RILMED]
NPOWS   .V/V   : NEUTRON POROSITY LIME [CNLSED]
PORDLSED.V/V   : DENSITY POROSITY LIME [M=2.71, F=1.0] FROM DENSITY LOG
RFOCED  .OHMM  : SHALLOW FOCUSED RESISTIVITY FROM RESISTIVITY LOG
RILDED  .OHMM  : DEEP INDUCTION RESISTIVITY FROM RESISTIVITY LOG
RILMED  .OHMM  : MEDIUM INDUCTION RESISTIVITY FROM RESISITIVITY LOG
SPRED   .MV    : SPONTANEOUS POTENTIAL FROM RESISTIVITY LOG
SPSED   .MV    : SPONTANEOUS POTENTIAL FROM SONIC LOG [ADJ. TO SPRED]
SPWS    .MV    : SPONATNEOUS POTENTIAL [BASELINE 0 MV, SPRED]
SRESWS  .OHMM  : SHALLOW RESISTIVITY [RFOCED]
TENDED  .LBF   : TENSION FROM DENSITY LOG
TENRED  .LBF   : TENSION FROM RESISTIVITY LOG
TENSED  .LBF   : TENSION FROM SONIC LOG
~Params ----------------------------------------------------
PD  .                     GL : PERMANENT DATUM
EPD .FT                  418 : ELEVATION PERMANENT DATUM
LMF .                     KB : LOG MEASURED FROM
DAPD.FT                   23 : FEET ABOVE PERMANENT DATUM
DMF .                     KB : DRILLING MEASURED FROM
EKB .FT                  441 : KELLY BUSHING
EDF .FT                  440 : DRILLING FLOOR
EGL .FT                  418 : GROUND LEVEL
DATE.               10/30/81 : RUN DATE
RUN .                      2 : RUN NUMBER
DD  .FT                10174 : DEPTH DRILLER
DL  .FT                10156 : DEPTH LOGGER
BLI .FT                10154 : BOTTOM LOG INTERVAL
TLI .FT                 9800 : TOP LOG INTERVAL
CS  .IN                8.625 : CASING SIZE
CBD .FT                 1350 : CASING BOTTOM DRILLER
BS  .IN                7.875 : BIT SIZE
BSD .FT                10174 : BIT SIZE AT DEPTH
DFT .                  LIGNO : DRILLING FLUID TYPE
DFD .                     10 : DRILLING FLUID DENSITY
DFPH.                     10 : DRILLING FLUID PH
DFL .                   10.5 : DRILLING FLUID LOSS
MSS .               FLOWLINE : MUD SAMPLE SOURCE
RMS .OHMM               1.48 : RESISTIVITY MUD SAMPLE
MST .DEGF                 90 : MUD SAMPLE TEMPERATURE
RMF .OHMM               1.11 : RESISTIVITY MUD FILTRATE SAMPLE
MFST.DEGF                 90 : MUD FILTRATE SAMPLE TEMPERATURE
RMC .OHMM               1.85 : RESISTIVITY MUD CAKE
MCST.DEGF                 90 : MUD CAKE SAMPLE TEMPERATURE
MFSS.                      C : MUD FILTRATE SAMPLE SOURCE
MCSS.                      C : MUD CAKE SAMPLE SOURCE
RMB .OHMM               0.51 : RESISTIVITY MUD AT BHT
TCS .HRS                 600 : TIME CIRCULATED STOPPED
LUN .                   6335 : LOGGING UNIT NUMBER
LUL .                  TYLER : LOGGING UNIT LOCATION
ENGI.                  BANKS : RECORDING ENGINEER
WITN.                  WYNNE : WITNESSED BY
CLNT.                A2DTECH : CLIENT CODE
ORIG.            2" 5" PRINT : ORIGIN OF DATA
UWI .         42289304700000 : UNIQUE WELL ID
DICO. A2D Technologies, Inc. : DIGITIZING COMPANY
~Other -----------------------------------------------------
TOOL RUN: CBL-DIL-SFL-CNFD-SONIC
~ASCII -----------------------------------------------------
# ...
 7150.00000   63.74350   11.17510   10.65400   10.65400    0.04960   97.84830   -0.04300   -0.04300    2.64720    2.64720    0.03550   10.21990   63.74350    -999.25   66.79760    -999.25   53.46240   66.79760   11.21300    0.04960    0.03550   13.52240   10.21990   11.21300  -66.68740  -45.77420   -6.51860   13.52240    0.62910   -1.97930    0.40840
 7200.00000   55.85300   11.63520   10.94610   10.94610    0.16730  371.16770   -0.08950   -0.08950    2.05060    2.05060    0.38440    2.69420   55.85300    -999.25   66.28620    -999.25   58.32260   66.28620    2.66700    0.16730    0.38440    7.86010    2.69420    2.66700  -65.80180  -42.54230   -5.97400    7.86010   -7.53590    0.52340   -4.23790
 7250.00000   65.40680   11.12860   11.31140   11.31140    0.12280  209.89440   -0.03840   -0.03840    2.65380    2.65380    0.03120    4.76430   65.40680    -999.25   80.67980    -999.25   60.90780   80.67980    5.07250    0.12280    0.03120    5.95140    4.76430    5.07250  -61.64900  -39.07570   -2.16210    5.95140    1.31630    1.72840   21.24550
 7300.00000   60.22180   11.75050   11.56010   11.56010    0.09730  199.23490   -0.06230   -0.06230    2.44560    2.44560    0.15760    5.01920   60.22180    -999.25   53.94060    -999.25   47.95930   53.94060    5.32880    0.09730    0.15760    6.67300    5.01920    5.32880  -63.75410  -41.55580   -4.60820    6.67300   -4.85290    5.59610    1.09410
 7350.00000   57.21290   10.76510   10.42650   10.42650    0.04980   87.17560   -0.01870   -0.01870    2.68300    2.68300    0.01470   11.47110   57.21290    -999.25   67.39570    -999.25   52.54060   67.39570   11.37590    0.04980    0.01470   10.37110   11.47110   11.37590  -64.50470  -41.86320   -5.69970   10.37110   -7.14090    6.00660    2.41610
 7400.00000   65.54480   10.58740   10.48900   10.48900    0.03340   63.32520   -0.02110   -0.02110    2.67910    2.67910    0.01720   15.79150   65.54480    -999.25   61.10370    -999.25   48.03490   61.10370   22.06320    0.03340    0.01720   14.22750   15.79150   22.06320  -61.01320  -45.18300   -2.54920   14.22750   -5.45910    2.22480    4.15250
 7450.00000   57.39740   10.54710   10.11280   10.11280    0.02570  103.82920   -0.05020   -0.05020    2.68280    2.68280    0.01480    9.63120   57.39740    -999.25   47.94370    -999.25   33.01030   47.94370   16.37550    0.02570    0.01480   41.79720    9.63120   16.37550  -61.81920  -40.65010   -3.69620   41.79720    2.91030   -0.38720    5.47580
 7500.00000   54.10500   10.52320    9.99990    9.99990    0.02620   42.45440   -0.04830   -0.04830    2.62040    2.62040    0.05470   23.55470   54.10500    -999.25   34.97830    -999.25   26.19310   34.97830   22.52970    0.02620    0.05470   29.69480   23.55470   22.52970  -88.16890  -73.33240  -30.38680   29.69480    0.10490    2.27150    1.84950
 7550.00000   48.06480   10.02750    9.79580    9.79580    0.03840   47.90170   -0.03190   -0.03190    2.64800    2.64800    0.03240   20.87610   48.06480    -999.25   40.44870    -999.25   31.52060   40.44870   14.97220    0.03840    0.03240   27.12790   20.87610   14.97220  -62.06810  -42.02040   -4.62590   27.12790    2.78260    2.92970   -8.52480
 7600.00000   59.00460   13.69990   13.44660   13.44660    0.27230  596.55190    0.17460    0.17460    2.00030    2.00030    0.51560    1.67630   59.00460    -999.25   79.05460    -999.25   65.05350   79.05460    1.69330    0.27230    0.51560    4.00540    1.67630    1.69330  -60.75480  -39.11940   -3.65130    4.00540    7.72930    7.70620   -7.36710
 7650.00000   58.64790    9.79300   10.12450   10.12450    0.06980  106.55190    0.02890    0.02890    2.58790    2.58790    0.06950    9.38510   58.64790    -999.25   50.52010    -999.25   38.94590   50.52010    9.86800    0.06980    0.06950   11.82080    9.38510    9.86800  -61.61270  -44.34600   -4.84790   11.82080    6.46480    1.24030   -4.44000
 7700.00000   71.34280   10.76640   10.82630   10.82630    0.11500  266.42510    0.08850    0.08850    2.28490    2.28490    0.24870    3.75340   71.34280   38.69610   61.62550    -999.25   52.05750   61.62550    4.43960    0.11500    0.24870    3.95540    3.75340    4.43960  -60.26830  -43.25060   -3.84220    3.95540   -3.75130    1.99610    0.07980
 7750.00000   61.57020   10.49400   10.07280   10.07280    0.04880   88.46270    0.00540    0.00540    2.69020    2.69020    0.01060   11.30420   61.57020   30.25410   50.19260   35.71740   37.73540   50.19260   10.61770    0.04880    0.01060   13.09510   11.30420   10.61770  -62.70760  -43.66300   -6.62020   13.09510   -3.34250    6.17330    7.11020
 7800.00000   54.18040   10.08990   10.09740   10.09740    0.02240   22.58000   -0.02890   -0.02890    2.69840    2.69840    0.00570   44.28700   54.18040   49.39480   50.61060   50.19020   40.45390   50.61060   49.27810    0.02240    0.00570   36.17880   44.28700   49.27810  -71.73790  -59.15810  -12.65940   36.17880   -8.87580   14.31080   -1.99440
 7850.00000   51.95130   10.21290   10.14010   10.14010    0.04420   57.25020   -0.00350   -0.00350    2.67000    2.67000    0.02310   17.46720   51.95130   41.43210   45.20500   43.03590   33.35760   45.20500   17.94120    0.04420    0.02310   18.56420   17.46720   17.94120  -65.97520  -48.54910   -9.43250   18.56420    0.17360    3.68830   -4.56560
 7900.00000   56.61880   10.29870   10.34690   10.34690    0.05480   51.44720    0.03410    0.03410    2.59710    2.59710    0.05790   19.43740   56.61880   39.22810   43.20880   38.91400   34.60320   43.20880   29.30500    0.05480    0.05790   39.77480   19.43740   29.30500 -111.80300  -78.58200  -57.79610   39.77480    4.27340    8.75410   -4.66250
 7950.00000   50.02440   10.66350   10.20250   10.20250    0.01720   11.50250   -0.04820   -0.04820    2.68280    2.68280    0.01480   86.93740   50.02440   36.65960   41.02010   39.51100   32.90030   41.02010  140.82140    0.01720    0.01480   87.23870   86.93740  140.82140  -74.58460  -70.52130  -23.11360   87.23870    3.38280    3.03340   10.40810
 8000.00000   53.87000   10.44210   10.14060   10.14060    0.01200   32.89990   -0.11580   -0.11580    2.80250    2.80250   -0.05110   30.39520   53.87000   29.25530   41.65650   30.34440   37.97620   41.65650   24.97130    0.01200   -0.05110   82.00100   30.39520   24.97130  -62.47370  -57.92840  -13.53850   82.00100   -5.83500    5.88410    5.62970
 8050.00000   67.00410   10.77230   10.14350   10.14350    0.05260  128.24790   -0.01990   -0.01990    2.66120    2.66120    0.02730    7.79740   67.00410   60.14260   62.43240   54.07350   52.57510   62.43240    9.48720    0.05260    0.02730    9.31520    7.79740    9.48720  -47.13000  -33.36740   -0.73060    9.31520   -2.07960   -7.77940   -6.51090
 8100.00000   50.83070   11.12030   10.24240   10.24240    0.02430   22.67110    0.01270    0.01270    2.68730    2.68730    0.00950   44.10910   50.83070   31.25790   37.16860   33.45320   31.00000   37.16860   36.54170    0.02430    0.00950   41.68370   44.10910   36.54170  -80.66400  -64.26630  -36.21270   41.68370   10.38240   -1.29920   -2.70310
 8150.00000   60.77140   10.37290   10.05320   10.05320    0.04470  192.91610    0.04550    0.04550    2.60730    2.60730    0.05280    5.18360   60.77140   20.12980   27.89220   43.21170   26.05260   27.89220    7.90510    0.04470    0.05280   19.93560    5.18360    7.90510 -167.23400 -147.36500 -124.04090   19.93560   -0.09910   -2.05760    5.61140
 8200.00000   50.69560   10.32500   10.04270   10.04270    0.01510   28.66750    0.18380    0.18380    2.60470    2.60470    0.06140   34.88270   50.69560   25.81450   26.60370   34.66210   25.35000   26.60370   32.59270    0.01510    0.06140   39.03450   34.88270   32.59270 -110.09180 -119.50610  -68.15680   39.03450    2.80940    1.17270   -2.04100
 8250.00000   58.42560   10.39570   10.39560   10.39560    0.07620  127.04870   -0.04620   -0.04620    2.70150    2.70150    0.00170    7.87100   58.42560   27.86620   53.00600   45.72790   44.84500   53.00600    8.39660    0.07620    0.00170   10.86550    7.87100    8.39660  -45.59010  -32.40810   -4.91330   10.86550    8.90610    8.47030   -2.77510
