~Version ---------------------------------------------------
VERS. 2.0 : CWLS log ASCII Standard -VERSION 2.0
WRAP. YES : MULTIPLE LINES PER DEPTH STEP
~Well ------------------------------------------------------
STRT.FT                  2000.0 : START DEPTH
STOP.FT                  6400.0 : STOP DEPTH
STEP.FT                50.00000 : STEP LENGTH
NULL.                   -999.25 : NULL VALUE
COMP. EVERGREEN OIL CORPORATION : COMPANY
WELL.        D. B. LITTLETON #1 : WELL
FLD .                      COST : FIELD
LOC .                           : LOCATION
CNTY.                  GONZALES : COUNTY
STAT.                     TEXAS : STATE
CTRY.  UNITED STATES OF AMERICA : COUNTRY
SRVC.              Schlumberger : SERVICE COMPANY
DATE.               22-Feb-1981 : LOGDATE
API .            42177308270000 : API NUMBER
UWI .            42177308270000 : UNIQUE WELL ID
SLAT.WGS84         29.469226813 : SURFACE LATITUDE
SLON.WGS84       -97.5735228913 : SURFACE LONGITUDE
~Curve Information -----------------------------------------
DEPT    .FT    : DEPTH FEET
CALRED  .IN    : CALIPER FROM RESISTIVITY LOG
CALWS   .IN    : CALIPER [DCALED+BITED]
CONDWS  .MMHO  : CONDUCTIVITY [1000/DRESWS]
DCALED  .IN    : DIFFERENTIAL CALIPER FROM DENSITY LOG
DCORWS  .G/C3  : DENSITY CORRECTION [DRHOED]
DENWS   .G/C3  : BULK DENSITY [M=2.68 F=1.0] [CALCULATED FROM DPOWS]
DPHISSED.V/V   : DENSITY POROSITY [M=2.68 F=1.0] FROM DENSITY LOG
DPOWS   .V/V   : DENSITY POROSITY [M=2.68 F=1.0] [DPHISSED]
DRESWS  .OHMM  : DEEP RESISTIVITY [ILDED]
DRHOED  .G/C3  : DENSITY CORRECTION FROM DENSITY LOG
GRRED   .GAPI  : GAMMA RAY FROM RESISTIVITY LOG
GRWS    .GAPI  : GAMMA RAY [GRRED]
ILDED   .OHMM  : INDUCTION LOG DEEP RESISTIVITY
ILMED   .OHMM  : INDUCTION LOG MEDIUM RESISTIVITY
MRESWS  .OHMM  : MEDIUM RESISTIVITY [ILMED]
NPHISSED.V/V   : NEUTRON POROSITY SANDSTONE FROM DENSITY LOG
NPOWS   .V/V   : NEUTRON POROSITY SANDSTONE [NPHISSED]
SFLUED  .OHMM  : SPHERICALLY FOCUSED LOG RESISTIVITY
SPRED   .MV    : SPONTANEOUS POTENTIAL FROM RESISTIVITY LOG
SPWS    .MV    : SPONTANEOUS POTENTIAL [BASELINE 0 MV] [SPRED]
SRESWS  .OHMM  : SHALLOW RESISTIVITY [SFLUED]
TENRED  .LBF   : TENSION FROM RESISTIVITY LOG
~Params ----------------------------------------------------
PD  .                     GL : PERMANENT DATUM
EPD .FT                  387 : ELEVATION PERMANENT DATUM
LMF .                     KB : LOG MEASURED FROM
DAPD.FT                   12 : FEET ABOVE PERMANENT DATUM
DMF .                     KB : DRILLING MEASURED FROM
EKB .FT                  399 : KELLY BUSHING
EDF .FT                  398 : DRILLING FLOOR
EGL .FT                  387 : GROUND LEVEL
DATE.               02/22/81 : RUN DATE
RUN .                      1 : RUN NUMBER
DD  .FT                 6394 : DEPTH DRILLER
DL  .FT                 6394 : DEPTH LOGGER
BLI .FT                 6384 : BOTTOM LOG INTERVAL
TLI .FT                 2069 : TOP LOG INTERVAL
CS  .IN                8.625 : CASING SIZE
CBD .FT                 2067 : CASING BOTTOM DRILLER
CBL .FT                 2069 : CASING BOTTOM LOGGER
BS  .IN                7.875 : BIT SIZE
BSD .FT                 6394 : BIT SIZE AT DEPTH
DFT .   POLYMER ASTROUISIC V : DRILLING FLUID TYPE
DFD .                    9.2 : DRILLING FLUID DENSITY
DFV .                     35 : DRILLING FLUID VISCOSITY
DFPH.                    9.7 : DRILLING FLUID PH
DFL .                    8.6 : DRILLING FLUID LOSS
MSS .               CIRC PIT : MUD SAMPLE SOURCE
RMS .OHMM               2.31 : RESISTIVITY MUD SAMPLE
MST .DEGF                 94 : MUD SAMPLE TEMPERATURE
RMF .OHMM                2.4 : RESISTIVITY MUD FILTRATE SAMPLE
MFST.DEGF                 72 : MUD FILTRATE SAMPLE TEMPERATURE
RMC .OHMM               3.46 : RESISTIVITY MUD CAKE
MCST.DEGF                 94 : MUD CAKE SAMPLE TEMPERATURE
MFSS.                      M : MUD FILTRATE SAMPLE SOURCE
MCSS.                      C : MUD CAKE SAMPLE SOURCE
RMB .OHMM               1.09 : RESISTIVITY MUD AT BHT
TCS .HRS                2000 : TIME CIRCULATED STOPPED
TLAB.HRS                 100 : TIME LOGGER AT BOTTOM
LUN .                   8011 : LOGGING UNIT NUMBER
LUL .               VICTORIA : LOGGING UNIT LOCATION
ENGI.                   SHEA : RECORDING ENGINEER
WITN.                  EVANS : WITNESSED BY
CLNT.                A2DTECH : CLIENT CODE
ORIG.        0.5" 2.5" PRINT : ORIGIN OF DATA
UWI .         42177308270000 : UNIQUE WELL ID
DICO. A2D Technologies, Inc. : DIGITIZING COMPANY
~Other -----------------------------------------------------
~ASCII -----------------------------------------------------
 2000.00000    -999.25    -999.25    -999.25    -999.25    -999.25    -999.25    -999.25    -999.25    -999.25    -999.25   59.80590    -999.25    -999.25    -999.25    -999.25    0.60040    -999.25    -999.25    -999.25    -999.25    -999.25    -999.25
 2050.00000    -999.25    -999.25    -999.25    -999.25    -999.25    -999.25    -999.25    -999.25    -999.25    -999.25   67.82800    -999.25    -999.25    -999.25    -999.25    0.49770    -999.25    -999.25    -999.25    -999.25    -999.25    -999.25
 2100.00000    -999.25    9.26590  123.91420    1.39090    0.01490    2.12070    0.33290    0.33290    8.07010    0.01490   55.70760   55.70760    8.07010    8.11440    8.11440    0.42080    0.42080    8.95440   -6.03510   -7.92750    8.95440 1388.47910
 2150.00000    -999.25    9.90780  196.54090    2.03280    0.00850    2.18980    0.29180    0.29180    5.08800    0.00850   75.06240   75.06240    5.08800    4.69620    4.69620    0.42970    0.42970    5.49010   -3.42640   -5.74180    5.49010 1322.62710
 2200.00000    -999.25   10.80520  344.26960    2.93020    0.04330    2.10490    0.34230    0.34230    2.90470    0.04330   81.13280   81.13280    2.90470    2.69120    2.69120    0.48770    0.48770    2.65360    1.41820   -1.32010    2.65360 1351.01450
 2250.00000    -999.25   11.17750  234.62060    3.30250    0.02250    2.23900    0.26250    0.26250    4.26220    0.02250   87.99120   87.99120    4.26220    4.36180    4.36180    0.43300    0.43300    4.64530   -1.50240   -4.60530    4.64530 1366.86320
 2300.00000    -999.25    9.09500  160.40810    1.22000    0.01180    2.18740    0.29320    0.29320    6.23410    0.01180   87.38510   87.38510    6.23410    6.43580    6.43580    0.40670    0.40670    6.50910   -3.18180   -6.17720    6.50910 1387.54760
 2350.00000    -999.25    8.48650   78.16410    0.61150   -0.00930    2.46980    0.12510    0.12510   12.79360   -0.00930   54.99190   54.99190   12.79360   13.78790   13.78790    0.19570    0.19570   16.39830   -4.59110   -7.47890   16.39830 1393.82760
 2400.00000    -999.25    9.07280  104.66710    1.19780    0.01420    2.13270    0.32580    0.32580    9.55410    0.01420   59.10820   59.10820    9.55410    9.88160    9.88160    0.41180    0.41180    9.78310   -4.53630   -7.35640    9.78310 1419.65000
 2450.00000    -999.25    9.47170  190.36740    1.59670    0.01760    2.20810    0.28090    0.28090    5.25300    0.01760   87.94160   87.94160    5.25300    5.35280    5.35280    0.40230    0.40230    5.54480  -18.69410  -21.47670    5.54480 1442.93520
 2500.00000    -999.25    9.98950  210.80150    2.11450    0.03580    2.26470    0.24720    0.24720    4.74380    0.03580   86.12280   86.12280    4.74380    4.49220    4.49220    0.38950    0.38950    4.19820  -18.03290  -20.77800    4.19820 1443.72360
 2550.00000    -999.25    9.17950  109.13810    1.30450    0.01870    2.17470    0.30080    0.30080    9.16270    0.01870   66.96700   66.96700    9.16270    7.95930    7.95930    0.40840    0.40840    8.19820  -19.43650  -22.14400    8.19820 1467.14250
 2600.00000    -999.25   13.46260  557.88010    5.58760    0.09550    2.14410    0.31900    0.31900    1.79250    0.09550   74.63660   74.63660    1.79250    1.76950    1.76950    0.56950    0.56950    1.49940  -11.67820  -14.34820    1.49940 1481.18260
 2650.00000    -999.25    8.87060   96.64640    0.99560    0.01540    2.17650    0.29970    0.29970   10.34700    0.01540   44.41430   44.41430   10.34700   10.63010   10.63010    0.35510    0.35510   11.25760  -17.31520  -19.94770   11.25760 1498.45950
 2700.00000    -999.25    9.68810  214.63830    1.81310    0.02870    2.17060    0.30320    0.30320    4.65900    0.02870   55.82770   55.82770    4.65900    4.85140    4.85140    0.38630    0.38630    5.85100  -12.15190  -14.74690    5.85100 1529.70260
 2750.00000    -999.25   10.25530  165.18010    2.38030    0.00720    2.19450    0.28900    0.28900    6.05400    0.00720   59.48220   59.48220    6.05400    5.41910    5.41910    0.36630    0.36630    4.73350  -11.22070  -13.77810    4.73350 1514.17080
 2800.00000    -999.25   10.05370  197.67140    2.17870    0.04860    2.12320    0.33140    0.33140    5.05890    0.04860   51.11400   51.11400    5.05890    4.86390    4.86390    0.40890    0.40890    5.82980   -7.48900  -10.00890    5.82980 1545.18040
 2850.00000    -999.25   10.42920  287.56290    2.55420    0.02890    2.22860    0.26870    0.26870    3.47750    0.02890   62.84990   62.84990    3.47750    3.46720    3.46720    0.43480    0.43480    3.95660   -9.15930  -11.64170    3.95660 1563.35290
 2900.00000    -999.25    9.17330  126.65600    1.29830    0.01600    2.15770    0.31090    0.31090    7.89540    0.01600   51.84750   51.84750    7.89540    7.47030    7.47030    0.40030    0.40030    8.48600  -11.87250  -14.31730    8.48600 1585.86780
 2950.00000    -999.25   10.47280  165.14730    2.59780    0.02030    2.20460    0.28300    0.28300    6.05520    0.02030   61.95780   61.95780    6.05520    5.48450    5.48450    0.37830    0.37830    6.37410   -8.71260  -11.11990    6.37410 1566.33790
 3000.00000    -999.25    8.62430  101.74910    0.74930    0.02540    2.14240    0.32000    0.32000    9.82810    0.02540   47.95350   47.95350    9.82810    9.96740    9.96740    0.35180    0.35180   10.63080  -11.55230  -13.92210   10.63080 1603.94400
 3050.00000    -999.25   10.20680  209.11310    2.33180    0.09690    2.27700    0.23990    0.23990    4.78210    0.09690   58.98450   58.98450    4.78210    4.49470    4.49470    0.37770    0.37770    3.81540   -6.03550   -8.36770    3.81540 1619.33650
 3100.00000    -999.25    9.93120  302.59020    2.05620    0.09980    2.32200    0.21310    0.21310    3.30480    0.09980   78.73110   78.73110    3.30480    3.21610    3.21610    0.38250    0.38250    3.09350   -3.55380   -5.85390    3.09350 1652.05020
 3150.00000    -999.25    7.98250  134.13640    0.10750    0.02220    2.14190    0.32030    0.32030    7.45510    0.02220   44.40900   44.40900    7.45510    7.82350    7.82350    0.38930    0.38930   11.38900   -8.03910  -10.84050   11.38900 1680.85030
 3200.00000    -999.25    7.93910  113.38000    0.06410    0.01810    2.15110    0.31480    0.31480    8.81990    0.01810   52.11470   52.11470    8.81990    8.28240    8.28240    0.40670    0.40670    9.63190   -8.35730  -11.66010    9.63190 1741.72340
 3250.00000    -999.25    7.78610  114.72360   -0.08890    0.04110    2.15480    0.31260    0.31260    8.71660    0.04110   44.27770   44.27770    8.71660    8.81720    8.81720    0.38000    0.38000    9.89730   -8.69080  -12.49490    9.89730 1717.09340
 3300.00000    -999.25    8.09100  102.35100    0.21600    0.01290    2.18140    0.29680    0.29680    9.77030    0.01290   51.17280   51.17280    9.77030    9.45570    9.45570    0.35500    0.35500   10.24210   -7.97110  -12.27650   10.24210 1741.66040
 3350.00000    -999.25    7.68740  112.24480   -0.18760    0.02760    2.18980    0.29180    0.29180    8.90910    0.02760   50.07740   50.07740    8.90910    9.17000    9.17000    0.37280    0.37280   11.07000   -7.87050  -12.67720   11.07000 1676.80750
 3400.00000    -999.25    7.75670  136.79520   -0.11830    0.02660    2.19150    0.29080    0.29080    7.31020    0.02660   57.72170   57.72170    7.31020    7.37640    7.37640    0.38750    0.38750    9.52220   -7.21660  -12.52470    9.52220 1701.21010
 3450.00000    -999.25    7.94570  240.79560    0.07070    0.04180    2.26400    0.24760    0.24760    4.15290    0.04180   85.94150   85.94150    4.15290    4.17670    4.17670    0.41060    0.41060    5.61100   -4.16680  -10.12490    5.61100 1765.74350
 3500.00000    -999.25    9.29230  471.23130    1.41730    0.09840    2.33760    0.20380    0.20380    2.12210    0.09840  101.91980  101.91980    2.12210    2.15470    2.15470    0.43730    0.43730    2.36300    2.91300   -3.86270    2.36300 1739.28250
 3550.00000    -999.25    8.86940  345.92500    0.99440    0.09880    2.38480    0.17570    0.17570    2.89080    0.09880  100.99710  100.99710    2.89080    2.81920    2.81920    0.38910    0.38910    3.20920    4.22890   -3.36440    3.20920 1756.28190
