~Version ---------------------------------------------------
VERS. 2.0 : CWLS log ASCII Standard -VERSION 2.0
WRAP.  NO : ONE LINE PER DEPTH STEP
~Well ------------------------------------------------------
STRT.F                  2500.0 : START DEPTH
STOP.F                 14650.0 : STOP DEPTH
STEP.F                50.00000 : STEP LENGTH
NULL.                  -999.25 : NULL VALUE
COMP.     MARATHON OIL COMPANY : COMPANY
WELL.           BROUNKOWSKI #1 : WELL
FLD .                  WILDCAT : FIELD
LOC .                          : LOCATION
CNTY.                ROBERTSON : COUNTY
STAT.                    TEXAS : STATE
CTRY. UNITED STATES OF AMERICA : COUNTRY
SRVC.             Schlumberger : SERVICE COMPANY
DATE.              02-Oct-1995 : LOGDATE
API .           42395304350000 : API NUMBER
UWI .           42395304350000 : UNIQUE WELL ID
SLAT.WGS84       31.2546896053 : SURFACE LATITUDE
SLON.WGS84      -96.3452160282 : SURFACE LONGITUDE
~Curve Information -----------------------------------------
DEPT.F                 : 
SPR .MV   06 010 01 00 : SPONTANEOUS POTENTIAL
AO20.OHMM 06 120 20 00 : 20-IN. RESISTIVITY, 1-FT RESOLUTION
AO30.OHMM 06 120 30 00 : 30-IN. RESISTIVITY, 1-FT RESOLUTION
AO90.OHMM 06 120 90 00 : 90-IN. RESISTIVITY, 1-FT RESOLUTION
IMPH.OHMM 06 120 44 00 : INDUCTION MEDIUM PHASOR RES.
IDPH.OHMM 06 120 46 00 : INDUCTION DEEP PHASOR RES.
SFLU.OHMM 06 220 01 00 : SPHERICALLY FOCUSED LOG RESISTIVITY
DCAL.IN   06 280 30 00 : DIFFERENTIAL CALIPER
GRR .GAPI 06 310 01 00 : GAMMA RAY
DTLN.US/F 60 523 00 00 : ACOUSTIC TRANSIT TIME, LONG SPACED, NEAR ARRAY
NPHI.DEC  42 890 01 00 : NEUTRON POROSITY LIMESTONE
DPHI.DEC  45 890 10 00 : DENSITY POROSITY LIMESTONE
PEF .B/E  45 358 01 00 : PHOTOELECTRIC FACTOR
DRHO.G/C3 45 356 01 00 : DENSITY CORRECTION
TEND.LB   45 635 01 00 : TENSION FROM DENSITY LOG
AO60.OHMM 06 120 60 00 : 60-IN. RESISTIVITY, 1-FT RESOLUTION
DTLF.US/F 60 523 00 00 : ACOUSTIC TRANSIT TIME, LONG SPACED, FAR ARRAY
~Params ----------------------------------------------------
EKB .F                    414.0 : Kelly bushing
EGL .F                    383.0 : Ground level
EDF .F                    413.0 : Drilling floor
EPD .F                    383.0 : Permanent datum
TD  .F                  14691.0 : Total depth
DATE.               02-OCT-1995 : DATE LOGGED
CLNT.                   A2DTECH : CLIENT CODE
SL  . 17650' FNWL & 22170' FNEL : SURFACE LOCATION
PD  .                        GL : PERMANENT DATUM
LMF .                       RKB : LOG MEASURED FROM
DMF .                       RKB : DRILLING MEASURED FROM
DL  .F                    14691 : DEPTH LOGGER
BLI .F                    14685 : BOTTOM LOG INTERVAL
CS1 .IN                       7 : CASING SIZE
CBD1.                7" @ 3340' : CASING DRILLER 1
BS1 .IN                   5.875 : BIT SIZE
DFT .                   THERMEX : TYPE FLUID IN HOLE
DFD .                      16.7 : DENSITY
DFV .                        44 : VISCOSITY
DFPH.                       9.1 : PH
DFL .                         3 : FLUID LOSS
MSS .                  FLOWLINE : SOURCE OF SAMPLE
RMS .OHMM                 1.665 : RM
RMF .OHMM                 0.856 : RMF
RMC .OHMM                 1.875 : RMC
MFSS.                      MEAS : SOURCE RMF.
MCSS.                      CALC : SOURCE RMC.
RMB .OHMM                 0.494 : RM. AT BHT
BHT .F                      323 : BHT.
TCS .HRS                    200 : TIME CIRC. STOPPED
TLAB.                      1530 : TIME LOGGER AT BOTTOM
LUN .                      2019 : LOGGING UNIT NUMBER
LUL .                     TYLER : LOGGING UNIT LOCATION
ENGI.                   GARDNER : RECORDED BY
WITN.              EICHELBERGER : WITNESSED BY
ORIG.                  5" PRINT : ORIGIN OF DATA
UWI .            42395304350000 : UNIQUE WELL ID
DICO.    A2D TECHNOLOGIES, INC. : DIGITIZING COMPANY
DD  .F                    14706 : Depth driller
TLI .F                    10122 : Top log interval
CBL1.F                    10322 : Casing logger 1
BSD1.F                    14706 : Depth drilled with bit1
~Other -----------------------------------------------------
~ASCII -----------------------------------------------------
# ...
 4550.00000  -38.32200    3.49360    2.88640    2.96100    -999.25    -999.25    -999.25    0.37190   23.52600   81.33130    -999.25    -999.25    -999.25    -999.25    -999.25    2.97160   81.33210
 4600.00000  -38.01520    3.26830    3.23470    3.22610    -999.25    -999.25    -999.25    0.34550   24.54170   83.34370    -999.25    -999.25    -999.25    -999.25    -999.25    3.36650   84.41870
 4650.00000  -36.14960    6.63130    8.07300    7.98730    -999.25    -999.25    -999.25    0.35840   23.15370   75.60290    -999.25    -999.25    -999.25    -999.25    -999.25    4.58740   75.06290
 4700.00000  -37.70190    5.59600    4.05080    4.97190    -999.25    -999.25    -999.25    1.23840   21.11350   79.00930    -999.25    -999.25    -999.25    -999.25    -999.25    4.57950   80.13450
 4750.00000  -39.96310    3.78960    3.34830    3.22580    -999.25    -999.25    -999.25    0.98260   24.39150   79.62850    -999.25    -999.25    -999.25    -999.25    -999.25    3.49270   79.38950
 4800.00000  -38.39010    3.59300    3.50410    2.94510    -999.25    -999.25    -999.25    0.50270   17.61320   75.29280    -999.25    -999.25    -999.25    -999.25    -999.25    3.07400   75.42130
 4850.00000  -35.03270    0.49620    0.70580    0.84190    -999.25    -999.25    -999.25    2.49110   59.58530  131.48980    -999.25    -999.25    -999.25    -999.25    -999.25    0.93110  127.36700
 4900.00000  -35.84290    2.16940    1.90070    2.29890    -999.25    -999.25    -999.25    3.80840   47.24890   95.62370    -999.25    -999.25    -999.25    -999.25    -999.25    4.89170   96.57840
 4950.00000  -34.66390    1.98930    2.55330    3.04740    -999.25    -999.25    -999.25    6.21440   44.12950   94.46290    -999.25    -999.25    -999.25    -999.25    -999.25    1.61110   93.81500
 5000.00000  -33.10400    0.84430    0.93040    1.48330    -999.25    -999.25    -999.25    9.81330   34.99810  109.15230    -999.25    -999.25    -999.25    -999.25    -999.25    1.66220  110.28650
 5050.00000  -33.41250    1.31650    1.43040    1.08720    -999.25    -999.25    -999.25    7.15950   45.18290  103.36070    -999.25    -999.25    -999.25    -999.25    -999.25    0.98910  102.78390
 5100.00000  -32.89180    0.78670    0.84100    0.68890    -999.25    -999.25    -999.25    5.76690   45.19490  103.68770    -999.25    -999.25    -999.25    -999.25    -999.25    0.72450  103.41210
 5150.00000  -31.03830    1.71530    1.65590    1.99880    -999.25    -999.25    -999.25    7.86380   45.51830  106.59400    -999.25    -999.25    -999.25    -999.25    -999.25    2.26600  106.68270
 5200.00000  -30.10340    3.15340    1.77410    3.28550    -999.25    -999.25    -999.25    4.16360   56.26650   99.22780    -999.25    -999.25    -999.25    -999.25    -999.25    3.29730   97.79130
 5250.00000  -30.25010    2.03540    1.88590    2.39920    -999.25    -999.25    -999.25    3.83910   55.77520  104.67430    -999.25    -999.25    -999.25    -999.25    -999.25    1.78690  104.83520
 5300.00000  -29.75310    2.86880    2.65320    2.41800    -999.25    -999.25    -999.25    2.94080   63.10170  104.47580    -999.25    -999.25    -999.25    -999.25    -999.25    2.00350  103.47690
 5350.00000  -29.63090    4.42350    3.36970    3.83660    -999.25    -999.25    -999.25    3.77270   47.85020   97.69380    -999.25    -999.25    -999.25    -999.25    -999.25    4.14360   94.54960
 5400.00000  -28.85060    2.03950    1.88810    2.74640    -999.25    -999.25    -999.25    2.31350   37.55550   93.51990    -999.25    -999.25    -999.25    -999.25    -999.25    2.45410   87.56070
 5450.00000  -28.75260    1.16780    1.40260    2.89330    -999.25    -999.25    -999.25    9.07120   36.50090  102.69160    -999.25    -999.25    -999.25    -999.25    -999.25    2.35500  103.90130
 5500.00000  -27.23580    0.54680    0.59070    1.53720    -999.25    -999.25    -999.25    6.20450   36.10200  103.81390    -999.25    -999.25    -999.25    -999.25    -999.25    1.36630  103.34900
 5550.00000  -31.00580    8.56220    5.38290   11.99520    -999.25    -999.25    -999.25    1.54740   20.10830   65.52010    -999.25    -999.25    -999.25    -999.25    -999.25   10.01280   65.55540
 5600.00000  -34.69530   12.34950   14.02690    5.54920    -999.25    -999.25    -999.25    1.88590   18.70470   63.92650    -999.25    -999.25    -999.25    -999.25    -999.25    8.41100   64.29000
 5650.00000  -28.20940    1.47390    0.84010    0.88110    -999.25    -999.25    -999.25    3.87960   29.12210   78.86520    -999.25    -999.25    -999.25    -999.25    -999.25    1.79220   77.67620
 5700.00000  -30.24760   17.81860   12.63710   14.23540    -999.25    -999.25    -999.25    2.44040   18.63840   62.08300    -999.25    -999.25    -999.25    -999.25    -999.25    9.80750   62.16200
 5750.00000  -35.38790   28.80350   10.89280   15.93560    -999.25    -999.25    -999.25    1.92900   11.90950   58.56440    -999.25    -999.25    -999.25    -999.25    -999.25   11.22070   57.71300
 5800.00000  -35.52580   30.66940   19.88600   25.36480    -999.25    -999.25    -999.25    2.21630   14.73350   58.34140    -999.25    -999.25    -999.25    -999.25    -999.25   22.72890   57.99340
 5850.00000  -32.24810    3.96190   13.02600    4.43390    -999.25    -999.25    -999.25    2.28060   18.72090   62.92310    -999.25    -999.25    -999.25    -999.25    -999.25   12.71270   63.99270
 5900.00000  -30.95370   19.81180   12.37900   10.21630    -999.25    -999.25    -999.25    2.47550   15.80470   63.43790    -999.25    -999.25    -999.25    -999.25    -999.25   10.00900   63.78180
 5950.00000  -33.35400   25.61160   16.84970   12.77150    -999.25    -999.25    -999.25    1.95690   14.18170   60.46280    -999.25    -999.25    -999.25    -999.25    -999.25   14.69670   60.40360
 6000.00000  -29.05070   12.04040    9.20600    6.63970    -999.25    -999.25    -999.25    2.50770   23.10650   63.69010    -999.25    -999.25    -999.25    -999.25    -999.25    6.96900   63.25660
 6050.00000  -30.24840   11.36480   13.74520   14.45540    -999.25    -999.25    -999.25    1.58140   18.06960   59.08190    -999.25    -999.25    -999.25    -999.25    -999.25   13.90980   58.81780
 6100.00000  -29.60210   15.76480   15.10370   14.55210    -999.25    -999.25    -999.25    2.24540   23.03050   68.46150    -999.25    -999.25    -999.25    -999.25    -999.25   14.80300   67.42900
 6150.00000  -29.14550   19.81450   21.33590   61.66360    -999.25    -999.25    -999.25    2.24460   30.24060   59.73640    -999.25    -999.25    -999.25    -999.25    -999.25   60.31390   59.80570
 6200.00000  -34.35590   16.66890   12.62540   15.51150    -999.25    -999.25    -999.25    1.73370   29.66920   59.24850    -999.25    -999.25    -999.25    -999.25    -999.25   11.89010   59.24570
 6250.00000  -33.04400   31.13740   21.36720   19.24460    -999.25    -999.25    -999.25    1.85240   23.18900   57.92320    -999.25    -999.25    -999.25    -999.25    -999.25   19.62690   57.84900
 6300.00000  -31.80120   51.13260   41.50840   24.48930    -999.25    -999.25    -999.25    1.73330   24.96390   56.46900    -999.25    -999.25    -999.25    -999.25    -999.25   49.51890   56.76440
 6350.00000  -26.67600   22.96420   17.99350   16.07030    -999.25    -999.25    -999.25    2.50830   30.71000   61.07890    -999.25    -999.25    -999.25    -999.25    -999.25   14.10420   60.55490
 6400.00000  -25.13320    6.05690    7.51320    6.97730    -999.25    -999.25    -999.25    3.16510   34.15400   67.22730    -999.25    -999.25    -999.25    -999.25    -999.25    5.59840   67.30250
 6450.00000  -25.51280    1.77960    1.49440    3.00570    -999.25    -999.25    -999.25    3.90010   47.16450   85.30000    -999.25    -999.25    -999.25    -999.25    -999.25    1.71330   85.51740
 6500.00000  -27.06650    1.71480    1.88230    4.54550    -999.25    -999.25    -999.25    2.62450   24.96310   64.91930    -999.25    -999.25    -999.25    -999.25    -999.25    1.94200   64.35990
 6550.00000  -29.28570   38.61460   38.03230   20.03810    -999.25    -999.25    -999.25    1.64390   23.32060   57.29220    -999.25    -999.25    -999.25    -999.25    -999.25   22.72560   56.50420
