~Version ---------------------------------------------------
VERS.      2.0 : CWLS log ASCII Standard -VERSION 2.0
WRAP.      YES : Multiple lines per depth step
CREA. 02/15/13 : LAS Creation Date
~Well ------------------------------------------------------
STRT.FT                 1550.0 : START DEPTH
STOP.FT                 9650.0 : STOP DEPTH
STEP.FT               50.00000 : STEP LENGTH
NULL.                  -999.25 : NULL VALUE
COMP.     MARATHON OIL COMPANY : COMPANY
WELL.              NEWELL #A-2 : WELL
FLD .               BEAR GRASS : FIELD
LOC .                          : LOCATION
CNTY.                     LEON : COUNTY
STAT.                    TEXAS : STATE
CTRY. UNITED STATES OF AMERICA : COUNTRY
SRVC.                   Reeves : SERVICE COMPANY
DATE.              02-Nov-1999 : LOGDATE
API .           42289313060000 : API NUMBER
UWI .           42289313060000 : UNIQUE WELL ID
SLAT.WGS84       31.3636770246 : SURFACE LATITUDE
SLON.WGS84      -96.2532956557 : SURFACE LONGITUDE
~Curve Information -----------------------------------------
DEPT    .FT    : DEPTH FEET
CALWS   .IN    : CALIPER [DCALED+BITS]
CONDWS  .MMHO  : CONDUCTIVITY [1000/DRESWS]
DCALED  .IN    : DIFFERENTIAL CALIPER FROM AIT LOG
DCORWS  .G/C3  : DENSITY CORRECTION [DRHOED]
DENWS   .G/C3  : FORMATION BULK DENSITY [CALC FROM DPOWS, M=2.71, F=1.0]
DPHILSED.V/V   : DENSITY POROSITY LIME[M=2.71, F=1.0] FROM DENSITY LOG
DPOWS   .V/V   : DENSITY POROSITY LIME[DPHIED]
DRESWS  .OHMM  : DEEP RESISTIVITY [ILDED]
DRHOED  .G/C3  : DENSITY CORRECTION FROM DENSITY LOG
GRRED   .GAPI  : GAMMA RAY FROM AIT LOG
GRWS    .GAPI  : GAMMA RAY [GRRED]
ILDED   .OHMM  : DEEP INDUCTION RESISTIVITY FROM AIT LOG
ILMED   .OHMM  : MEDIUM  INDUCTION RESISTIVITY FROM AIT LOG
MRESWS  .OHMM  : MEDIUM RESISTIVITY [ILMED]
NPHILSED.V/V   : NEUTRON POROSITY LIME FROM DENSITY LOG
NPOWS   .V/V   : NEUTRON POROSITY LIME  [NPHIED]
PEFED   .B/E   : PHOTOELECTRIC FACTOR FROM DENSITY LOG
PEFWS   .B/E   : PHOTOELECTRIC FACTOR [PEFED]
SFLED   .OHMM  : SHALLOW FOCUSED RESISTIVITY FROM AIT LOG
SPRED   .MV    : SPONTANEOUS POTENTIAL FROM AIT LOG
SPWS    .MV    : SPONTANEOUS POTENTIAL [SPRED]
SRESWS  .OHMM  : SHALLOW RESISTIVITY [SFLED]
~Params ----------------------------------------------------
PD  .                     GL : PERMANENT DATUM
EPD .FT                  525 : ELEVATION PERMANENT DATUM
LMF .                     KB : LOG MEASURED FROM
DAPD.FT                   17 : FEET ABOVE PERMANENT DATUM
DMF .                     KB : DRILLING MEASURED FROM
EKB .FT                  542 : KELLY BUSHING
EDF .FT                  540 : DRILLING FLOOR
EGL .FT                  525 : GROUND LEVEL
DATE.               11/02/99 : RUN DATE
RUN .                      1 : RUN NUMBER
DD  .FT                 9700 : DEPTH DRILLER
DL  .FT                 9705 : DEPTH LOGGER
BLI .FT                 9704 : BOTTOM LOG INTERVAL
TLI .FT                 1514 : TOP LOG INTERVAL
CS  .IN                8.625 : CASING SIZE
CBD .FT                 1515 : CASING BOTTOM DRILLER
CBL .FT                 1514 : CASING BOTTOM LOGGER
BS  .IN                7.875 : BIT SIZE
BSD .FT                 9700 : BIT SIZE AT DEPTH
DFT .                   DISP : DRILLING FLUID TYPE
DFD .                   10.1 : DRILLING FLUID DENSITY
DFV .                     50 : DRILLING FLUID VISCOSITY
DFPH.                    9.1 : DRILLING FLUID PH
DFL .                     10 : DRILLING FLUID LOSS
MSS .               FLOWLINE : MUD SAMPLE SOURCE
RMS .OHMM               1.22 : RESISTIVITY MUD SAMPLE
MST .DEGF                 80 : MUD SAMPLE TEMPERATURE
RMF .OHMM               0.91 : RESISTIVITY MUD FILTRATE SAMPLE
MFST.DEGF                 80 : MUD FILTRATE SAMPLE TEMPERATURE
RMC .OHMM               1.51 : RESISTIVITY MUD CAKE
MCST.DEGF                 80 : MUD CAKE SAMPLE TEMPERATURE
MFSS.                   MEAS : MUD FILTRATE SAMPLE SOURCE
MCSS.                   MEAS : MUD CAKE SAMPLE SOURCE
RMB .OHMM               0.45 : RESISTIVITY MUD AT BHT
TCS .HRS                   6 : TIME CIRCULATED STOPPED
LUN .                  V1049 : LOGGING UNIT NUMBER
LUL .                   KLCR : LOGGING UNIT LOCATION
ENGI.                 LEESON : RECORDING ENGINEER
WITN.                LAMBERT : WITNESSED BY
CLNT.                A2DTECH : CLIENT CODE
ORIG.         1" 2" 5" PRINT : ORIGIN OF DATA
UWI .         42289313060000 : UNIQUE WELL ID
DICO. A2D Technologies, Inc. : DIGITIZING COMPANY
~Other -----------------------------------------------------
TOOL RUN IN COMBINATION:ARRAY INDUCTION/RSFE/PHOTO-DENSITY/NEUTRON/GR LOG
~ASCII -----------------------------------------------------
# ...
 4750.00000    -999.25  361.01080    -999.25    -999.25    -999.25    -999.25    -999.25    2.77000    -999.25   45.59000   45.59000    2.77000    2.70500    2.70500    -999.25    -999.25    -999.25    -999.25    3.08400  -40.69400   -5.89680    3.08400
 4800.00000    -999.25  217.01390    -999.25    -999.25    -999.25    -999.25    -999.25    4.60800    -999.25   37.69000   37.69000    4.60800    3.79600    3.79600    -999.25    -999.25    -999.25    -999.25    3.72700  -39.63600   -5.30220    3.72700
 4850.00000    -999.25  298.86430    -999.25    -999.25    -999.25    -999.25    -999.25    3.34600    -999.25   27.15000   27.15000    3.34600    3.40000    3.40000    -999.25    -999.25    -999.25    -999.25    4.51800  -61.95400  -27.93770    4.51800
 4900.00000    -999.25  281.29400    -999.25    -999.25    -999.25    -999.25    -999.25    3.55500    -999.25   21.04000   21.04000    3.55500    3.55600    3.55600    -999.25    -999.25    -999.25    -999.25    8.89500  -71.70100  -38.00220    8.89500
 4950.00000    -999.25 1026.69400    -999.25    -999.25    -999.25    -999.25    -999.25    0.97400    -999.25   91.94300   91.94300    0.97400    0.93900    0.93900    -999.25    -999.25    -999.25    -999.25    1.54700  -37.91800   -4.45070    1.54700
 5000.00000    -999.25  465.76620    -999.25    -999.25    -999.25    -999.25    -999.25    2.14700    -999.25   79.10600   79.10600    2.14700    2.07900    2.07900    -999.25    -999.25    -999.25    -999.25    2.42400  -43.65200  -10.07230    2.42400
 5050.00000    -999.25  509.16500    -999.25    -999.25    -999.25    -999.25    -999.25    1.96400    -999.25   81.13700   81.13700    1.96400    1.89300    1.89300    -999.25    -999.25    -999.25    -999.25    2.22700  -43.95400  -10.26190    2.22700
 5100.00000    -999.25  825.08250    -999.25    -999.25    -999.25    -999.25    -999.25    1.21200    -999.25  102.30900  102.30900    1.21200    1.14300    1.14300    -999.25    -999.25    -999.25    -999.25    1.63500  -39.09400   -5.28950    1.63500
 5150.00000    -999.25  761.61460    -999.25    -999.25    -999.25    -999.25    -999.25    1.31300    -999.25   76.99200   76.99200    1.31300    1.27900    1.27900    -999.25    -999.25    -999.25    -999.25    1.72500  -39.45400   -5.53710    1.72500
 5200.00000    -999.25  784.31370    -999.25    -999.25    -999.25    -999.25    -999.25    1.27500    -999.25   90.60700   90.60700    1.27500    1.24300    1.24300    -999.25    -999.25    -999.25    -999.25    1.71300  -40.67500   -6.64570    1.71300
 5250.00000    -999.25  654.87880    -999.25    -999.25    -999.25    -999.25    -999.25    1.52700    -999.25   87.34200   87.34200    1.52700    1.50000    1.50000    -999.25    -999.25    -999.25    -999.25    1.93700  -38.84500   -4.70330    1.93700
 5300.00000    -999.25  466.20050    -999.25    -999.25    -999.25    -999.25    -999.25    2.14500    -999.25   90.17700   90.17700    2.14500    2.18900    2.18900    -999.25    -999.25    -999.25    -999.25    2.84100  -38.26100   -4.00690    2.84100
 5350.00000    -999.25  429.00040    -999.25    -999.25    -999.25    -999.25    -999.25    2.33100    -999.25   90.54700   90.54700    2.33100    2.27100    2.27100    -999.25    -999.25    -999.25    -999.25    2.99200  -39.27100   -4.90450    2.99200
 5400.00000    -999.25  670.24130    -999.25    -999.25    -999.25    -999.25    -999.25    1.49200    -999.25   76.99500   76.99500    1.49200    1.41200    1.41200    -999.25    -999.25    -999.25    -999.25    1.88600  -40.49600   -6.23970    1.88600
 5450.00000    -999.25  616.14290    -999.25    -999.25    -999.25    -999.25    -999.25    1.62300    -999.25   71.49600   71.49600    1.62300    1.54200    1.54200    -999.25    -999.25    -999.25    -999.25    2.02800  -45.00900  -10.97260    2.02800
 5500.00000    -999.25  872.60030    -999.25    -999.25    -999.25    -999.25    -999.25    1.14600    -999.25   79.91700   79.91700    1.14600    1.05900    1.05900    -999.25    -999.25    -999.25    -999.25    1.56500  -37.42600   -3.60950    1.56500
 5550.00000    -999.25  777.60500    -999.25    -999.25    -999.25    -999.25    -999.25    1.28600    -999.25   68.93300   68.93300    1.28600    1.20900    1.20900    -999.25    -999.25    -999.25    -999.25    1.74300  -37.12100   -3.52440    1.74300
 5600.00000    -999.25  547.94520    -999.25    -999.25    -999.25    -999.25    -999.25    1.82500    -999.25   66.32000   66.32000    1.82500    1.72900    1.72900    -999.25    -999.25    -999.25    -999.25    2.37100  -38.11700   -4.74030    2.37100
 5650.00000    -999.25  975.60980    -999.25    -999.25    -999.25    -999.25    -999.25    1.02500    -999.25   63.84100   63.84100    1.02500    0.98200    0.98200    -999.25    -999.25    -999.25    -999.25    1.58700  -36.45800   -3.30120    1.58700
 5700.00000    -999.25  502.00800    -999.25    -999.25    -999.25    -999.25    -999.25    1.99200    -999.25   70.87800   70.87800    1.99200    1.97800    1.97800    -999.25    -999.25    -999.25    -999.25    2.11300  -37.34200   -4.40510    2.11300
 5750.00000    -999.25   95.91410    -999.25    -999.25    -999.25    -999.25    -999.25   10.42600    -999.25   27.26500   27.26500   10.42600    9.78700    9.78700    -999.25    -999.25    -999.25    -999.25    9.23300  -42.90100  -10.18400    9.23300
 5800.00000    -999.25  160.72000    -999.25    -999.25    -999.25    -999.25    -999.25    6.22200    -999.25   34.83500   34.83500    6.22200    5.81100    5.81100    -999.25    -999.25    -999.25    -999.25    5.42500  -34.37700   -1.87990    5.42500
 5850.00000    -999.25  232.82890    -999.25    -999.25    -999.25    -999.25    -999.25    4.29500    -999.25   52.80500   52.80500    4.29500    4.43600    4.43600    -999.25    -999.25    -999.25    -999.25    5.57600  -37.03500   -3.77700    5.57600
 5900.00000    -999.25   69.96920    -999.25    -999.25    -999.25    -999.25    -999.25   14.29200    -999.25   23.34500   23.34500   14.29200   14.31900   14.31900    -999.25    -999.25    -999.25    -999.25   14.63800  -43.22900   -9.15850   14.63800
 5950.00000    -999.25   65.91960    -999.25    -999.25    -999.25    -999.25    -999.25   15.17000    -999.25   22.99900   22.99900   15.17000   14.31900   14.31900    -999.25    -999.25    -999.25    -999.25   13.91400  -55.64500  -21.78360   13.91400
 6000.00000    -999.25   60.09250    -999.25    -999.25    -999.25    -999.25    -999.25   16.64100    -999.25   16.94600   16.94600   16.64100   15.83600   15.83600    -999.25    -999.25    -999.25    -999.25   18.53000  -55.69100  -22.74850   18.53000
 6050.00000    -999.25   62.57430    -999.25    -999.25    -999.25    -999.25    -999.25   15.98100    -999.25   21.65900   21.65900   15.98100   15.36100   15.36100    -999.25    -999.25    -999.25    -999.25   19.13800  -48.87400  -16.85050   19.13800
 6100.00000    -999.25   69.48790    -999.25    -999.25    -999.25    -999.25    -999.25   14.39100    -999.25   15.79100   15.79100   14.39100   14.45000   14.45000    -999.25    -999.25    -999.25    -999.25   34.80100  -49.98500  -17.07950   34.80100
 6150.00000    -999.25   67.91170    -999.25    -999.25    -999.25    -999.25    -999.25   14.72500    -999.25   17.14500   17.14500   14.72500   13.43000   13.43000    -999.25    -999.25    -999.25    -999.25   19.54700  -54.64400  -23.66890   19.54700
 6200.00000    -999.25  172.41380    -999.25    -999.25    -999.25    -999.25    -999.25    5.80000    -999.25   31.70400   31.70400    5.80000    5.81400    5.81400    -999.25    -999.25    -999.25    -999.25    6.86200  -34.11100   -6.14760    6.86200
 6250.00000    -999.25  102.77490    -999.25    -999.25    -999.25    -999.25    -999.25    9.73000    -999.25   23.51800   23.51800    9.73000    9.71000    9.71000    -999.25    -999.25    -999.25    -999.25   12.51700  -36.44700   -4.25590   12.51700
 6300.00000    -999.25   39.58980    -999.25    -999.25    -999.25    -999.25    -999.25   25.25900    -999.25   16.06400   16.06400   25.25900   25.85900   25.85900    -999.25    -999.25    -999.25    -999.25   24.35100  -53.18900  -22.84170   24.35100
