~Version ---------------------------------------------------
VERS. 2.0 : CWLS log ASCII Standard -VERSION 2.0
WRAP. YES : MULTIPLE LINES PER DEPTH STEP
~Well ------------------------------------------------------
STRT.FT                     600.0 : START DEPTH
STOP.FT                    6950.0 : STOP DEPTH
STEP.FT                  50.00000 : STEP LENGTH
NULL.                     -999.25 : NULL VALUE
COMP. ENCANA OIL & GAS (USA) INC. : COMPANY
WELL.               F. J. WEBB #1 : WELL
FLD .                     WILDCAT : FIELD
LOC .                             : LOCATION
CNTY.                      DIMMIT : COUNTY
STAT.                       TEXAS : STATE
CTRY.    UNITED STATES OF AMERICA : COUNTRY
SRVC.                Baker Hughes : SERVICE COMPANY
DATE.                 05-Jan-2006 : LOGDATE
API .              42127332970000 : API NUMBER
UWI .              42127332970000 : UNIQUE WELL ID
SLAT.WGS84          28.5870102193 : SURFACE LATITUDE
SLON.WGS84         -99.9764767301 : SURFACE LONGITUDE
~Curve Information -----------------------------------------
DEPT    .FT    : DEPTH FEET  [ALL CURVES ARE NULLED AS PER OFFSET FROM TD 6964F]
CALRED  .IN    : CALIPER FROM RESISTIVITY LOG
CALWS   .IN    : CALIPER [CALRED]
CNCFLSED.V/V   : NEUTRON POROSITY LIMESTONE FROM HDI/CD/CN LOG
CONDWS  .MMHO  : CONDUCTIVITY [1000/DRESWS]
DCORWS  .G/C3  : DENSITY CORRECTION [ZCORED]
DENWS   .G/C3  : BULK DENSITY [M=2.71 F=1.0] [CALCULATED FROM DPOWS]
DPOWS   .V/V   : DENSITY POROSITY [M=2.71 F=1.0] [PORZLSED]
DRESWS  .OHMM  : DEEP RESISTIVITY [M1R9ED]
GRRED   .GAPI  : GAMMA RAY FROM RESISTIVITY LOG
GRWS    .GAPI  : GAMMA RAY [594 GRREDNRM 732 GRRED]
M1R1ED  .OHMM  : 10 INCH DOI RESISTIVITY FROM HDI/CD/CN LOG
M1R2ED  .OHMM  : 20 INCH DOI RESISTIVITY FROM HDI/CD/CN LOG
M1R3ED  .OHMM  : 30 INCH DOI RESISTIVITY FROM HDI/CD/CN LOG
M1R6ED  .OHMM  : 60 INCH DOI RESISTIVITY FROM HDI/CD/CN LOG
M1R9ED  .OHMM  : 90 INCH DOI RESISTIVITY FROM HDI/CD/CN LOG
M1RXED  .OHMM  : 120 INCH DOI RESISTIVITY FROM HDI/CD/CN LOG
MRESWS  .OHMM  : MEDIUM RESISTIVITY [M1R3ED]
NPOWS   .V/V   : NEUTRON POROSITY LIMESTONE [CNCFLSED]
PEFED   .B/E   : PHOTOELECTRIC FACTOR FROM DENSITY LOG
PEFWS   .B/E   : PHOTOELECTRIC FACTOR [PEFED]
PORZLSED.V/V   : DENSITY POROSITY [M=2.71 F=1.0] FROM HDI/CD/CN LOG
SPRED   .MV    : SPONTANEOUS POTENTIAL FROM RESISTIVITY LOG
SPWS    .MV    : SPONTANEOUS POTENTIAL [BASELINE 0 MV] [SPRED]
SRESWS  .OHMM  : SHALLOW RESISTIVITY [594 M1R1ED 777 M1R2ED 791 M1R1ED 957 M1R2ED 962.5 M1R1ED 1436.5 M1R2ED 1678 M1R1ED 2193 M1R2ED 3139 M1R1ED 3874 M1R2ED]
TENRED  .LBF   : TENSION FROM RESISTIVITY LOG
ZCORED  .G/C3  : DENSITY CORRECTION FROM HDI/CD/CN LOG
~Params ----------------------------------------------------
PD  .                     GL : PERMANENT DATUM
EPD .F                 697.3 : ELEVATION PERMANENT DATUM
LMF .                     KB : LOG MEASURED FROM
DAPD.F                  12.0 : FEET ABOVE PERMANENT DATUM
DMF .                     KB : DRILLING MEASURED FROM
EKB .F                 709.3 : KELLING BUSHING
EDF .F                 708.3 : DRILLING FLOOR
EGL .F                 697.3 : GROUND LEVEL
DATE.             01/05/2006 : RUN DATE
RUN .                      1 : RUN NUMBER
DD  .F                  6972 : DEPTH DRILLER
DL  .F                  6964 : DEPTH LOGGER
BLI .F                  6956 : BOTTOM LOG INTERVAL
TLI .F                   732 : TOP LOG INTERVAL
CS  .IN                9.625 : CASING SIZE
CBD .F                   732 : CASING BOTTOM DRILLER
CBL .F                   732 : CASING BOTTOM LOGGER
BS  .IN                 8.75 : BIT SIZE
BSD .F                  6972 : BIT SIZE AT DEPTH
DFT .                    WBM : DRILLING FLUID TYPE
DFD .                    9.7 : DRILLING FLUID DENSITY
DFV .                     79 : DRILLING FLUID VISCOSITY
DFPH.                   11.0 : DRILLING FLUID PH
DFL .                    8.4 : DRILLING FLUID LOSS
MSS .               FLOWLINE : MUD SAMPLE SOURCE
RMS .OHMM               0.36 : RESISTIVITY MUD SAMPLE
MST .F                    75 : MUD SAMPLE TEMPERATURE
RMF .OHMM               0.29 : RESISTIVITY MUD FILTRATE SAMPLE
MFST.F                    75 : MUD FILTRATE SAMPLE TEMPERATURE
RMC .OHMM               0.45 : RESISTIVITY MUD CAKE
MCST.F                    75 : MUD CAKE SAMPLE TEMPERATURE
MFSS.                      M : MUD FILTRATE SAMPLE SOURCE
MCSS.                      C : MUD CAKE SAMPLE SOURCE
RMB .OHMM               0.15 : RESISTIVITY MUD AT BHT
TCS .HRS                  10 : TIME CURCULATED STOPPED
LUN .                HL-6540 : LOGGING UNIT NUMBER
LUL .              ALICE, TX : LOGGING UNIT LOCATION
ENGI.              C. MCCANN : RECORDING ENGINEER
WITN.            D. JOHNSTON : WITNESSED BY
CLNT.                A2DTECH : CLIENT CODE
ORIG.            1" 5" PRINT : ORIGIN OF DATA
UWI .         42127332970000 : UNIQUE WELL ID
DICO. A2D Technologies, Inc. : DIGITIZING COMPANY
~Other -----------------------------------------------------
~ASCII -----------------------------------------------------
# ...
 3300.00000    8.56360    8.56360    0.16510  172.98050    0.01610    2.48450    0.13190    5.78100   85.68240   85.68240    5.84010    5.89720    5.64890    6.31370    5.78100    6.68290    5.64890    0.16510    2.61260    2.61260    0.13190  -13.43320   -7.67460    5.84010   30.98920    0.01610
 3350.00000   11.72230   11.72230    0.24260  249.65670    0.31270    2.16960    0.31600    4.00550   96.25190   96.25190    2.86880    3.58460    3.99220    4.25120    4.00550    4.83570    3.99220    0.24260    3.66330    3.66330    0.31600   -8.03600   -2.96700    2.86880   42.37830    0.31270
 3400.00000    9.98430    9.98430    0.24820  353.48180    0.10330    2.42250    0.16810    2.82900   98.69380   98.69380    2.53190    2.66550    2.80100    2.96990    2.82900    3.41490    2.80100    0.24820    3.15270    3.15270    0.16810   -5.46630   -1.08680    2.53190   49.11920    0.10330
 3450.00000   10.49800   10.49800    0.26920  303.46250    0.13230    2.38540    0.18980    3.29530   97.73730   97.73730    3.12080    2.97780    3.21860    3.20740    3.29530    3.29340    3.21860    0.26920    2.53790    2.53790    0.18980   -6.68670   -2.99670    3.12080  -11.76820    0.13230
 3500.00000    9.77270    9.77270    0.21320  279.22820    0.16390    2.33380    0.22000    3.58130   88.15560   88.15560    4.34890    3.95150    3.90960    4.12910    3.58130    4.46940    3.90960    0.21320    3.30350    3.30350    0.22000   -5.18740   -2.18690    4.34890  -44.22820    0.16390
 3550.00000   10.04170   10.04170    0.26820  365.97860    0.16090    2.13240    0.33780    2.73240   94.00300   94.00300    2.29760    2.59900    2.80110    2.77570    2.73240    2.90010    2.80110    0.26820    3.75380    3.75380    0.33780   -3.52680   -1.21590    2.29760  -22.53820    0.16090
 3600.00000   10.22240   10.22240    0.31440  447.50740    0.22110    2.25260    0.26750    2.23460   90.40480   90.40480    1.78990    2.05710    2.30610    2.20550    2.23460    2.29830    2.30610    0.31440    3.52870    3.52870    0.26750   -6.53670   -4.25680    1.78990   16.42520    0.22110
 3650.00000   10.28650   10.28650    0.27570  303.44410    0.24690    2.18690    0.30590    3.29550   84.10790   84.10790    2.56720    2.85260    3.10410    3.30010    3.29550    3.58270    3.10410    0.27570    3.92240    3.92240    0.30590   -6.23690   -3.64890    2.56720   53.69010    0.24690
 3700.00000   10.77020   10.77020    0.28800  329.64130    0.17290    2.21440    0.28980    3.03360   86.98020   86.98020    2.61330    2.85640    3.09040    3.11840    3.03360    3.35010    3.09040    0.28800    3.31430    3.31430    0.28980   -3.98800   -1.09180    2.61330   32.83490    0.17290
 3750.00000   10.51250   10.51250    0.27950  325.25610    0.27220    2.26810    0.25840    3.07450   78.93510   78.93510    2.29760    2.82290    3.00270    3.09830    3.07450    3.31240    3.00270    0.27950    3.89980    3.89980    0.25840   -6.38690   -3.09230    2.29760    1.15070    0.27220
 3800.00000   10.59850   10.59850    0.23130  295.16810    0.29320    2.39880    0.18200    3.38790   78.16070   78.16070    2.81230    3.25360    3.40240    3.60240    3.38790    3.71210    3.40240    0.23130    3.82530    3.82530    0.18200  -10.97820   -7.28510    2.81230  -15.23740    0.29320
 3850.00000    8.71970    8.71970    0.19550  231.00560   -0.01050    2.56720    0.08350    4.32890   63.25300   63.25300    4.83410    3.83630    4.03820    4.21390    4.32890    4.34890    4.03820    0.19550    3.91570    3.91570    0.08350  -17.26300  -13.17150    4.83410  -31.62790   -0.01050
 3900.00000    8.96210    8.96210    0.21310  282.77340   -0.00350    2.51200    0.11580    3.53640   70.93530   70.93530    4.56760    3.93500    3.83750    3.71990    3.53640    3.52480    3.83750    0.21310    4.24700    4.24700    0.11580  -16.84080  -12.35080    3.93500  -34.15190   -0.00350
 3950.00000    9.20440    9.20440    0.08120   72.79660    0.04960    2.63410    0.04440   13.73690   37.50000   37.50000 1814.40380   16.75440   12.63670   12.84040   13.73690   11.87760   12.63670    0.08120    4.75900    4.75900    0.04440  -20.02550  -15.13710   16.75440   18.10860    0.04960
 4000.00000    9.90150    9.90150    0.10380  100.64110    0.05070    2.61870    0.05340    9.93630   45.24700   45.24700   34.89170    9.62080    7.87400    8.49540    9.93630    8.05650    7.87400    0.10380    4.68700    4.68700    0.05340  -17.29460  -12.00770    9.62080   30.26470    0.05070
 4050.00000   10.20450   10.20450    0.11800  130.58410    0.06420    2.60430    0.06180    7.65790   51.55200   51.55200 1764.55540    8.32660    6.90560    7.15350    7.65790    6.73040    6.90560    0.11800    4.58390    4.58390    0.06180  -22.85870  -17.17340    8.32660   -7.74970    0.06420
 4100.00000    8.99240    8.99240    0.11830   97.49150   -0.00150    2.61240    0.05710   10.25730   43.82720   43.82720   15.35420   10.61750    8.72360    9.29940   10.25730    8.44220    8.72360    0.11830    4.66870    4.66870    0.05710  -20.75260  -14.66880   10.61750  -28.69890   -0.00150
 4150.00000    9.65920    9.65920    0.08950   71.79110   -0.00750    2.61240    0.05710   13.92930   28.00860   28.00860 1789.46420   10.59700   10.87330   13.78970   13.92930   15.81820   10.87330    0.08950    5.00000    5.00000    0.05710  -25.36210  -18.87990   10.59700   43.73370   -0.00750
 4200.00000    9.29550    9.29550    0.05790   59.91290    0.01350    2.64310    0.03910   16.69090   24.17070   24.17070 1740.23160    9.93860    9.97510   14.56850   16.69090   16.85680    9.97510    0.05790    4.81930    4.81930    0.03910  -20.03760  -13.15690    9.93860   22.75330    0.01350
 4250.00000    9.47730    9.47730    0.11300   72.54470    0.07670    2.64960    0.03530   13.78460   42.53660   42.53660   72.76260   12.22040    9.17620   17.29900   13.78460   19.76170    9.17620    0.11300    4.66870    4.66870    0.03530  -23.60820  -16.32910   12.22040   55.84470    0.07670
 4300.00000    9.99240    9.99240    0.11020   50.00720    0.03610    2.55340    0.09160   19.99710   33.88440   33.88440   19.18240   10.10030   12.63670   13.82330   19.99710   21.83450   12.63670    0.11020    4.63880    4.63880    0.09160  -21.80450  -14.12690   10.10030   53.79690    0.03610
 4350.00000    9.62620    9.62620    0.07140   25.88730    0.00450    2.58530    0.07290   38.62900   33.31340   33.31340 1433.63590   23.19760   18.32890   29.41990   38.62900   40.64820   18.32890    0.07140    4.90960    4.90960    0.07290  -26.88150  -18.80550   23.19760   18.36630    0.00450
 4400.00000    9.41680    9.41680    0.08430   44.73330   -0.01350    2.62830    0.04780   22.35470   31.40060   31.40060 1514.20290   17.57280   13.92970   22.53730   22.35470   24.66930   13.92970    0.08430    5.30120    5.30120    0.04780  -27.96990  -19.49540   17.57280  -75.68430   -0.01350
 4450.00000    9.66250    9.66250    0.06840   24.59310    0.00750    2.63660    0.04290   40.66180   23.26810   23.26810   92.40230   50.40390   38.99960   57.92030   40.66180   74.46420   38.99960    0.06840    4.81920    4.81920    0.04290  -27.06680  -18.19380   50.40390   23.28680    0.00750
 4500.00000    9.62880    9.62880    0.08570   64.22900    0.02560    2.59490    0.06730   15.56930   23.04290   23.04290   23.50050   18.52420   14.51010   21.18960   15.56930   22.81410   14.51010    0.08570    4.93980    4.93980    0.06730  -28.12030  -18.84890   18.52420   -4.54650    0.02560
 4550.00000    9.99240    9.99240    0.07970   40.50960   -0.00750    2.63290    0.04510   24.68550   27.04200   27.04200   46.73150   20.02950   20.47990   22.85100   24.68550   24.91910   20.47990    0.07970    5.03180    5.03180    0.04510  -24.96220  -15.29230   20.02950   16.17020   -0.00750
 4600.00000   10.02270   10.02270    0.10530   56.67100   -0.00970    2.61540    0.05530   17.64570   21.68740   21.68740   37.92850   14.78200   15.32600   16.67290   17.64570   17.65230   15.32600    0.10530    5.18080    5.18080    0.05530  -22.55640  -12.48810   14.78200   12.31150   -0.00970
