~Version ---------------------------------------------------
VERS. 2.0 : CWLS log ASCII Standard -VERSION 2.0
WRAP.  NO : ONE LINE PER DEPTH STEP
~Well ------------------------------------------------------
STRT.F                         1500.0 : START DEPTH
STOP.F                         8950.0 : STOP DEPTH
STEP.F                       50.00000 : STEP LENGTH
NULL.                         -999.25 : NULL VALUE
COMP.        AMOCO PRODUCTION COMPANY : COMPANY
WELL. FRANK L. PATRANELLA UNIT B #1-U : WELL
FLD .                        BRYAN, N : FIELD
LOC .                                 : LOCATION
CNTY.                          BRAZOS : COUNTY
STAT.                           TEXAS : STATE
CTRY.        UNITED STATES OF AMERICA : COUNTRY
SRVC.                    Schlumberger : SERVICE COMPANY
DATE.                     27-Mar-1982 : LOGDATE
API .                  42041307560000 : API NUMBER
UWI .                  42041307560000 : UNIQUE WELL ID
SLAT.WGS84              30.7198358858 : SURFACE LATITUDE
SLON.WGS84             -96.3523405481 : SURFACE LONGITUDE
~Curve Information -----------------------------------------
DEPT   .F    0   1   0  0 : 1 MEASURED DEPTH
NPHI_SS.DEC  42 890 03 00 : NEUTRON POROSITY SANDSTONE
DPHI_SS.DEC  45 890 12 00 : DENSITY POROSITY SANDSTONE
NPHI_LS.DEC  42 890 01 00 : NEUTRON POROSITY LIMESTONE
DPHI_LS.DEC  45 890 10 00 : DENSITY POROSITY LIMESTONE
RHOB   .G/C3 45 350 01 00 : BULK DENSITY
DRHO   .G/C3 45 356 01 00 : BULK DENSITY CORRECTION
CALD   .IN   45 280 60 00 : CALIPER FROM DENSITY LOG
GRR    .GAPI 07 310 01 00 : GAMMA RAY FROM RESISTIVITY LOG
ILD    .OHMM 07 120 46 00 : INDUCTION DEEP RESISTIVITY
ILM    .OHMM 07 120 44 00 : INDUCTION MEDIUM RESISTIVITY
SFLU   .OHMM 07 220 01 00 : SHALLOW FOCUSED RESISTIVITY (UNAVERAGED)
SPR    .MV   07 010 01 00 : SPONTANEOUS POTENTIAL FROM RESISTIVITY LOG
~Params ----------------------------------------------------
PD  .                     GL : PERMANENT DATUM
EPD .FT                346.3 : ELEVATION PERMANENT DATUM
LMF .                     KB : LOG MEASURED FROM
DAPD.FT                 18.3 : FEET ABOVE PERMANENT DATUM
DMF .                     KB : DRILLING MEASURED FROM
EKB .FT                364.6 : KELLY BUSHING
EDF .FT                363.6 : DRILLING FLOOR
EGL .FT                346.3 : GROUND LEVEL
DATE.               03/27/82 : RUN DATE
RUN .                      1 : RUN NUMBER
DD  .FT                 8988 : DEPTH DRILLER
DL  .FT                 8989 : DEPTH LOGGER
BLI .FT                 8983 : BOTTOM LOG INTERVAL
TLI .FT                 1488 : TOP LOG INTERVAL
CS  .IN                9.625 : CASING SIZE
CBD .FT                 1523 : CASING BOTTOM DRILLER
CBL .FT                 1488 : CASING BOTTOM LOGGER
BS  .IN                 8.75 : BIT SIZE
BSD .FT                 8988 : BIT SIZE AT DEPTH
DFT .      GEL LIGNO CAUSTIC : DRILLING FLUID TYPE
DFD .                    9.7 : DRILLING FLUID DENSITY
DFV .                     42 : DRILLING FLUID VISCOSITY
DFPH.                    9.2 : DRILLING FLUID PH
DFL .                    7.5 : DRILLING FLUID LOSS
MSS .               FLOWLINE : MUD SAMPLE SOURCE
RMS .OHMM               3.21 : RESISTIVITY MUD SAMPLE
MST .DEGF                 70 : MUD SAMPLE TEMPERATURE
RMF .OHMM               3.39 : RESISTIVITY MUD FILTRATE SAMPLE
MFST.DEGF                 66 : MUD FILTRATE SAMPLE TEMPERATURE
RMC .OHMM               1.78 : RESISTIVITY MUD CAKE
MCST.DEGF                 66 : MUD CAKE SAMPLE TEMPERATURE
MFSS.                  PRESS : MUD FILTRATE SAMPLE SOURCE
MCSS.               MEASURED : MUD CAKE SAMPLE SOURCE
RMB .OHMM              1.229 : RESISTIVITY MUD AT BHT
TCS .HRS                1200 : TIME CIRCULATED STOPPED
TLAB.HRS                1900 : TIME LOGGER AT BOTTOM
LUN .                   8176 : LOGGING UNIT NUMBER
LUL .                BRENHAM : LOGGING UNIT LOCATION
ENGI.                MARANUK : RECORDING ENGINEER
WITN.                MINSHEW : WITNESSED BY
CLNT.                A2DTECH : CLIENT CODE
ORIG.            2" 5" PRINT : ORIGIN OF DATA
UWI .         42041307560000 : UNIQUE WELL ID
DICO. A2D Technologies, Inc. : DIGITIZING COMPANY
~Other -----------------------------------------------------
~ASCII -----------------------------------------------------
# ...
 7100.00000    0.19430    0.03820    -999.25    -999.25    2.58440    0.00260    9.28770   65.60930    2.32640    2.54230    2.81190  -10.56430
 7150.00000    0.22220    0.05510    -999.25    -999.25    2.55940    0.04140    9.41460   76.85690    2.17320    2.36420    2.53100   -9.63510
 7200.00000    0.22010    0.04290    -999.25    -999.25    2.58000    0.07160   11.29840   87.34610    1.82300    1.90980    2.30550  -10.46980
 7250.00000    0.26620    0.12530    -999.25    -999.25    2.44200    0.09540   12.41930   93.51860    1.79980    1.86440    1.87120  -11.19600
 7300.00000    0.24450    0.08810    -999.25    -999.25    2.50650    0.03430   11.00420   92.34970    1.78740    1.90330    2.11310   -8.93750
 7350.00000    0.24980    0.05330    -999.25    -999.25    2.56810    0.06860   12.10540   83.92010    1.60320    1.74500    1.91680  -10.74620
 7400.00000    0.23170    0.03150    -999.25    -999.25    2.59170    0.11160   11.94670   85.49290    1.84340    1.96670    2.04530  -10.56230
 7450.00000    0.27310    0.07780    -999.25    -999.25    2.49730    0.13140   12.76500   93.48990    1.48450    1.59180    1.72350  -11.74150
 7500.00000    0.27760    0.11210    0.14550    0.04170    2.49260    0.07360   13.37080   85.24430    1.38810    1.48810    1.62920  -10.44930
 7550.00000    -999.25    -999.25    0.25910    0.12350    2.50190    0.07130   12.79600   92.36020    1.48890    1.58370    1.72710  -11.08660
 7600.00000    -999.25    -999.25    0.31810    0.10930    2.52300    0.11960   13.42010   77.62930    1.44770    1.54710    1.77020  -12.33250
 7650.00000    -999.25    -999.25    0.25030    0.09270    2.55060    0.00260   10.47440   80.25400    2.17000    2.31670    2.54570   -9.03510
 7700.00000    -999.25    -999.25    0.24490    0.09410    2.54740    0.04680   11.64630   90.10370    2.15140    2.28270    2.54810  -10.16870
 7750.00000    -999.25    -999.25    0.28480    0.09300    2.54990    0.07340   12.10200   81.76290    1.71360    1.82390    1.92370  -11.15740
 7800.00000    -999.25    -999.25    0.13410    0.07380    2.58120   -0.00350   10.29480   52.00710    4.09740    4.32790    6.56680   -7.50880
 7850.00000    -999.25    -999.25    0.12380    0.08170    2.57570   -0.00050   10.17850   41.58090    4.17480    5.49060    5.41880   -8.43880
 7900.00000    -999.25    -999.25    0.07430    0.07200    2.59130   -0.00500   10.00400   30.78050    6.81670    7.40900    9.72540  -11.98840
 7950.00000    -999.25    -999.25    0.05190    0.05850    2.61430   -0.00140    9.71830   34.29600    9.62020    9.93910   10.35110   -8.57660
 8000.00000    -999.25    -999.25    0.10140    0.06230    2.61380   -0.00150    9.79000   47.64070    5.92850    6.39280    7.15620   -4.16310
 8050.00000    -999.25    -999.25    0.11010    0.15990    2.43110    0.06210    9.19210   56.32220   11.06430   12.24060   14.80220   -8.95990
 8100.00000    0.55310    0.33010    0.39310    0.18610    2.36640    0.13770   14.89160   86.89820    1.22390    1.29130    1.48190   -5.60370
 8150.00000    0.44710    0.20810    -999.25    -999.25    2.54840    0.10840   15.12990   71.54360    1.40880    1.49960    1.84290   -6.39130
 8200.00000    0.53600    0.28490    -999.25    -999.25    2.42590    0.11440   16.58710   75.83790    1.25250    1.33420    1.54400  -37.33010
 8250.00000    0.46090    0.20970    -999.25    -999.25    2.54860    0.09890   14.40370   82.69750    1.56160    1.66940    1.80020  -53.91540
 8300.00000    0.49340    0.28180    -999.25    -999.25    2.43060    0.11200   14.11660   91.49600    1.21750    1.29820    1.51420  -52.97950
 8350.00000    0.55550    0.28840    -999.25    -999.25    2.38850    0.18260   14.86770   84.90550    1.34000    1.40370    1.79780  -51.89940
 8400.00000    0.50440    0.25760    -999.25    -999.25    2.47000    0.11700   14.58130   84.45190    1.46860    1.51490    1.87870  -49.22790
 8450.00000    0.54040    0.27240    -999.25    -999.25    2.45000    0.22310   14.16770   86.93800    3.73380    3.13900    3.40850  -49.14550
 8500.00000    0.47150    0.23730    -999.25    -999.25    2.50210    0.10270   10.52780  107.47220    2.19770    2.34980    2.94060  -47.43480
 8550.00000    0.41050    0.24950    -999.25    -999.25    2.48290   -0.00080    9.83880  122.95610    6.29550    6.84030   11.24770  -42.93280
 8600.00000    0.53390    0.36190    0.38800    0.23730    2.32790    0.15760   15.56260   96.16310    1.47050    1.42500    2.23500  -49.18690
 8650.00000    -999.25    -999.25    0.09040    0.02610    2.66550    0.00210    9.85810   39.95380    7.68590    8.26500    8.65750  -40.65330
 8700.00000    -999.25    -999.25    0.02300    0.05540    2.60780    0.12490    9.90960   17.71830   32.38060   30.48000   27.08810  -46.18380
 8750.00000    -999.25    -999.25    0.06380    0.04100    2.63610   -0.00540    9.55890   39.66500   11.76300   12.88290   17.37950  -42.58100
 8800.00000    -999.25    -999.25    0.01000    0.01780    2.68070   -0.00340    9.69460   13.35700   70.92610   66.54540   49.10490  -67.90510
 8850.00000    -999.25    -999.25    0.02960   -0.00040    2.70190   -0.00300    9.32560   26.67850   18.87770   16.29110   12.91840  -46.04420
 8900.00000    -999.25    -999.25    0.03550    0.00390    2.70340    0.00290    9.03110   21.39050   14.53550   15.95340   16.68470  -32.01600
 8950.00000    -999.25    -999.25    0.06120    0.02680    2.66580    0.01450    8.80990    -999.25   45.50840   49.22690   47.00860  -42.31310
