~Version ---------------------------------------------------
VERS. 2.0 : CWLS log ASCII Standard -VERSION 2.0
WRAP. YES : MULTIPLE LINES PER DEPTH STEP
~Well ------------------------------------------------------
STRT.FT                  3250.0 : START DEPTH
STOP.FT                  7950.0 : STOP DEPTH
STEP.FT                50.00000 : STEP LENGTH
NULL.                   -999.25 : NULL VALUE
COMP. EVERGREEN OIL CORPORATION : COMPANY
WELL.           HAMILTON R C #1 : WELL
FLD .                      COST : FIELD
LOC .                           : LOCATION
CNTY.                  GONZALES : COUNTY
STAT.                     TEXAS : STATE
CTRY.  UNITED STATES OF AMERICA : COUNTRY
SRVC.              Schlumberger : SERVICE COMPANY
DATE.               15-Dec-1980 : LOGDATE
API .            42177307020000 : API NUMBER
UWI .            42177307020000 : UNIQUE WELL ID
SLAT.WGS84        29.2306839754 : SURFACE LATITUDE
SLON.WGS84       -97.6857640562 : SURFACE LONGITUDE
~Curve Information -----------------------------------------
DEPT    .FT    : DEPTH FEET
CALDED  .IN    : CALIPER FROM DENSITY LOG
CALWS   .IN    : CALIPER [CALDED]
CONDWS  .MMHO  : CONDUCTIVITY [1000/DRESWS]
DCALED  .IN    : DIFFERENTIAL CALIPER FROM DENSITY LOG
DCORWS  .G/C3  : DENSITY CORRECTION [DRHOED]
DENWS   .G/C3  : BULK DENSITY [M=2.71 F=1.0] [RHOBED]
DPHILSED.V/V   : DENSITY POROSITY [M=2.71 F=1.0] FROM DENSITY LOG
DPHISSED.V/V   : DENSITY POROSITY [M=2.68 F=1.0] FROM DENSITY LOG
DPOLSWS .V/V   : DENSITY POROSITY [M=2.71 F=1.0] [CAL FR DENWS]
DRESWS  .OHMM  : DEEP RESISTIVITY [ILDED IS PATCHED TO REMOVE DUBIOUS SPIKES]
DRHOED  .G/C3  : DENSITY CORRECTION FROM DENSITY LOG
GRDED   .GAPI  : GAMMA RAY FROM DENSITY LOG
GRRED   .GAPI  : GAMMA RAY FROM RESISTIVITY LOG
GRWS    .GAPI  : GAMMA RAY [3234 GRDED 7734 GRRED]
ILDED   .OHMM  : INDUCTION LOG DEEP RESISTIVITY
ILMED   .OHMM  : INDUCTION LOG MEDIUM RESISTIVITY
MRESWS  .OHMM  : MEDIUM RESISTIVITY [ILMED IS PATCHED TO REMOVE DUBIOUS SPIKES]
NPHILSED.V/V   : NEUTRON POROSITY LIMESTONE FROM DENSITY LOG
NPHISSED.V/V   : NEUTRON POROSITY SANDSTONE FROM DENSITY LOG
NPOLSWS .V/V   : NEUTRON POROSITY LIMESTONE [3234 NPHILS_CAL 7394.5 NPHILSED][NPHISSED IS CONVERTED TO NPHILS_CAL USING POWERLOG MODULE]
RHOBED  .G/C3  : BULK DENSITY FROM DENSITY LOG [SOME PEAKS ARE DEPTH MATCHED TO DPHIED]
SFLUED  .OHMM  : SPHERICALLY FOCUSED LOG RESISTIVITY
SPRED   .MV    : SPONTANEOUS POTENTIAL FROM RESISTIVITY LOG
SPWS    .MV    : SPONTANEOUS POTENTIAL [BASELINE 0 MV] [SPRED]
SRESWS  .OHMM  : SHALLOW RESISTIVITY [SFLUED]
TENRED  .LBF   : TENSION FROM RESISTIVITY LOG
~Params ----------------------------------------------------
PD  .                     GL : PERMANENT DATUM
EPD .FT                  262 : ELEVATION PERMANENT DATUM
LMF .                     KB : LOG MEASURED FROM
DAPD.FT                   15 : FEET ABOVE PERMANENT DATUM
DMF .                     KB : DRILLING MEASURED FROM
EKB .FT                  277 : KELLY BUSHING
EDF .FT                  276 : DRILLING FLOOR
EGL .FT                  262 : GROUND LEVEL
DATE.               12/15/80 : RUN DATE
RUN .                      1 : RUN NUMBER
DD  .FT                 7980 : DEPTH DRILLER
DL  .FT                 7972 : DEPTH LOGGER
BLI .FT                 7966 : BOTTOM LOG INTERVAL
TLI .FT                 3249 : TOP LOG INTERVAL
CS  .IN                8.625 : CASING SIZE
CBD .FT                 2258 : CASING BOTTOM DRILLER
CBL .FT                 3249 : CASING BOTTOM LOGGER
BS  .IN                7.875 : BIT SIZE
BSD .FT                 7980 : BIT SIZE AT DEPTH
DFD .                    9.5 : DRILLING FLUID DENSITY
DFV .                     54 : DRILLING FLUID VISCOSITY
DFPH.                      9 : DRILLING FLUID PH
DFL .                    8.0 : DRILLING FLUID LOSS
MSS .               FLOWLINE : MUD SAMPLE SOURCE
RMS .OHMM               2.65 : RESISTIVITY MUD SAMPLE
MST .FT                   75 : MUD SAMPLE TEMPERATURE
RMF .OHMM               2.61 : RESISTIVITY MUD FILTRATE SAMPLE
MFST.FT                   75 : MUD FILTRATE SAMPLE TEMPERATURE
RMC .OHMM               3.97 : RESISTIVITY MUD CAKE
MCST.FT                   75 : MUD CAKE SAMPLE TEMPERATURE
MFSS.                      M : MUD FILTRATE SAMPLE SOURCE
MCSS.                      C : MUD CAKE SAMPLE SOURCE
RMB .OHMM                1.0 : RESISTIVITY MUD AT BHT
TCS .HRS                2400 : TIME CURCULATED STOPPED
TLAB.HRS                 600 : TIME LOGGER AT BOTTOM
LUN .                   8011 : LOGGING UNIT NUMBER
LUL .               VICTORIA : LOGGING UNIT LOCATION
ENGI.              PISHVAVOV : RECORDING ENGINEER
WITN.                 GERJES : WITNESSED BY
CLNT.                A2DTECH : CLIENT CODE
ORIG.            1" 5" PRINT : ORIGIN OF DATA
UWI .         42177307020000 : UNIQUE WELL ID
DICO. A2D Technologies, Inc. : DIGITIZING COMPANY
~Other -----------------------------------------------------
~ASCII -----------------------------------------------------
# ...
 5950.00000   10.00880   10.00880  871.99160    2.23040    0.04970    2.45130    -999.25    0.15070    0.15130    1.14680    0.04970  103.14250  103.44230  103.14250    1.14680    1.20930    1.20930    -999.25    0.33990    0.29620    2.45130    1.46860   -0.67850   -3.19220    1.46860 1965.79480
 6000.00000    9.13700    9.13700  550.66080    1.21190    0.07050    2.48700    -999.25    0.12980    0.13040    1.81600    0.07050  111.26340  105.32060  111.26340    1.81600    1.92070    1.92070    -999.25    0.31350    0.26960    2.48700    2.12430   -2.10700   -4.68320    2.12430 1994.28120
 6050.00000    9.03810    9.03810  447.84810    1.23110    0.05680    2.54180    -999.25    0.09800    0.09840    2.23290    0.05680   80.71250   75.57500   80.71250    2.23290    2.36640    2.36640    -999.25    0.24740    0.20350    2.54180    2.95150   -1.50060   -4.11610    2.95150 2002.78300
 6100.00000   11.00340   11.00340  704.92030    3.22460    0.05250    2.40980    -999.25    0.17440    0.17560    1.41860    0.05250   86.18390   90.44790   86.18390    1.41860    1.46620    1.46620    -999.25    0.32110    0.27720    2.40980    1.62070   -2.96710   -5.62200    1.62070 2015.91860
 6150.00000   10.93430   10.93430  639.91810    3.01180    0.17010    2.50300    -999.25    0.12230    0.12110    1.56270    0.17010   93.46050   95.37280   93.46050    1.56270    1.63790    1.63790    -999.25    0.33560    0.29180    2.50300    1.82020   -4.61740   -7.31170    1.82020 1996.25560
 6200.00000   10.61340   10.61340  824.74230    2.81070    0.07660    2.46800    -999.25    0.14090    0.14150    1.21250    0.07660   84.97020   87.23930   84.97020    1.21250    1.29900    1.29900    -999.25    0.30620    0.26220    2.46800    1.46800   -0.46780   -3.20150    1.46800 2010.35790
 6250.00000   10.62430   10.62430  745.37870    2.84870    0.08250    2.47620    -999.25    0.13410    0.13670    1.34160    0.08250   85.24380   86.97590   85.24380    1.34160    1.42620    1.42620    -999.25    0.34770    0.30400    2.47620    1.59160   -1.94340   -4.71640    1.59160 2039.90430
 6300.00000   10.32160   10.32160  657.89480    2.45630    0.09550    2.45750    -999.25    0.14450    0.14770    1.52000    0.09550   88.46340   89.38630   88.46340    1.52000    1.59220    1.59220    -999.25    0.35030    0.30670    2.45750    1.75880   -1.79980   -4.61220    1.75880 2069.14820
 6350.00000   10.66210   10.66210  657.63510    2.89150    0.13790    2.43160    -999.25    0.16060    0.16280    1.52060    0.13790   75.57550   78.71480   75.57550    1.52060    1.57880    1.57880    -999.25    0.32320    0.27930    2.43160    1.76080   -1.42930   -4.24630    1.76080 2063.95210
 6400.00000   10.67450   10.67450  605.25360    2.78690    0.11700    2.48270    -999.25    0.13090    0.13290    1.65220    0.11700   91.00220   90.61600   91.00220    1.65220    1.76470    1.76470    -999.25    0.34010    0.29640    2.48270    1.99020   -4.23170   -6.95450    1.99020 2108.98190
 6450.00000   10.75690   10.75690  671.59170    2.97270    0.13240    2.46950    -999.25    0.13840    0.14060    1.48900    0.13240   86.90510   90.70990   86.90510    1.48900    1.56250    1.56250    -999.25    0.33610    0.29230    2.46950    1.74260   -7.40310  -10.03170    1.74260 2112.70700
 6500.00000   10.43420   10.43420  625.31260    2.65330    0.17090    2.49220    -999.25    0.12840    0.12740    1.59920    0.17090   83.18310   83.31820   83.18310    1.59920    1.70080    1.70080    -999.25    0.30690    0.26290    2.49220    2.00060   -6.71740   -9.25180    2.00060 2104.54810
 6550.00000    8.92630    8.92630  336.13450    1.04140   -0.00180    2.57680    -999.25    0.07700    0.07790    2.97500   -0.00180   63.03790   59.34080   63.03790    2.97500    3.17960    3.17960    -999.25    0.19680    0.15340    2.57680    3.65360   -1.30380   -3.74400    3.65360 2136.43990
 6600.00000   10.42540   10.42540  386.84720    2.56690    0.12810    2.56950    -999.25    0.08560    0.08220    2.58500    0.12810   78.55990   78.73400   78.55990    2.58500    2.70700    2.70700    -999.25    0.23180    0.18800    2.56950    3.07270   -3.16360   -5.50960    3.07270 2153.95580
 6650.00000    9.93150    9.93150  532.59480    2.18970    0.04570    2.50380    -999.25    0.12610    0.12060    1.87760    0.04570   86.93880   84.83120   86.93880    1.87760    2.06880    2.06880    -999.25    0.21340    0.16980    2.50380    2.52290   -3.24110   -5.49280    2.52290 2169.34110
 6700.00000   12.32510   12.32510  810.56980    4.44410    0.06180    2.37490    -999.25    0.19770    0.19600    1.23370    0.06180   93.60140  104.81430   93.60140    1.23370    1.34430    1.34430    -999.25    0.30990    0.26600    2.37490    1.45700   -5.56460   -7.72210    1.45700 2171.94920
 6750.00000   12.83180   12.83180  864.00550    4.98400    0.06510    2.39860    -999.25    0.18140    0.18210    1.15740    0.06510   93.30470  106.98220   93.30470    1.15740    1.25390    1.25390    -999.25    0.29520    0.25120    2.39860    1.41220   -2.91270   -4.97600    1.41220 2200.54270
 6800.00000   12.58480   12.58480  726.42740    4.74810    0.07200    2.43180    -999.25    0.16170    0.16270    1.37660    0.07200   99.19900  110.26420   99.19900    1.37660    1.46900    1.46900    -999.25    0.31060    0.26670    2.43180    1.61820   -2.66630   -4.63540    1.61820 2217.46260
 6850.00000   12.22490   12.22490  591.89110    4.36140    0.04370    2.48650    -999.25    0.13000    0.13070    1.68950    0.04370   84.65900   94.01350   84.65900    1.68950    1.85010    1.85010    -999.25    0.26660    0.22260    2.48650    1.99460   -2.91690   -4.79180    1.99460 2231.10990
 6900.00000   13.10320   13.10320  697.73930    5.24110    0.05360    2.41440    -999.25    0.17300    0.17290    1.43320    0.05360  105.74670  123.88350  105.74670    1.43320    1.53310    1.53310    -999.25    0.27900    0.23500    2.41440    1.70780   -2.57300   -4.35370    1.70780 2262.68990
 6950.00000   12.68400   12.68400  649.85710    4.90230    0.08980    2.47620    -999.25    0.13570    0.13670    1.53880    0.08980   97.22600  110.74060   97.22600    1.53880    1.65420    1.65420    -999.25    0.26480    0.22080    2.47620    1.79150   -2.07850   -3.93350    1.79150 2252.53880
 7000.00000   12.99090   12.99090  761.55660    5.06200    0.08050    2.43920    -999.25    0.15300    0.15840    1.31310    0.08050   88.30880  101.95580   88.30880    1.31310    1.42140    1.42140    -999.25    0.29860    0.25460    2.43920    1.66390   -1.12270   -3.13890    1.66390 2271.97340
 7050.00000   12.19310   12.19310  754.09090    4.35480    0.09940    2.48330    -999.25    0.13220    0.13260    1.32610    0.09940   84.14730   92.63640   84.14730    1.32610    1.43520    1.43520    -999.25    0.31020    0.26630    2.48330    1.61740   -0.94450   -3.12190    1.61740 2273.78960
 7100.00000   10.93420   10.93420  719.42440    3.13910    0.03970    2.46270    -999.25    0.15140    0.14460    1.39000    0.03970   84.11390   88.08510   84.11390    1.39000    1.58460    1.58460    -999.25    0.25040    0.20650    2.46270    1.88350   -1.45510   -3.79370    1.88350 2321.56400
 7150.00000   11.50710   11.50710  639.71340    3.72400    0.05760    2.47080    -999.25    0.14210    0.13990    1.56320    0.05760   85.53980   91.94330   85.53980    1.56320    1.69440    1.69440    -999.25    0.26100    0.21700    2.47080    1.86070   -2.37560   -4.87540    1.86070 2324.86620
 7200.00000   11.72210   11.72210  629.56430    3.93520    0.11170    2.53890    -999.25    0.10060    0.10010    1.58840    0.11170   89.39340   95.20960   89.39340    1.58840    1.71480    1.71480    -999.25    0.26180    0.21780    2.53890    1.90850   -1.86950   -4.53050    1.90850 2348.06670
 7250.00000   11.75870   11.75870  738.49790    3.93790    0.02460    2.42760    -999.25    0.16230    0.16510    1.35410    0.02460  105.78010  115.37390  105.78010    1.35410    1.45500    1.45500    -999.25    0.27530    0.23130    2.42760    1.63930   -1.32200   -4.14420    1.63930 2331.97630
