~Version ---------------------------------------------------
VERS. 2.0 : CWLS log ASCII Standard -VERSION 2.0
WRAP.  NO : ONE LINE PER DEPTH STEP
~Well ------------------------------------------------------
STRT.F                        1200.0 : START DEPTH
STOP.F                        9700.0 : STOP DEPTH
STEP.F                      50.00000 : STEP LENGTH
NULL.                        -999.25 : NULL VALUE
COMP.     HERD PRODUCING COMPANY INC : COMPANY
WELL. BEDDINGFIELD GAS UNIT NO. 1 #2 : WELL
FLD .                      FARRAR SE : FIELD
LOC .                                : LOCATION
CNTY.                      LIMESTONE : COUNTY
STAT.                          TEXAS : STATE
CTRY.       UNITED STATES OF AMERICA : COUNTRY
SRVC.                   Schlumberger : SERVICE COMPANY
DATE.                    26-Apr-1990 : LOGDATE
API .                 42293309280000 : API NUMBER
UWI .                 42293309280000 : UNIQUE WELL ID
SLAT.WGS84              31.411545742 : SURFACE LATITUDE
SLON.WGS84            -96.2671170526 : SURFACE LONGITUDE
~Curve Information -----------------------------------------
DEPT   .F                 : 
DCAL   .IN   07 280 01 00 : DIFFERENTIAL CALIPER
GRR    .GAPI 07 310 01 00 : GAMMA RAY FROM RESISTIVITY LOG
DRHO   .G/C3 45 356 01 00 : BULK DENSITY CORRECTION
DPHI_LS.DEC  45 890 10 00 : DENSITY POROSITY LIMESTONE
NPHI_LS.DEC  42 890 01 00 : NEUTRON POROSITY LIMESTONE
ILD    .OHMM 07 120 46 00 : INDUCTION DEEP RESISTIVITY
ILM    .OHMM 07 120 44 00 : INDUCTION MEDIUM RESISTIVITY
SFLU   .OHMM 07 220 01 00 : SHALLOW FOCUSED RESISTIVITY (UNAVERAGED)
SPR    .MV   07 010 01 00 : SPONTANEOUS POTENTIAL FROM RESISTIVITY LOG
~Params ----------------------------------------------------
PD  .                     GL : PERMANENT DATUM
EPD .FT                396.3 : ELEVATION PERMANENT DATUM
LMF .                    RKB : LOG MEASURED FROM
DAPD.FT                   25 : FEET ABOVE PERMANENT DATUM
DMF .                    RKB : DRILLING MEASURED FROM
EKB .FT                421.3 : KELLY BUSHING
EDF .FT                420.3 : DRILLING FLOOR
EGL .FT                396.3 : GROUND LEVEL
DATE.               04/26/90 : RUN DATE
RUN .                      1 : RUN NUMBER
DD  .FT                 9719 : DEPTH DRILLER
DL  .FT                 9719 : DEPTH LOGGER
BLI .FT                 9713 : BOTTOM LOG INTERVAL
TLI .FT                 1215 : TOP LOG INTERVAL
CS  .IN                8.625 : CASING SIZE
CBD .FT                 1219 : CASING BOTTOM DRILLER
CBL .FT                 1215 : CASING BOTTOM LOGGER
BS  .IN                7.875 : BIT SIZE
BSD .FT                 9719 : BIT SIZE AT DEPTH
DFT .                    CLS : DRILLING FLUID TYPE
DFD .                   10.3 : DRILLING FLUID DENSITY
DFV .                     48 : DRILLING FLUID VISCOSITY
DFPH.                    9.8 : DRILLING FLUID PH
DFL .                    9.8 : DRILLING FLUID LOSS
MSS .               FLOWLINE : MUD SAMPLE SOURCE
RMS .OHMM               1.65 : RESISTIVITY MUD SAMPLE
MST .DEGF                127 : MUD SAMPLE TEMPERATURE
RMF .OHMM               1.48 : RESISTIVITY MUD FILTRATE SAMPLE
MFST.DEGF                 72 : MUD FILTRATE SAMPLE TEMPERATURE
RMC .OHMM               1.03 : RESISTIVITY MUD CAKE
MCST.DEGF                 72 : MUD CAKE SAMPLE TEMPERATURE
MFSS.                   MEAS : MUD FILTRATE SAMPLE SOURCE
MCSS.                   MEAS : MUD CAKE SAMPLE SOURCE
RMB .OHMM              0.974 : RESISTIVITY MUD AT BHT
TCS .HRS                1915 : TIME CIRCULATED STOPPED
TLAB.HRS                1145 : TIME LOGGER AT BOTTOM
LUN .                   8167 : LOGGING UNIT NUMBER
LUL .             SHREVEPORT : LOGGING UNIT LOCATION
ENGI.          FARMER PALMER : RECORDING ENGINEER
WITN.                  FEARS : WITNESSED BY
CLNT.                A2DTECH : CLIENT CODE
ORIG.         1" 2" 5" PRINT : ORIGIN OF DATA
UWI .         42293309280000 : UNIQUE WELL ID
DICO. A2D Technologies, Inc. : DIGITIZING COMPANY
~Other -----------------------------------------------------
~ASCII -----------------------------------------------------
# ...
 4850.00000    7.98230  113.17790    -999.25    -999.25    -999.25    1.04230    1.05210    1.39750  -23.40580
 4900.00000    5.07420  116.79220    -999.25    -999.25    -999.25    2.12620    2.15380    2.51100  -22.83990
 4950.00000    4.30490  119.95520    -999.25    -999.25    -999.25    2.26760    2.38810    3.37730  -21.63120
 5000.00000    5.05210   83.35810    -999.25    -999.25    -999.25    1.90930    1.87660    2.67170  -22.53750
 5050.00000    5.59040   76.80720    -999.25    -999.25    -999.25    1.60760    1.60150    1.77890  -25.25680
 5100.00000    7.35450   84.03670    -999.25    -999.25    -999.25    2.22130    2.24460    2.69020  -23.14170
 5150.00000    9.41690   85.61770    -999.25    -999.25    -999.25    1.93570    1.92900    2.56330  -21.02720
 5200.00000    7.50460   82.00300    -999.25    -999.25    -999.25    1.41790    1.38000    2.56330  -20.72510
 5250.00000   10.04520   73.41870    -999.25    -999.25    -999.25    1.02100    1.05210    1.47670  -17.40180
 5300.00000    5.50100   78.84090    -999.25    -999.25    -999.25    3.19840    3.06040    3.40450  -20.12080
 5350.00000    2.87000   25.97890    -999.25    -999.25    -999.25    6.81600    7.39130   10.62200  -25.55890
 5400.00000    3.28850   17.62080    -999.25    -999.25    -999.25    9.74700   13.00350   18.79930  -32.50760
 5450.00000    5.73990   62.12350    -999.25    -999.25    -999.25    2.29620    2.32160    2.57900  -25.46050
 5500.00000    4.54410   46.98780    -999.25    -999.25    -999.25    2.61990    3.24350    5.12820  -26.46500
 5550.00000    3.18340   24.39700    -999.25    -999.25    -999.25    8.39530    9.65000   11.54020  -28.83670
 5600.00000    2.82280   28.01240    -999.25    -999.25    -999.25    7.98410    8.42490    8.92520  -32.50830
 5650.00000    3.33350   15.58770    -999.25    -999.25    -999.25   11.18410   14.61820   21.42400  -46.40530
 5700.00000    3.54390   14.23170    -999.25    -999.25    -999.25   10.15780   12.82510   29.18720  -32.50800
 5750.00000    3.27300   16.49060    -999.25    -999.25    -999.25   13.51090   20.34700   17.67360  -32.06430
 5800.00000    3.51370   18.75020    -999.25    -999.25    -999.25   10.01860   12.39050   18.54360  -30.69440
 5850.00000    3.69370   40.21080    -999.25    -999.25    -999.25    6.63080    7.91820   10.12760  -25.86130
 5900.00000    3.34830   28.01260    -999.25    -999.25    -999.25    7.92940   10.07760   13.79920  -25.75850
 5950.00000    2.64260   26.88230    -999.25    -999.25    -999.25    8.91320   10.64820   12.27740  -34.01840
 6000.00000    3.33350   48.36560    -999.25    -999.25    -999.25    6.57250    6.66560   12.19220  -23.44410
 6050.00000    3.46780   72.96670    -999.25    -999.25    -999.25    2.56630    2.76000    3.19160  -20.42270
 6100.00000    2.91990   36.82270    -999.25    -999.25    -999.25   11.18410   16.66280   19.32310  -40.06070
 6150.00000    3.34790   75.22570    -999.25    -999.25    -999.25    2.78360    2.99780    3.86900  -22.23560
 6200.00000    3.79680   65.28580    -999.25    -999.25    -999.25    3.04790    3.03920    3.68710  -18.91210
 6250.00000    3.05250   65.73800    -999.25    -999.25    -999.25    9.54890   12.91360   12.88150  -24.04830
 6300.00000    3.49780   58.28300    -999.25    -999.25    -999.25    2.03120    2.06650    2.09860  -21.78170
 6350.00000    6.66640   75.90420    -999.25    -999.25    -999.25    1.61060    1.64630    1.90770  -19.21430
 6400.00000    2.72050   36.59580    -999.25    -999.25    -999.25    7.25120    9.63030    9.45540  -21.63170
 6450.00000    2.95960   45.18070    -999.25    -999.25    -999.25    5.43180    6.89930   18.04020  -21.93300
 6500.00000    5.80000   55.12080    -999.25    -999.25    -999.25    1.37240    1.43710    2.32430  -21.32930
 6550.00000    5.11210   39.75900    -999.25    -999.25    -999.25    1.10250    1.13490    3.86900  -18.30820
 6600.00000    4.39490   52.72650    -999.25    -999.25    -999.25    2.53130    2.64820    4.14430  -19.82070
 6650.00000    6.15840   51.73190    -999.25    -999.25    -999.25    1.07880    1.14030    1.67090  -21.93380
 6700.00000    2.48650   31.17510    -999.25    -999.25    -999.25    6.10580    6.75790    7.85370  -19.21450
 6750.00000    2.54110   28.46500    -999.25    -999.25    -999.25   12.74600   18.58600   37.90170  -22.84010
 6800.00000    2.66220   33.88550    -999.25    -999.25    -999.25    5.62180    7.24000    9.78580  -20.72510
 6850.00000    2.42170   35.35380    -999.25    -999.25    -999.25   14.35530   32.58230   68.44760  -21.63140
 6900.00000    2.63090   60.99400    -999.25    -999.25    -999.25    3.58740    3.97610    4.98910  -24.65260
 6950.00000    5.29780   57.60540    -999.25    -999.25    -999.25    1.68680    1.80060    1.98630  -23.74620
 7000.00000    2.88860   69.12670    -999.25    -999.25    -999.25    7.19850    8.36680   10.48170  -20.72520
 7050.00000    2.82740   59.86450    -999.25    -999.25    -999.25    6.23280    8.31160   12.44660  -23.74650
 7100.00000    5.62040   88.78010    -999.25    -999.25    -999.25    1.53200    1.54730    1.71920  -26.46530
 7150.00000    3.01960   78.38910    -999.25    -999.25    -999.25    3.37200    3.39440    4.37840  -18.60980
 7200.00000    2.42150   63.47870    -999.25    -999.25    -999.25    8.26360   12.73730   10.77370  -17.40180
 7250.00000    3.40820   50.82830    -999.25    -999.25    -999.25    3.01140    2.89630    8.88770  -21.63090
 7300.00000    2.51130   53.53930    -999.25    -999.25    -999.25    5.46380    5.53420    6.39030  -19.21450
 7350.00000    3.34690   25.52710    -999.25    -999.25    -999.25   13.93790   43.11340  242.43760  -34.32020
 7400.00000    2.06280   24.39760    -999.25    -999.25    -999.25   21.64630  107.03340  274.37430  -22.23980
 7450.00000    2.39180   35.69240    -999.25    -999.25    -999.25    5.27540    7.91840   21.12990  -21.63140
 7500.00000    2.16300   46.08430    -999.25    -999.25    -999.25   10.48910   11.25140   10.70010  -16.49550
 7550.00000    3.25870   43.37350    -999.25    -999.25    -999.25    3.14080    3.36790    9.01080  -17.09970
 7600.00000    2.00300   37.72650    -999.25    -999.25    -999.25   13.67900   21.39000   28.31360  -15.52850
 7650.00000    2.21230   49.24660    -999.25    -999.25    -999.25   22.53450   62.11220  312.66340  -20.12060
 7700.00000    2.24220   26.43070   -0.00150    0.01440    0.00970   15.77490   32.95590   38.27340  -17.06130
 7750.00000    2.03290   41.34040   -0.00450    0.00550    0.02690   25.01020   74.80910   84.12220  -53.65560
 7800.00000    2.51460   37.72590   -0.00450    0.00870    0.00220   32.39360  173.87710  182.90430  -29.48670
 7850.00000    2.21200   14.23190   -0.00750   -0.10070   -0.00740   21.42940   69.82720 1482.61910   -5.67020
 7900.00000    2.00310   48.34430   -0.01310    0.03290    0.09960    6.40680    7.27150   10.57200    0.12110
 7950.00000    3.28850   44.05160    0.00300    0.01170    0.01120   22.40420   56.37910  119.43990  -15.58910
 8000.00000    2.47850   35.31630   -0.02690    0.02440    0.01310   24.07620   65.10730   74.77060  -45.80060
 8050.00000    2.78350   15.92630   -0.01640    0.01770    0.02420   12.27990   22.64070   43.48590  -86.88820
 8100.00000    2.48130   46.98790   -0.00150    0.00500    0.09960    5.42580    5.61110    6.89240  -12.26590
 8150.00000    2.18240   46.08430   -0.00750    0.02360    0.01860   20.20740   42.96910   73.81310   -8.33840
 8200.00000    2.30620   54.21670   -0.00940   -0.00160    0.04980   12.06320   19.25640   37.27290   -0.18200
 8250.00000    4.84300   73.41760    0.04780    0.34480    0.28500    3.06890    3.41700    3.25810   -1.38970
 8300.00000    4.90940   82.68150    0.04200    0.34930    0.34700    3.04350    3.32420    3.37210   -0.18010
 8350.00000    4.03480   67.54520    0.03430    0.22130    0.19230    4.29910    5.54400    6.01670    4.95470
 8400.00000    6.93590   82.90640    0.10320    0.23820    0.35000    3.19820    3.14590    4.08730    6.76740
 8450.00000    3.85650   78.16250   -0.01040    0.29500    0.18370    4.70130    4.78380    5.23530    6.76740
