~Version ---------------------------------------------------
VERS. 2.0 : CWLS log ASCII Standard -VERSION 2.0
WRAP.  NO : ONE LINE PER DEPTH STEP
~Well ------------------------------------------------------
STRT.F                    2550.0 : START DEPTH
STOP.F                   14550.0 : STOP DEPTH
STEP.F                  50.00000 : STEP LENGTH
NULL.                    -999.25 : NULL VALUE
COMP. CHAMPLIN PETROLEUM COMPANY : COMPANY
WELL.        KESELING UNIT II #1 : WELL
FLD .         NORTHEAST YORKTOWN : FIELD
LOC .                            : LOCATION
CNTY.                    DE WITT : COUNTY
STAT.                      TEXAS : STATE
CTRY.   UNITED STATES OF AMERICA : COUNTRY
SRVC.               Schlumberger : SERVICE COMPANY
DATE.                09-May-1979 : LOGDATE
API .             42123309670000 : API NUMBER
UWI .             42123309670000 : UNIQUE WELL ID
SLAT.WGS84         29.0130345675 : SURFACE LATITUDE
SLON.WGS84        -97.4839413883 : SURFACE LONGITUDE
~Curve Information -----------------------------------------
DEPT.F                 : 
DT  .US/F 60 520 00 00 : INTERVAL TRANSIT TIME
CALR.INI  07 280 01 00 : CALIPER FROM RESISTIVITY
ILM .OHMM 07 120 44 00 : INDUCTION LOG MEDIUM
DRHO.G/C3 45 356 01 00 : DENSITY CORRECTION
RHOB.G/C3 45 350 01 00 : BULK DENSITY
SPR .MV   07 010 01 00 : SPONTANEOUS POTENTIAL FROM RES.
ALL8.OHMM 07 221 08 00 : AMPLIFIED LATEROLOG-8
ILD .OHMM 07 120 46 00 : INDUCTION LOG DEEP
CALD.IN   45 280 60 00 : CALIPER FROM DENSITY LOG
GRD .GAPI 45 310 01 00 : GAMMA RAY FROM DENSITY LOG
DPHI.DEC  45 890 10 00 : DENSITY POROSITY LIMESTONE
NPHI.DEC  42 890 01 00 : NEUTRON POROSITY LIMESTONE
GRR .GAPI 07 310 01 00 : GAMMA RAY FROM RESISITIVITY LOG
CILD.MMHO 07 110 46 00 : CONDUCTIVITY INDUCTION LOG DEEP
~Params ----------------------------------------------------
PD  .                     GL : PERMANENT DATUM
EPD .F                 391.2 : ELEVATION PERMANENT DATUM
LMF .                     KB : LOG MEASURED FROM
DAPD.F                    14 : FEET ABOVE PERMANENT DATUM
DMF .                     KB : DRILLING MEASURED FROM
EKB .F                 405.2 : KELLING BUSHING
EDF .F                 404.2 : DRILLING FLOOR
EGL .F                 391.2 : GROUND LEVEL
DATE.                 5/7/79 : RUN DATE
RUN .                      2 : RUN NUMBER
DD  .F                 14600 : DEPTH DRILLER
DL  .F                 14592 : DEPTH LOGGER
BLI .F                 14586 : BOTTOM LOG INTERVAL
TLI .F                 10012 : TOP LOG INTERVAL
CS  .IN                10.75 : CASING SIZE
CBD .F                  2525 : CASING BOTTOM DRILLER
BS  .IN                 8.75 : BIT SIZE
BSD .F                 14600 : BIT SIZE AT DEPTH
DFT .                  GELEX : DRILLING FLUID TYPE
DFD .                   11.9 : DRILLING FLUID DENSITY
DFV .                     41 : DRILLING FLUID VISCOSITY
DFPH.                    8.5 : DRILLING FLUID PH
DFL .                    6.5 : DRILLING FLUID LOSS
MSS .               FLOWLINE : MUD SAMPLE SOURCE
RMS .OHMM               2.56 : RESISTIVITY MUD SAMPLE
MST .F                    75 : MUD SAMPLE TEMPERATURE
RMF .OHMM               2.39 : RESISTIVITY MUD FILTRATE SAMPLE
MFST.F                    75 : MUD FILTRATE SAMPLE TEMPERATURE
RMC .OHMM               3.84 : RESISTIVITY MUD CAKE
MCST.F                    75 : MUD CAKE SAMPLE TEMPERATURE
MFSS.                   MEAS : MUD FILTRATE SAMPLE SOURCE
MCSS.                   CALC : MUD CAKE SAMPLE SOURCE
RMB .OHMM              0.636 : RESISTIVITY MUD AT BHT
TCS .HRS                 900 : TIME CURCULATED STOPPED
TLAB.HRS                1730 : TIME LOGGER AT BOTTOM
LUN .                   8078 : LOGGING UNIT NUMBER
LUL .                 DAYTON : LOGGING UNIT LOCATION
ENGI.                WILKINS : RECORDING ENGINEER
WITN.              JOHNSTONE : WITNESSED BY
CLNT.                A2DTECH : CLIENT CODE
ORIG.           2", 5" PRINT : ORIGIN OF DATA
UWI .         42123309670000 : UNIQUE WELL ID
DICO. A2D Technologies, Inc. : DIGITIZING COMPANY
~Other -----------------------------------------------------
~ASCII -----------------------------------------------------
# ...
 12300.00000   88.15200    -999.25    1.89940    0.10720    2.54590  -40.90800    2.20000    1.92600   12.72350   69.13410    0.07960    0.29310    -999.25  561.72090
 12350.00000   86.51310    -999.25    2.22010    0.18870    2.58180  -41.10200    2.55100    2.06900   12.76120   68.92380    0.05920    0.25290    -999.25  472.82930
 12400.00000   86.66170    -999.25    2.19480    0.07140    2.39360  -41.40000    2.28100    2.27900   12.26570  110.23650    0.16430    0.27120    -999.25  455.07320
 12450.00000   79.65660    -999.25    2.65810    0.03470    2.56240  -38.89400    2.75100    2.56600   12.50740   75.11080    0.06840    0.20630    -999.25  417.65480
 12500.00000   86.06480    -999.25    1.84790    0.08560    2.27930  -42.22800    2.02100    1.92500   15.62680   74.91910    0.23470    0.29590    -999.25  541.87080
 12550.00000   77.57080    -999.25    3.62790    0.02350    2.56800  -40.37400    3.07700    3.27900   14.43250   60.44670    0.06670    0.18700    -999.25  319.49930
 12600.00000   89.74280    -999.25    1.73680    0.07590    2.38040  -41.32600    1.80900    1.85900   15.99300   81.49250    0.17420    0.30320    -999.25  614.41030
 12650.00000   85.94590    -999.25    2.03490    0.13420    2.47980  -41.18600    2.20800    2.07600   16.41790   72.26270    0.13520    0.26810    -999.25  511.06720
 12700.00000   86.34910    -999.25    2.05590    0.04340    2.54480  -40.10600    2.30900    2.08300   12.81970   74.55540    0.10790    0.26850    -999.25  519.97450
 12750.00000   83.80000    -999.25    2.62470    0.04190    2.44770  -37.80800    2.83300    2.79500   12.10690   62.68660    0.15450    0.28450    -999.25  382.60870
 12800.00000   88.00300    -999.25    2.45030    0.06120    2.43640  -38.24400    2.77500    2.70800   14.26380   68.28290    0.14490    0.28680    -999.25  345.84980
 12850.00000   79.21030    -999.25    2.72630    0.04820    2.55380  -39.34600    2.96000    2.54200   12.72810   64.92540    0.06420    0.23340    -999.25  413.70220
 12900.00000   82.63790    -999.25    2.27170    0.05190    2.55380  -38.89400    2.28700    2.08300   14.89780   72.89460    0.09420    0.26640    -999.25  489.72590
 12950.00000   85.76750    -999.25    2.16480    0.07290    2.47610  -42.60000    2.34800    2.08300   14.94520   65.68810    0.12440    0.25350    -999.25  491.28870
 13000.00000   88.74810    -999.25    1.87020    0.09860    2.48730  -40.52800    2.09200    2.03800   15.11850   72.10980    0.11870    0.25720    -999.25  549.09920
 13050.00000   85.91570    -999.25    2.17980    0.12970    2.46410  -38.72200    2.26000    2.14700   15.68330   79.49660    0.13540    0.25000    -999.25  490.11860
 13100.00000   53.53200    -999.25   19.65740    0.07460    2.53370  -39.89400    2.51600    2.29800   12.37970   96.73670    0.09660    0.20440    -999.25    -999.25
 13150.00000   82.71290    -999.25    2.40860    0.02130    2.60160  -37.04600    1.27700    2.45400   12.78890   78.13430    0.04690    0.18570    -999.25    -999.25
 13200.00000   83.09990    -999.25    2.42420    0.00490    2.52770  -40.80000    1.18200    2.41600   13.39450   77.07950    0.08970    0.20230    -999.25  398.51180
 13250.00000   78.80420    -999.25    3.15530    0.01120    2.45140  -40.91400    1.86100    2.92400   13.35820   76.17490    0.13570    0.19150    -999.25  341.65570
 13300.00000   80.40730    -999.25    2.40790    0.01910    2.60160  -38.22000    1.27700    2.37100   12.75660   65.71940    0.04690    0.18110    -999.25  399.01190
 13350.00000   65.60790    -999.25    9.92120    0.01910    2.62030  -41.26400    4.90400    8.16000   11.89020   41.42910    0.03480    0.05890    -999.25  140.90910
 13400.00000   88.49480    -999.25    2.44120    0.00780    2.46820  -43.33000    1.52900    3.93300   12.69620   73.03970    0.13790    0.17940    -999.25  395.49510
 13450.00000   55.26920    -999.25   39.08940    0.04100    2.67640  -50.64600   20.94700   30.70000   11.08950   22.93970    0.00320    0.00870    -999.25   32.73220
 13500.00000   56.44880    -999.25   13.98960    0.01230    2.64870  -48.18200   25.60300   18.31500   11.09350   22.91300    0.02420    0.03620    -999.25  107.10180
 13550.00000   55.88670    -999.25   27.81720    0.03100    2.65840  -45.53400   17.65500   30.50000   11.11620   29.99870    0.00800    0.01000    -999.25   41.69960
 13600.00000   54.72430    -999.25   51.63520    0.01010    2.64970  -48.87200   28.33800   36.05800   11.02120   22.41550    0.01650    0.00500    -999.25   26.86500
 13650.00000   55.91650    -999.25   33.72350    0.02930    2.68040  -41.37000   21.82500   30.00700   10.94320   28.25600    0.00400    0.00900    -999.25   37.69890
 13700.00000   55.73770    -999.25   48.20940    0.03180    2.69600  -54.55000   23.20300   43.98900   10.77620   22.20300   -0.00680    0.00230    -999.25   25.09880
 13750.00000   56.40560    -999.25   41.62990    0.01880    2.65100  -45.26000   21.90900   38.44300   10.75520   29.49350    0.02990    0.00670    -999.25   28.50790
 13800.00000   60.02730    -999.25   11.10260    0.04150    2.58820  -47.49000   20.87500   18.30400   10.79420   41.57560    0.04460    0.02120    -999.25   81.52360
 13850.00000   63.90420    -999.25   43.08870    0.03060    2.57730  -36.97000    -999.25   61.89700   10.90410   36.37850    0.04920    0.03810    -999.25   17.23070
 13900.00000   63.78570    -999.25   19.52390    0.02580    2.89460  -47.11200   32.46900    9.04400   10.86580   42.73500   -0.11570    0.19400    -999.25   87.94470
 13950.00000   85.53640    -999.25   20.62710    0.03880    2.48210  -43.37800   10.79000   14.49900   11.45930   71.86570    0.12270    0.16460    -999.25   65.81030
 14000.00000   91.44560    -999.25   12.15620    0.00480    2.51570  -41.95400   11.57000   15.53800   10.82830   75.43890    0.11590    0.20550    -999.25   65.87970
 14050.00000   92.96600    -999.25    6.46040    0.07220    2.54190  -40.33000    4.87300    7.58000   10.85700   85.04740    0.08320    0.21670    -999.25  143.12860
 14100.00000   91.14750    -999.25    8.84680    0.02820    2.50360  -44.44400    7.02500    9.36200   10.74360  107.12590    0.10040    0.21700    -999.25  113.95260
 14150.00000   86.19970    -999.25   22.64090    0.01980    2.47460  -41.99400   13.84300   19.32300   10.35830   97.00690    0.11820    0.18160    -999.25   55.13830
 14200.00000   87.08220    -999.25   10.82730    0.03920    2.49930  -46.99000   10.69500   11.02300   10.81080  102.03560    0.10830    0.24730    -999.25   97.80150
 14250.00000   55.92740    -999.25   22.02530    0.04070    2.72870  -44.18000   18.51300   27.62200    9.64180   33.66350   -0.00550    0.04710    -999.25   37.94470
 14300.00000   51.98180    -999.25   86.24300   -0.00040    2.68680  -42.06800   50.00000   79.30200    9.53600   23.39590   -0.00240    0.00670    -999.25   11.34370
 14350.00000   59.08670    -999.25   12.63910   -0.00640    2.69930  -34.65600   12.14900   16.14900    9.44780   52.47360   -0.00640    0.05640    -999.25   69.65260
 14400.00000   64.29310    -999.25    6.77600    0.04820    2.53510  -40.26800    9.93200    8.58200    9.69690   66.19720    0.08500    0.13010    -999.25  123.18810
 14450.00000   50.95860    -999.25   96.30850    0.01460    2.68160 -158.10000    -999.25    -999.25    9.02850   17.65740   -0.00700    0.00290    -999.25    1.78730
 14500.00000   49.67980    -999.25   51.78320    0.01820    2.67260 -147.27600   42.14800   65.43600    9.24900   15.77970    0.00070    0.00480    -999.25   15.03650
 14550.00000   52.00810    -999.25   16.83370    0.06690    2.61880 -164.72600   35.59400   21.99100    8.68190   18.28080    0.03890    0.02240    -999.25   53.63130
