~Version ---------------------------------------------------
VERS. 2.0 : CWLS log ASCII Standard -VERSION 2.0
WRAP.  NO : ONE LINE PER DEPTH STEP
~Well ------------------------------------------------------
STRT.F                   300.0 : START DEPTH
STOP.F                 14500.0 : STOP DEPTH
STEP.F                50.00000 : STEP LENGTH
NULL.                  -999.25 : NULL VALUE
COMP.     SUNDANCE OIL COMPANY : COMPANY
WELL.           N E SHORTER #1 : WELL
FLD .               FARRER, SE : FIELD
LOC .                          : LOCATION
CNTY.                LIMESTONE : COUNTY
STAT.                    TEXAS : STATE
CTRY. UNITED STATES OF AMERICA : COUNTRY
SRVC.            Dresser Atlas : SERVICE COMPANY
DATE.              01-Jul-1979 : LOGDATE
API .           42293304520000 : API NUMBER
UWI .           42293304520000 : UNIQUE WELL ID
SLAT.WGS84       31.4107756472 : SURFACE LATITUDE
SLON.WGS84      -96.2915378088 : SURFACE LONGITUDE
~Curve Information -----------------------------------------
DEPT   .F                 : 
ILD    .OHMM 07 120 46 00 : INDUCTION DEEP RESISTIVITY
ILM    .OHMM 07 120 44 00 : INDUCTION MEDIUM RESISTIVITY
SPR    .MV   07 010 01 00 : SPONTANEOUS POTENTIAL FROM RESISTIVITY LOG
SFL    .OHMM 07 220 06 00 : SPHERICALLY FOCUSED LOG
DPHI_SS.DEC  45 890 12 00 : DENSITY POROSITY SANDSTONE
NPHI_SS.DEC  42 890 03 00 : NEUTRON POROSITY SANDSTONE
CORR   .G/C3 45 356 01 00 : DENSITY CORRECTION
RHOB   .G/C3 45 350 01 00 : BULK DENSITY
DPHI_LS.DEC  45 890 10 00 : DENSITY POROSITY LIMESTONE
NPHI_LS.DEC  42 890 01 00 : NEUTRON POROSITY LIMESTONE
GRD    .GAPI 45 310 01 00 : GAMMA RAY FROM DENSITY LOG
CALD   .IN   45 280 60 00 : CALIPER FROM DENSITY LOG
~Params ----------------------------------------------------
PD  .                     GL : PERMANENT DATUM
EPD .FT                424.5 : ELEVATION PERMANENT DATUM
LMF .                     KB : LOG MEASURED FROM
DAPD.FT                 22.5 : FEET ABOVE PERMANENT DATUM
DMF .                     KB : DRILLING MEASURED FROM
EKB .FT                  447 : KELLY BUSHING
EDF .FT                  446 : DRILLING FLOOR
EGL .FT                424.5 : GROUND LEVEL
DATE.               07/01/79 : RUN DATE
RUN .                      2 : RUN NUMBER
DD  .FT                14500 : DEPTH DRILLER
DL  .FT                14503 : DEPTH LOGGER
BLI .FT                14501 : BOTTOM LOG INTERVAL
TLI .FT                 5360 : TOP LOG INTERVAL
CS  .IN                9.625 : CASING SIZE
CBD .FT                 5360 : CASING BOTTOM DRILLER
CBL .FT                 5360 : CASING BOTTOM LOGGER
BS  .IN                 8.75 : BIT SIZE
BSD .FT                14500 : BIT SIZE AT DEPTH
DFT .               GEE CHEM : DRILLING FLUID TYPE
DFD .                   12.1 : DRILLING FLUID DENSITY
DFV .                     45 : DRILLING FLUID VISCOSITY
DFPH.                     11 : DRILLING FLUID PH
DFL .                    8.8 : DRILLING FLUID LOSS
MSS .                    PIT : MUD SAMPLE SOURCE
RMS .OHMM               0.85 : RESISTIVITY MUD SAMPLE
MST .DEGF                 80 : MUD SAMPLE TEMPERATURE
RMF .OHMM               0.63 : RESISTIVITY MUD FILTRATE SAMPLE
MFST.DEGF                 80 : MUD FILTRATE SAMPLE TEMPERATURE
RMC .OHMM               1.01 : RESISTIVITY MUD CAKE
MCST.DEGF                 80 : MUD CAKE SAMPLE TEMPERATURE
MFSS.                    CAL : MUD FILTRATE SAMPLE SOURCE
MCSS.                    CAL : MUD CAKE SAMPLE SOURCE
RMB .OHMM               0.22 : RESISTIVITY MUD AT BHT
TCS .HRS                   6 : TIME CIRCULATED STOPPED
LUN .                   6104 : LOGGING UNIT NUMBER
LUL .                  TYLER : LOGGING UNIT LOCATION
ENGI.                 DELLVA : RECORDING ENGINEER
WITN.                 WALKER : WITNESSED BY
CLNT.                A2DTECH : CLIENT CODE
ORIG.          1" 2.5" PRINT : ORIGIN OF DATA
UWI .         42293304520000 : UNIQUE WELL ID
DICO. A2D Technologies, Inc. : DIGITIZING COMPANY
~Other -----------------------------------------------------
~ASCII -----------------------------------------------------
# ...
 5900.00000   11.18380    7.90760 -100.28180   26.63000    -999.25    -999.25   -0.01300    2.64380    0.04130    0.05900   40.27020    9.98050
 5950.00000    0.82530    0.74710  -75.53240    2.55100    -999.25    -999.25    0.03760    2.33510    0.17600    0.21550   73.47840   11.39260
 6000.00000   14.89800   11.28670 -116.41660   15.84500    -999.25    -999.25   -0.02480    2.64710    0.03530    0.02860   40.60170    9.13290
 6050.00000    6.95730    3.96000  -90.22020    8.00030    -999.25    -999.25   -0.01210    2.59740    0.08140    0.11010   62.81470    9.58770
 6100.00000   13.83790   11.12330 -105.67070   15.76020    -999.25    -999.25   -0.00090    2.67130    0.01380    0.03620   51.49670    8.58050
 6150.00000    7.34360    4.48290  -84.70060    8.20640    -999.25    -999.25    0.00810    2.66600    0.02930    0.08510   48.06880    9.00810
 6200.00000    5.00190    3.19630  -79.56900    8.59940    -999.25    -999.25    0.00360    2.66200    0.05340    0.11750   59.55260    9.77680
 6250.00000    2.41840    2.75790  -78.98690    3.07500    -999.25    -999.25    0.00780    2.53460    0.08000    0.14860   86.21710    9.18760
 6300.00000   13.11890   14.55500  -91.43840   21.95810    -999.25    -999.25   -0.01260    2.66070    0.02810    0.01800   43.10790    8.90390
 6350.00000   10.83880    9.18340 -103.69400   15.29150    -999.25    -999.25   -0.02090    2.64800    0.02740    0.03910   36.07270    9.55680
 6400.00000    2.75970    1.77060  -78.08030    3.19500    -999.25    -999.25    0.04040    2.51290    0.16240    0.17540   58.16310   12.32870
 6450.00000    1.40850    1.08010  -71.34240    1.58830    -999.25    -999.25   -0.11130    2.21570    0.29010    0.24730   57.59030   13.23130
 6500.00000    2.88940    2.08600  -77.48690    2.42920    -999.25    -999.25    0.02310    2.51620    0.10650    0.12320   48.79730   11.86910
 6550.00000    4.46760    3.35150  -81.59680    6.36110    -999.25    -999.25   -0.02240    2.61060    0.08560    0.08970   43.53590   10.60810
 6600.00000    1.10850    0.69370  -74.36120    1.84770    -999.25    -999.25   -0.02880    2.36140    0.27410    0.18760   68.79940   11.82780
 6650.00000    7.13310    5.86880  -90.93240    8.10480    -999.25    -999.25   -0.01200    2.66450    0.02330    0.04770   38.53130   10.59390
 6700.00000    4.30770    4.36570  -86.06020    6.09550    -999.25    -999.25   -0.00440    2.66940    0.02170    0.07100   43.06860   11.66960
 6750.00000    9.89780    7.58900  -93.30370   16.70600    -999.25    -999.25   -0.02220    2.64690    0.02940    0.02100   49.61300   10.74500
 6800.00000    6.43880    7.27020  -87.23790   10.54750    -999.25    -999.25   -0.02100    2.65320    0.02460    0.06220   44.89180   10.78470
 6850.00000    2.06910    2.18780  -81.20550    2.92120    -999.25    -999.25    0.03290    2.41980    0.17160    0.18960   62.30060   11.54880
 6900.00000    8.09580    6.80260  -90.48490    8.12390    -999.25    -999.25   -0.00010    2.65390    0.02820    0.05690   46.66370   10.43900
 6950.00000    6.98820    3.23310  -83.23070    5.61140    -999.25    -999.25    0.02720    2.66680    0.05220    0.06990   46.79380   10.24120
 7000.00000    1.31270    1.07110  -79.12680    2.64530    -999.25    -999.25    0.02250    2.25880    0.28080    0.26730   79.80350   11.40850
 7050.00000    5.78950    3.32790  -80.51870    7.73980    -999.25    -999.25   -0.01190    2.64610    0.04040    0.08760   56.28020   10.07220
 7100.00000    8.99100    6.91630  -91.75460   17.21420    -999.25    -999.25   -0.00730    2.67750    0.01410    0.05280   50.59390    9.75230
 7150.00000    4.12170    2.21740  -82.85250    3.77350    -999.25    -999.25    0.01310    2.53690    0.14230    0.12250   59.15930   10.57370
 7200.00000    7.14590    4.92800  -93.50670   17.51360    -999.25    -999.25   -0.00990    2.62820    0.03360    0.07160   46.37050   10.27070
 7250.00000   14.80530   12.18940 -107.16810   31.84720    -999.25    -999.25   -0.01640    2.66500    0.02010    0.02570   41.92620    9.94310
 7300.00000   10.00080    8.22320  -92.04810   21.52610    -999.25    -999.25   -0.01430    2.65070    0.02340    0.02960   39.97870   10.33000
 7350.00000    1.16870    1.09100  -75.44360    3.83480    -999.25    -999.25   -0.03000    2.21690    0.30230    0.17360   67.37330   11.96610
 7400.00000    8.49650    7.39640  -85.39650    9.30180    -999.25    -999.25   -0.00740    2.68180    0.01730    0.06340   46.79930    9.82740
 7450.00000    7.24050    3.68240  -77.98160    8.48820    -999.25    -999.25   -0.06940    2.55320    0.23770    0.11840   55.59100   11.19030
 7500.00000   11.47520    8.42690 -103.82230   26.45100    -999.25    -999.25   -0.01690    2.66270    0.02390    0.04480   44.57660    9.47110
 7550.00000   27.06310   17.81640 -135.54120   87.49460    -999.25    -999.25    0.02720    2.64980    0.02430    0.01100   40.10890    9.82030
 7600.00000   17.52930   11.56020 -108.66870   62.85870    -999.25    -999.25    0.04010    2.71400   -0.00760    0.01440   37.18850    9.95770
 7650.00000   14.34960   12.98470 -128.24060   44.96920    -999.25    -999.25    0.00230    2.67720    0.01210    0.02300   45.18210    9.82710
 7700.00000   18.82350   14.14980 -129.93310   45.07610    -999.25    -999.25    0.05990    2.69350    0.00870    0.01770   53.98500    9.31810
 7750.00000    7.70890    5.68670 -105.43760    9.52270    -999.25    -999.25    0.02060    2.69180    0.01090    0.16640   55.36670   10.92900
 7800.00000   10.68350    9.63910  -83.86580   14.45800    -999.25    -999.25    0.00530    2.66430    0.02460    0.14050   43.98660   10.37130
 7850.00000   25.90030   19.35090 -138.99680   42.69300    -999.25    -999.25   -0.01910    2.66200   -0.00300    0.08380   45.24710    9.60110
 7900.00000   23.91610   14.20570 -146.98930   43.14240    -999.25    -999.25   -0.00630    2.68490    0.02190    0.10440   51.60420   10.04650
 7950.00000   17.34600   13.00010 -160.30690   48.62440    -999.25    -999.25    0.05850    2.68820    0.01820    0.06840   29.94300    9.31700
 8000.00000   19.50760   14.85490 -141.85070   28.48160    -999.25    -999.25   -0.03680    2.61940    0.04510    0.08010   38.15900    9.85250
 8050.00000    8.57200    7.78930  -94.15640   10.47930    -999.25    -999.25   -0.02270    2.67890    0.02730    0.13320   46.79400    9.75270
 8100.00000    5.12100    3.14580  -67.04680    7.14160    -999.25    -999.25    0.02860    2.62400    0.24310    0.25860   65.26510   10.79060
 8150.00000    8.24930    6.04830  -69.48780    7.91090    -999.25    -999.25   -0.00950    2.64560    0.01280    0.13970   48.91860   10.21920
 8200.00000    3.03170    4.14200  -59.21460    3.33140    -999.25    -999.25    0.00830    2.21450    0.12060    0.29710   55.78420   11.03750
 8250.00000    5.09680    3.73500  -59.00000    4.54690    -999.25    -999.25    0.06370    2.56120    0.10190    0.37680   77.60300   12.34220
 8300.00000    2.35630    1.80490  -44.78050    2.93570    -999.25    -999.25    0.06360    2.36190    0.21650    0.40560   85.13960   12.24760
 8350.00000    7.45670    5.59760  -56.30470    6.66300    -999.25    -999.25    0.01870    2.58510    0.08920    0.23170   63.43590   10.67750
 8400.00000    8.29570    6.23890  -54.80920    9.18990    -999.25    -999.25   -0.00320    2.63340    0.01250    0.20800   51.80310   10.50180
 8450.00000    2.55160    2.08080  -48.78990    3.25230    -999.25    -999.25    0.05320    2.18150    0.13600    0.36130   71.41230   11.02760
 8500.00000   22.09440   19.82170 -113.49410   49.50110    -999.25    -999.25    0.00030    2.70250    0.00260    0.11900   61.54760   10.32330
 8550.00000   19.28010   16.81300 -145.55350   38.41800    -999.25    -999.25    0.03210    2.57740    0.00690    0.09790   46.11280   10.08560
 8600.00000   24.42210   23.32320 -134.51400   73.10840    -999.25    -999.25    0.00060    2.65460    0.02710    0.06900   38.21480    9.63590
 8650.00000   20.82140   18.89340 -135.02770   45.87380    -999.25    -999.25   -0.00280    2.59470    0.00050    0.08830   49.88360    9.77320
