~Version ---------------------------------------------------
VERS. 2.0 : CWLS log ASCII Standard -VERSION 2.0
WRAP.  NO : ONE LINE PER DEPTH STEP
~Well ------------------------------------------------------
STRT.F                  3350.0 : START DEPTH
STOP.F                  7950.0 : STOP DEPTH
STEP.F                50.00000 : STEP LENGTH
NULL.                  -999.25 : NULL VALUE
COMP. AMOCO PRODUCTION COMPANY : COMPANY
WELL.      VINCE COURT UNIT #1 : WELL
FLD .              KURTEN-BUDA : FIELD
LOC .                          : LOCATION
CNTY.                   BRAZOS : COUNTY
STAT.                    TEXAS : STATE
CTRY. UNITED STATES OF AMERICA : COUNTRY
SRVC.                          : SERVICE COMPANY
DATE.                          : LOGDATE
API .           42041311980000 : API NUMBER
UWI .           42041311980000 : UNIQUE WELL ID
SLAT.WGS84       30.6431592207 : SURFACE LATITUDE
SLON.WGS84      -96.5350556976 : SURFACE LONGITUDE
~Curve Information -----------------------------------------
DEPT.F                 : 
TEND.LBS  45 635 01 00 : TENSION FROM DENSITY LOG
CALD.IN   45 280 60 00 : CALIPER FROM DENSITY LOG
CORR.G/C3 45 356 01 00 : DENSITY CORRECTION
RHOB.G/C3 45 350 01 00 : BULK DENSITY
GRD .GAPI 45 310 01 00 : GAMMA RAY FROM DENSITY LOG
NPOR.DEC  42 890 01 00 : ALPHA PROCESSED NEUTRON POROSITY
TENR.LBS  07 635 01 00 : TENSION FROM RESISTIVITY
SPR .MV   07 010 01 00 : SPONTANEOUS POTENTIAL
ILM .OHMM 07 120 44 00 : INDUCTION LOG MEDIUM RESISTIVITY
ILD .OHMM 07 120 46 00 : DEEP INDUCTION RESISTIVITY
SGRD.OHMM 07 220 05 00 : SHALLOW SHORT GUARD RESISTIVITY
~Params ----------------------------------------------------
EKB .F                 256.6 : KELLY BUSHING
EGL .F                 241.1 : ELEVATION GROUND LEVEL
EDF .F                 255.6 : ELEVATION DERRICK FLOOR
EPD .F                 241.1 : ELEVATION PERMANENT DATUM
TD  .F                7937.0 : TOTAL DEPTH
DATE.            30-OCT-1984 : DATE LOGGED
CLNT.                A2DTECH : CLIENT CODE
SL  . 660' FNEL & 5270' FNWL : SURFACE LOCATION
PD  .                     GL : PERMANENT DATUM
LMF .                    TKB : LOG MEASURED FROM
DMF .                    TKB : DRILLING MEASURED FROM
DAPD.F                  14.5 : FEET ABOVE PERMANENT DATUM
DD  .F                  7937 : DEPTH DRILLER
DL  .F                  7954 : DEPTH LOGGER
BLI .F                  7952 : BOTTOM LOG INTERVAL
TLI .F                  3384 : TOP LOG INTERVAL
CS1 .IN                8.625 : CASING SIZE
CBD1.         8.625" @ 3360' : CASING DRILLER 1
CBL1.F                  3384 : CASING LOGGER 1
BS1 .IN                7.875 : BIT SIZE
BSD1.F                  7937 : DEPTH DRILLED WITH BIT1
DFT .            POLYMER MUD : TYPE FLUID IN HOLE
DFD .                    9.4 : DENSITY
DFV .                     42 : VISCOSITY
DFPH.                    9.2 : PH
DFL .                    6.2 : FLUID LOSS
MSS .               FLOWLINE : SOURCE OF SAMPLE
RMS .OHMM               3.94 : RM
RMF .OHMM               4.18 : RMF
RMC .OHMM               3.33 : RMC
MFSS.                   MEAS : SOURCE RMF.
MCSS.                   MEAS : SOURCE RMC.
RMB .OHMM               1.54 : RM. AT BHT
BHT .F                   210 : BHT.
TCS .HRS                   3 : TIME CIRC. STOPPED
TLAB.HRS                 155 : TIME LOGGER AT BOTTOM
LUN .                   2909 : LOGGING UNIT NUMBER
LUL .                  BRYAN : LOGGING UNIT LOCATION
ENGI.                 MCENCY : RECORDED BY
WITN.               SEPAOLIS : WITNESSED BY
ORIG.               5" PRINT : ORIGIN OF DATA
UWI .         42041311980000 : UNIQUE WELL ID
DICO. A2D TECHNOLOGIES, INC. : DIGITIZING COMPANY
~Other -----------------------------------------------------
~ASCII -----------------------------------------------------
 3350.00000    -999.25    -999.25    -999.25    -999.25    -999.25    0.37900    -999.25    -999.25    -999.25    -999.25    -999.25
 3400.00000 1190.55800   11.50400    0.15300    2.28700  108.15700    0.29100 1015.85700  -72.80900    3.16700    2.99600    4.30700
 3450.00000 1112.39900   11.88300    0.05500    2.18500   71.01000    0.30600 1007.92200  -84.69900    3.69500    3.31200    3.90400
 3500.00000 1156.90200   11.58500    0.07600    2.28900   98.87500    0.29900 1013.85200  -80.03300    3.35400    3.27900    3.41400
 3550.00000 1172.87900   10.53300    0.10200    2.25700   88.58600    0.30000 1005.84300  -94.89700    4.39500    4.01100    4.61200
 3600.00000 1167.47000    8.33000    0.05700    2.21100   89.36600    0.30400  998.55600 -107.52200    5.08100    4.13200    7.79600
 3650.00000 1176.76290    9.04100    0.07100    2.30100   88.70800    0.31600 1009.07000  -74.72800    2.36300    2.32000    2.69000
 3700.00000 1179.03410    9.34400    0.10000    2.32300  102.24200    0.30300 1013.51900  -73.27400    2.19600    2.15600    2.34100
 3750.00000 1190.51600    9.39300    0.10000    2.37100  102.47200    0.30600 1006.92100  -72.31900    2.31200    2.27100    2.38400
 3800.00000 1276.06800    8.52600    0.04100    2.31900   94.19800    0.30300 1011.58300  -75.15300    2.63600    2.58800    3.10700
 3850.00000 1288.45500    8.61900    0.12000    2.38000  104.35900    0.30700 1018.22300  -72.16600    2.52500    2.44100    2.57700
 3900.00000 1329.03000    8.75800    0.11900    2.39600   89.82900    0.30100 1024.91100  -71.99800    2.59400    2.55400    2.61300
 3950.00000 1315.78890    8.90000    0.08700    2.37200   93.65200    0.29800 1030.48500  -72.21500    2.50100    2.43900    2.53900
 4000.00000 1316.82800    9.62600    0.12200    2.41900   93.85400    0.29900 1035.67900  -70.98400    2.08800    2.04700    2.16800
 4050.00000 1324.75500   10.41000    0.11300    2.38400  101.78000    0.30300 1043.28100  -70.56000    1.53800    1.51100    1.73200
 4100.00000 1315.78890   11.05400    0.09900    2.42400  102.69400    0.28000 1084.69900  -72.05300    1.99600    1.96000    2.07900
 4150.00000 1326.35600   11.15500    0.07600    2.42000  102.73400    0.31100 1088.14000  -73.60100    1.48100    1.45500    1.59600
 4200.00000 1325.72000   11.64100    0.05400    2.41500  103.44200    0.29100 1099.22400  -70.50300    1.49000    1.46300    1.62500
 4250.00000 1355.51100   11.11900    0.05500    2.37100  105.13700    0.30300 1105.05510 -170.27200    1.35700    1.33200    1.52000
 4300.00000 1338.19490   10.67700    0.06600    2.43700  121.05800    0.30700 1124.87600 -165.22900    1.59600    1.56700    1.67000
 4350.00000 1357.56700   10.34400    0.09300    2.48000  112.80800    0.29600 1120.84200 -165.70000    1.60500    1.57600    1.65500
 4400.00000 1365.31990   10.78700    0.07800    2.36900  108.91200    0.29700 1124.55400 -161.83100    1.24300    1.22400    1.39300
 4450.00000 1375.37190   10.71100    0.08200    2.34900  100.87000    0.29200 1125.52700 -159.07800    1.04100    1.02200    1.19100
 4500.00000 1378.68200    9.80900    0.05300    2.36600  109.79700    0.32600 1117.01790 -156.44600    1.13800    1.11400    1.31700
 4550.00000 1395.23300    8.27900    0.02100    2.39900   88.78200    0.28400 1165.48210 -160.91200    2.23700    2.19600    2.26100
 4600.00000 1394.37100    8.28000    0.12000    2.41000   84.59700    0.30600 1233.89500 -160.95000    1.78500    1.75200    1.97100
 4650.00000 1395.23300    8.83600    0.13600    2.38400   98.70500    0.30700 1233.89500 -154.48500    1.50600    1.47800    1.70800
 4700.00000 1425.02500    8.46600    0.14000    2.34900   88.80200    0.29500 1219.87190 -155.83900    1.64200    1.61200    1.75000
 4750.00000 1420.90200    9.76600    0.11200    2.33000   97.05900    0.31400 1260.02600 -155.74500    1.31700    1.29300    1.51300
 4800.00000 1415.09400    9.87100    0.13800    2.35400   96.67000    0.30600 1263.62700 -150.68200    1.29500    1.26300    1.49700
 4850.00000 1434.95500    9.58200    0.09900    2.26400   92.14800    0.33100 1282.36210 -153.57700    1.22300    1.20100    1.32900
 4900.00000 1459.45700    9.21200    0.09400    2.30400   87.37900    0.30400 1298.66700 -147.24900    1.34200    1.31700    1.47400
 4950.00000 1453.39400    9.21900    0.08200    2.28100   99.72600    0.32600 1283.44900 -143.88500    1.02700    1.00800    1.24700
 5000.00000 1457.09900    9.35900    0.10600    2.33400  107.79600    0.32600 1283.44900 -147.22200    1.36100    1.33600    1.50800
 5050.00000 1474.67700    8.81600    0.13200    2.38900   86.31600    0.30300 1293.36000 -146.29800    1.67600    1.59200    1.80400
 5100.00000 1522.11900    8.01100    0.08000    2.39900   86.57900    0.30000 1300.69490 -142.55400    1.78800    1.72300    1.93300
 5150.00000 1557.58400    8.04100    0.00300    2.40700   80.08100    0.28200 1313.18100 -138.19000    1.82500    1.79200    1.87100
 5200.00000 1534.26000    8.20600    0.12100    2.35800   94.04500    0.28800 1303.68800 -137.30100    1.64000    1.61000    1.68500
 5250.00000 1540.69200    8.75700    0.11500    2.31700  112.24500    0.31900 1323.09200 -131.33400    1.09800    1.06800    1.14600
 5300.00000 1514.39900   10.22000    0.09100    2.39900  106.10000    0.29300 1332.16700 -134.28400    1.27400    1.25500    1.28800
 5350.00000 1520.60000   10.09300    0.11000    2.37300   99.02700    0.29300 1348.94700 -134.50700    1.22400    1.20200    1.20300
 5400.00000 1553.27910    8.66900    0.07800    2.34600  109.78500    0.31600 1382.55700 -129.66300    1.06600    1.04600    1.01400
 5450.00000 1602.78100    8.38100    0.12800    2.43400  106.45400    0.29300 1382.55700 -132.18000    1.51800    1.49100    1.47700
 5500.00000 1556.41390    9.35300    0.09800    2.26800  143.54500    0.30000 1396.36800 -128.11600    1.11000    1.09000    1.03200
 5550.00000 1581.12400    9.05900    0.12200    2.42300  106.35900    0.28300 1399.07100 -134.34500    1.76500    1.73300    1.69900
 5600.00000 1564.05200    9.22000    0.12600    2.42300   98.18000    0.27800 1411.46590 -132.83300    1.73900    1.69400    1.65000
 5650.00000 1577.93400    9.80200    0.12100    2.37900   93.86400    0.29000 1394.52600 -127.96400    1.26700    1.24400    1.24100
 5700.00000 1601.28700    9.85900    0.17100    2.41200   94.45800    0.30400 1393.82400 -130.08200    1.60500    1.57600    1.57800
 5750.00000 1616.72600    9.54700    0.14200    2.30400  123.60900    0.31100 1402.37900 -128.66000    1.08700    1.06800    1.03900
 5800.00000 1583.91300   10.08200    0.10700    2.43700  110.02100    0.29500 1393.75100 -130.44200    1.29700    1.27300    1.26400
 5850.00000 1626.06100   10.53400    0.10700    2.36300  109.97100    0.31200 1415.78500 -129.96000    1.12000    1.08500    1.14900
 5900.00000 1643.49600    9.74500    0.14800    2.45200   90.26400    0.29300 1445.22200 -132.50200    1.47000    1.44400    1.51900
 5950.00000 1696.59400    8.61300    0.04600    2.59400   58.88400    0.17000 1471.75400 -128.80200    2.66400    2.51300    2.65200
 6000.00000 1696.65300    8.58400    0.04400    2.60700   49.46100    0.16700 1481.66500 -130.23200    3.34200    3.28200    3.56300
 6050.00000 1730.38900    8.46000    0.02000    2.57800   46.48000    0.17000 1491.50100 -127.66700    3.59800    3.47400    3.98300
 6100.00000 1748.65000    8.85000    0.06000    2.53700   81.82900    0.19100 1507.25600 -126.28800    2.61500    2.56800    2.54200
 6150.00000 1715.00500    9.45000    0.04500    2.54100   90.86900    0.21000 1509.51400 -123.21400    2.48800    2.42100    2.48500
 6200.00000 1686.41600    9.47000    0.01200    2.49800   85.94100    0.20300 1510.35000 -123.50400    2.77600    2.72600    2.60700
 6250.00000 1710.91390    9.91500    0.04300    2.53300   81.11400    0.19800 1517.82900 -125.05000    2.81000    2.72300    2.66100
 6300.00000 1695.17100   10.02900    0.02200    2.42400   62.56000    0.18700 1536.89400 -143.84600    2.57400    2.44600    2.34100
 6350.00000 1696.48710    8.93500    0.03900    2.55700   91.50300    0.25500 1564.66800 -119.49200    2.19700    2.00500    2.23700
