~Version ---------------------------------------------------
VERS. 2.0 : CWLS log ASCII Standard -VERSION 2.0
WRAP. YES : MULTIPLE LINES PER DEPTH STEP
~Well ------------------------------------------------------
STRT.FT                  550.0 : START DEPTH
STOP.FT                 4850.0 : STOP DEPTH
STEP.FT               50.00000 : STEP LENGTH
NULL.                  -999.25 : NULL VALUE
COMP.      KAISER OIL USA LTD. : COMPANY
WELL.     CONNELLY JOHN B. #1A : WELL
FLD .                       WC : FIELD
LOC .                          : LOCATION
CNTY.                   WILSON : COUNTY
STAT.                    TEXAS : STATE
CTRY. UNITED STATES OF AMERICA : COUNTRY
SRVC.             Schlumberger : SERVICE COMPANY
DATE.              01-May-1982 : LOGDATE
API .           42493311060000 : API NUMBER
UWI .           42493311060000 : UNIQUE WELL ID
SLAT.WGS84       29.1269044783 : SURFACE LATITUDE
SLON.WGS84      -98.3133795575 : SURFACE LONGITUDE
~Curve Information -----------------------------------------
DEPT    .FT    : DEPTH FEET
CALWS   .IN    : CALIPER [DCALRED+8.875]
CONDWS  .MMHO  : CONDUCTIVITY [1000/DRESWS]
DCALRED .IN    : DIFFERENTIAL CALIPER FROM RESISTIVITY LOG
DCORWS  .G/C3  : DENSITY CORRECTION [DRHOED]
DENWS   .G/C3  : BULK DENSITY [CALCULATED FROM DPOWS][M=2.65 F=1.0]<4150>[M=2.71 F=1.0]
DPHILSED.V/V   : DENSITY POROSITY [M=2.71 F=1.0] FROM IDN LOG
DPHISSED.V/V   : DENSITY POROSITY [M=2.65 F=1.0] FROM IDN LOG
DPOWS   .V/V   : DENSITY POROSITY [M=2.65 F=1.0][DPHISSED]<4150>[M=2.71 F=1.0] [DPHILSED]
DRESWS  .OHMM  : DEEP RESISTIVITY [ILDED]
DRHOED  .G/C3  : DENSITY CORRECTION FROM IDN LOG
GRRED   .GAPI  : GAMMA RAY FROM RESISTIVITY LOG
GRWS    .GAPI  : GAMMA RAY [GRRED]
ILDED   .OHMM  : INDUCTION LOG DEEP RESISTIVITY
ILMED   .OHMM  : INDUCTION LOG MEDIUM RESISTIVITY
MRESWS  .OHMM  : MEDIUM RESISTIVITY [ILMED]
NPHILSED.V/V   : NEUTRON POROSITY LIMESTONE FROM IDN LOG
NPHISSED.V/V   : NEUTRON POROSITY SANDSTONE FROM IDN LOG
NPOWS   .V/V   : NEUTRON POROSITY SANDSTONE [NPHISSED]<4150>[NPHILSED]
SFLUED  .OHMM  : SPHERICALLY FOCUSED LOG RESISTIVITY
SPRED   .MV    : SPONTANEOUS POTENTIAL FROM RESISTIVITY LOG
SPWS    .MV    : SPONTANEOUS POTENTIAL [BASELINE 0 MV] [SPRED]
SRESWS  .OHMM  : SHALLOW RESISTIVITY [SFLUED]
TENRED  .LBF   : TENSION FROM RESISTIVITY LOG
~Params ----------------------------------------------------
PD  .                     GL : PERMANENT DATUM
EPD .FT                  551 : ELEVATION PERMANENT DATUM
LMF .                     KB : LOG MEASURED FROM
DAPD.FT                   10 : FEET ABOVE PERMANENT DATUM
DMF .                     KB : DRILLING MEASURED FROM
EKB .FT                  561 : KELLY BUSHING
EDF .FT                  560 : DRILLING FLOOR
EGL .FT                  551 : GROUND LEVEL
DATE.               05/01/82 : RUN DATE
RUN .                      1 : RUN NUMBER
DD  .FT                 4859 : DEPTH DRILLER
DL  .FT                 4856 : DEPTH LOGGER
BLI .FT                 4850 : BOTTOM LOG INTERVAL
TLI .FT                  510 : TOP LOG INTERVAL
CS  .IN                8.875 : CASING SIZE
CBD .FT                  500 : CASING BOTTOM DRILLER
CBL .FT                  510 : CASING BOTTOM LOGGER
BS  .IN                7.375 : BIT SIZE
BSD .FT                 4859 : BIT SIZE AT DEPTH
DFT .               LIG SULF : DRILLING FLUID TYPE
DFD .                    9.6 : DRILLING FLUID DENSITY
DFV .                     45 : DRILLING FLUID VISCOSITY
DFPH.                    8.6 : DRILLING FLUID PH
DFL .                    5.4 : DRILLING FLUID LOSS
MSS .                    PIT : MUD SAMPLE SOURCE
RMS .OHMM               1.01 : RESISTIVITY MUD SAMPLE
MST .DEGF                 75 : MUD SAMPLE TEMPERATURE
RMF .OHMM               0.96 : RESISTIVITY MUD FILTRATE SAMPLE
MFST.DEGF                 75 : MUD FILTRATE SAMPLE TEMPERATURE
RMC .OHMM                  2 : RESISTIVITY MUD CAKE
MCST.DEGF                 75 : MUD CAKE SAMPLE TEMPERATURE
MFSS.                    CAL : MUD FILTRATE SAMPLE SOURCE
MCSS.                    CAL : MUD CAKE SAMPLE SOURCE
RMB .OHMM              0.583 : RESISTIVITY MUD AT BHT
TCS .HRS                 100 : TIME CIRCULATED STOPPED
TLAB.HRS                 500 : TIME LOGGER AT BOTTOM
LUN .                   8258 : LOGGING UNIT NUMBER
LUL .             PLEASANTON : LOGGING UNIT LOCATION
ENGI.        HILTON COMSTOCK : RECORDING ENGINEER
WITN.                 PAVONA : WITNESSED BY
CLNT.                A2DTECH : CLIENT CODE
ORIG.               5" PRINT : ORIGIN OF DATA
UWI .         42493311060000 : UNIQUE WELL ID
DICO. A2D Technologies, Inc. : DIGITIZING COMPANY
~Other -----------------------------------------------------
~ASCII -----------------------------------------------------
# ...
 3650.00000    9.55450  496.30260    0.67950    0.09870    2.39640    -999.25    0.15370    0.15370    2.01490    0.09870   84.38300   84.38300    2.01490    2.15180    2.15180    -999.25    0.43970    0.43970    2.15190  -22.45260   -9.48260    2.15190 1906.16110
 3700.00000   10.55050  740.79560    1.67550    0.05760    2.21590    -999.25    0.26310    0.26310    1.34990    0.05760  101.90780  101.90780    1.34990    1.40170    1.40170    -999.25    0.43360    0.43360    1.32430  -15.68670   -3.48480    1.32430 1888.17160
 3750.00000   10.55970  673.76370    1.68470    -999.25    -999.25    -999.25    -999.25    -999.25    1.48420    -999.25   92.95400   92.95400    1.48420    1.67440    1.67440    -999.25    -999.25    -999.25    1.56900  -16.85980   -5.42590    1.56900 1881.90840
 3800.00000   11.24800  773.87400    2.37300    -999.25    -999.25    -999.25    -999.25    -999.25    1.29220    -999.25  103.48430  103.48430    1.29220    1.45930    1.45930    -999.25    -999.25    -999.25    1.33690  -13.43520   -2.76940    1.33690 1944.31230
 3850.00000   11.30570  833.88920    2.43070    -999.25    -999.25    -999.25    -999.25    -999.25    1.19920    -999.25   97.86640   97.86640    1.19920    1.36700    1.36700    -999.25    -999.25    -999.25    1.25840  -15.89960   -6.00180    1.25840 1976.85550
 3900.00000   11.28190  826.10490    2.40690    -999.25    -999.25    -999.25    -999.25    -999.25    1.21050    -999.25   96.79180   96.79180    1.21050    1.36930    1.36930    -999.25    -999.25    -999.25    1.28920  -14.00250   -4.87280    1.28920 1954.07450
 3950.00000   11.27990  751.76670    2.40490    -999.25    -999.25    -999.25    -999.25    -999.25    1.33020    -999.25  100.03680  100.03680    1.33020    1.47700    1.47700    -999.25    -999.25    -999.25    1.31480  -14.98810   -6.62640    1.31480 1939.44970
 4000.00000   10.74020 1061.90930    1.86520    -999.25    -999.25    -999.25    -999.25    -999.25    0.94170    -999.25  100.40980  100.40980    0.94170    1.07650    1.07650    -999.25    -999.25    -999.25    1.03830  -14.12330   -6.52970    1.03830 1991.77370
 4050.00000   12.41010 1114.20620    3.53510    -999.25    -999.25    -999.25    -999.25    -999.25    0.89750    -999.25   92.14590   92.14590    0.89750    1.01880    1.01880    -999.25    -999.25    -999.25    1.03490  -13.83340   -7.54350    1.03490 1987.07810
 4100.00000   11.93630  561.67150    3.06130    -999.25    -999.25    -999.25    -999.25    -999.25    1.78040    -999.25   98.64950   98.64950    1.78040    2.01080    2.01080    -999.25    -999.25    -999.25    1.77970  -15.55230  -10.70010    1.77970 1991.33910
 4150.00000   12.19210  420.62760    3.31710    0.05110    2.43690    0.15970    -999.25    0.15970    2.37740    0.05110   90.36930   90.36930    2.37740    2.67600    2.67600    0.27500    -999.25    0.27500    2.39910  -11.03180   -7.61720    2.39910 2021.33300
 4200.00000   12.31330  447.96840    3.43830    0.04720    2.45910    0.14670    -999.25    0.14670    2.23230    0.04720   96.89420   96.89420    2.23230    2.60170    2.60170    0.26670    -999.25    0.26670    2.50010   -7.85560   -5.87870    2.50010 2022.15940
 4250.00000   11.50640  273.89010    2.63140    0.01350    2.52120    0.11040    -999.25    0.11040    3.65110    0.01350   57.98850   57.98850    3.65110    3.93450    3.93450    0.20960    -999.25    0.20960    3.47740   -7.53410   -6.99480    3.47740 2060.12820
 4300.00000   11.31360  293.04890    2.43860    0.00030    2.52020    0.11100    -999.25    0.11100    3.41240    0.00030   59.22790   59.22790    3.41240    3.74030    3.74030    0.21830    -999.25    0.21830    3.60870   -3.63000   -4.52840    3.60870 2051.67990
 4350.00000   11.50070  371.62290    2.62570    0.00240    2.49740    0.12430    -999.25    0.12430    2.69090    0.00240   75.58920   75.58920    2.69090    2.93000    2.93000    0.22820    -999.25    0.22820    2.91280   -0.48130   -2.81730    2.91280 2099.46920
 4400.00000   11.12750  271.79080    2.25250    0.00860    2.53580    0.10190    -999.25    0.10190    3.67930    0.00860   52.68390   52.68390    3.67930    3.96850    3.96850    0.16530    -999.25    0.16530    3.84880   -1.40700   -5.18070    3.84880 2108.99220
 4450.00000   11.96040  234.40610    3.08540    0.01730    2.57290    0.08020    -999.25    0.08020    4.26610    0.01730   53.03010   53.03010    4.26610    4.40750    4.40750    0.16540    -999.25    0.16540    4.05400    1.38070   -4.26420    4.05400 2111.95360
 4500.00000   11.23700  333.74500    2.36200    0.00130    2.50040    0.12260    -999.25    0.12260    2.99630    0.00130   63.36970   63.36970    2.99630    3.26230    3.26230    0.21680    -999.25    0.21680    2.94120    0.56130   -7.22060    2.94120 2123.75930
 4550.00000   10.12540  101.93470    1.25040    0.01210    2.62090    0.05210    -999.25    0.05210    9.81020    0.01210   32.28360   32.28360    9.81020   11.12930   11.12930    0.08800    -999.25    0.08800   11.79400   -8.36910  -18.28800   11.79400 2144.36720
 4600.00000    9.91100  154.76040    1.03600    0.00090    2.60470    0.06160    -999.25    0.06160    6.46160    0.00090   35.30380   35.30380    6.46160    7.13020    7.13020    0.09610    -999.25    0.09610   10.19090   -1.51540  -13.57130   10.19090 2181.80420
 4650.00000   10.92360  191.58190    2.04860    0.02090    2.41720    0.17120    -999.25    0.17120    5.21970    0.02090  106.16800  106.16800    5.21970    5.50690    5.50690    0.28370    -999.25    0.28370    5.68850   -0.41190  -14.60480    5.68850 2199.35400
 4700.00000    9.55720  112.26240    0.68220    0.09780    2.56940    0.08220    -999.25    0.08220    8.90770    0.09780   17.83290   17.83290    8.90770    9.18920    9.18920    0.07360    -999.25    0.07360    8.57980  -41.81000  -58.13990    8.57980 2150.78760
 4750.00000    9.19510   76.63360    0.32010    0.00010    2.61710    0.05430    -999.25    0.05430   13.04910    0.00010   17.89170   17.89170   13.04910   13.73440   13.73440    0.06160    -999.25    0.06160   11.70500  -58.76270  -77.22950   11.70500 2247.21040
 4800.00000    9.80390  389.25650    0.92890    0.05400    2.62140    0.05180    -999.25    0.05180    2.56900    0.05400   92.89740   92.89740    2.56900    2.78960    2.78960    0.25560    -999.25    0.25560    3.45640    8.71020  -11.89360    3.45640 2393.40380
 4850.00000    8.20670   31.00320   -0.66830    -999.25    -999.25    -999.25    -999.25    -999.25   32.25470    -999.25    -999.25    -999.25   32.25470   32.96550   32.96550    -999.25    -999.25    -999.25   36.62840   -4.81880  -27.55960   36.62840 2227.66850
