~Version ---------------------------------------------------
VERS.      2.0 : CWLS log ASCII Standard -VERSION 2.0
WRAP.      YES : Multiple lines per depth step
CREA. 01/04/18 : LAS Creation Date
~Well ------------------------------------------------------
STRT.FT                         3450.0 : START DEPTH
STOP.FT                        13850.0 : STOP DEPTH
STEP.FT                       50.00000 : STEP LENGTH
NULL.                          -999.25 : NULL VALUE
COMP.          TORCH OPERATING COMPANY : COMPANY
WELL.           CAROLYN WARMKE UNIT #1 : WELL
FLD .                          WILDCAT : FIELD
LOC .                                  : LOCATION
CNTY.                          FAYETTE : COUNTY
STAT.                            TEXAS : STATE
CTRY.         UNITED STATES OF AMERICA : COUNTRY
SRVC. HALLIBURTON LOGGING SERVICES INC : SERVICE COMPANY
DATE.                      31-Dec-1991 : LOGDATE
API .                   42149325050000 : API NUMBER
UWI .                   42149325050000 : UNIQUE WELL ID
SLAT.WGS84               30.0718798257 : SURFACE LATITUDE
SLON.WGS84              -96.6577022662 : SURFACE LONGITUDE
~Curve Information -----------------------------------------
DEPT    .FT    : DEPTH FEET
CALRED  .IN    : CALIPER FROM DIL/SDL/DSN LOG
CALWS   .IN    : CALIPER [TOP DCALRD+BIT 13316' CALRED]
CONDWS  .MMHO  : DEEP CONDUCTIVITY [1000/DRESWS]
CORRED  .G/C3  : DENSITY CORRECTION FROM DIL/SDL/DSN LOG
DCALED  .IN    : DIFFERENTIAL CALIPER FROM DENSITY LOG
DENWS   .G/C3  : BULK DENSITY [CALC. FROM DPOLSWS]
DPHILSED.V/V   : DENSITY POROSITY (LS) [M=2.71 F=1.0] FROM DIL/SDL/DSN LOG
DPOLSWS .V/V   : DENSITY POROSITY LIMESTONE [M=2.71 F=1.0] [DPHILSED]
DRESWS  .OHMM  : DEEP RESISTIVITY [ILDED]
DTED    .US/F  : DELTA TIME FROM DIL/LSS LOG
DTWS    .US/F  : DELTA TIME COMPRESSIONAL [DTED]
GRRED   .GAPI  : GAMMA RAY FROM RESISTIVITY LOG
GRWS    .GAPI  : GAMMA RAY [GRRED]
ILDED   .OHMM  : INDUCTION LOG DEEP RESISTIVITY
ILMED   .OHMM  : INDUCTION LOG MEDIUM RESISTIVITY
MRESWS  .OHMM  : MEDIUM RESISTIVITY [ILMED]
NPHILSED.V/V   : NEUTRON POROSITY LIMESTONE FROM DIL/SDL/DSN LOG
NPOLSWS .V/V   : NEUTRON POROSITY LIMESTONE [NPHILSED]
SGUARDED.OHMM  : SHORT GUARD RESISTIVITY
SNED    .OHMM  : 16 INCH SHORT NORMAL RESISTIVITY FROM IEL LOG
SPRED   .MV    : SPONTANEOUS POTENTIAL FROM RESISTIVITY LOG
SPWS    .MV    : SPONTANEOUS POTENTIAL [BASELINE 0 MV] [SPRED]
SRESWS  .OHMM  : SHALLOW RESISTIVITY [TOP SGUARDED 13320' SNED]
TENRED  .LBF   : TENSION FROM RESISTIVITY LOG
~Params ----------------------------------------------------
PD  .                     GL : PERMANENT DATUM
EPD .FT                  387 : ELEVATION PERMANENT DATUM
LMF .                    TKB : LOG MEASURED FROM
DAPD.FT                 22.1 : FEET ABOVE PERMANENT DATUM
DMF .                    TKB : DRILLING MEASURED FROM
EKB .FT                409.1 : KELLY BUSHING
EDF .FT                407.8 : DRILLING FLOOR
EGL .FT                  387 : GROUND LEVEL
DATE.             12/31/1991 : RUN DATE
RUN .                      2 : RUN NUMBER
DD  .FT                13866 : DEPTH DRILLER
DL  .FT                13790 : DEPTH LOGGER
BLI .FT                13788 : BOTTOM LOG INTERVAL
TLI .FT                13316 : TOP LOG INTERVAL
CS  .IN                  6.5 : CASING SIZE
CBD .FT                13316 : CASING BOTTOM DRILLER
CBL .FT                13316 : CASING BOTTOM LOGGER
BS  .IN                 4.75 : BIT SIZE
BSD .FT                13866 : BIT SIZE AT DEPTH
DFT .                    CLS : DRILLING FLUID TYPE
DFD .                   10.6 : DRILLING FLUID DENSITY
DFV .                     45 : DRILLING FLUID VISCOSITY
DFPH.                    9.9 : DRILLING FLUID PH
DFL .                    6.2 : DRILLING FLUID LOSS
MSS .               FLOWLINE : MUD SAMPLE SOURCE
RMS .OHMM               0.86 : RESISTIVITY MUD SAMPLE
MST .DEGF                 75 : MUD SAMPLE TEMPERATURE
RMF .OHMM               0.72 : RESISTIVITY MUD FILTRATE SAMPLE
MFST.DEGF                 75 : MUD FILTRATE SAMPLE TEMPERATURE
RMC .OHMM                1.1 : RESISTIVITY MUD CAKE
MCST.DEGF                 75 : MUD CAKE SAMPLE TEMPERATURE
MFSS.                   MEAS : MUD FILTRATE SAMPLE SOURCE
MCSS.                   MEAS : MUD CAKE SAMPLE SOURCE
RMB .OHMM              0.241 : RESISTIVITY MUD AT BHT
TCS .HRS                1630 : TIME CIRCULATED STOPPED
TLAB.HRS                2324 : TIME LOGGER AT BOTTOM
LUN .                   7678 : LOGGING UNIT NUMBER
LUL .                   VICT : LOGGING UNIT LOCATION
ENGI.         STAPP ROBINSON : RECORDING ENGINEER
WITN.                HOLLIER : WITNESSED BY
CLNT.                A2DTECH : CLIENT CODE
ORIG.               5" PRINT : ORIGIN OF DATA
UWI .         42149325050000 : UNIQUE WELL ID
DICO. A2D Technologies, Inc. : DIGITIZING COMPANY
~Other -----------------------------------------------------
DIL/SDL/DSN PRESENTD FROM TD TO 10600'; DIL/LSS FROM 10600' TO CASING.
ALL POROSITY LOGS RAN ON LIMESTONE MATRIX.
DID NOT RACH TO TD WITH IEL.
LOGS WERE RAN SEPARATELY THEN MURGED TOGETHER.
~ASCII -----------------------------------------------------
# ...
 10700.00000    -999.25   16.29100  659.63060    0.09610    6.41600    2.39190    0.18600    0.18600    1.51600    -999.25    -999.25   80.13710   80.13710    1.51600    1.50400    1.50400    0.26820    0.26820    1.66100    -999.25  -58.90300  -13.80580    1.66100 4026.65090
 10750.00000    -999.25   15.44800  677.96610    0.08920    5.57300    2.48430    0.13200    0.13200    1.47500    -999.25    -999.25  109.93670  109.93670    1.47500    1.49600    1.49600    0.27190    0.27190    1.65900    -999.25  -62.84700  -16.84410    1.65900 4030.63310
 10800.00000    -999.25   14.67500  582.75060    0.10160    4.80000    2.43130    0.16300    0.16300    1.71600    -999.25    -999.25   79.86960   79.86960    1.71600    1.73900    1.73900    0.30140    0.30140    1.97500    -999.25  -70.86300  -23.95440    1.97500 4105.24170
 10850.00000    -999.25   14.36200  678.88660   -0.09620    4.48700    1.91310    0.46600    0.46600    1.47300    -999.25    -999.25   70.99990   70.99990    1.47300    1.51000    1.51000    0.38260    0.38260    1.67000    -999.25  -75.25500  -27.44070    1.67000 4096.99460
 10900.00000    -999.25   12.11600  497.76010    0.06370    2.24100    2.50990    0.11700    0.11700    2.00900    -999.25    -999.25   91.63910   91.63910    2.00900    1.99500    1.99500    0.19890    0.19890    2.16800    -999.25  -81.20000  -32.48000    2.16800 4081.33500
 10950.00000    -999.25   13.48300  578.70370    0.05860    3.60800    2.45180    0.15100    0.15100    1.72800    -999.25    -999.25   79.93860   79.93860    1.72800    1.73900    1.73900    0.29540    0.29540    1.75800    -999.25  -80.04000  -30.41430    1.75800 4217.43550
 11000.00000    -999.25   12.92000  666.22250    0.02990    3.04500    2.30810    0.23500    0.23500    1.50100    -999.25    -999.25   67.98460   67.98460    1.50100    1.42400    1.42400    0.38570    0.38570    1.55800    -999.25  -79.39000  -28.85850    1.55800 4019.23900
 11050.00000    -999.25   12.60800  481.23200    0.05480    2.73300    2.42780    0.16500    0.16500    2.07800    -999.25    -999.25   71.81920   71.81920    2.07800    1.92100    1.92100    0.24190    0.24190    2.48600    -999.25  -80.85900  -29.42180    2.48600 4154.20950
 11100.00000    -999.25   12.05400  612.74510    0.09640    2.17900    2.44150    0.15700    0.15700    1.63200    -999.25    -999.25   68.74770   68.74770    1.63200    1.63800    1.63800    0.29960    0.29960    1.86700    -999.25  -79.66500  -27.32210    1.86700 4129.32960
 11150.00000    -999.25   11.08700  169.34800   -0.00390    1.21200    2.55440    0.09100    0.09100    5.90500    -999.25    -999.25   52.77780   52.77780    5.90500    6.59100    6.59100    0.13110    0.13110    8.07000    -999.25  -85.53100  -32.28240    8.07000 4189.59420
 11200.00000    -999.25   12.12800  360.49030    0.00330    2.25300    2.56120    0.08700    0.08700    2.77400    -999.25    -999.25   65.22860   65.22860    2.77400    2.92800    2.92800    0.13980    0.13980    3.11700    -999.25  -83.44800  -29.29370    3.11700 4256.63920
 11250.00000    -999.25   12.09500  288.01840   -0.00470    2.22000    2.55440    0.09100    0.09100    3.47200    -999.25    -999.25   59.67540   59.67540    3.47200    3.67700    3.67700    0.18310    0.18310    4.19500    -999.25  -82.04000  -26.98000    4.19500 4302.16500
 11300.00000    -999.25   11.81800  244.61840   -0.00420    1.94300    2.57320    0.08000    0.08000    4.08800    -999.25    -999.25   53.75630   53.75630    4.08800    4.67500    4.67500    0.15460    0.15460    5.21200    -999.25  -81.64500  -25.67930    5.21200 4209.37110
 11350.00000    -999.25   12.54900  309.88530    0.00140    2.67400    2.58180    0.07500    0.07500    3.22700    -999.25    -999.25   59.45520   59.45520    3.22700    3.45600    3.45600    0.19710    0.19710    3.96500    -999.25  -79.25800  -22.38660    3.96500 4260.71580
 11400.00000    -999.25   12.47000  423.37000    0.00670    2.59500    2.53730    0.10100    0.10100    2.36200    -999.25    -999.25   60.42370   60.42370    2.36200    2.42700    2.42700    0.27550    0.27550    2.79800    -999.25  -74.91300  -17.13590    2.79800 4178.75830
 11450.00000    -999.25   12.37300  436.87200    0.02800    2.49800    2.53050    0.10500    0.10500    2.28900    -999.25    -999.25   68.66800   68.66800    2.28900    2.41800    2.41800    0.25940    0.25940    2.77400    -999.25  -74.10800  -15.42520    2.77400 4162.40580
 11500.00000    -999.25   12.12900  467.72680    0.02900    2.25400    2.52870    0.10600    0.10600    2.13800    -999.25    -999.25   66.57360   66.57360    2.13800    2.38500    2.38500    0.27430    0.27430    2.66200    -999.25  -73.30500  -13.71650    2.66200 4209.23540
 11550.00000    -999.25   11.82800  301.47720    0.00380    1.95300    2.56290    0.08600    0.08600    3.31700    -999.25    -999.25   71.03780   71.03780    3.31700    3.60200    3.60200    0.17950    0.17950    4.00300    -999.25  -73.63900  -13.14480    4.00300 4224.59860
 11600.00000    -999.25   11.34200  436.68120    0.00120    1.46700    2.54410    0.09700    0.09700    2.29000    -999.25    -999.25   69.35410   69.35410    2.29000    2.54700    2.54700    0.19660    0.19660    3.16600    -999.25  -68.87000   -7.47000    3.16600 4284.21970
 11650.00000    -999.25   10.90400  167.02860   -0.01190    1.02900    2.59030    0.07000    0.07000    5.98700    -999.25    -999.25   49.48300   49.48300    5.98700    6.41200    6.41200    0.09830    0.09830    7.98800    -999.25  -69.29800   -6.99230    7.98800 4319.29790
 11700.00000    -999.25   12.97100  455.16610    0.04530    3.09600    2.51510    0.11400    0.11400    2.19700    -999.25    -999.25   74.82600   74.82600    2.19700    2.69000    2.69000    0.25270    0.25270    2.88800    -999.25  -64.57100   -1.24230    2.88800 4354.77100
 11750.00000    -999.25   16.48700  534.47350    0.06220    6.61200    2.48600    0.13100    0.13100    1.87100    -999.25    -999.25   57.12520   57.12520    1.87100    1.99700    1.99700    0.37520    0.37520    2.00400    -999.25  -62.87000    1.54230    2.00400 4300.73780
 11800.00000    -999.25   15.72900  567.21500    0.02280    5.85400    2.04990    0.38600    0.38600    1.76300    -999.25    -999.25   56.90150   56.90150    1.76300    1.85600    1.85600    0.42650    0.42650    1.74900    -999.25  -62.98100    2.51480    1.74900 4406.79000
 11850.00000    -999.25   15.82500  511.77070    0.12010    5.95000    2.46380    0.14400    0.14400    1.95400    -999.25    -999.25   57.52800   57.52800    1.95400    2.06400    2.06400    0.40200    0.40200    1.96800    -999.25  -66.55300    0.02630    1.96800 4404.60990
 11900.00000    -999.25   13.60200  508.13010    0.10660    3.72700    2.40900    0.17600    0.17600    1.96800    -999.25    -999.25   64.20370   64.20370    1.96800    2.07900    2.07900    0.37560    0.37560    1.97100    -999.25  -68.85300   -1.19010    1.97100 4469.29930
 11950.00000    -999.25   13.18400  506.84240    0.11680    3.30900    2.36460    0.20200    0.20200    1.97300    -999.25    -999.25   62.23960   62.23960    1.97300    2.17000    2.17000    0.34850    0.34850    2.07900    -999.25  -73.25400   -4.50760    2.07900 4474.23190
 12000.00000    -999.25   10.47800   41.44220   -0.00210    0.60300    2.63820    0.04200    0.04200   24.13000    -999.25    -999.25   26.22360   26.22360   24.13000   28.64800   28.64800    0.03760    0.03760   32.41700    -999.25  -91.75600  -24.86650   32.41700 4390.01950
 12050.00000    -999.25   10.73100   64.18900   -0.01000    0.85600    2.62620    0.04900    0.04900   15.57900    -999.25    -999.25   28.19310   28.19310   15.57900   17.44500   17.44500    0.06680    0.06680   21.47100    -999.25  -98.09700  -33.25220   21.47100 4444.85740
 12100.00000    -999.25   10.47000   68.31070   -0.00320    0.59500    2.63480    0.04400    0.04400   14.63900    -999.25    -999.25   40.97680   40.97680   14.63900   16.54000   16.54000    0.04710    0.04710   19.77200    -999.25  -93.08900  -30.28880   19.77200 4442.40620
