~Version ---------------------------------------------------
VERS. 2.0 : CWLS log ASCII Standard -VERSION 2.0
WRAP.  NO : ONE LINE PER DEPTH STEP
~Well ------------------------------------------------------
STRT.FT                            300.0 : START DEPTH
STOP.FT                          22000.0 : STOP DEPTH
STEP.FT                         50.00000 : STEP LENGTH
NULL.                            -999.25 : NULL VALUE
COMP. PAN AMERICAN PETROLEUM CORPORATION : COMPANY
WELL.                  A. M. FOERSTER #1 : WELL
FLD .                            WILDCAT : FIELD
LOC .                                    : LOCATION
CNTY.                           LA SALLE : COUNTY
STAT.                              TEXAS : STATE
CTRY.           UNITED STATES OF AMERICA : COUNTRY
SRVC.                       Schlumberger : SERVICE COMPANY
DATE.                        20-Aug-1964 : LOGDATE
API .                     42283002040000 : API NUMBER
UWI .                     42283002040000 : UNIQUE WELL ID
SLAT.WGS84                 28.3371650608 : SURFACE LATITUDE
SLON.WGS84                -98.9649233845 : SURFACE LONGITUDE
~Curve Information -----------------------------------------
DEPT  .FT    : DEPTH
CONDWS.MMHO  : CONDUCTIVITY [CILDED] FROM IEL
ILDED .OHMM  : INDUCTION LOG DEEP RESISTIVITY FROM IEL
ASNED .OHMM  : SHORT NORMAL RESISTIVITY 16 INCH FROM IEL
CILDED.MMHO  : CONDUCTIVITY FROM IEL
DRESWS.OHMM  : DEEP RESISTIVITY [ILDED] FROM IEL [IF ILDED < 1 THEN 1000/CILDED]
DTWS  .US/F  : DELTA TIME FROM SONIC LOG
NEUTWS.CU    : NEUTRON FROM GAMMA RAY NEUTRON LOG
GRNED .GAPI  : GAMMA RAY FROM NEUTRON LOG
NEUTED.NAPI  : NEUTRON  FROM GAMMA RAY NEUTRON LOG
SPED  .MV    : SPONTANEOUS POTENTIAL [MECHANICAL SHIFTS REMOVED]
SPWS  .MV    : SPONTANEOUS POTENTIAL [BASELINE 0 MV]
CALSED.IN    : CALIPER FROM SONIC LOG
DTED  .US/F  : DELTA TIME FROM SONIC LOG
SRESWS.OHMM  : SHALLOW RESISTIVITY [ASNED] FROM IEL
GRWS  .GAPI  : GAMMA RAY [GRNED] FROM GAMMA RAY NEUTRON LOG
CALWS .IN    : CALIPER [CALSED] FROM SONIC LOG
SPSED .MV    : SPONTANEOUS POTENTIAL FROM SONIC LOG [MECHANICAL SHIFTS REMOVED]
~Params ----------------------------------------------------
EKB .F                 473.5 : KELLY BUSHING
EGL .F                   445 : ELEVATION GROUND LEVEL
EDF .F                   471 : ELEVATION DERRICK FLOOR
EPD .F                   445 : ELEVATION PERMANENT DATUM
TD  .F               21995.0 : TOTAL DEPTH
DATE.            20-AUG-1964 : DATE LOGGED
CLNT.                A2DTECH : CLIENT CODE
SL  .   1320' FSL & 660' FWL : SURFACE LOCATION
PD  .                     GL : PERMANENT DATUM
LMF .                     KB : LOG MEASURED FROM
DMF .                     KB : DRILLING MEASURED FROM
DAPD.F                  28.5 : FEET ABOVE PERMANENT DATUM
DD  .F                 21995 : DEPTH DRILLER
DL  .F                 21992 : DEPTH LOGGER
BLI .F                 21991 : BOTTOM LOG INTERVAL
TLI .F                 20005 : TOP LOG INTERVAL
CS1 .IN                9.625 : CASING SIZE
CBD1.        9.625" @ 15993' : CASING DRILLER 1
CBL1.F                 15993 : CASING LOGGER 1
BS1 .IN                  8.5 : BIT SIZE
BSD1.F                 21995 : DEPTH DRILLED WITH BIT1
DFT .              XP-20-O.E : TYPE FLUID IN HOLE
DFD .                   18.4 : DENSITY
DFV .                     54 : VISCOSITY
DFPH.                    8.9 : PH
DFL .                      4 : FLUID LOSS
MSS .                MUD/PIT : SOURCE OF SAMPLE
RMS .OHMM               0.15 : RM
RMF .OHMM              0.089 : RMF
RMC .OHMM               0.32 : RMC
MFSS.                   MEAS : SOURCE RMF.
MCSS.                   MEAS : SOURCE RMC.
RMB .OHMM              0.046 : RM. AT BHT
BHT .F                   404 : BHT.
TCS .HRS                  10 : TIME CIRC. STOPPED
LUN .                   4526 : LOGGING UNIT NUMBER
LUL .                    KEN : LOGGING UNIT LOCATION
ENGI.                  HARSH : RECORDED BY
WITN.          FREEMAN/WALSH : WITNESSED BY
ORIG.          1" & 5" PRINT : ORIGIN OF DATA
UWI .         42283002040000 : UNIQUE WELL ID
DICO. A2D TECHNOLOGIES, INC. : DIGITIZING COMPANY
~Other -----------------------------------------------------
~ASCII -----------------------------------------------------
# ...
 18550.00000  202.20400    6.11520    4.61000  202.20400    6.11520   68.45500  998.97000  170.06100  998.97000  -74.03200   -8.55970    9.08700   68.45500    4.61000  170.06100    9.08700  -18.69100
 18600.00000  241.17400    5.58020    4.41400  241.17400    5.58020   71.82100  782.47900  177.33800  782.47900  -65.73700   -0.59790    8.72800   71.82100    4.41400  177.33800    8.72800  -17.89200
 18650.00000  264.81300    5.24280    4.65500  264.81300    5.24280   73.21200  978.70700  172.51100  978.70700  -68.00400   -1.61730    8.31400   73.21200    4.65500  172.51100    8.31400  -22.72900
 18700.00000  291.45000    4.49380    3.64500  291.45000    4.49380   74.35200  899.28600  170.36100  899.28600  -70.24400   -2.60980    8.89000   74.35200    3.64500  170.36100    8.89000  -15.31000
 18750.00000  264.03000    4.67760    4.35500  264.03000    4.67760   69.41800 1057.59900  152.52000 1057.59900  -70.20000   -1.31820    8.41100   69.41800    4.35500  152.52000    8.41100  -21.74300
 18800.00000  243.69500    3.70370    4.21300  243.69500    3.70370   71.07400  882.54100  155.15700  882.54100  -70.90600   -0.77660    8.29300   71.07400    4.21300  155.15700    8.29300  -19.90000
 18850.00000  240.39700    5.13600    4.68300  240.39700    5.13600   70.46800  925.84600  164.73400  925.84600  -70.63800    0.73900    7.54200   70.46800    4.68300  164.73400    7.54200  -25.87200
 18900.00000  122.92400    8.76500    6.94100  122.92400    8.76500   69.23600 1001.47200  120.43300 1001.47200  -73.34800   -0.72350    7.26400   69.23600    6.94100  120.43300    7.26400  -17.26000
 18950.00000  304.53600    3.87300    4.38900  304.53600    3.87300   71.49200  931.28700  159.52500  931.28700  -74.57700   -1.30020   11.24000   71.49200    4.38900  159.52500   11.24000  -26.29300
 19000.00000  177.06600    5.93600    4.15600  177.06600    5.93600   67.80600    -999.25  171.08600    -999.25  -77.22600   -4.32130   11.37400   67.80600    4.15600  171.08600   11.37400  -20.24000
 19050.00000  299.61000    3.98000    3.14400  299.61000    3.98000   76.87600    -999.25    -999.25    -999.25  -75.49000   -5.10030   11.16400   76.87600    3.14400    -999.25   11.16400  -22.06600
 19100.00000  193.61200    5.19600    4.03000  193.61200    5.19600   69.78300    -999.25    -999.25    -999.25  -72.76000   -4.88520   10.64000   69.78300    4.03000    -999.25   10.64000  -17.72300
 19150.00000  144.57100    7.17100    4.29200  144.57100    7.17100   68.85900    -999.25    -999.25    -999.25  -69.19300   -3.83320   10.69100   68.85900    4.29200    -999.25   10.69100  -18.46900
 19200.00000   38.70900   30.48900   10.29200   38.70900   30.48900   55.74100    -999.25    -999.25    -999.25  -72.02300   -9.17820    9.43100   55.74100   10.29200    -999.25    9.43100  -11.67300
 19250.00000  160.38700    6.45700    5.98500  160.38700    6.45700   63.90000    -999.25    -999.25    -999.25  -67.62600   -7.29620    9.97200   63.90000    5.98500    -999.25    9.97200  -13.76200
 19300.00000  182.41000    5.33100    5.07800  182.41000    5.33100   59.16700    -999.25    -999.25    -999.25  -69.31600  -11.02600    9.20000   59.16700    5.07800    -999.25    9.20000  -19.78600
 19350.00000  253.84700    4.36500    4.43000  253.84700    4.36500   72.82100    -999.25    -999.25    -999.25  -64.75400   -5.81130   10.21100   72.82100    4.43000    -999.25   10.21100  -15.43000
 19400.00000  113.36800    9.58600    5.62700  113.36800    9.58600   62.94800    -999.25    -999.25    -999.25  -61.90200   -2.30650    9.32200   62.94800    5.62700    -999.25    9.32200  -18.17500
 19450.00000  107.72400   13.20500    5.32400  107.72400   13.20500   61.39000    -999.25    -999.25    -999.25  -65.73500   -5.48680    9.32300   61.39000    5.32400    -999.25    9.32300  -25.13900
 19500.00000  160.89000    6.43900    5.06800  160.89000    6.43900   65.43600    -999.25    -999.25    -999.25  -70.53200   -9.63110    9.36800   65.43600    5.06800    -999.25    9.36800  -26.40300
 19550.00000  147.41800    7.10700    4.74500  147.41800    7.10700   68.79000    -999.25    -999.25    -999.25  -67.55100   -5.99740    9.35000   68.79000    4.74500    -999.25    9.35000  -28.74300
 19600.00000   51.49900   23.32200    6.80400   51.49900   23.32200   62.49300    -999.25    -999.25    -999.25  -70.52200   -8.31560    9.40200   62.49300    6.80400    -999.25    9.40200  -27.08000
 19650.00000  187.12600    5.96400    3.87100  187.12600    5.96400   67.04300    -999.25    -999.25    -999.25  -66.91700   -4.05790   10.02200   67.04300    3.87100    -999.25   10.02200  -22.68900
 19700.00000  215.70400    5.06500    3.75000  215.70400    5.06500   71.79800    -999.25    -999.25    -999.25  -64.97600   -1.01360   10.62900   71.79800    3.75000    -999.25   10.62900  -20.80500
 19750.00000  218.30500    4.57000    3.63000  218.30500    4.57000   66.05000    -999.25    -999.25    -999.25  -68.56500   -2.69820   10.09100   66.05000    3.63000    -999.25   10.09100  -20.58500
 19800.00000  182.70900    5.46200    4.15100  182.70900    5.46200   70.82600    -999.25    -999.25    -999.25  -66.88400    0.88720   10.20500   70.82600    4.15100    -999.25   10.20500  -20.56500
 19850.00000  156.08600    7.56700    4.15100  156.08600    7.56700   64.59000    -999.25    -999.25    -999.25  -70.16700   -0.49140    9.76500   64.59000    4.15100    -999.25    9.76500  -29.18300
 19900.00000  105.53200   10.68100    6.14200  105.53200   10.68100   63.74300    -999.25    -999.25    -999.25  -69.88800   -2.54210    7.81100   63.74300    6.14200    -999.25    7.81100  -35.75000
 19950.00000  106.93600   10.42800    4.33600  106.93600   10.42800   63.89700    -999.25    -999.25    -999.25  -67.41900   -0.44810    7.35000   63.89700    4.33600    -999.25    7.35000  -20.41600
 20000.00000   99.15900   12.14700    4.23600   99.15900   12.14700   64.77600    -999.25    -999.25    -999.25  -69.06500   -2.46910    8.30200   64.77600    4.23600    -999.25    8.30200  -16.23200
 20050.00000  180.47400    6.85200    4.33700  180.47400    6.85200   63.50200    -999.25    -999.25    -999.25  -67.03500   -0.81410    8.07800   63.50200    4.33700    -999.25    8.07800  -20.99300
 20100.00000   48.34400   20.53300    7.27400   48.34400   20.53300   53.27400    -999.25    -999.25    -999.25  -69.31700   -3.47100    9.02400   53.27400    7.27400    -999.25    9.02400  -26.45400
 20150.00000   13.35600   81.16200   31.58100   13.35600   81.16200   51.36700    -999.25    -999.25    -999.25  -64.69100    0.78000    9.27100   51.36700   31.58100    -999.25    9.27100  -20.68200
 20200.00000   32.27500   29.71600   20.03700   32.27500   29.71600   51.72100    -999.25    -999.25    -999.25  -68.55600   -3.46000    9.56500   51.72100   20.03700    -999.25    9.56500  -19.49100
 20250.00000   35.37700   30.10600   22.22900   35.37700   30.10600   39.78100    -999.25    -999.25    -999.25  -67.69200   -2.97100    7.29700   39.78100   22.22900    -999.25    7.29700  -45.31500
 20300.00000   20.66000   50.44200   17.65700   20.66000   50.44200   51.80300    -999.25    -999.25    -999.25  -68.64600   -4.30000    7.39600   51.80300   17.65700    -999.25    7.39600  -21.61000
 20350.00000   33.23300   30.17800   19.34300   33.23300   30.17800   53.42100    -999.25    -999.25    -999.25  -75.08000  -10.57210    7.80100   53.42100   19.34300    -999.25    7.80100  -23.50300
 20400.00000   55.09900   19.49100   17.82000   55.09900   19.49100   53.23400    -999.25    -999.25    -999.25  -83.97600  -19.08690    8.22200   53.23400   17.82000    -999.25    8.22200  -30.89200
 20450.00000   80.96800   13.27000   10.82200   80.96800   13.27000   39.82100    -999.25    -999.25    -999.25  -86.16500  -20.89470    9.07500   39.82100   10.82200    -999.25    9.07500  -26.17200
 20500.00000   22.91100   42.77800   19.45100   22.91100   42.77800   59.91100    -999.25    -999.25    -999.25  -89.47400  -23.82250    7.72400   59.91100   19.45100    -999.25    7.72400  -40.72100
