~Version ---------------------------------------------------
VERS. 2.0 : CWLS log ASCII Standard -VERSION 2.0
WRAP. YES : Multiple lines per depth step
~Well ------------------------------------------------------
STRT.FT                 3750.0 : START DEPTH
STOP.FT                15800.0 : STOP DEPTH
STEP.FT               50.00000 : STEP LENGTH
NULL.                  -999.25 : NULL VALUE
COMP.        EOG RESOURCES INC : COMPANY
WELL.         JOHNSON A B  #1R : WELL
FLD .             BRANTON WEST : FIELD
LOC .                          : LOCATION
CNTY.                     LEON : COUNTY
STAT.                    TEXAS : STATE
CTRY. UNITED STATES OF AMERICA : COUNTRY
SRVC.             Schlumberger : SERVICE COMPANY
DATE.              24-Sep-2006 : LOGDATE
API .           42289315440000 : API NUMBER
UWI .           42289315440000 : UNIQUE WELL ID
SLAT.WGS84       31.3479375148 : SURFACE LATITUDE
SLON.WGS84      -96.2310147208 : SURFACE LONGITUDE
~Curve Information -----------------------------------------
DEPT    .FT        : DEPTH FEET
AT10ED  .OHMM      : 10 INCH RESISTIVITY TWO FOOT RESOLUTION FROM AIT LOG
AT20ED  .OHMM      : 20 INCH RESISTIVITY TWO FOOT RESOLUTION FROM AIT LOG
AT30ED  .OHMM      : 30 INCH RESISTIVITY TWO FOOT RESOLUTION FROM AIT LOG
AT60ED  .OHMM      : 60 INCH RESISTIVITY TWO FOOT RESOLUTION FROM AIT LOG
AT90ED  .OHMM      : 90 INCH RESISTIVITY TWO FOOT RESOLUTION FROM AIT LOG
CALWS   .IN        : CALIPER [DCALED+BITS]
CONDWS  .MMHO      : CONDUCTIVITY [1000/DRESWS]
DCALED  .IN        : DIFFERENTIAL CALIPER FROM AIT LOG
DCORWS  .G/C3      : DENSITY CORRECTION [HDRAED]
DENWS   .G/C3      : FORMATION BULK DENSITY [CALC FROM DPOWS, M=2.71,F=1.0]
DPHZLSED.V/V       : DENSITY POROSITY LIMESTONE [M=2.71, F=1.0] FROM DENSITY LOG
DPOWS   .V/V       : DENSITY POROSITY LIMESTONE [DPHZLSED]
DRESWS  .OHMM      : DEEP RESISTIVITY [AT90ED]
DTED    .US/F      : DELTA-T FROM SONIC LOG
GRED    .GAPI      : GAMMA RAY FROM CBL LOG [ADJ.TO AIT LOG <13840> SONIC LOG]
GRRED   .GAPI      : GAMMA RAY FROM AIT LOG
GRSED   .GAPI      : GAMMA RAY FROM SONIC LOG
GRTED   .GAPI      : THORIUM GAMMA RAY FROM RST LOG [ADJ.TO SONIC LOG]
GRWS    .GAPI      : GAMMA RAY [GRRED SPL.TO GRED 13840' TO TD.]
HDRAED  .G/C3      : DENSITY CORRECTION FROM DENSITY LOG
MRESWS  .OHMM      : MEDIUM RESISTIVITY [AT30ED]
NPHILSED.V/V       : NEUTRON POROSITY LIMESTONE FROM DENSITY LOG
NPOWS   .V/V       : NEUTRON POROSITY LIMESTONE [NPHILSED]
PEFWS   .B/E       : PHOTOELECTRIC FACTOR [PEFZED]
PEFZED  .B/E       : PHOTOELECTRIC FACTOR FROM DENSITY LOG
RATIOED .UNITLESS  : RATIO FROM RST LOG [ADJ.TO SONIC LOG]
SIGMED  .CU        : NEUTRON CAPTURE CROSS SECTION FROM RST LOG [ADJ.TO SONIC LOG]
SPHIED  .V/V       : SONIC POROSITY [DTM=47.6, DTF=189] FROM SONIC LOG
SPRED   .MV        : SPONTANEOUS POTENTIAL FROM AIT LOG
SPWS    .MV        : SPONTANEOUS POTENTIAL [BASELINE 0 MV,SPRED]
SRESWS  .OHMM      : SHALLOW RESISTIVITY [AT10ED]
TENRED  .LBF       : TENSION FROM AIT LOG
TENSED  .LBF       : TENSION FROM SONIC LOG
TPHILSED.V/V       : THERMAL POROSITY LIMESTONE FROM RST LOG [ADJ.TO SONIC LOG]
~Params ----------------------------------------------------
PD  .                     GL : PERMANENT DATUM
EPD .FT                  449 : ELEVATION PERMANENT DATUM
LMF .                     KB : LOG MEASURED FROM
DAPD.FT                   27 : FEET ABOVE PERMANENT DATUM
DMF .                     KB : DRILLING MEASURED FROM
EKB .FT                  476 : KELLY BUSHING
EDF .FT                  475 : DRILLING FLOOR
EGL .FT                  449 : GROUND LEVEL
DATE.               09/24/06 : RUN DATE
RUN .                      1 : RUN NUMBER
DD  .FT                13864 : DEPTH DRILLER
DL  .FT                13877 : DEPTH LOGGER
BLI .FT                13869 : BOTTOM LOG INTERVAL
TLI .FT                 3829 : TOP LOG INTERVAL
CS  .IN                10.75 : CASING SIZE
CBD .FT                 3825 : CASING BOTTOM DRILLER
CBL .FT                 3829 : CASING BOTTOM LOGGER
BS  .IN                9.875 : BIT SIZE
BSD .FT                13864 : BIT SIZE AT DEPTH
DFT .  WATER BASED DISPERSED : DRILLING FLUID TYPE
DFD .                   11.6 : DRILLING FLUID DENSITY
DFV .                     42 : DRILLING FLUID VISCOSITY
DFPH.                   10.2 : DRILLING FLUID PH
DFL .                     16 : DRILLING FLUID LOSS
MSS .       CIRCULATION TANK : MUD SAMPLE SOURCE
RMS .OHMM              0.873 : RESISTIVITY MUD SAMPLE
MST .DEGF                 82 : MUD SAMPLE TEMPERATURE
RMF .OHMM              0.698 : RESISTIVITY MUD FILTRATE SAMPLE
MFST.DEGF                 82 : MUD FILTRATE SAMPLE TEMPERATURE
RMC .OHMM              1.048 : RESISTIVITY MUD CAKE
MCST.DEGF                 82 : MUD CAKE SAMPLE TEMPERATURE
MFSS.             CALCULATED : MUD FILTRATE SAMPLE SOURCE
MCSS.             CALCULATED : MUD CAKE SAMPLE SOURCE
RMB .OHMM              0.251 : RESISTIVITY MUD AT BHT
TCS .HRS                2300 : TIME CIRCULATED STOPPED
TLAB.HRS                1015 : TIME LOGGER AT BOTTOM
LUN .                   2267 : LOGGING UNIT NUMBER
LUL .                  TYLER : LOGGING UNIT LOCATION
ENGI.        BELKNA[ MUSTATA : RECORDING ENGINEER
WITN.                  SMITH : WITNESSED BY
CLNT.                A2DTECH : CLIENT CODE
ORIG.         1" 2" 5" PRINT : ORIGIN OF DATA
UWI .         42289315440000 : UNIQUE WELL ID
DICO. A2D Technologies, Inc. : DIGITIZING COMPANY
~Other -----------------------------------------------------
AIT-CDL-CNL RUN IN COMBO & ARRAY SONIC & RST-CBL LOG RUN
GRED,GRSED,DTED,SPHIED,GRTED & TDT LOG RUN IN CSG.[NOT DELETED FROM WELL AS FOR THIS INTERVAL NO WIRELINE DATA FOUND FOR PROCESSING]
DENSITY AFFECTED BY HEAVY MUD & MUD CAKE BELOW 10,000'
SP AFFECTED AT 8400' DUE TO HIGH AC AUX USED TO CLOSE POWER POSITION CALIPER
~ASCII -----------------------------------------------------
# ...
 10050.00000   14.58580   14.73270   12.54810   11.50550   11.22070   10.65020   89.12100    0.77520    0.19900    2.56520    0.08470    0.08470   11.22070    -999.25    -999.25   40.13840    -999.25    -999.25   40.13840    0.19900   12.54810    0.03750    0.03750    2.91800    2.91800    -999.25    -999.25    -999.25 -100.10460 -119.11050   14.58580 4359.95020    -999.25    -999.25
 10100.00000    8.29760    6.81910    6.64850    6.39760    6.15620   10.53710  162.43790    0.66210    0.00280    2.61420    0.05600    0.05600    6.15620    -999.25    -999.25   39.71390    -999.25    -999.25   39.71390    0.00280    6.64850    0.05960    0.05960    2.62420    2.62420    -999.25    -999.25    -999.25  -80.45120 -107.78300    8.29760 4313.22710    -999.25    -999.25
 10150.00000    7.01460   13.40890   12.01210   11.15580    9.95820    9.57980  100.41980   -0.29520   -0.11280    2.45470    0.14930    0.14930    9.95820    -999.25    -999.25   34.92960    -999.25    -999.25   34.92960   -0.11280   12.01210    0.06040    0.06040   10.00000   10.00000    -999.25    -999.25    -999.25  -86.59690 -122.25450    7.01460 4296.99900    -999.25    -999.25
 10200.00000   17.62560   17.28210   16.99570   16.57120   12.86630   10.43670   77.72240    0.56170    0.01280    2.63360    0.04470    0.04470   12.86630    -999.25    -999.25   40.91750    -999.25    -999.25   40.91750    0.01280   16.99570    0.07660    0.07660    3.10890    3.10890    -999.25    -999.25    -999.25  -20.75230  -38.59990   17.62560 4362.00200    -999.25    -999.25
 10250.00000   23.57270   29.33130   26.38130   24.76290   25.36410   10.00550   39.42580    0.13050    0.15560    2.53350    0.10320    0.10320   25.36410    -999.25    -999.25   23.22690    -999.25    -999.25   23.22690    0.15560   26.38130    0.03240    0.03240    7.61230    7.61230    -999.25    -999.25    -999.25  -27.28440  -43.71240   23.57270 4473.31740    -999.25    -999.25
 10300.00000    6.98600    6.82160    6.76840    6.66840    6.44320   11.41450  155.20240    1.53950    0.01410    2.68670    0.01360    0.01360    6.44320    -999.25    -999.25   70.78440    -999.25    -999.25   70.78440    0.01410    6.76840    0.16490    0.16490    4.10150    4.10150    -999.25    -999.25    -999.25    7.45020   -7.18650    6.98600 4420.21390    -999.25    -999.25
 10350.00000    8.77560   17.44210   15.28920   13.79030   12.92370    9.03850   77.37720   -0.83650    0.05910    2.56500    0.08480    0.08480   12.92370    -999.25    -999.25   22.92430    -999.25    -999.25   22.92430    0.05910   15.28920    0.05480    0.05480   10.00000   10.00000    -999.25    -999.25    -999.25  -68.37560  -79.68500    8.77560 4381.82810    -999.25    -999.25
 10400.00000    6.89020   16.16030   16.66650   17.15840   16.83650    7.93210   59.39480   -1.94290   -0.07900    2.50100    0.12220    0.12220   16.83650    -999.25    -999.25   22.49290    -999.25    -999.25   22.49290   -0.07900   16.66650    0.08530    0.08530   10.00000   10.00000    -999.25    -999.25    -999.25  -72.04980  -80.03180    6.89020 4577.59470    -999.25    -999.25
 10450.00000   16.57340   15.32650   14.58520   13.84700   13.52540    9.95100   73.93500    0.07600    0.18890    2.69150    0.01080    0.01080   13.52540    -999.25    -999.25   31.08010    -999.25    -999.25   31.08010    0.18890   14.58520    0.04960    0.04960    9.95790    9.95790    -999.25    -999.25    -999.25  -75.31730  -79.97200   16.57340 4581.22710    -999.25    -999.25
 10500.00000    8.16430   15.15030   20.05490   22.44300   23.10020    8.44550   43.28970   -1.42950   -0.01970    2.61030    0.05830    0.05830   23.10020    -999.25    -999.25   26.82150    -999.25    -999.25   26.82150   -0.01970   20.05490    0.07740    0.07740   10.00000   10.00000    -999.25    -999.25    -999.25  -89.10840  -90.43570    8.16430 4627.25490    -999.25    -999.25
 10550.00000    9.11680   14.07230   13.27400   11.90330   10.00450    8.76450   99.95500   -1.11050   -0.10140    2.42390    0.16730    0.16730   10.00450    -999.25    -999.25   22.74690    -999.25    -999.25   22.74690   -0.10140   13.27400    0.05010    0.05010   10.00000   10.00000    -999.25    -999.25    -999.25 -107.56350 -105.56350    9.11680 4701.11620    -999.25    -999.25
 10600.00000   20.14620   19.10980   18.67660   17.46920   16.92630   10.03750   59.07970    0.16250    0.01100    2.52690    0.10710    0.10710   16.92630    -999.25    -999.25   27.27310    -999.25    -999.25   27.27310    0.01100   18.67660    0.03020    0.03020    5.17320    5.17320    -999.25    -999.25    -999.25  -91.90120  -86.57380   20.14620 4609.27150    -999.25    -999.25
 10650.00000   36.26950   26.32230   27.05930   23.46580   27.40120    9.73290   36.49480   -0.14210   -0.00190    2.59050    0.06990    0.06990   27.40120    -999.25    -999.25   27.36910    -999.25    -999.25   27.36910   -0.00190   27.05930    0.02310    0.02310    6.79330    6.79330    -999.25    -999.25    -999.25 -112.74500 -104.09030   36.26950 4611.19090    -999.25    -999.25
 10700.00000   21.33530   22.05400   24.01090   23.41680   24.77660    9.00960   40.36070   -0.86540    0.00400    2.63920    0.04140    0.04140   24.77660    -999.25    -999.25   22.62200    -999.25    -999.25   22.62200    0.00400   24.01090    0.03060    0.03060   10.00000   10.00000    -999.25    -999.25    -999.25  -99.70040  -87.71830   21.33530 4751.24800    -999.25    -999.25
 10750.00000   50.63990   44.89880   37.26530   39.20490   33.99630   10.22670   29.41500    0.35170    0.02520    2.62280    0.05100    0.05100   33.99630    -999.25    -999.25   45.71180    -999.25    -999.25   45.71180    0.02520   37.26530    0.01350    0.01350    2.99240    2.99240    -999.25    -999.25    -999.25  -84.67650  -69.36710   50.63990 4686.62890    -999.25    -999.25
 10800.00000   10.42290   22.61680   26.21490   32.07850   40.72540    9.56940   24.55470   -0.30560    0.18340    2.65850    0.03010    0.03010   40.72540    -999.25    -999.25   38.97640    -999.25    -999.25   38.97640    0.18340   26.21490    0.04460    0.04460    8.93970    8.93970    -999.25    -999.25    -999.25 -100.41920  -81.78240   10.42290 4596.45410    -999.25    -999.25
 10850.00000    7.19930   24.63030   29.96540   41.17880   50.53820    7.17490   19.78700   -2.70010   -0.27210    2.20560    0.29500    0.29500   50.53820    -999.25    -999.25   27.17150    -999.25    -999.25   27.17150   -0.27210   29.96540    0.03420    0.03420   10.00000   10.00000    -999.25    -999.25    -999.25  -99.29450  -77.33030    7.19930 4761.60890    -999.25    -999.25
 10900.00000   33.04000   33.66090   35.65880   37.07010   40.82970   10.14310   24.49200    0.26810    0.19670    2.59470    0.06740    0.06740   40.82970    -999.25    -999.25   25.67350    -999.25    -999.25   25.67350    0.19670   35.65880    0.02680    0.02680    4.75160    4.75160    -999.25    -999.25    -999.25  -91.56620  -66.27470   33.04000 4797.45170    -999.25    -999.25
 10950.00000   36.88250   31.01800   29.47560   35.09060   36.33920   10.08300   27.51850    0.20800    0.13850    2.67960    0.01780    0.01780   36.33920    -999.25    -999.25   33.44740    -999.25    -999.25   33.44740    0.13850   29.47560    0.03070    0.03070    8.43620    8.43620    -999.25    -999.25    -999.25  -81.11900  -52.50010   36.88250 4729.82230    -999.25    -999.25
 11000.00000   48.04920   43.99160   35.04770   28.63690   23.43670    9.99440   42.66810    0.11940    0.02430    2.57440    0.07930    0.07930   23.43670    -999.25    -999.25   25.48280    -999.25    -999.25   25.48280    0.02430   35.04770    0.01170    0.01170    8.19520    8.19520    -999.25    -999.25    -999.25  -67.56100  -35.61480   48.04920 4784.29440    -999.25    -999.25
 11050.00000   69.37360   65.75250   57.49650   51.70850   48.69260   10.04660   20.53700    0.17160    0.03980    2.65340    0.03310    0.03310   48.69260    -999.25    -999.25   29.32780    -999.25    -999.25   29.32780    0.03980   57.49650    0.02120    0.02120    9.18190    9.18190    -999.25    -999.25    -999.25  -83.18160  -51.22670   69.37360 4674.78470    -999.25    -999.25
