~Version ---------------------------------------------------
VERS. 2.0 : CWLS log ASCII Standard -VERSION 2.0
WRAP.  NO : ONE LINE PER DEPTH STEP
~Well ------------------------------------------------------
STRT.F                    3400.0 : START DEPTH
STOP.F                    8750.0 : STOP DEPTH
STEP.F                  50.00000 : STEP LENGTH
NULL.                    -999.25 : NULL VALUE
COMP. CHAMPLIN PETROLEUM COMPANY : COMPANY
WELL.     CHARLES PATRANELLA  #1 : WELL
FLD .                     KURTEN : FIELD
LOC .                            : LOCATION
CNTY.                     BRAZOS : COUNTY
STAT.                      TEXAS : STATE
CTRY.   UNITED STATES OF AMERICA : COUNTRY
SRVC.               Schlumberger : SERVICE COMPANY
DATE.                19-Jul-1982 : LOGDATE
API .             42041307630000 : API NUMBER
UWI .             42041307630000 : UNIQUE WELL ID
SLAT.WGS84         30.7304455515 : SURFACE LATITUDE
SLON.WGS84        -96.3661208898 : SURFACE LONGITUDE
~Curve Information -----------------------------------------
DEPT.F                 : 
DCAL.IN   06 280 01 00 : DIFFERENTIAL CALIPER
DPHI.DEC  45 890 10 00 : DENSITY POROSITY
DRHO.G/C3 45 356 01 00 : BULK DENSITY CORRECTION
GRR .GAPI 06 310 01 00 : GAMMA RAY FROM RESISTIVITY
ILD .OHMM 06 120 46 00 : INDUCTION DEEP RESISTIVITY
ILM .OHMM 06 120 44 00 : INDUCTION MEDIUM RESISTIVITY
NPHI.DEC  42 890 01 00 : NEUTRON POROSITY
RHOB.G/C3 45 350 01 00 : BULK DENSITY
SFLU.OHMM 06 220 01 00 : SFL RESISTIVITY (UNAVERAGED)
SPR .MV   06 010 01 00 : SPONTANEOUS POTENTIAL FROM RESISTIVITY
~Params ----------------------------------------------------
PD  .                     GL : PERMANENT DATUM
EPD .FT                  347 : ELEVATION PERMANENT DATUM
LMF .                    RKB : LOG MEASURED FROM
DAPD.FT                   15 : FEET ABOVE PERMANENT DATUM
DMF .                    RKB : DRILLING MEASURED FROM
EKB .FT                  362 : KELLY BUSHING
EDF .FT                  361 : DRILLING FLOOR
EGL .FT                  347 : GROUND LEVEL
DATE.               07/19/82 : RUN DATE
RUN .                      1 : RUN NUMBER
DD  .FT                 8750 : DEPTH DRILLER
DL  .FT                 8754 : DEPTH LOGGER
BLI .FT                 8750 : BOTTOM LOG INTERVAL
TLI .FT                 3395 : TOP LOG INTERVAL
CS  .IN                9.675 : CASING SIZE
CBD .FT                 3395 : CASING BOTTOM DRILLER
CBL .FT                 3395 : CASING BOTTOM LOGGER
BS  .IN                 8.75 : BIT SIZE
BSD .FT                 8750 : BIT SIZE AT DEPTH
DFT .                 BEN EX : DRILLING FLUID TYPE
DFD .                    9.6 : DRILLING FLUID DENSITY
DFV .                     34 : DRILLING FLUID VISCOSITY
DFPH.                      9 : DRILLING FLUID PH
DFL .                      6 : DRILLING FLUID LOSS
MSS .               FLOWLINE : MUD SAMPLE SOURCE
RMS .OHMM                2.5 : RESISTIVITY MUD SAMPLE
MST .DEGF                114 : MUD SAMPLE TEMPERATURE
RMF .OHMM                2.0 : RESISTIVITY MUD FILTRATE SAMPLE
MFST.DEGF                114 : MUD FILTRATE SAMPLE TEMPERATURE
RMC .OHMM               3.75 : RESISTIVITY MUD CAKE
MCST.DEGF                114 : MUD CAKE SAMPLE TEMPERATURE
MFSS.             CALCULATED : MUD FILTRATE SAMPLE SOURCE
MCSS.             CALCULATED : MUD CAKE SAMPLE SOURCE
RMB .OHMM              1.567 : RESISTIVITY MUD AT BHT
TCS .HRS                 200 : TIME CIRCULATED STOPPED
TLAB.HRS                 730 : TIME LOGGER AT BOTTOM
LUN .                   8176 : LOGGING UNIT NUMBER
LUL .                BRENHAM : LOGGING UNIT LOCATION
ENGI.                MARANUK : RECORDING ENGINEER
WITN.                  VODAK : WITNESSED BY
CLNT.                A2DTECH : CLIENT CODE
ORIG.               5" PRINT : ORIGIN OF DATA
UWI .         42041307630000 : UNIQUE WELL ID
DICO. A2D Technologies, Inc. : DIGITIZING COMPANY
~Other -----------------------------------------------------
~ASCII -----------------------------------------------------
 3400.00000    2.05350    0.33710    0.00020   55.16800 2000.00000   12.19280    0.41160    -999.25    7.92950  -40.32400
 3450.00000    0.83340    0.29000    0.02850   52.59080    8.37630    9.26210    0.33780    -999.25    9.67280  -38.11180
 3500.00000    1.51790    0.31560    0.00610   62.70640    7.40440    8.52890    0.35800    -999.25    8.85250  -38.40590
 3550.00000    0.83330    0.27920    0.00160   64.80850    7.13050    8.64690    0.36810    -999.25    8.43380  -34.30190
 3600.00000    0.92290    0.27810   -0.00950   59.71040    7.61000    8.93990    0.36160    -999.25    9.15680  -42.09420
 3650.00000    1.22030    0.30220   -0.02070   57.04970    5.94630    7.03560    0.36820    -999.25    8.03890  -41.50440
 3700.00000    3.09520    0.44130    0.00010   44.44180    7.55820    7.64050    0.37760    -999.25    7.99490  -33.98230
 3750.00000    1.25000    0.30220   -0.00880   49.63250    4.20670    5.41830    0.36790    -999.25    7.10600  -49.32140
 3800.00000    1.90480    0.27800    0.01950   80.96240    5.14930    6.17420    0.34020    -999.25    7.25360  -37.26870
 3850.00000    1.07170    0.25940    0.03730   73.51940    5.13870    5.84390    0.31910    -999.25    7.23530  -31.03200
 3900.00000    0.71440    0.36110   -0.00280   65.77650    4.02350    4.82080    0.52500    -999.25    8.78790  -37.96510
 3950.00000    0.77380    0.22510   -0.01620   86.94830    4.16360    4.56290    0.36610    -999.25    5.40230  -33.53980
 4000.00000    0.59520    0.24610   -0.00290   60.83770    4.58300    4.66320    0.30710    -999.25    7.50610  -53.89380
 4050.00000    1.44360    0.19450    0.05290   96.46380    2.30960    2.35870    0.33840    -999.25    2.37380   -5.22100
 4100.00000    0.86330    0.16160    0.00460   78.80100    4.55170    5.12840    0.29910    -999.25    5.51450  -32.80250
 4150.00000    1.26480    0.16310   -0.00880   93.89360    3.00690    2.95930    0.33280    -999.25    3.37350  -10.08860
 4200.00000    2.14300    0.26430    0.03160   89.45120    2.26260    2.32660    0.37950    -999.25    2.25080   -7.43340
 4250.00000    3.42260    0.17920    -999.25   80.75620    2.14190    2.20960    0.30780    -999.25    2.01400   -2.27190
 4300.00000    2.08340    0.15630    0.09550   87.34680    2.63080    2.66930    0.32290    -999.25    2.59700   -3.45220
 4350.00000    1.26510    -999.25    -999.25   81.60460    2.72250    2.68780    -999.25    -999.25    2.98290   -3.59880
 4400.00000    1.19050    -999.25    -999.25   87.63080    2.50750    2.47500    -999.25    -999.25    2.35760   -1.53360
 4450.00000    1.01200    -999.25    -999.25   87.38770    2.14920    2.06990    -999.25    -999.25    1.95260   -2.05120
 4500.00000    0.62520    -999.25    -999.25   88.27430    1.76790    1.77950    -999.25    -999.25    1.78500   -2.41890
 4550.00000    0.53570    -999.25    -999.25   88.07190    1.82320    1.83540    -999.25    -999.25    1.78090    0.08920
 4600.00000    1.29460    -999.25    -999.25   81.56950    1.68510    1.69590    -999.25    -999.25    1.67570   -1.23820
 4650.00000    2.02390    -999.25    -999.25   82.00620    1.63390    1.61060    -999.25    -999.25    1.61710   -0.57630
 4700.00000    2.85710    -999.25    -999.25   83.34780    1.32570    1.33320    -999.25    -999.25    1.41010   -4.33520
 4750.00000    2.17270    -999.25    -999.25   87.83350    1.40530    1.40380    -999.25    -999.25    1.46930   -1.76130
 4800.00000    1.92880    -999.25    -999.25  103.02720    1.88670    1.81110    -999.25    -999.25    1.84820   -3.37280
 4850.00000    0.80120    -999.25    -999.25  104.13590    1.80100    1.82350    -999.25    -999.25    1.81300   -1.74520
 4900.00000    0.83090    -999.25    -999.25   95.05220    1.73750    1.70290    -999.25    -999.25    1.86090   -3.07670
 4950.00000    0.97910    -999.25    -999.25   71.78510    2.04860    2.02450    -999.25    -999.25    1.77370   -5.29590
 5000.00000    1.18940    -999.25    -999.25   73.92360    1.54060    1.51590    -999.25    -999.25    1.40450   -0.78290
 5050.00000    2.07910    -999.25    -999.25   71.56750    1.05280    1.04760    -999.25    -999.25    1.04250    0.17750
 5100.00000    3.62010    -999.25    -999.25   75.11080    1.42150    1.41570    -999.25    -999.25    1.45360   -1.15380
 5150.00000    2.50000    -999.25    -999.25   83.61350    1.28460    1.27580    -999.25    -999.25    0.99650    0.02960
 5200.00000    2.17260    -999.25    -999.25   86.85380    0.86280    0.85690    -999.25    -999.25    0.91860   -0.55020
 5250.00000    1.04170    -999.25    -999.25   84.19500    1.66740    1.67640    -999.25    -999.25    1.99310   -2.48520
 5300.00000    1.93840    -999.25    -999.25   70.23520    1.40480    1.39490    -999.25    -999.25    1.47420   -4.85210
 5350.00000    1.84520    -999.25    -999.25   83.75180    1.03130    1.04480    -999.25    -999.25    1.01030   -9.73370
 5400.00000    2.11310    -999.25    -999.25   79.09900    1.12800    1.13530    -999.25    -999.25    1.12760   -6.92310
 5450.00000    3.10000    -999.25    -999.25   80.12550    1.13440    1.11870    -999.25    -999.25    1.18790   -3.97840
 5500.00000    3.54150    -999.25    -999.25   81.11140    1.14790    1.14850    -999.25    -999.25    1.32990   -5.29570
 5550.00000    2.73680    -999.25    -999.25   77.54800    1.12900    1.18400    -999.25    -999.25    1.27580   -4.70410
 5600.00000    2.43790    -999.25    -999.25   79.08230    1.78590    1.82210    -999.25    -999.25    1.93190  -10.91720
 5650.00000    1.13170    -999.25    -999.25   73.27200    1.80190    1.78590    -999.25    -999.25    1.78590   -7.81090
 5700.00000    0.47790    -999.25    -999.25   77.10490    1.65600    1.66020    -999.25    -999.25    1.70760   -9.43790
 5750.00000    1.60710    -999.25    -999.25   71.78730    2.58700    2.62280    -999.25    -999.25    2.33390   -8.72710
 5800.00000    1.78570    -999.25    -999.25   76.88480    2.33400    2.33400    -999.25    -999.25    2.16480   -6.92330
 5850.00000    1.89780    -999.25    -999.25   88.52460    1.55680    1.52250    -999.25    -999.25    1.66740   -6.18340
 5900.00000    2.61880    -999.25    -999.25   83.75180    1.58920    1.57660    -999.25    -999.25    1.62220   -7.38650
 5950.00000    2.44050    -999.25    -999.25   99.26140    1.28460    1.27580    -999.25    -999.25    1.26710   -5.88760
 6000.00000    3.34320    -999.25    -999.25   84.88830    0.91350    0.94120    -999.25    -999.25    0.84120   -7.07100
 6050.00000    2.83580    -999.25    -999.25  101.77780    1.16200    1.13340    -999.25    -999.25    1.16200   -8.69880
 6100.00000    2.91420    -999.25    -999.25  103.55370    1.02680    1.03640    -999.25    -999.25    0.97950  -10.17560
 6150.00000    2.86570    -999.25    -999.25   95.99780    1.07740    1.05810    -999.25    -999.25    1.08480   -7.95940
 6200.00000    2.16420    -999.25    -999.25  111.33300    0.97180    0.96080    -999.25    -999.25    0.85870   -8.40340
 6250.00000    1.94030    -999.25    -999.25   78.22220    1.28820    1.27410    -999.25    -999.25    1.27060   -8.40240
 6300.00000    1.10450    -999.25    -999.25  112.66590    1.26190    1.30070    -999.25    -999.25    1.19440   -5.14790
 6350.00000    1.16420    -999.25    -999.25   80.66670    1.54910    1.53440    -999.25    -999.25    1.52970   -7.36730
 6400.00000    1.28360    -999.25    -999.25   92.88890    1.77940    1.78530    -999.25    -999.25    1.84170   -8.10550
 6450.00000    1.51040    -999.25    -999.25   92.44440    1.56160    1.56640    -999.25    -999.25    1.67150   -9.73380
 6500.00000    1.67590    -999.25    -999.25   96.44350    1.48820    1.49270    -999.25    -999.25    1.62730   -9.73370
 6550.00000    1.82090    -999.25    -999.25   94.66580    1.63850    1.65500    -999.25    -999.25    1.62740   -8.25440
 6600.00000    1.97010    -999.25    -999.25   89.55560    1.69580    1.70130    -999.25    -999.25    1.74310  -11.80670
 6650.00000    1.94780    -999.25    -999.25   97.99910    1.25330    1.27410    -999.25    -999.25    1.28820  -11.21300
