~Version ---------------------------------------------------
VERS.      2.0 : CWLS log ASCII Standard -VERSION 2.0
WRAP.      YES : Multiple lines per depth step
CREA. 04/13/20 : LAS Creation Date
~Well ------------------------------------------------------
STRT.FT                             6350.0 : START DEPTH
STOP.FT                             7550.0 : STOP DEPTH
STEP.FT                           50.00000 : STEP LENGTH
NULL.                              -999.25 : NULL VALUE
COMP. PINNACLE ROYALTY & OPERATING COMPANY : COMPANY
WELL.                         G W HATCH #2 : WELL
FLD .                             PEARSALL : FIELD
LOC .                                      : LOCATION
CNTY.                               DIMMIT : COUNTY
STAT.                                TEXAS : STATE
CTRY.             UNITED STATES OF AMERICA : COUNTRY
SRVC.                         Schlumberger : SERVICE COMPANY
DATE.                          21-Jul-1990 : LOGDATE
API .                       42127328970000 : API NUMBER
UWI .                       42127328970000 : UNIQUE WELL ID
SLAT.WGS84                    28.617129252 : SURFACE LATITUDE
SLON.WGS84                  -99.4592696959 : SURFACE LONGITUDE
~Curve Information -----------------------------------------
DEPT    .FT    : DEPTH FEET
BITSED  .IN    : BIT SIZE FROM RUN HEADERS
CALWS   .IN    : CALIPER [DCALED+6.75]
CONDWS  .MMHO  : DEEP CONDUCTIVITY [1000/DRESWS]
DCALED  .IN    : DIFFERENTIAL CALIPER FROM DENSITY LOG
DCORWS  .G/C3  : DENSITY CORRECTION [DRHOED]
DENWS   .G/C3  : BULK DENSITY [CALC. FROM DPOLSWS]
DPHILSED.V/V   : DENSITY POROSITY (LS) [M=2.71 F=1.00]
DPOLSWS .V/V   : DENSITY POROSITY (LS) [M=2.71 F=1.00] [DPHILSED]
DRESWS  .OHMM  : DEEP RESISTIVITY [ILDED]
DRHOED  .G/C3  : DENSITY CORRECTION FROM DENSITY LOG
GRRED   .GAPI  : GAMMA RAY FROM RESISTIVITY LOG
GRWS    .GAPI  : GAMMA RAY [GRRED]
ILDED   .OHMM  : DEEP INDUCTION RESISTIVITY
ILMED   .OHMM  : MEDIUM INDUCTION RESISTIVITY
MRESWS  .OHMM  : MEDIUM RESISTIVITY [ILMED]
NPHILSED.V/V   : NEUTRON POROSITY (LS)
NPOLSWS .V/V   : NEUTRON POROSITY (LS) [NPHILSED]
SFLUED  .OHMM  : SPHERICALLY FOCUSED UNAVERAGED RESISTIVITY
SPRED   .MV    : SPONTANEOUS POTENTIAL FROM RESISTIVITY LOG
SPWS    .MV    : SPONTANEOUS POTENTIAL [BASELINE 0 MV] [SPRED]
SRESWS  .OHMM  : SHALLOW RESISTIVITY [SFLUED]
TENDED  .LBF   : TENSION FROM DENSITY LOG
~Params ----------------------------------------------------
PD  .                     GL : PERMANENT DATUM
EPD .FT                559.5 : ELEVATION PERMANENT DATUM
LMF .                     KB : LOG MEASURED FROM
DAPD.FT                 20.6 : FEET ABOVE PERMANENT DATUM
DMF .                     KB : DRILLING MEASURED FROM
EKB .FT                580.1 : KELLY BUSHING
EDF .FT                579.1 : DRILLING FLOOR
EGL .FT                559.5 : GROUND LEVEL
DATE.               07/21/90 : RUN DATE
RUN .                      2 : RUN NUMBER
DD  .FT                 7563 : DEPTH DRILLER
DL  .FT                 7557 : DEPTH LOGGER
BLI .FT                 7551 : BOTTOM LOG INTERVAL
TLI .FT                 6347 : TOP LOG INTERVAL
CS  .IN                7.625 : CASING SIZE
CBD .FT                 6350 : CASING BOTTOM DRILLER
CBL .FT                 6347 : CASING BOTTOM LOGGER
BS  .IN                 6.75 : BIT SIZE
BSD .FT                 7563 : BIT SIZE AT DEPTH
DFT .                CLS GEL : DRILLING FLUID TYPE
DFD .                    9.2 : DRILLING FLUID DENSITY
DFV .                     35 : DRILLING FLUID VISCOSITY
DFPH.                   11.5 : DRILLING FLUID PH
DFL .                   12.8 : DRILLING FLUID LOSS
MSS .                  TANKS : MUD SAMPLE SOURCE
RMS .OHMM               1.69 : RESISTIVITY MUD SAMPLE
MST .DEGF                 94 : MUD SAMPLE TEMPERATURE
RMF .OHMM               2.18 : RESISTIVITY MUD FILTRATE SAMPLE
MFST.DEGF                 76 : MUD FILTRATE SAMPLE TEMPERATURE
RMC .OHMM               2.54 : RESISTIVITY MUD CAKE
MCST.DEGF                 94 : MUD CAKE SAMPLE TEMPERATURE
MFSS.                   MEAS : MUD FILTRATE SAMPLE SOURCE
MCSS.                   CALC : MUD CAKE SAMPLE SOURCE
RMB .OHMM              0.894 : RESISTIVITY MUD AT BHT
TCS .HRS                2130 : TIME CIRCULATED STOPPED
TLAB.HRS                 440 : TIME LOGGER AT BOTTOM
LUN .                   8268 : LOGGING UNIT NUMBER
LUL .                  PLEAS : LOGGING UNIT LOCATION
ENGI.         WILKIE BEIERLE : RECORDING ENGINEER
WITN.             RUTHERFORD : WITNESSED BY
CLNT.                A2DTECH : CLIENT CODE
ORIG.           5" 10" PRINT : ORIGIN OF DATA
UWI .         42127328970000 : UNIQUE WELL ID
DICO. A2D Technologies, Inc. : DIGITIZING COMPANY
~Other -----------------------------------------------------
ALL CURVES APPEAR ON DEPTH. ONLY RUN2 MD.
~ASCII -----------------------------------------------------
 6350.00000    6.75000    7.54550    -999.25    0.79550    0.01380    2.59180    0.06910    0.06910    -999.25    0.01380   51.31580   51.31580    -999.25    -999.25    -999.25    0.15880    0.15880   10.36900  -30.51000   -6.51640   10.36900 2352.99390
 6400.00000    6.75000    8.04620   83.09170    1.29620    0.00940    2.62810    0.04790    0.04790   12.03490    0.00940   38.37560   38.37560   12.03490   11.71320   11.71320    0.06880    0.06880   12.96680  -29.85400   -7.33790   12.96680 2289.93330
 6450.00000    6.75000    8.73000  224.86560    1.98000    0.00350    2.59180    0.06910    0.06910    4.44710    0.00350   63.37720   63.37720    4.44710    4.64710    4.64710    0.14380    0.14380    6.36780  -22.04260   -2.11860    6.36780 2320.02990
 6500.00000    6.75000    8.56400  295.07230    1.81400    0.01080    2.54650    0.09560    0.09560    3.38900    0.01080   69.51970   69.51970    3.38900    3.39440    3.39440    0.21180    0.21180    3.99020  -20.87590   -1.00370    3.99020 2336.66490
 6550.00000    6.75000    8.06100  107.70060    1.31100    0.01080    2.58570    0.07270    0.07270    9.28500    0.01080   45.39290   45.39290    9.28500    9.64690    9.64690    0.11650    0.11650   18.31500  -23.35770   -3.48550   18.31500 2329.70960
 6600.00000    6.75000    7.72200   63.97790    0.97200   -0.00230    2.62500    0.04970    0.04970   15.63040   -0.00230   32.23680   32.23680   15.63040   15.61420   15.61420    0.06970    0.06970   19.07500  -28.61310   -8.74090   19.07500 2384.74430
 6650.00000    6.75000    7.80980  106.53480    1.05980   -0.00670    2.48140    0.13370    0.13370    9.38660   -0.00670   27.85090   27.85090    9.38660    8.59700    8.59700    0.07060    0.07060   11.83280  -23.35870   -3.48650   11.83280 2397.97330
 6700.00000    6.75000    8.13410   54.41020    1.38410    0.01140    2.64110    0.04030    0.04030   18.37890    0.01140   26.31330   26.31330   18.37890   20.00120   20.00120    0.03970    0.03970   32.35080  -23.79320   -5.16940   32.35080 2364.05270
 6750.00000    6.75000    8.10470   36.37170    1.35470    0.10000    2.42170    0.16860    0.16860   27.49390    0.10000   14.03730   14.03730   27.49390   26.22490   26.22490    0.03880    0.03880   30.43750  -24.23190   -7.31820   30.43750 2429.15820
 6800.00000    6.75000    8.34020   43.37150    1.59020    0.04150    2.51560    0.11370    0.11370   23.05660    0.04150   12.93640   12.93640   23.05660   23.05800   23.05800    0.03620    0.03620   26.22270  -22.18710   -7.20760   26.22270 2401.33890
 6850.00000    6.75000    7.96150   52.07760    1.21150    0.03060    2.64420    0.03850    0.03850   19.20210    0.03060   21.49360   21.49360   19.20210   19.66280   19.66280    0.05650    0.05650   30.43750  -17.08030   -4.51090   30.43750 2443.59340
 6900.00000    6.75000    7.48640   41.08750    0.73640    0.04740    2.64350    0.03890    0.03890   24.33830    0.04740   39.03510   39.03510   24.33830   20.40900   20.40900    0.06710    0.06710   25.01160  -17.37060   -6.91050   25.01160 2389.19790
 6950.00000    6.75000    7.63370   51.02610    0.88370    0.00200    2.60180    0.06330    0.06330   19.59780    0.00200   21.05100   21.05100   19.59780   17.23030   17.23030    0.06790    0.06790   18.43840  -19.70590  -11.16280   18.43840 2438.82880
 7000.00000    6.75000    7.65080   45.78630    0.90080   -0.00230    2.60480    0.06150    0.06150   21.84060   -0.00230   39.25200   39.25200   21.84060   22.13980   22.13980    0.06620    0.06620   29.22700  -13.86990   -8.96540   29.22700 2447.41290
 7050.00000    6.75000    7.22790   25.86280    0.47790   -0.00310    2.61990    0.05270    0.05270   38.66560   -0.00310   39.91230   39.91230   38.66560   37.29310   37.29310    0.06180    0.06180   49.34520  -14.74280  -15.49820   49.34520 2508.22340
 7100.00000    6.75000    7.14810   30.45310    0.39810   -0.02130    2.27940    0.25180    0.25180   32.83740   -0.02130   70.17540   70.17540   32.83740   16.76230   16.76230    0.15180    0.15180   50.92280   -2.48180   -8.89700   50.92280 2590.92300
 7150.00000    6.75000    7.63330   35.92320    0.88330    0.00300    2.58820    0.07120    0.07120   27.83720    0.00300   50.43860   50.43860   27.83720   27.14810   27.14810    0.12310    0.12310   38.44660   -1.11910   -4.54870   38.44660 2501.40400
 7200.00000    6.75000    7.36760   36.58270    0.61760    0.01230    2.59120    0.06950    0.06950   27.33530    0.01230   57.23930   57.23930   27.33530   23.22150   23.22150    0.12970    0.12970   33.69000   -7.88680   -6.03250   33.69000 2546.57560
 7250.00000    6.75000    6.98550   24.34020    0.23550    0.00350    2.48070    0.13410    0.13410   41.08430    0.00350  100.44180  100.44180   41.08430   37.61920   37.61920    0.18700    0.18700   86.07070  -13.28470   -7.58290   86.07070 2527.42630
 7300.00000    6.75000    7.19180    4.70350    0.44180    0.00350    2.49130    0.12790    0.12790  212.60760    0.00350   83.33330   83.33330  212.60760  119.35520  119.35520    0.15880    0.15880  383.20100  -12.40730   -4.61340  383.20100 2587.37830
 7350.00000    6.75000    6.89330   15.43160    0.14330    0.02400    2.62760    0.04820    0.04820   64.80200    0.02400   23.68600   23.68600   64.80200   62.18580   62.18580    0.05650    0.05650   67.22030  -28.46570  -18.71620   67.22030 2652.15880
 7400.00000    6.75000    6.82920    2.56970    0.07920    0.01230    2.66690    0.02520    0.02520  389.14860    0.01230    8.55260    8.55260  389.14860  179.44990  179.44990    0.01410    0.01410  246.72110  -47.88180  -36.32470  246.72110 2634.95220
 7450.00000    6.75000    6.57290   11.81570   -0.17710    0.02550    2.71990   -0.00580   -0.00580   84.63290    0.02550   16.11630   16.11630   84.63290   64.54690   64.54690    0.02210    0.02210   68.60000  -35.17870  -21.81400   68.60000 2668.24770
 7500.00000    6.75000    7.33880  259.22850    0.58880    0.10000    2.61080    0.05800    0.05800    3.85760    0.10000   93.86170   93.86170    3.85760    3.72940    3.72940    0.24180    0.24180    5.87130  -19.12410   -6.11060    5.87130 2622.45080
 7550.00000    6.75000    6.36730  248.89860   -0.38270    -999.25    -999.25    -999.25    -999.25    4.01770    -999.25    -999.25    -999.25    4.01770    4.66310    4.66310    -999.25    -999.25    9.36780  -12.11510   -1.85950    9.36780 2781.05460
