~Version ---------------------------------------------------
VERS. 2.0 : CWLS log ASCII Standard -VERSION 2.0
WRAP. YES : Multiple lines per depth step
~Well ------------------------------------------------------
STRT.FT                  300.0 : START DEPTH
STOP.FT                24000.0 : STOP DEPTH
STEP.FT               50.00000 : STEP LENGTH
NULL.                  -999.25 : NULL VALUE
COMP.       PLACID OIL COMPANY : COMPANY
WELL.                PEELER #1 : WELL
FLD .                  WILDCAT : FIELD
LOC .                          : LOCATION
CNTY.                MC MULLEN : COUNTY
STAT.                    TEXAS : STATE
CTRY. UNITED STATES OF AMERICA : COUNTRY
SRVC.             Schlumberger : SERVICE COMPANY
DATE.              01-Jan-1984 : LOGDATE
API .           42311317850000 : API NUMBER
UWI .           42311317850000 : UNIQUE WELL ID
SLAT.WGS84       28.5959255047 : SURFACE LATITUDE
SLON.WGS84      -98.4401225914 : SURFACE LONGITUDE
~Curve Information -----------------------------------------
DEPT  .FT    : 
CALDED.IN    : CALIPER FROM DENSITY LOG (ADJ TO RES.)
CALWS .IN    : CALIPER (CALDED)
CILDED.MMHO  : CONDUCTIVITY FROM LOG
CONDWS.MMHO  : CONDUCTIVITY (1000/DRESws)
DCORWS.G/C3  : DENSITY CORRECTION (DRHOED)
DENWS .G/C3  : BULK DENSITY  (FROM DPOws LS)
DPHIED.V/V   : DENSITY POROSITY  (ADJ TO RES.)
DPOWS .V/V   : DENSITY POROSITY (M=2.71 F=1 DPHIED)
DRESWS.OHMM  : DEEP RESISTIVITY (ILDED)
DRHOED.G/C3  : DENSITY CORRECTION (ADJ TO RES.)
DTED  .US/F  : DELTA TIME
DTWS  .US/F  : DELTA TIME  (DTED)
GRWS  .GAPI  : GAMMA RAY (GRRED)
GRRED .GAPI  : GAMMA RAY FROM RESISTIVITY LOG
ILDED .OHMM  : DEEP INDUCTION RESISTIVITY
ILMED .OHMM  : MEDIUM INDUCTION RESISTIVITY
MRESWS.OHMM  : MEDIUM RESISTIVITY (ILMED)
NPHIED.V/V   : NEUTRON POROSITY (ADJ TO RES.)
NPOWS .V/V   : NEUTRON POROSITY LIMESTONE (NPHIED)
RHOBED.G/C3  : BULK DENSITY (ADJ TO RES.)
SFLAED.OHMM  : SPHERICALLY FOCUSED RESISTIVITY
SPWS  .MV    : SPONTANEOUS POTENTIAL BASELINE 0 MV (SPRED)
SPRED .MV    : SPONTANEOUS POTENTIAL FROM RESISTIVITY
SRESWS.OHMM  : SHALLOW RESISTIVITY (SFLAED)
~Params ----------------------------------------------------
PD  .                     GL : PERMANENT DATUM
EPD .F                   336 : ELEVATION PERMANENT DATUM
LMF .                     KB : LOG MEASURED FROM
DMF .                     KB : DRILLING MEASURED FROM
EKB .F                   368 : KELLING BUSHING
EDF .F                   367 : DRILLING FLOOR
EGL .F                   336 : GROUND LEVEL
DATE.               1-1-1984 : RUN DATE
RUN .                      7 : RUN NUMBER
DD  .F                 24031 : DEPTH DRILLER
DL  .F                 24037 : DEPTH LOGGER
BLI .F                 24030 : BOTTOM LOG INTERVAL
TLI .F                 21000 : TOP LOG INTERVAL
CS  .IN                8.625 : CASING SIZE
CBD .F                 19500 : CASING BOTTOM DRILLER
CBL .F                 19500 : CASING BOTTOM LOGGER
BS  .IN                  7.5 : BIT SIZE
BSD .F                 24031 : BIT SIZE AT DEPTH
DFT .               INVERMUL : DRILLING FLUID TYPE
DFV .                     83 : DRILLING FLUID VISCOSITY
TCS .HRS                 800 : TIME CURCULATED STOPPED
TLAB.HRS                 200 : TIME LOGGER AT BOTTOM
LUL .               EDINBURG : LOGGING UNIT LOCATION
ENGI.              NEWMISTER : RECORDING ENGINEER
WITN.                   LONG : WITNESSED BY
CLNT.                A2DTECH : CLIENT CODE
ORIG.            1",5" PRINT : ORIGIN OF DATA
UWI .         42311317850000 : UNIQUE WELL ID
DICO. A2D Technologies, Inc. : DIGITIZING COMPANY
~Other -----------------------------------------------------
~ASCII -----------------------------------------------------
# ...
 14800.00000   12.59000   12.59000   76.20530   57.29440    0.01800    2.67680    0.01940    0.01940   17.45370    0.01800    -999.25    -999.25   16.76090   16.76090   17.45370    -999.25    -999.25    0.01600    0.01600    2.68100  253.53280  -83.04310  -78.55310  253.53280
 14850.00000   12.62800   12.62800    0.00040    0.50030    0.00600    2.71870   -0.00510   -0.00510 1998.86560    0.00600    -999.25    -999.25   20.46400   20.46400 1998.86560    -999.25    -999.25   -0.00700   -0.00700    2.69800  236.92500  -80.48640  -75.56080  236.92500
 14900.00000   13.55400   13.55400    1.38010    5.08240    0.04600    2.66420    0.02680    0.02680  196.75930    0.04600    -999.25    -999.25   14.69750   14.69750  196.75930    -999.25    -999.25    0.00000    0.00000    2.65700  187.43830  -72.27720  -66.91590  187.43830
 14950.00000   12.69600   12.69600    5.83200    8.46500    0.01700    2.73910   -0.01700   -0.01700  118.13300    0.01700    -999.25    -999.25   15.44840   15.44840  118.13300    -999.25    -999.25   -0.00600   -0.00600    2.74300  115.57620  -73.36180  -67.56490  115.57620
 15000.00000   12.85000   12.85000  175.50400  130.94320    0.06400    2.73220   -0.01300   -0.01300    7.63690    0.06400    -999.25    -999.25   26.66430   26.66430    7.63690    -999.25    -999.25    0.07300    0.07300    2.72600    8.97010  -69.41020  -63.17760    8.97010
 15050.00000   13.45500   13.45500    0.00040    1.48920   -0.00900    2.72780   -0.01040   -0.01040  671.50730   -0.00900    -999.25    -999.25   22.57640   22.57640  671.50730    -999.25    -999.25   -0.00400   -0.00400    2.72500  499.71960  -79.65900  -72.99070  499.71960
 15100.00000   13.07300   13.07300    2.33280   12.64220    0.02600    2.74860   -0.02260   -0.02260   79.09990    0.02600    -999.25    -999.25   23.89910   23.89910   79.09990    -999.25    -999.25   -0.00400   -0.00400    2.74400  106.44550  -78.58900  -71.48510  106.44550
 15150.00000   12.95700   12.95700    0.00040   20.67200    0.06000    2.79760   -0.05120   -0.05120   48.37450    0.06000    -999.25    -999.25   26.94200   26.94200   48.37450    -999.25    -999.25   -0.00300   -0.00300    2.79300  511.57420  -83.28190  -75.74230  511.57420
 15200.00000   13.15700   13.15700    0.00040    2.68660    0.09100    2.72540   -0.00900   -0.00900  372.21280    0.09100    -999.25    -999.25   23.11920   23.11920  372.21280    -999.25    -999.25    0.00400    0.00400    2.72500  503.67840  -78.62940  -70.65420  503.67840
 15250.00000   14.80000   14.80000    0.00040    1.69070    0.09400    2.59650    0.06640    0.06640  591.46120    0.09400    -999.25    -999.25   19.43200   19.43200  591.46120    -999.25    -999.25    0.02200    0.02200    2.62900  106.09560  -82.07340  -73.66250  106.09560
 15300.00000   13.90200   13.90200   47.06790   47.15160   -0.04000    1.96670    0.43470    0.43470   21.20820   -0.04000    -999.25    -999.25   18.04380   18.04380   21.20820    -999.25    -999.25    0.09100    0.09100    1.99900   21.84160  -82.70340  -73.85690   21.84160
 15350.00000   12.93000   12.93000    0.00040    1.99900    0.02300    2.77700   -0.03920   -0.03920  500.25190    0.02300    -999.25    -999.25   22.62410   22.62410  500.25190    -999.25    -999.25   -0.00700   -0.00700    2.77800  445.60240  -73.53570  -64.25350  445.60240
 15400.00000   12.55000   12.55000   12.25120    1.35290    0.00800    2.75770   -0.02790   -0.02790  739.13480    0.00800    -999.25    -999.25   17.23090   17.23090  739.13480    -999.25    -999.25   -0.00500   -0.00500    2.76100   90.23680  -51.92630  -42.20840   90.23680
 15450.00000   12.46300   12.46300   11.51090   16.81670    0.02200    2.76950   -0.03480   -0.03480   59.46460    0.02200    -999.25    -999.25   33.95570   33.95570   59.46460    -999.25    -999.25    0.00900    0.00900    2.76600   55.22780  -33.85490  -23.70140   55.22780
 15500.00000   12.55100   12.55100   17.35920   13.13010   -0.00700    2.71890   -0.00520   -0.00520   76.16100   -0.00700    -999.25    -999.25   25.38990   25.38990   76.16100    -999.25    -999.25    0.00900    0.00900    2.71800   76.23030  -26.72210  -16.13290   76.23030
 15550.00000   12.65800   12.65800    0.00040    0.50400    0.00400    2.72150   -0.00670   -0.00670 1984.18270    0.00400    -999.25    -999.25   27.37540   27.37540    -999.25    -999.25    -999.25   -0.00200   -0.00200    2.72300  414.27500  -32.23790  -21.21310  414.27500
 15600.00000   12.66300   12.66300   17.74690   17.48950   -0.00800    2.70470    0.00310    0.00310   57.17710   -0.00800    -999.25    -999.25   27.28160   27.28160   57.17710    -999.25    -999.25    0.00200    0.00200    2.70500   96.29630  -13.23340   -1.77290   96.29630
 15650.00000   12.77700   12.77700    1.92840    0.71210    0.01400    2.74180   -0.01860   -0.01860 1404.32100    0.01400    -999.25    -999.25   23.54650   23.54650 1404.32100    -999.25    -999.25    0.00000    0.00000    2.73900  154.30180  -23.38890  -11.49280  154.30180
 15700.00000   12.96000   12.96000    6.55860    5.64460    0.00700    2.74860   -0.02260   -0.02260  177.16050    0.00700    -999.25    -999.25   22.66340   22.66340  177.16050    -999.25    -999.25    0.00700    0.00700    2.74200  176.57410  -14.02700   -1.69520  176.57410
 15750.00000   12.92500   12.92500   48.41820   35.53640   -0.00500    2.71650   -0.00380   -0.00380   28.14020   -0.00500    -999.25    -999.25   32.55480   32.55480   28.14020    -999.25    -999.25    0.06900    0.06900    2.71500   28.87110   -7.43810    5.32940   28.87110
 15800.00000   12.97600   12.97600   43.20990   47.55990    0.00700    2.75190   -0.02450   -0.02450   21.02610    0.00700    -999.25    -999.25   31.26670   31.26670   21.02610    -999.25    -999.25    0.07100    0.07100    2.74800   39.23870   -6.88830    6.31480   39.23870
 15850.00000   13.00000   13.00000   43.01840   42.30760    0.01700    2.73000   -0.01170   -0.01170   23.63640    0.01700    -999.25    -999.25   35.90410   35.90410   23.63640    -999.25    -999.25    0.06400    0.06400    2.73000   30.44750   -9.61860    4.02020   30.44750
 15900.00000   13.19000   13.19000   59.79940   28.05200    0.01900    2.73770   -0.01620   -0.01620   35.64810    0.01900    -999.25    -999.25   30.01040   30.01040   35.64810    -999.25    -999.25    0.08500    0.08500    2.73700   22.69790   -6.12730    7.94710   22.69790
 15950.00000   13.21400   13.21400   46.10690   37.49110   -0.00400    2.74030   -0.01770   -0.01770   26.67300   -0.00400    -999.25    -999.25   34.96880   34.96880   26.67300    -999.25    -999.25    0.03100    0.03100    2.73700   18.60080   -8.46690    5.75670   18.60080
 16000.00000   13.08300   13.08300  111.11110   96.89730    0.03700    2.66930    0.02380    0.02380   10.32020    0.03700    -999.25    -999.25   66.35510   66.35510   10.32020    -999.25    -999.25    0.09400    0.09400    2.66500    9.50620   -6.35880    6.93620    9.50620
 16050.00000   12.85900   12.85900   93.55970   81.50620    0.04900    2.67020    0.02330    0.02330   12.26900    0.04900    -999.25    -999.25   68.38010   68.38010   12.26900    -999.25    -999.25    0.04800    0.04800    2.67700   16.12650   -6.36330    6.00310   16.12650
 16100.00000   12.95800   12.95800   86.54660   78.07250    0.03500    2.64720    0.03670    0.03670   12.80860    0.03500    -999.25    -999.25   49.37690   49.37690   12.80860    -999.25    -999.25    0.08700    0.08700    2.65700   13.09700  -11.60370   -0.16580   13.09700
 16150.00000   12.36400   12.36400   83.91200   67.84310   -0.00800    2.61100    0.05790    0.05790   14.73990   -0.00800    -999.25    -999.25   30.83850   30.83850   14.73990    -999.25    -999.25    0.03200    0.03200    2.60800   19.46270  -17.53110   -7.02180   19.46270
 16200.00000   12.35500   12.35500   13.88890   16.96340    0.00000    2.63800    0.04210    0.04210   58.95060    0.00000    -999.25    -999.25   32.79670   32.79670   58.95060    -999.25    -999.25    0.01500    0.01500    2.61700   52.46910  -11.04260   -1.46190   52.46910
