~Version ---------------------------------------------------
VERS. 2.0 : CWLS log ASCII Standard -VERSION 2.0
WRAP.  NO : ONE LINE PER DEPTH STEP
~Well ------------------------------------------------------
STRT.F                  2500.0 : START DEPTH
STOP.F                  8350.0 : STOP DEPTH
STEP.F                50.00000 : STEP LENGTH
NULL.                  -999.25 : NULL VALUE
COMP.       CHAMPLIN PETROLEUM : COMPANY
WELL.            C C HUCK #213 : WELL
FLD .                BIG WELLS : FIELD
LOC .                          : LOCATION
CNTY.                   DIMMIT : COUNTY
STAT.                    TEXAS : STATE
CTRY. UNITED STATES OF AMERICA : COUNTRY
SRVC.             Schlumberger : SERVICE COMPANY
DATE.              16-Feb-1977 : LOGDATE
API .           42127311560000 : API NUMBER
UWI .           42127311560000 : UNIQUE WELL ID
SLAT.WGS84       28.6073295488 : SURFACE LATITUDE
SLON.WGS84      -99.5094014484 : SURFACE LONGITUDE
~Curve Information -----------------------------------------
DEPT.F                 : 
DT  .US/F 60 520 00 00 : DELTA-T (INTERVAL TRANSIT TIME)
SPR .MV   07 010 01 00 : 
ILD .OHMM 07 120 46 00 : INDUCTION DEEP RESISTIVITY
ILM .OHMM 07 120 44 00 : INDUCTION MEDIUM RESISTIVITY
LL8 .OHMM 07 220 08 00 : LATERO-LOG 8
NPHI.DEC  42 890 01 00 : NEUTRON POROSITY
DPHI.DEC  45 890 10 00 : DENSITY POROSITY
CALD.IN   45 280 60 00 : 
CORR.G/C3 45 356 01 00 : CORRELATION LOG
GRD .GAPI 45 310 01 00 : DEEP RESISTIVITY
RHOB.G/C3 45 350 01 00 : BULK DENSITY
~Params ----------------------------------------------------
PD  .                     GL : PERMANENT DATUM
EPD .F                612.39 : ELEVATION PERMANENT DATUM
LMF .                     KB : LOG MEASURED FROM
DAPD.F                     7 : FEET ABOVE PERMANENT DATUM
DMF .                     KB : DRILLING MEASURED FROM
EKB .F                619.39 : KELLING BUSHING
EDF .F                618.39 : DRILLING FLOOR
EGL .F                612.39 : GROUND LEVEL
DATE.               02/16/77 : RUN DATE
RUN .                      1 : RUN NUMBER
DD  .F                  8376 : DEPTH DRILLER
DL  .F                  8387 : DEPTH LOGGER
BLI .F                  8385 : BOTTOM LOG INTERVAL
TLI .F                  6300 : TOP LOG INTERVAL
CS  .IN                8.625 : CASING SIZE
CBD .F                  2475 : CASING BOTTOM DRILLER
BS  .IN                7.875 : BIT SIZE
BSD .F                  8376 : BIT SIZE AT DEPTH
DFT .      LIGNITE/LIGNOSULF : DRILLING FLUID TYPE
DFD .                   10.2 : DRILLING FLUID DENSITY
DFV .                     45 : DRILLING FLUID VISCOSITY
DFPH.                     10 : DRILLING FLUID PH
DFL .                    5.8 : DRILLING FLUID LOSS
MSS .              CIRC TANK : MUD SAMPLE SOURCE
RMS .OHMM               1.75 : RESISTIVITY MUD SAMPLE
MST .F                    60 : MUD SAMPLE TEMPERATURE
RMF .OHMM               1.29 : RESISTIVITY MUD FILTRATE SAMPLE
MFST.F                    60 : MUD FILTRATE SAMPLE TEMPERATURE
RMC .OHMM                2.6 : RESISTIVITY MUD CAKE
MCST.F                    60 : MUD CAKE SAMPLE TEMPERATURE
MFSS.                      M : MUD FILTRATE SAMPLE SOURCE
MCSS.                      C : MUD CAKE SAMPLE SOURCE
RMB .OHMM               0.57 : RESISTIVITY MUD AT BHT
TCS .HRS                 300 : TIME CURCULATED STOPPED
TLAB.HRS                1600 : TIME LOGGER AT BOTTOM
LUN .                   7651 : LOGGING UNIT NUMBER
LUL .                 LAREDO : LOGGING UNIT LOCATION
ENGI.               DAVIDSON : RECORDING ENGINEER
WITN.               MR SAURI : WITNESSED BY
CLNT.                A2DTECH : CLIENT CODE
ORIG.               5" PRINT : ORIGIN OF DATA
UWI .         42127311560000 : UNIQUE WELL ID
DICO. A2D Technologies, Inc. : DIGITIZING COMPANY
~Other -----------------------------------------------------
~ASCII -----------------------------------------------------
# ...
 5550.00000    -999.25  -23.53790    4.11550    4.09150    4.09600    -999.25    -999.25    -999.25    -999.25    -999.25    -999.25
 5600.00000    -999.25  -24.88760    4.20130    4.30890    4.93600    -999.25    -999.25    -999.25    -999.25    -999.25    -999.25
 5650.00000    -999.25  -32.38380    4.69100    4.68080    4.67060    -999.25    -999.25    -999.25    -999.25    -999.25    -999.25
 5700.00000    -999.25  -26.69080    4.23040    4.22060    4.76840    -999.25    -999.25    -999.25    -999.25    -999.25    -999.25
 5750.00000    -999.25  -31.63520    4.56340    4.52210    4.57470    -999.25    -999.25    -999.25    -999.25    -999.25    -999.25
 5800.00000    -999.25  -29.68520    4.05920    4.10580    4.57480    -999.25    -999.25    -999.25    -999.25    -999.25    -999.25
 5850.00000    -999.25  -32.68370    5.61110    5.48570    6.42500    -999.25    -999.25    -999.25    -999.25    -999.25    -999.25
 5900.00000    -999.25  -28.18590    2.87640    2.79000    3.26090    -999.25    -999.25    -999.25    -999.25    -999.25    -999.25
 5950.00000    -999.25  -28.03600    2.47190    2.49840    2.49060    -999.25    -999.25    -999.25    -999.25    -999.25    -999.25
 6000.00000    -999.25  -25.18720    2.66650    2.65840    2.93990    -999.25    -999.25    -999.25    -999.25    -999.25    -999.25
 6050.00000    -999.25  -26.23690    4.05910    4.10570    4.60650    -999.25    -999.25    -999.25    -999.25    -999.25    -999.25
 6100.00000    -999.25  -26.53670    4.17260    4.33870    4.00470    -999.25    -999.25    -999.25    -999.25    -999.25    -999.25
 6150.00000    -999.25  -23.83800    6.01130    5.95920    8.88050    -999.25    -999.25    -999.25    -999.25    -999.25    -999.25
 6200.00000    -999.25  -34.93180    7.44240    7.53460    9.38650    -999.25    -999.25    -999.25    -999.25    -999.25    -999.25
 6250.00000   40.00000  -37.03150   11.05950    9.65880    7.62830    -999.25    -999.25    -999.25    -999.25    -999.25    -999.25
 6300.00000   61.97310  -35.53220    6.01120    7.85290    9.03840    0.15920    0.08500    9.14460    0.08530   80.49330    2.54760
 6350.00000   75.12710  -32.98350    5.16600    5.22710    6.92500    0.13790    0.05840    9.60660    0.00250   66.14350    2.60960
 6400.00000   78.41550  -32.98300    4.62680    4.49110    5.78640    0.17070    0.07600    9.54690    0.01950   65.64430    2.59120
 6450.00000   67.65310  -35.68220    9.93950    9.99780   11.15490    0.10610    0.07690    9.02800   -0.00670   55.38150    2.57460
 6500.00000   69.29750  -38.68070    9.60300    6.56350   35.98270    0.05730    0.04370    8.81670    0.05540   26.14230    2.66640
 6550.00000   74.82810  -35.95720    4.17260    4.69700    4.54330    0.06970    0.11110    8.76080    0.04720   48.20630    2.56040
 6600.00000   57.88380  -47.32130   22.38040   21.42550   27.17480    0.05210    0.02040    8.77200   -0.00150   33.63230    2.65200
 6650.00000   57.02060  -43.66090   28.21670   28.74290   29.64620    0.04360    0.04140    8.68300    0.00970   29.14820    2.66490
 6700.00000   59.07600  -43.60190   20.70030   20.55830   28.32140    0.03780    0.03160    8.69750    0.00450   16.45360    2.64200
 6750.00000   58.45110  -44.79170   26.35500   31.71970   51.96230    0.04920    0.04150    8.69750    0.00520   15.47090    2.63430
 6800.00000   62.80220  -48.51190   17.02450   17.98970   23.84080    0.04360    0.03980    8.71240   -0.00050   28.96860    2.63150
 6850.00000   56.84050  -57.29170   22.32880   23.46980   24.21470    0.05160    0.05310    8.66740    0.00080   39.34250    2.63580
 6900.00000   58.88410  -56.54770   17.45400   17.02110   19.11020    0.06230    0.06240    8.67530    0.00220   31.83860    2.63810
 6950.00000   63.69560  -48.21450   26.70490   25.44860   31.83080    0.05610    0.06360    8.69020   -0.00940   36.51670    2.61160
 7000.00000   61.60950  -43.17530   59.19310   52.42820   57.18410    0.06730    0.06480    8.72720   -0.01570   44.61860    2.56820
 7050.00000   62.34190  -22.88930  136.40540   95.87510  220.74040    0.04760    0.04280    8.75710    0.02270   48.30270    2.60730
 7100.00000   65.18630  -19.04760   42.64610   35.24840   78.74840    0.11190    0.09640    8.83160   -0.00210   45.99040    2.55370
 7150.00000   69.71540  -20.65500   37.93630   35.41290   61.75540    0.12300    0.08360    8.84630    0.01300   53.36430    2.57650
 7200.00000   80.55600  -23.51190   22.43200   20.98730   32.06020    0.16490    0.07510    8.93590   -0.00220   84.97150    2.52540
 7250.00000   77.25780  -25.65150   71.95880   70.48800  129.12370    0.19550    0.10910    8.80150    0.01870   96.89540    2.50420
 7300.00000   67.96240  -22.08700  227.25710  136.49310  331.26640    0.14310    0.08360    8.74190    0.00850   73.54700    2.53280
 7350.00000   50.45950  -31.44500  123.96400  121.41950  140.02500    0.00950    0.00290    8.71460    0.01370   16.08300    2.74070
 7400.00000   49.98510  -33.92860  269.90530  209.15200  220.63160    0.00680   -0.00540    8.68260    0.04640   13.85990    2.70950
 7450.00000   74.40580  -11.47090    6.55730    6.36290    7.70320    0.16790    0.05280    9.72850    0.14300   61.39970    2.60450
 7500.00000   74.42680   -8.98400    5.46640    4.81350    7.27120    0.26050    0.26080   12.51210    0.15520   72.18390    2.29460
 7550.00000   63.25590  -10.14930    9.25130    8.81610   14.61840    0.18050    0.16830    9.29010   -0.01420   57.65280    2.54390
 7600.00000   50.58120  -30.60890   34.22250   34.45110   35.96840    0.02520    0.04600    9.03270    0.02170   13.21350    2.63730
 7650.00000   52.07150  -11.97150  370.33400  272.18030  150.01110    0.00640    0.04560   10.33680    0.09580   19.89570    2.59960
 7700.00000   50.58120  -19.10450 1417.59830  228.73150  305.65190    0.00610    0.08110   10.21760    0.10650   38.10360    2.56600
 7750.00000   49.58260  -39.10400  111.02600  102.92950  107.77510    0.00410    0.02000    8.49150    0.00670   29.95530    2.69280
 7800.00000   50.78440  -52.53730   34.45110   34.92870   80.14650    0.01980    0.03120    8.45880    0.00050   24.88520    2.65370
 7850.00000   51.17730  -31.94030   80.92810   65.25850   97.86640    0.02120    0.03200    8.56490   -0.00000   35.60260    2.68210
 7900.00000   47.75040  -37.93540  169.44640  170.72130  240.46880    0.00860    0.03250    8.66770   -0.00150   59.91060    2.69330
 7950.00000   49.09090  -48.30740  881.60730  583.31470  436.36330    0.00140    0.00750    9.27870    0.10700   17.54280    2.68230
 8000.00000   47.75060  -50.74550   71.06020   69.14070   71.28730    0.01040    0.01590    8.34040    0.00750   20.11920    2.69290
 8050.00000   94.78570  -55.52340   63.31130   58.60040   82.95330    0.03420    0.04330    8.16100    0.00370   18.33090    2.63510
 8100.00000   52.95750  -74.33020   10.02690    8.17890   25.64210    0.09550    0.00260    7.67000    0.09130   18.55440    2.66050
 8150.00000   57.88360   -0.59650   29.12130   25.84040   31.84010    0.05660    0.02400    9.50220    0.24850   46.78950    2.67910
 8200.00000   59.52370  -93.43280    6.12110    5.48270   23.67700    0.07080    0.06120    8.05970    0.02620   16.98960    2.56720
 8250.00000   53.41260 -110.44780    4.54240    3.99080   19.93120    0.09560    0.05940    7.67350    0.05860   18.10770    2.57760
 8300.00000   54.10660 -106.26870    6.16910    7.78500   58.37820    0.08630    0.03930    7.78840    0.11530   20.78990    2.64920
 8350.00000   55.20170 -105.67160    7.21280    4.84580   57.33010    0.03040   -0.08540    8.03250    0.01380   14.40810    2.77240
