~Version ---------------------------------------------------
VERS. 2.0 : CWLS log ASCII Standard -VERSION 2.0
WRAP.  NO : ONE LINE PER DEPTH STEP
~Well ------------------------------------------------------
STRT.FT                  500.0 : START DEPTH
STOP.FT                 6900.0 : STOP DEPTH
STEP.FT               50.00000 : STEP LENGTH
NULL.                  -999.25 : NULL VALUE
COMP.    TESORO PETROLEUM CORP : COMPANY
WELL.          VALCHER EMMA #1 : WELL
FLD .                    VISTO : FIELD
LOC .                          : LOCATION
CNTY.                   WILSON : COUNTY
STAT.                    TEXAS : STATE
CTRY. UNITED STATES OF AMERICA : COUNTRY
SRVC.             Schlumberger : SERVICE COMPANY
DATE.              12-Nov-1976 : LOGDATE
API .           42493302300000 : API NUMBER
UWI .           42493302300000 : UNIQUE WELL ID
SLAT.WGS84        29.022378585 : SURFACE LATITUDE
SLON.WGS84      -98.2397774924 : SURFACE LONGITUDE
~Curve Information -----------------------------------------
DEPT  .FT    : DEPTH FEET
LL8ED .OHMM  : 8 INCH LATEROLOG RESISTIVITY
CILDED.MMHO  : CONDUCTIVITY FROM RESISTIVITY LOG
ILDED .OHMM  : INDUCTION LOG DEEP RESISTIVITY
SPWS  .MV    : SPONTANEOUS POTENTIAL [BASELINE 0 MV] [SPRED]
GRWS  .GAPI  : GAMMA RAY [GRDED]
CALDED.IN    : CALIPER FROM DENSITY LOG [DEPTH ADJ TO RES LOG]
CORRED.G/C3  : DENSITY CORRECTION FROM DENSITY LOG [DEPTH ADJ TO RES LOG]
DPHIED.V/V   : DENSITY POROSITY [M=2.71 F=1.0] FROM DENSITY LOG [DEPTH ADJ TO RES LOG]
SPRED .MV    : SPONTANEOUS POTENTIAL FROM RESISTIVITY LOG
RHOBED.G/C3  : BULK DENSITY FROM DENSITY LOG [DEPTH ADJ TO RES LOG]
GRDED .GAPI  : GAMMA RAY FROM DENSITY LOG [DEPTH ADJ TO RES LOG]
CALWS .IN    : CALIPER [CALDED]
DCORWS.G/C3  : DENSITY CORRECTION [CORRED]
DRESWS.OHMM  : DEEP RESISTIVITY [ILDED]
NPHIED.V/V   : NEUTRON POROSITY LIMESTONE FROM DENSITY LOG [DEPTH ADJ TO RES LOG]
SRESWS.OHMM  : SHALLOW RESISTIVITY [LL8ED]
CONDWS.MMHO  : CONDUCTIVITY [1000/DRESWS]
DENWS .G/C3  : BULK DENSITY [RHOBED]
NPOWS .V/V   : NEUTRON POROSITY LIME [NPHIED]
DPOWS .V/V   : DENSITY POROSITY [M=2.71 F=1] [CALCULATED FROM DENWS]
~Params ----------------------------------------------------
PD  .                     GL : PERMANENT DATUM
EPD .FT                  435 : ELEVATION PERMANENT DATUM
LMF .                     KB : LOG MEASURED FROM
DAPD.FT                 12.8 : FEET ABOVE PERMANENT DATUM
DMF .                     KB : DRILLING MEASURED FROM
EKB .FT                447.8 : KELLY BUSHING
EDF .FT                446.8 : DRILLING FLOOR
EGL .FT                  435 : GROUND LEVEL
DATE.               11/12/76 : RUN DATE
RUN .                      2 : RUN NUMBER
DD  .FT                 6952 : DEPTH DRILLER
DL  .FT                 6942 : DEPTH LOGGER
BLI .FT                 6936 : BOTTOM LOG INTERVAL
TLI .FT                 6500 : TOP LOG INTERVAL
CS  .IN                8.625 : CASING SIZE
CBD .FT                  500 : CASING BOTTOM DRILLER
BS  .IN                7.875 : BIT SIZE
BSD .FT                 6952 : BIT SIZE AT DEPTH
DFT .         LIGNOSULFONATE : DRILLING FLUID TYPE
DFD .                    9.7 : DRILLING FLUID DENSITY
DFV .                     39 : DRILLING FLUID VISCOSITY
DFPH.                   10.3 : DRILLING FLUID PH
DFL .                    4.2 : DRILLING FLUID LOSS
MSS .               CIRC PIT : MUD SAMPLE SOURCE
RMS .OHMM               0.94 : RESISTIVITY MUD SAMPLE
MST .DEGF                 70 : MUD SAMPLE TEMPERATURE
RMF .OHMM               0.88 : RESISTIVITY MUD FILTRATE SAMPLE
MFST.DEGF                 70 : MUD FILTRATE SAMPLE TEMPERATURE
RMC .OHMM                0.8 : RESISTIVITY MUD CAKE
MCST.DEGF                 70 : MUD CAKE SAMPLE TEMPERATURE
MFSS.                   MEAS : MUD FILTRATE SAMPLE SOURCE
MCSS.                  CHART : MUD CAKE SAMPLE SOURCE
RMB .OHMM               0.38 : RESISTIVITY MUD AT BHT
TCS .HRS                1900 : TIME CIRCULATED STOPPED
TLAB.HRS                2100 : TIME LOGGER AT BOTTOM
LUN .                   7799 : LOGGING UNIT NUMBER
LUL .                  PLEAS : LOGGING UNIT LOCATION
ENGI.               JOHNSTON : RECORDING ENGINEER
CLNT.                A2DTECH : CLIENT CODE
ORIG.               1" PRINT : ORIGIN OF DATA
UWI .         42493302300000 : UNIQUE WELL ID
DICO. A2D Technologies, Inc. : DIGITIZING COMPANY
~Other -----------------------------------------------------
ALL DENSITY/NEUTRON CURVES WERE DIGITIZED OFF FROM LIMESTONE SECTION.
~ASCII -----------------------------------------------------
# ...
 5750.00000    1.95560  656.03190    1.52440   -0.18810    -999.25    -999.25    -999.25    -999.25  -19.35100    -999.25    -999.25    -999.25    -999.25    1.52440    -999.25    1.95560  655.99580    -999.25    -999.25    -999.25
 5800.00000    1.79550  718.89920    1.39100   -3.98550    -999.25    -999.25    -999.25    -999.25  -21.84420    -999.25    -999.25    -999.25    -999.25    1.39100    -999.25    1.79550  718.90720    -999.25    -999.25    -999.25
 5850.00000    1.61700  846.31240    1.18140   -3.30400    -999.25    -999.25    -999.25    -999.25  -22.39690    -999.25    -999.25    -999.25    -999.25    1.18140    -999.25    1.61700  846.45340    -999.25    -999.25    -999.25
 5900.00000    1.54050  878.23770    1.13860   -1.19740    -999.25    -999.25    -999.25    -999.25  -21.52450    -999.25    -999.25    -999.25    -999.25    1.13860    -999.25    1.54050  878.27150    -999.25    -999.25    -999.25
 5950.00000    1.70250  799.50850    1.25050   -3.43320    -999.25    -999.25    -999.25    -999.25  -23.60230    -999.25    -999.25    -999.25    -999.25    1.25050    -999.25    1.70250  799.68020    -999.25    -999.25    -999.25
 6000.00000    1.58430  856.96470    1.16690   -0.67120    -999.25    -999.25    -999.25    -999.25  -20.31890    -999.25    -999.25    -999.25    -999.25    1.16690    -999.25    1.58430  856.97140    -999.25    -999.25    -999.25
 6050.00000    2.15880  697.14130    1.43450   -0.62310    -999.25    -999.25    -999.25    -999.25  -19.74950    -999.25    -999.25    -999.25    -999.25    1.43450    -999.25    2.15880  697.10700    -999.25    -999.25    -999.25
 6100.00000    1.96400  705.32420    1.41780   -2.37980    -999.25    -999.25    -999.25    -999.25  -21.26530    -999.25    -999.25    -999.25    -999.25    1.41780    -999.25    1.96400  705.31810    -999.25    -999.25    -999.25
 6150.00000    1.87420  711.31310    1.40590   -4.07130    -999.25    -999.25    -999.25    -999.25  -23.47670    -999.25    -999.25    -999.25    -999.25    1.40590    -999.25    1.87420  711.28810    -999.25    -999.25    -999.25
 6200.00000    1.23010 1232.37010    0.81140    0.24820    -999.25    -999.25    -999.25    -999.25  -18.29940    -999.25    -999.25    -999.25    -999.25    0.81140    -999.25    1.23010 1232.43770    -999.25    -999.25    -999.25
 6250.00000    1.93290  669.69400    1.49310   -5.43680    -999.25    -999.25    -999.25    -999.25  -25.80690    -999.25    -999.25    -999.25    -999.25    1.49310    -999.25    1.93290  669.74750    -999.25    -999.25    -999.25
 6300.00000    2.51110  547.84870    1.82570   -2.97670    -999.25    -999.25    -999.25    -999.25  -22.63110    -999.25    -999.25    -999.25    -999.25    1.82570    -999.25    2.51110  547.73510    -999.25    -999.25    -999.25
 6350.00000    2.18380  574.12920    1.74200   -2.17590    -999.25    -999.25    -999.25    -999.25  -24.38530    -999.25    -999.25    -999.25    -999.25    1.74200    -999.25    2.18380  574.05280    -999.25    -999.25    -999.25
 6400.00000    3.06010  436.78110    2.28930   -3.12790    -999.25    -999.25    -999.25    -999.25  -30.19440    -999.25    -999.25    -999.25    -999.25    2.28930    -999.25    3.06010  436.81480    -999.25    -999.25    -999.25
 6450.00000    3.63570  339.08100    2.94940   -3.32810    -999.25    -999.25    -999.25    -999.25  -29.86560    -999.25    -999.25    -999.25    -999.25    2.94940    -999.25    3.63570  339.05200    -999.25    -999.25    -999.25
 6500.00000    2.67610  472.07260    2.11840   -4.69210    -999.25    -999.25    0.03190    0.10200  -29.64400    2.52550    -999.25    -999.25    0.03190    2.11840    0.22970    2.67610  472.05440    2.52550    0.22970    0.10790
 6550.00000    6.05200  231.54770    4.09500   -7.99790   55.13040    8.62670   -0.00580    0.08070  -31.36410    2.57420   55.13040    8.62670   -0.00580    4.09500    0.12100    6.05200  244.20030    2.57420    0.12100    0.07940
 6600.00000    5.89000  230.20450    4.07890   -7.07780   54.81240    8.36250    0.03320    0.05200  -28.85840    2.61850   54.81240    8.36250    0.03320    4.07890    0.14020    5.89000  245.16410    2.61850    0.14020    0.05350
 6650.00000    8.48030  181.88420    5.00210  -17.73730   38.20260    8.45940    0.01660    0.06340  -37.93230    2.59450   38.20260    8.45940    0.01660    5.00210    0.10560    8.48030  199.91600    2.59450    0.10560    0.06750
 6700.00000    2.61560  706.16720    1.24730  -13.40420   41.41610    9.26330    0.18510    0.21670  -32.01350    2.33750   41.41610    9.26330    0.18510    1.24730    0.37970    2.61560  801.73180    2.33750    0.37970    0.21780
 6750.00000    9.60950  137.30900    6.85990  -13.21800   41.20770    8.10110    0.00060    0.05060  -30.24170    2.62810   41.20770    8.10110    0.00060    6.85990    0.12250    9.60950  145.77470    2.62810    0.12250    0.04790
 6800.00000   12.83660   86.68580   11.52330  -28.09810   45.93320    8.29490    0.02990    0.03480  -43.53620    2.63670   45.93320    8.29490    0.02990   11.52330    0.08250   12.83660   86.78070    2.63670    0.08250    0.04290
 6850.00000   39.16950   46.44530   23.45190   -4.89010  106.66420    8.01390    0.01120    0.09380  -22.46430    2.54950  106.66420    8.01390    0.01120   23.45190    0.18020   39.16950   42.64050    2.54950    0.18020    0.09390
 6900.00000   25.21080   51.41580   20.02950  -14.82690   24.58560    6.93920    0.01490    0.00160  -36.40360    2.71270   24.58560    6.93920    0.01490   20.02950    0.06160   25.21080   49.92640    2.71270    0.06160   -0.00160
