~Version ---------------------------------------------------
VERS. 2.0 : CWLS log ASCII Standard -VERSION 2.0
WRAP. YES : MULTIPLE LINES PER DEPTH STEP
~Well ------------------------------------------------------
STRT.FT                   3850.0 : START DEPTH
STOP.FT                   8300.0 : STOP DEPTH
STEP.FT                 50.00000 : STEP LENGTH
NULL.                    -999.25 : NULL VALUE
COMP. CHAMPLIN PETROLEUM COMPANY : COMPANY
WELL.          J. F. GOODSON  #2 : WELL
FLD .                   GIDDINGS : FIELD
LOC .                            : LOCATION
CNTY.                   BURLESON : COUNTY
STAT.                      TEXAS : STATE
CTRY.   UNITED STATES OF AMERICA : COUNTRY
SRVC.               Schlumberger : SERVICE COMPANY
DATE.                15-May-1980 : LOGDATE
API .             42051306970000 : API NUMBER
UWI .             42051306970000 : UNIQUE WELL ID
SLAT.WGS84         30.4460373097 : SURFACE LATITUDE
SLON.WGS84        -96.6864923933 : SURFACE LONGITUDE
~Curve Information -----------------------------------------
DEPT    .FT    : DEPTH FEET
CALDED  .IN    : CALIPER FROM COMPENSATED NEUTRON FORMATION DENSITY
CALWS   .IN    : CALIPER [CALDED]
CONDWS  .MMHO  : CONDUCTIVITY [1000/DRESWS]
DCORWS  .G/C3  : DENSITY CORRECTION [DRHOED]
DENWS   .G/C3  : BULK DENSITY [M=2.71 F=1.0] [RHOBED]
DPHILSED.V/V   : DENSITY POROSITY [M=2.71 F=1.0] FROM CNFD LOG
DPHISSED.V/V   : DENSITY POROSITY [M=2.65 F=1.0] FROM CNFD LOG
DPOWS   .V/V   : DENSITY POROSITY [M=2.71 F=1.0] [CALCULATED FROM DENWS]
DRESWS  .OHMM  : DEEP RESISTIVITY [ILDED]
DRHOED  .G/C3  : DENSITY CORRECTION FROM COMPENSATED NEUTRON FORMATION DENSITY
DTED    .US/F  : DELTA TIME FROM DUAL INDUCTION-SFL-SONIC LOG
DTWS    .US/F  : DELTA TIME [DTED]
GRDED   .GAPI  : GAMMA RAY FROM COMPENSATED NEUTRON FORMATION DENSITY
GRRED   .GAPI  : GAMMA RAY FROM DUAL INDUCTION-SFL-SONIC LOG
GRWS    .GAPI  : GAMMA RAY [GRDED]
ILDED   .OHMM  : INDUCTION LOG DEEP RESISTIVITY FROM DUAL INDUCTION-SFL-SONIC LOG
ILMED   .OHMM  : INDUCTION LOG MEDIUM RESISTIVITY FROM DUAL INDUCTION-SFL-SONIC LOG
MRESWS  .OHMM  : MEDIUM RESISTIVITY [ILMED]
NPHILSED.V/V   : NEUTRON POROSITY LIMESTONE FROM COMPENSATED NEUTRON FORMATION DENSITY
NPHISSED.V/V   : NEUTRON POROSITY SANDSTONE FROM COMPENSATED NEUTRON FORMATION DENSITY
NPOWS   .V/V   : NEUTRON POROSITY [SPLICED NPHISSED CONVERTED TO LS/NPHILSED AT 6500']
RHOBED  .G/C3  : BULK DENSITY FROM DENSITY LOG
SFLUED  .OHMM  : SPHERICALLY FOCUSED LOG RESISTIVITY FROM DUAL INDUCTION-SFL-SONIC LOG
SPHIED  .V/V   : SONIC POROSITY FROM DENSITY SONIC LOG
SPOWS   .V/V   : SONIC POROSITY [SPHIED]
SPRED   .MV    : SPONTANEOUS POTENTIAL FROM DUAL INDUCTION-SFL-SONIC LOG
SPWS    .MV    : SPONTANEOUS POTENTIAL [BASELINE 0 MV] [SPRED]
SRESWS  .OHMM  : SHALLOW RESISTIVITY [SFLUED]
~Params ----------------------------------------------------
PD  .                     GL : PERMANENT DATUM
EPD .FT                  316 : ELEVATION PERMANENT DATUM
LMF .                     KB : LOG MEASURED FROM
DAPD.FT                   16 : FEET ABOVE PERMANENT DATUM
DMF .                     KB : DRILLING MEASURED FROM
EKB .FT                  232 : KELLY BUSHING
EDF .FT                  327 : DRILLING FLOOR
EGL .FT                  316 : GROUND LEVEL
DATE.               05/15/80 : RUN DATE
RUN .                      1 : RUN NUMBER
DD  .FT                 8301 : DEPTH DRILLER
DL  .FT                 8302 : DEPTH LOGGER
BLI .FT                 8296 : BOTTOM LOG INTERVAL
TLI .FT                 3870 : TOP LOG INTERVAL
CS  .IN                9.625 : CASING SIZE
CBD .FT                 3881 : CASING BOTTOM DRILLER
CBL .FT                 3870 : CASING BOTTOM LOGGER
BS  .IN                 8.75 : BIT SIZE
BSD .FT                 8301 : BIT SIZE AT DEPTH
DFT .                 BEN EX : DRILLING FLUID TYPE
DFD .                    9.7 : DRILLING FLUID DENSITY
DFV .                     49 : DRILLING FLUID VISCOSITY
DFPH.                    8.5 : DRILLING FLUID PH
DFL .                    6.4 : DRILLING FLUID LOSS
MSS .                   TANK : MUD SAMPLE SOURCE
RMS .OHMM               2.38 : RESISTIVITY MUD SAMPLE
MST .DEGF                102 : MUD SAMPLE TEMPERATURE
RMF .OHMM               1.79 : RESISTIVITY MUD FILTRATE SAMPLE
MFST.DEGF                102 : MUD FILTRATE SAMPLE TEMPERATURE
RMC .OHMM               3.58 : RESISTIVITY MUD CAKE
MCST.DEGF                102 : MUD CAKE SAMPLE TEMPERATURE
MFSS.                      M : MUD FILTRATE SAMPLE SOURCE
MCSS.                      C : MUD CAKE SAMPLE SOURCE
RMB .OHMM               1.28 : RESISTIVITY MUD AT BHT
TCS .HRS                 900 : TIME CIRCULATED STOPPED
TLAB.HRS                1530 : TIME LOGGER AT BOTTOM
LUN .                   8101 : LOGGING UNIT NUMBER
LUL .                   BREN : LOGGING UNIT LOCATION
ENGI.              GILLILAND : RECORDING ENGINEER
WITN.                  DAVIS : WITNESSED BY
CLNT.                A2DTECH : CLIENT CODE
ORIG.          1" 2.5" PRINT : ORIGIN OF DATA
UWI .         42051306970000 : UNIQUE WELL ID
DICO. A2D Technologies, Inc. : DIGITIZING COMPANY
~Other -----------------------------------------------------
~ASCII -----------------------------------------------------
# ...
 7600.00000   10.46110   10.46110  159.62200    0.02410    2.66190    0.02730    -999.25    0.02810    6.26480    0.02410   63.25390   63.25390   38.36490   59.80670   59.80670    6.26480    5.82670    5.82670    0.06100    -999.25    0.05980    2.66190    7.50820    0.05200    0.05200  -13.10320   -5.24780    7.50820
 7650.00000   10.27070   10.27070  155.65410    0.02090    2.63350    0.04310    -999.25    0.04470    6.42450    0.02090   66.63040   66.63040   48.96250   76.45340   76.45340    6.42450    6.14160    6.14160    0.07940    -999.25    0.08890    2.63350    6.84390    0.08010    0.08010  -10.25700   -2.58740    6.84390
 7700.00000    9.56340    9.56340  115.81040    0.07570    2.61200    0.05410    -999.25    0.05730    8.63480    0.07570   75.04530   75.04530  107.10110  121.71800  121.71800    8.63480    6.38500    6.38500    0.10400    -999.25    0.06500    2.61200    4.73160    0.11830    0.11830  -12.89120   -5.40750    4.73160
 7750.00000    9.56010    9.56010   42.65520    0.02210    2.61200    0.05530    -999.25    0.05730   23.44380    0.02210   63.57030   63.57030   41.73350   64.12490   64.12490   23.44380   19.43730   19.43730    0.06260    -999.25    0.08460    2.61200   38.64010    0.05480    0.05480  -10.02520   -4.59110   38.64010
 7800.00000    9.41640    9.41640   33.13640    0.03200    2.60350    0.05790    -999.25    0.06230   30.17830    0.03200   62.86400   62.86400   43.87800   67.59730   67.59730   30.17830   22.85840   22.85840    0.08210    -999.25    0.10990    2.60350   50.73450    0.05180    0.05180  -11.07490   -6.87940   50.73450
 7850.00000    9.55700    9.55700   28.27190    0.01660    2.57100    0.07860    -999.25    0.08130   35.37080    0.01660   64.09740   64.09740   29.41560   57.05320   57.05320   35.37080   25.82570   25.82570    0.08910    -999.25    0.10250    2.57100   30.21000    0.06260    0.06260   -9.29190   -5.66550   30.21000
 7900.00000   12.10990   12.10990  212.07110    0.11730    2.24810    0.26940    -999.25    0.27010    4.71540    0.11730   98.82120   98.82120  104.04140  140.21610  140.21610    4.71540    3.08480    3.08480    0.40490    -999.25    0.37760    2.24810    4.43690    0.32010    0.32010  -15.78390  -12.72650    4.43690
 7950.00000   12.01930   12.01930  148.12620    0.18900    2.48770    0.13220    -999.25    0.13000    6.75100    0.18900   95.90780   95.90780  108.85330  139.95480  139.95480    6.75100    4.82920    4.82920    0.38330    -999.25    0.38020    2.48770    8.90800    0.29910    0.29910  -33.53650  -31.04820    8.90800
 8000.00000   10.45310   10.45310   57.98410    0.20460    2.52590    0.10700    -999.25    0.10770   17.24610    0.20460   94.89550   94.89550  121.23230  142.59360  142.59360   17.24610   10.34060   10.34060    0.34050    -999.25    0.32570    2.52590   17.45980    0.29150    0.29150  -27.80290  -25.88360   17.45980
 8050.00000    9.75590    9.75590  117.95100    0.03000    2.47710    0.15590    -999.25    0.13620    8.47810    0.03000   82.86630   82.86630  106.56730  115.36820  115.36820    8.47810    8.15720    8.15720    0.23920    -999.25    0.31050    2.47710   12.40200    0.20270    0.20270  -18.51860  -17.16840   12.40200
 8100.00000   11.20870   11.20870  182.44850    0.02810    2.34920    0.20910    -999.25    0.21100    5.48100    0.02810   85.21240   85.21240  102.25410  128.24780  128.24780    5.48100    5.17180    5.17180    0.32830    -999.25    0.22620    2.34920    7.07720    0.18950    0.18950  -22.46330  -21.68220    7.07720
 8150.00000    9.74630    9.74630  173.13920    0.02030    2.68280    0.01260    -999.25    0.01590    5.77570    0.02030   71.53270   71.53270   61.61090   83.03200   83.03200    5.77570    5.58000    5.58000    0.12680    -999.25    0.15490    2.68280    6.30120    0.11410    0.11410  -13.42100  -13.20890    6.30120
 8200.00000    9.37040    9.37040   97.82530    0.02300    2.68690    0.01080    -999.25    0.01350   10.22230    0.02300   62.05290   62.05290   59.61860   84.29770   84.29770   10.22230    8.95000    8.95000    0.08060    -999.25    0.11200    2.68690   12.90210    0.04580    0.04580  -13.76250  -14.11950   12.90210
 8250.00000    9.17520    9.17520    0.51020    0.03670    2.69130    0.01030    -999.25    0.01090 1960.08740    0.03670   52.39980   52.39980   15.87260   42.31850   42.31850 1960.08740   90.04030   90.04030    0.00450    -999.25    0.00310    2.69130  129.54210   -0.02670   -0.02670  -21.61760  -22.19500  129.54210
 8300.00000    -999.25    -999.25    -999.25    -999.25    -999.25    -999.25    -999.25    -999.25    -999.25    -999.25    -999.25    -999.25    -999.25    -999.25    -999.25    -999.25    -999.25    -999.25    -999.25    -999.25    -999.25    -999.25    -999.25    -999.25    -999.25    -999.25    -999.25    -999.25
