~Version ---------------------------------------------------
VERS. 2.0 : CWLS log ASCII Standard -VERSION 2.0
WRAP.  NO : ONE LINE PER DEPTH STEP
~Well ------------------------------------------------------
STRT.F                  3850.0 : START DEPTH
STOP.F                  8100.0 : STOP DEPTH
STEP.F                50.00000 : STEP LENGTH
NULL.                  -999.25 : NULL VALUE
COMP.       CHAMPLIN PETROLEUM : COMPANY
WELL.           D L ALFORD  #1 : WELL
FLD .                 GIDDINGS : FIELD
LOC .                          : LOCATION
CNTY.                 BURLESON : COUNTY
STAT.                    TEXAS : STATE
CTRY. UNITED STATES OF AMERICA : COUNTRY
SRVC.                  Unknown : SERVICE COMPANY
DATE.              02-Jun-1980 : LOGDATE
API .           42051306740000 : API NUMBER
UWI .           42051306740000 : UNIQUE WELL ID
SLAT.WGS84       30.4824061596 : SURFACE LATITUDE
SLON.WGS84      -96.6856223222 : SURFACE LONGITUDE
~Curve Information -----------------------------------------
DEPT.F                 : 
CNS .DEC  42 890 03 00 : NEUTRON POROSITY SANDSTONE FROM CSG TO 7252; LIMESTONE FROM 7252 TO TD
CDL .DEC  45 890 12 00 : DENSITY POROSITY SANDSTONE FROM CSG TO 7252; LIMESTONE FROM 7252 TO TD
GRD .GAPI 42 310 01 00 : GAMMA RAY
RHOB.G/C3 45 350 01 00 : BULK DENSITY
DRHO.G/C3 45 356 01 00 : DENSITY CORRECTION
CALY.IN   45 280 24 00 : CALIPER Y
DT  .US/F 60 520 00 00 : INTERVAL TRANSIT TIME
RILD.OHMM 07 120 46 00 : INDUCTION LOG DEEP RESISTIVITY
RILM.OHMM 07 120 44 00 : INDUCTION LOG MEDIUM RESISTIVITY
RLL3.OHMM 07 220 03 00 : LATEROLOG RESISTIVITY
SPR .MV   07 010 01 00 : SPONTANEOUS POTENTIAL FROM RES.
~Params ----------------------------------------------------
PD  .                     GL : PERMANENT DATUM
EPD .FT                  328 : ELEVATION PERMANENT DATUM
LMF .                     KB : LOG MEASURED FROM
DAPD.FT                 19.5 : FEET ABOVE PERMANENT DATUM
DMF .                     KB : DRILLING MEASURED FROM
EKB .FT                347.5 : KELLY BUSHING
EDF .FT                345.5 : DRILLING FLOOR
EGL .FT                  328 : GROUND LEVEL
DATE.               06/02/80 : RUN DATE
RUN .                      1 : RUN NUMBER
DD  .FT                 8132 : DEPTH DRILLER
DL  .FT                 8120 : DEPTH LOGGER
BLI .FT                 8119 : BOTTOM LOG INTERVAL
TLI .FT                 3850 : TOP LOG INTERVAL
CS  .IN                9.625 : CASING SIZE
CBD .FT                 3850 : CASING BOTTOM DRILLER
CBL .FT                 3850 : CASING BOTTOM LOGGER
BS  .IN                 8.75 : BIT SIZE
BSD .FT                 8132 : BIT SIZE AT DEPTH
DFT .                    FGM : DRILLING FLUID TYPE
DFD .                    9.5 : DRILLING FLUID DENSITY
DFV .                     47 : DRILLING FLUID VISCOSITY
DFPH.                      9 : DRILLING FLUID PH
DFL .                    7.8 : DRILLING FLUID LOSS
MSS .               FLOWLINE : MUD SAMPLE SOURCE
RMS .OHMM                3.7 : RESISTIVITY MUD SAMPLE
MST .DEGF                 75 : MUD SAMPLE TEMPERATURE
RMF .OHMM                  4 : RESISTIVITY MUD FILTRATE SAMPLE
MFST.DEGF                 75 : MUD FILTRATE SAMPLE TEMPERATURE
RMC .OHMM                2.8 : RESISTIVITY MUD CAKE
MCST.DEGF                 75 : MUD CAKE SAMPLE TEMPERATURE
MFSS.                      M : MUD FILTRATE SAMPLE SOURCE
MCSS.                      M : MUD CAKE SAMPLE SOURCE
RMB .OHMM                1.1 : RESISTIVITY MUD AT BHT
TCS .HRS                1100 : TIME CIRCULATED STOPPED
TLAB.HRS                1600 : TIME LOGGER AT BOTTOM
LUN .                   7544 : LOGGING UNIT NUMBER
LUL .                 CORPUS : LOGGING UNIT LOCATION
ENGI.                   LENK : RECORDING ENGINEER
WITN.           KRAUHS DAVIS : WITNESSED BY
CLNT.                A2DTECH : CLIENT CODE
ORIG.          1" 2.5" PRINT : ORIGIN OF DATA
UWI .         42051306740000 : UNIQUE WELL ID
DICO. A2D Technologies, Inc. : DIGITIZING COMPANY
~Other -----------------------------------------------------
~ASCII -----------------------------------------------------
 3850.00000    0.41440    0.23950   68.49750    2.22180    0.17020    8.88840  109.80000   18.30670    0.20150    3.86350  -46.98900
 3900.00000    0.38510    0.19880   92.96340    2.31940    0.14050   10.57380  106.83000    3.10640    3.30070    3.66350  -28.13040
 3950.00000    0.34250    0.19050   92.45110    2.32310    0.15330    9.77610  100.47810    3.05150    3.35030    3.90720  -24.64940
 4000.00000    0.21730    0.20510   72.59370    2.39910    0.04400    8.22950   71.63370    4.27290    5.89180   12.06930  -44.71840
 4050.00000    0.36440    0.22650   95.06590    2.28090    0.16700   10.51510   98.26290    2.59520    2.76960    3.04810  -21.29750
 4100.00000    0.34020    0.14000   67.16510    2.37130    0.07870    8.57800   90.68990    3.68280    4.61190    8.82480  -68.94890
 4150.00000    0.35920    0.18860   92.44000    2.32150    0.12020    8.99160  103.23590    2.28300    2.36660    2.73450  -21.00870
 4200.00000    0.34730    0.15950   97.17990    2.39100    0.12560    8.78220   97.20650    2.74070    3.00380    3.33540  -23.13480
 4250.00000    0.35210    0.12540   87.44260    2.41260    0.06730    9.12320   94.08200    3.32180    3.45010    3.66100  -30.16290
 4300.00000    0.36070    0.13120   93.40340    2.43530    0.18240    9.94570   99.82150    2.38030    2.46770    2.53750  -24.80160
 4350.00000    0.34480    0.21820   92.60810    2.24670    0.20480   11.21030   99.91230    2.01890    2.14970    2.37700  -24.17920
 4400.00000    0.36000    0.24240   94.89850    2.25870    0.17080   11.62080  106.85940    1.60800    1.68260    1.92750  -22.27470
 4450.00000    0.36110    0.16240   90.31700    2.39200    0.18450   10.74320   99.24940    1.95740    2.13140    2.33110  -25.51760
 4500.00000    0.35970    0.15730   90.95560    2.38860    0.17440   10.42240  102.94150    1.61340    1.69290    1.92800  -23.74470
 4550.00000    0.36690    0.15780   98.66170    2.39920    0.16900   10.45090  102.88500    1.57530    1.68460    1.91390  -23.07860
 4600.00000    0.37720    0.16090   93.46480    2.37620    0.15620   10.33220  104.70320    1.45790    1.59540    1.78700  -22.29600
 4650.00000    0.37510    0.21880   96.30590    2.32760    0.14120   10.46620  108.52320    1.35130    1.44330    1.62710  -22.85860
 4700.00000    0.35810    0.17860   97.24090    2.38790    0.21480    9.99200  101.22790    1.57990    1.71580    1.78110  -22.12580
 4750.00000    0.37900    0.22600   92.16140    2.25760    0.19490    9.83520  101.09420    1.53210    1.58000    1.66960  -22.46240
 4800.00000    0.29410    0.11580   85.87150    2.39830    0.15390    9.30210   90.08400    1.69730    1.91650    2.09840  -22.98050
 4850.00000    0.35790    0.17790   86.49860    2.35710    0.21910   10.02850  100.98240    1.64320    1.78910    2.09610  -20.54110
 4900.00000    0.36620    0.20560   86.64760    2.32510    0.18710    9.74010  101.98940    1.60930    1.75570    2.04120  -20.79740
 4950.00000    0.35630    0.14610   87.38310    2.38320    0.20300    9.93200  105.37250    1.48400    1.51940    1.80120  -20.23900
 5000.00000    0.38370    0.19520   84.34690    2.30470    0.16890   10.29590  107.89940    1.13920    1.27340    1.65600  -20.67430
 5050.00000    0.38180    0.31000   94.06430    2.15210    0.18290    9.95550  110.75490    1.07570    1.17750    1.59140  -28.72650
 5100.00000    0.36710    0.20990   87.42960    2.32780    0.18790    9.68230  105.55270    1.21010    1.33820    1.67240  -26.68770
 5150.00000    0.35470    0.15660   78.91830    2.39890    0.21380   10.22080   97.41830    1.58180    1.76100    1.87240  -25.06030
 5200.00000    0.35390    0.12840   81.41660    2.40600    0.23760    9.78100   98.36360    1.50100    1.68950    1.86300  -31.60640
 5250.00000    0.37240    0.24920   84.14540    2.25380    0.16830   10.05690  109.69610    1.00610    1.11530    1.45980  -25.73580
 5300.00000    0.38870    0.19950   94.47760    2.32740    0.17770    9.98210  108.76670    1.10000    1.21060    1.52100  -22.44940
 5350.00000    0.38970    0.23950   92.43610    2.25180    0.20710    9.61310  109.64380    1.06010    1.14150    1.51630  -28.18130
 5400.00000    0.31220    0.08960  113.93160    2.41420    0.15560    8.92470  105.95580    1.58090    1.78500    2.12820  -24.30910
 5450.00000    0.34850    0.20750   85.40710    2.30260    0.18880   10.14990   99.72200    1.30770    1.45080    1.68220  -23.61010
 5500.00000    0.33830    0.14690   83.34110    2.41600    0.10920    8.46240   90.73280    1.53390    1.68940    1.70670  -27.67240
 5550.00000    0.28420    0.12240   79.58840    2.46990    0.13920    8.91210   92.48950    1.58110    1.78070    2.00510  -24.91950
 5600.00000    0.35630    0.17090   91.23500    2.38470    0.16540   10.04410   97.64780    1.31210    1.46770    1.65870  -25.32670
 5650.00000    0.37500    0.26330   90.48600    2.23220    0.19090   10.13660  103.71490    1.21010    1.33720    1.50460  -25.54750
 5700.00000    0.37780    0.19090  100.33950    2.34590    0.09850   10.34460  101.67640    1.28190    1.41920    1.55550  -24.56970
 5750.00000    0.37600    0.21760  114.39730    2.30030    0.11630   10.25110  109.38770    1.07360    1.19000    1.39320  -22.29460
 5800.00000    0.39300    0.18970   98.23410    2.33970    0.13690   10.81240  105.66280    1.02980    1.17340    1.42770  -19.98220
 5850.00000    0.34980    0.13920   90.76490    2.43100    0.16420    9.83800   92.20560    1.70740    1.89600    2.05250  -20.19950
 5900.00000    0.33500    0.13450   86.41720    2.45120    0.16000    9.65420   90.21630    1.84300    2.10790    2.15890  -21.06690
 5950.00000    0.34460    0.13450   93.70640    2.41590    0.21030    9.74290   94.28530    1.66770    1.82640    2.11030  -22.23260
 6000.00000    0.34730    0.12680   89.92390    2.44670    0.19360   10.03550   95.06150    1.55870    1.75100    2.00620  -22.25180
 6050.00000    0.34550    0.12950  102.21500    2.42840    0.17780   10.32400   97.70680    1.40910    1.58060    1.84030  -21.21570
 6100.00000    0.35010    0.11880   82.86650    2.44170    0.19680   10.25790   96.26320    1.52140    1.69650    2.08150  -24.83050
 6150.00000    0.36450    0.17280   87.79250    2.36050    0.20680   11.17170  100.51890    1.27820    1.42630    1.64530  -26.96790
 6200.00000    0.39090    0.17460   85.86700    2.35130    0.22390   11.67720  101.47210    1.29800    1.46660    1.85050  -27.95980
 6250.00000    0.33200    0.16450   82.55720    2.43840    0.22630   10.58300   91.30610    1.61840    1.86500    2.19820  -27.93340
 6300.00000    0.15960    0.03900   43.18860    2.57600    0.01080    8.95270   73.74390    3.54470    3.77550    4.03460  -29.92410
 6350.00000    0.20200    0.05380   51.75310    2.55840   -0.00490    9.05480   78.23770    3.22400    3.49680    3.98110  -27.62790
 6400.00000    0.16770    0.05000   41.67130    2.58250    0.01820    8.67700   72.49880    4.36110    4.58380    4.50950  -33.82190
 6450.00000    0.16680    0.04150   47.31700    2.59130    0.01640    8.82450   75.67210    4.18040    4.62140    4.85000  -27.19780
 6500.00000    0.23720    0.06980   89.56930    2.52700    0.09130    8.79580   87.26910    2.16630    2.42190    2.68300  -25.48260
 6550.00000    0.21820    0.07260   88.98590    2.52880    0.06480    8.80020   83.24730    2.68090    3.01270    3.13110  -23.93900
 6600.00000    0.21860    0.06410   78.57640    2.54050    0.00800    8.70080   80.13570    2.94340    3.30430    3.48150  -22.83700
 6650.00000    0.27520    0.04650   89.37800    2.57270    0.10690    8.86170   87.67160    2.10970    2.37110    2.74370  -22.05480
 6700.00000    0.20260    0.03650   67.51820    2.59000    0.01300    8.77480   78.99020    3.07620    3.67420    4.07050  -22.56430
 6750.00000    0.30100    0.07870   86.08580    2.50330    0.20470    9.89830   94.03630    1.66810    1.84350    2.37700  -24.33750
 6800.00000    0.35720    0.10300   89.38510    2.46350    0.24960    9.72860   91.77670    1.69310    1.90990    2.37200  -24.46300
 6850.00000    0.35370    0.10570   90.94340    2.46620    0.20480   10.85940   95.76350    1.55710    1.76550    2.23820  -25.49540
