~Version ---------------------------------------------------
VERS. 2.0 : CWLS log ASCII Standard -VERSION 2.0
WRAP. YES : MULTIPLE LINES PER DEPTH STEP
~Well ------------------------------------------------------
STRT.FT                      1000.0 : START DEPTH
STOP.FT                      8050.0 : STOP DEPTH
STEP.FT                    50.00000 : STEP LENGTH
NULL.                       -999.25 : NULL VALUE
COMP. MACHII ROSS PETROLEUM COMPANY : COMPANY
WELL.                    KINCAID #1 : WELL
FLD .                   LOS CUATROS : FIELD
LOC .                               : LOCATION
CNTY.                      MAVERICK : COUNTY
STAT.                         TEXAS : STATE
CTRY.      UNITED STATES OF AMERICA : COUNTRY
SRVC.                 Dresser Atlas : SERVICE COMPANY
DATE.                   19-Sep-1978 : LOGDATE
API .                42323312560000 : API NUMBER
UWI .                42323312560000 : UNIQUE WELL ID
SLAT.WGS84             28.770602727 : SURFACE LATITUDE
SLON.WGS84          -100.4374528413 : SURFACE LONGITUDE
~Curve Information -----------------------------------------
DEPT  .FT    : DEPTH FEET
CALDED.IN    : CALIPER FROM DENSITY LOG [DEP AD TO GRRED]
CALRED.IN    : CALIPER FROM RESISTIVITY LOG
CALWS .IN    : CALIPER [976 CALRED 1886.5 CALDED]
CONDWS.MMHO  : CONDUCTIVITY [1000/DRESWS]
CORRED.G/C3  : DENSITY CORRECTION FROM DENSITY LOG [DEP AD TO GRRED]
DCORWS.G/C3  : DENSITY CORRECTION [CORRED]
DENWS .G/C3  : BULK DENSITY [M=2.71 F=1.0] [CALCULATED FROM DPOWS]
DPHIED.V/V   : DENSITY POROSITY [M=2.71 F=1.0] FROM DENSITY LOG [DEP AD TO GRRED]
DPOWS .V/V   : DENSITY POROSITY [M=2.71 F=1.0] [DPHIED]
DRESWS.OHMM  : DEEP RESISTIVITY [ILDED]
DTED  .US/F  : DELTA TIME FROM SONIC LOG
DTWS  .US/F  : DELTA TIME [DTED]
GRDED .GAPI  : GAMMA RAY FROM DENSITY LOG [DEP AD TO GRRED]
GRRED .GAPI  : GAMMA RAY FROM RESISTIVITY LOG
GRWS  .GAPI  : GAMMA RAY [976 GRRED 1805.5 GRDED 7558.5 GRRED 7718.5 GRDED]
ILDED .OHMM  : INDUCTION LOG DEEP RESISTIVITY
ILMED .OHMM  : INDUCTION LOG MEDIUM RESISTIVITY
MRESWS.OHMM  : MEDIUM RESISTIVITY [ILMED]
NPHIED.V/V   : NEUTRON POROSITY SANDSTONE FROM DENSITY LOG [DEP AD TO GRRED]
NPOWS .V/V   : NEUTRON POROSITY SANDSTONE [NPHIED]
SFLUED.OHMM  : SPHERICALLY FOCUSED LOG RESISTIVITY
SPRED .MV    : SPONTANEOUS POTENTIAL FROM RESISTIVITY LOG
SPWS  .MV    : SPONTANEOUS POTENTIAL [BASELINE 0 MV] [SPRED]
SRESWS.OHMM  : SHALLOW RESISTIVITY [SFLUED]
TENDED.LBF   : TENSION FROM DENSITY LOG [DEP AD TO GRRED]
~Params ----------------------------------------------------
PD  .                     GL : PERMANENT DATUM
EPD .FT                  884 : ELEVATION PERMANENT DATUM
LMF .                     KB : LOG MEASURED FROM
DAPD.FT                   21 : FEET ABOVE PERMANENT DATUM
DMF .                     KB : DRILLING MEASURED FROM
EKB .FT                  905 : KELLY BUSHING
EDF .FT                  904 : DRILLING FLOOR
EGL .FT                  884 : GROUND LEVEL
DATE.              9-19-1978 : RUN DATE
RUN .                      2 : RUN NUMBER
DD  .FT                 8050 : DEPTH DRILLER
DL  .FT                 8050 : DEPTH LOGGER
BLI .FT                 8048 : BOTTOM LOG INTERVAL
TLI .FT                 6461 : TOP LOG INTERVAL
CS  .IN                9.625 : CASING SIZE
CBD .FT                 6473 : CASING BOTTOM DRILLER
CBL .FT                 6456 : CASING BOTTOM LOGGER
BS  .IN                7.875 : BIT SIZE
BSD .FT                 8050 : BIT SIZE AT DEPTH
DFT .                  LIGNO : DRILLING FLUID TYPE
DFD .                   14.6 : DRILLING FLUID DENSITY
DFV .                     48 : DRILLING FLUID VISCOSITY
DFPH.                     11 : DRILLING FLUID PH
DFL .                    7.2 : DRILLING FLUID LOSS
MSS .                    PIT : MUD SAMPLE SOURCE
RMS .OHMM                1.4 : RESISTIVITY MUD SAMPLE
MST .DEGF                 75 : MUD SAMPLE TEMPERATURE
RMF .OHMM               1.07 : RESISTIVITY MUD FILTRATE SAMPLE
MFST.DEGF                 75 : MUD FILTRATE SAMPLE TEMPERATURE
RMC .OHMM               1.75 : RESISTIVITY MUD CAKE
MCST.DEGF                 75 : MUD CAKE SAMPLE TEMPERATURE
MFSS.                   MEAS : MUD FILTRATE SAMPLE SOURCE
MCSS.                   CALC : MUD CAKE SAMPLE SOURCE
RMB .OHMM               0.61 : RESISTIVITY MUD AT BHT
TCS .HRS                   6 : TIME CIRCULATED STOPPED
LUN .                   6160 : LOGGING UNIT NUMBER
LUL .                  ALICE : LOGGING UNIT LOCATION
ENGI.                 BOYKIN : RECORDING ENGINEER
WITN.                 WALKER : WITNESSED BY
CLNT.                A2DTECH : CLIENT CODE
ORIG.          1" 2.5" PRINT : ORIGIN OF DATA
UWI .         42323312560000 : UNIQUE WELL ID
DICO. A2D Technologies, Inc. : DIGITIZING COMPANY
~Other -----------------------------------------------------
~ASCII -----------------------------------------------------
# ...
 2400.00000   13.62200   13.21240   13.62200  104.89880    0.02900    0.02900    2.58000    0.07600    0.07600    9.53300   67.03380   67.03380   26.91200   26.24500   26.91200    9.53300    9.83380    9.83380    0.15400    0.15400    8.14230  -50.32050   -5.25540    8.14230  930.61000
 2450.00000   14.17300   13.37480   14.17300   71.98650    0.02500    0.02500    2.60740    0.06000    0.06000   13.89150   63.49000   63.49000   24.12900   22.72040   24.12900   13.89150   15.25850   15.25850    0.14000    0.14000   12.07080  -52.10690   -5.31250   12.07080  934.88400
 2500.00000   14.41200   13.45290   14.41200  102.91140    0.02300    0.02300    2.58000    0.07600    0.07600    9.71710   69.44610   69.44610   32.07700   32.56970   32.07700    9.71710   10.03470   10.03470    0.16100    0.16100    8.70610  -49.43750   -1.05040    8.70610  921.11600
 2550.00000   14.21000   13.41190   14.21000   71.88870    0.01900    0.01900    2.56980    0.08200    0.08200   13.91040   65.83890   65.83890   28.69300   31.22470   28.69300   13.91040   14.35510   14.35510    0.14900    0.14900   12.25150  -56.97210   -8.80740   12.25150  853.75800
 2600.00000   13.79700   13.23510   13.79700   62.25640    0.02500    0.02500    2.60230    0.06300    0.06300   16.06260   64.41360   64.41360   35.87100   34.67130   35.87100   16.06260   19.45920   19.45920    0.12200    0.12200   18.27300  -68.12750  -20.18520   18.27300  874.03000
 2650.00000   13.74100   13.13590   13.74100   64.65170    0.01800    0.01800    2.56120    0.08700    0.08700   15.46750   66.96850   66.96850   47.99600   42.89450   47.99600   15.46750   15.51510   15.51510    0.13600    0.13600   13.50190  -78.32970  -30.60980   13.50190  799.33300
 2700.00000   13.71600   13.19120   13.71600   47.76710    0.02600    0.02600    2.58350    0.07400    0.07400   20.93490   63.50430   63.50430   50.58500   53.03920   50.58500   20.93490   22.69970   22.69970    0.13700    0.13700   26.75760  -92.04930  -44.55170   26.75760  850.00000
 2750.00000   13.69000   13.19420   13.69000   31.95400    0.02400    0.02400    2.57150    0.08100    0.08100   31.29500   68.14180   68.14180   58.03800   47.94040   58.03800   31.29500   33.05860   33.05860    0.13800    0.13800   37.51730  -91.46130  -44.18610   37.51730  830.00000
 2800.00000   14.01600   13.39860   14.01600   39.95920    0.01900    0.01900    2.53560    0.10200    0.10200   25.02550   68.24300   68.24300   34.31400   42.25950   34.31400   25.02550   27.76030   27.76030    0.15400    0.15400   30.57510  -83.26690  -36.21410   30.57510  863.99600
 2850.00000   14.39000   13.65700   14.39000   79.68000    0.01000    0.01000    2.50650    0.11900    0.11900   12.55020   82.19160   82.19160   45.03700   49.86100   45.03700   12.55020   12.55020   12.55020    0.18000    0.18000   13.70640  -68.27760  -21.44720   13.70640  870.00000
 2900.00000   13.97900   13.33930   13.97900   58.38970    0.00700    0.00700    2.55440    0.09100    0.09100   17.12630   72.21740   72.21740   50.74700   48.63420   50.74700   17.12630   18.85810   18.85810    0.15400    0.15400   22.16030  -57.91660  -11.30850   22.16030  930.00000
 2950.00000   14.01300   13.27090   14.01300   85.72290    0.01200    0.01200    2.50140    0.12200    0.12200   11.66550   83.11020   83.11020   52.65300   48.94380   52.65300   11.66550   12.20870   12.20870    0.18500    0.18500   12.09140  -64.81670  -18.43100   12.09140  933.60100
 3000.00000   14.03600   13.34120   14.03600  102.44220    0.00100    0.00100    2.50820    0.11800    0.11800    9.76160   90.26400   90.26400   54.17800   57.85950   54.17800    9.76160    9.98540    9.98540    0.21100    0.21100   11.66930  -58.73650  -12.90190   11.66930  970.00000
 3050.00000   13.69000   13.16400   13.69000   56.30630    0.00700    0.00700    2.47740    0.13600    0.13600   17.76000   81.40680   81.40680   68.36400   67.51500   68.36400   17.76000   17.76000   17.76000    0.17300    0.17300   16.50810  -68.70320  -24.52010   16.50810  870.00000
 3100.00000   13.23300   12.92310   13.23300   33.58110   -0.00500   -0.00500    2.45690    0.14800    0.14800   29.77870   76.41730   76.41730   65.46200   64.24300   65.46200   29.77870   31.62560   31.62560    0.14500    0.14500   33.04050  -97.47700  -54.94530   33.04050  938.15000
 3150.00000   12.92700   12.79280   12.92700   37.24450    0.00500    0.00500    2.55610    0.09000    0.09000   26.84960   69.47210   69.47210   61.91900   57.19170   61.91900   26.84960   27.20160   27.20160    0.13200    0.13200   32.52900 -103.95290  -63.07270   32.52900  948.36800
 3200.00000   12.71200   12.70660   12.71200   34.72460    0.00100    0.00100    2.60570    0.06100    0.06100   28.79800   55.83940   55.83940   19.15100   20.28330   19.15100   28.79800   29.75620   29.75620    0.06900    0.06900   34.52900  -90.51850  -51.28970   34.52900 1007.13500
 3250.00000   12.65800   12.65360   12.65800   56.04940    0.00100    0.00100    2.62790    0.04800    0.04800   17.84140   54.46820   54.46820   20.96700   21.82350   20.96700   17.84140   21.00160   21.00160    0.09700    0.09700   24.87020  -79.15150  -44.82440   24.87020  998.00000
 3300.00000   12.85000   12.76590   12.85000   40.15060   -0.02400   -0.02400    2.61420    0.05600    0.05600   24.90620   56.11780   56.11780   25.87600   26.25870   25.87600   24.90620   22.89960   22.89960    0.09200    0.09200   22.17660  -83.79550  -54.40300   22.17660 1032.08110
 3350.00000   14.06500   13.40810   14.06500  181.34010    0.00200    0.00200    2.67580    0.02000    0.02000    5.51450   72.05390   72.05390   58.93700   52.08530   58.93700    5.51450    9.04250    9.04250    0.14600    0.14600   10.34000  -55.99250  -31.53450   10.34000 1039.68010
 3400.00000   14.68800   13.92070   14.68800  433.85830    0.18800    0.18800    2.42790    0.16500    0.16500    2.30490  102.00790  102.00790   66.01600   67.61450   66.01600    2.30490    2.42640    2.42640    0.25300    0.25300    2.60680  -30.04600  -10.52250    2.60680 1095.68010
 3450.00000   14.69000   13.70920   14.69000  442.06710    0.04400    0.04400    2.22440    0.28400    0.28400    2.26210  104.54170  104.54170   73.81900   74.78790   73.81900    2.26210    2.46770    2.46770    0.25400    0.25400    2.85620  -18.00100   -3.41210    2.85620  843.51100
 3500.00000   14.66400   14.70520   14.66400  486.47600    0.08500    0.08500    2.12180    0.34400    0.34400    2.05560   95.70870   95.70870   72.79300   72.01200   72.79300    2.05560    2.38790    2.38790    0.24700    0.24700    2.33610  -19.92030   -7.48430    2.33610  750.00000
 3550.00000   13.12600   12.92050   13.12600  360.94570   -0.02300   -0.02300    2.55950    0.08800    0.08800    2.77050   91.77170   91.77170   76.09600   71.86250   76.09600    2.77050    3.27580    3.27580    0.18100    0.18100    3.14510  -16.64510   -4.34770    3.14510  895.17300
 3600.00000   13.00500   12.65280   13.00500  118.04010   -0.00100   -0.00100    2.67240    0.02200    0.02200    8.47170   70.60890   70.60890   41.38900   40.63450   41.38900    8.47170    8.80500    8.80500    0.11700    0.11700    6.38300  -16.15400   -3.99520    6.38300 1007.37700
 3650.00000   12.74700   12.55380   12.74700   83.50800   -0.01700   -0.01700    2.62620    0.04900    0.04900   11.97490   58.09770   58.09770   23.94900   28.07310   23.94900   11.97490   16.09090   16.09090    0.05200    0.05200   13.67450  -38.18670  -22.57340   13.67450  950.00000
 3700.00000   12.85600   12.67170   12.85600   99.81430   -0.00100   -0.00100    2.61940    0.05300    0.05300   10.01860   59.37340   59.37340   23.27600   22.05680   23.27600   10.01860   10.01860   10.01860    0.07100    0.07100    9.08810  -43.14460  -22.46240    9.08810  970.00000
 3750.00000   12.77900   12.69210   12.77900   53.42390   -0.01000   -0.01000    2.62790    0.04800    0.04800   18.71820   56.20160   56.20160   18.78900   24.53690   18.78900   18.71820   22.31010   22.31010    0.05900    0.05900   19.28160  -53.80080  -28.04970   19.28160  897.19400
