~Version ---------------------------------------------------
VERS. 2.0 : CWLS log ASCII Standard -VERSION 2.0
WRAP.  NO : ONE LINE PER DEPTH STEP
~Well ------------------------------------------------------
STRT.F                   300.0 : START DEPTH
STOP.F                 10950.0 : STOP DEPTH
STEP.F                50.00000 : STEP LENGTH
NULL.                  -999.25 : NULL VALUE
COMP.     THE PURE OIL COMPANY : COMPANY
WELL.          W. T. BRUTON #7 : WELL
FLD .            FORT TRINIDAD : FIELD
LOC .                          : LOCATION
CNTY.                  HOUSTON : COUNTY
STAT.                    TEXAS : STATE
CTRY. UNITED STATES OF AMERICA : COUNTRY
SRVC.             Schlumberger : SERVICE COMPANY
DATE.              29-Jan-1963 : LOGDATE
API .           42225004270000 : API NUMBER
UWI .           42225004270000 : UNIQUE WELL ID
SLAT.WGS84       31.0768046547 : SURFACE LATITUDE
SLON.WGS84      -95.6233840744 : SURFACE LONGITUDE
~Curve Information -----------------------------------------
DEPT.F    0   1   0  0 : 1 MEASURED DEPTH
MCAL.IN   15 280 01 00 : MLT (MICROLOG) CALIPER
DT  .US/F 60 500 31 00 : DELTA-T (INTERVAL TRANSIT TIME)
ASN .OHMM 05 041 16 00 : AMPLIFIED SHORT NORMAL RESISTIVITY
CILD.MMHO 05 110 46 00 : INDUCTION DEEP CONDUCTIVITY
ILD .OHMM 05 120 46 00 : INDUCTION DEEP RESISTIVITY
SPR .MV   05 010 01 00 : SPONTANEOUS POTENTIAL FROM RESISTIVITY LOG
LT18.OHMM 01 070 18 00 : LATERAL 18'
LN  .OHMM 01 060 64 00 : LONG NORMAL RESISTIVITY
GR  .GAPI 30 310 01 00 : GAMMA RAY
~Params ----------------------------------------------------
PD  .                     RT : PERMANENT DATUM
LMF .                    SCF : LOG MEASURED FROM
DAPD.FT                   16 : FEET ABOVE PERMANENT DATUM
DMF .                    SCF : DRILLING MEASURED FROM
EKB .FT                  195 : KELLY BUSHING
EDF .FT                  197 : DRILLING FLOOR
EGL .FT                  181 : GROUND LEVEL
DATE.               01/29/63 : RUN DATE
RUN .                      2 : RUN NUMBER
DD  .FT                10975 : DEPTH DRILLER
DL  .FT                10982 : DEPTH LOGGER
BLI .FT                10981 : BOTTOM LOG INTERVAL
TLI .FT                 9216 : TOP LOG INTERVAL
CBD .FT                 9215 : CASING BOTTOM DRILLER
CBL .FT                 9216 : CASING BOTTOM LOGGER
BS  .IN                6.125 : BIT SIZE
BSD .FT                10975 : BIT SIZE AT DEPTH
DFT .         LIGNOSULFONATE : DRILLING FLUID TYPE
DFD .                   10.4 : DRILLING FLUID DENSITY
DFV .                     52 : DRILLING FLUID VISCOSITY
DFPH.                     10 : DRILLING FLUID PH
DFL .                    4.6 : DRILLING FLUID LOSS
MSS .               FLOWLINE : MUD SAMPLE SOURCE
RMS .OHMM                1.7 : RESISTIVITY MUD SAMPLE
MST .DEGF                 75 : MUD SAMPLE TEMPERATURE
RMF .OHMM                1.5 : RESISTIVITY MUD FILTRATE SAMPLE
MFST.DEGF                 75 : MUD FILTRATE SAMPLE TEMPERATURE
RMC .OHMM                1.9 : RESISTIVITY MUD CAKE
MCST.DEGF                 75 : MUD CAKE SAMPLE TEMPERATURE
RMB .OHMM               0.49 : RESISTIVITY MUD AT BHT
TCS .HRS                   2 : TIME CIRCULATED STOPPED
LUN .                   4513 : LOGGING UNIT NUMBER
LUL .                HUNT SV : LOGGING UNIT LOCATION
ENGI.                PURCELL : RECORDING ENGINEER
WITN.             BLACKSTOCK : WITNESSED BY
CLNT.                A2DTECH : CLIENT CODE
ORIG.            2" 5" PRINT : ORIGIN OF DATA
UWI .         42225004270000 : UNIQUE WELL ID
DICO. A2D Technologies, Inc. : DIGITIZING COMPANY
~Other -----------------------------------------------------
~ASCII -----------------------------------------------------
# ...
 7600.00000    -999.25    -999.25    3.77480  276.37180    3.60530  -51.18250    3.46330    3.15400    -999.25
 7650.00000    -999.25    -999.25    2.49200  371.81790    2.54100  -52.07030    2.35630    2.43520    -999.25
 7700.00000    -999.25    -999.25    2.54780  373.99060    2.64210  -53.25330    2.40330    2.39570    -999.25
 7750.00000    -999.25    -999.25    2.35710  397.02880    2.43540  -53.41160    2.38710    2.58500    -999.25
 7800.00000    -999.25    -999.25    2.09420  388.55190    2.43520  -54.76240    2.38600    2.41360    -999.25
 7850.00000   15.87530   95.86750    1.96910  454.97960    2.13400  -52.40280    -999.25    2.24290    -999.25
 7900.00000   11.31730   80.78160    6.00580  200.73300    4.78080  -46.26780    3.71350    4.22310    -999.25
 7950.00000   10.52590   76.67340    6.73770  187.96330    5.44220  -45.93120    5.23640    5.34480    -999.25
 8000.00000   10.51610   64.29510    9.07270  166.18930    5.92990  -48.05500    8.42770    7.41930    -999.25
 8050.00000   10.25720   63.65020   13.20280   86.41830   11.09150  -46.92380    7.65990    9.59030    -999.25
 8100.00000   10.78830   59.20360   24.34870   26.27380   61.36810  -52.56290   19.80080   36.03240    -999.25
 8150.00000   10.12810   67.17810   19.00260   78.25130   17.84280  -54.18120    9.61010   24.47550    -999.25
 8200.00000   15.91750  100.07990    1.49340  589.92050    1.55300  -59.57800    2.08480    2.32310    -999.25
 8250.00000   10.39700   39.43460    3.79280  252.34270    3.93640  -68.18520    1.34510    3.16000    -999.25
 8300.00000    9.75680   72.64860   11.28570  434.85300    2.24030 -149.74260    1.45660    7.69580    -999.25
 8350.00000   10.13550   77.19280    5.18950  740.73800    1.23130 -122.28950    1.45970    1.37220    -999.25
 8400.00000    9.57670   72.72290    8.52790  642.34050    1.34340 -121.71880    2.33270    1.75610    -999.25
 8450.00000    9.51940   76.49010    4.26390 1821.44970    0.51260 -179.33390    1.07580    1.27190    -999.25
 8500.00000    9.69700   75.84170   10.43290 1029.51320    0.75660 -176.57420    1.19620    1.55770    -999.25
 8550.00000    9.61710   70.93770   10.19010 1131.86600    0.69570 -186.63950    0.82250    3.59470    -999.25
 8600.00000   15.87000  112.22630    5.90870  144.58950    7.22500  -64.27520    7.48230    9.48000    -999.25
 8650.00000   15.74790   75.72580    2.24910  477.07920    2.01560  -63.82770    2.01550    2.98510   72.42200
 8700.00000   15.84830  111.10030    2.21110  453.76490    2.16940  -67.27280    4.33890    2.83810   68.56490
 8750.00000    9.57600   77.14400    8.48650  971.78950    0.88880 -173.67530    1.04470    3.74190   26.68940
 8800.00000   10.08910   64.15230   12.29170  160.12520    6.19520 -111.86810    4.17170    5.40320   55.64240
 8850.00000   10.67830   78.97810    5.46150  205.57280    4.68540  -61.54970    3.51640    3.56480   61.17250
 8900.00000   12.90720   83.93270    2.98190  369.81370    2.71750  -60.08180    2.22650    2.26410   56.44490
 8950.00000   11.44250   81.98160    3.13280  344.40160    2.75930  -57.43730    3.14070    3.23580   73.48340
 9000.00000   11.02590   80.33740    3.00690  356.82030    2.65450  -57.08640    3.29190    3.28730   67.57990
 9050.00000   10.06210   92.68550    5.94150  188.01090    5.29420  -54.84950    5.47080    3.66290   52.61190
 9100.00000   10.33360   91.35230    4.85100  251.62120    3.74660  -55.51590    3.00060    5.64300   62.27220
 9150.00000   15.11150   88.69540    5.20480  202.94680    4.70830  -53.77580    2.67020    7.81780   48.77440
 9200.00000    9.24210   95.21150    3.40410  347.86890    2.56020  -50.72870    1.23680    3.66140   44.05010
 9250.00000    8.41840   54.93600   36.74950   35.93890   28.21570  -54.81260   61.03470   55.75640   16.31540
 9300.00000    7.96450   62.24790   27.01770   47.03850   21.33870  -45.00800   14.99820   38.50130   24.16530
 9350.00000    7.91350   54.60180   40.67590   30.86920   31.76630  -56.37780   59.25850   64.19660   12.83460
 9400.00000    8.02460   54.41170   49.95570   19.31020   46.99660  -63.54950  109.85830   87.27990   15.24930
 9450.00000    9.33580   66.42900   34.81020   24.15390   40.26930  -72.53130   76.86240   68.57500   18.12110
 9500.00000    8.23770   53.53980   65.51380   19.55990   44.60940  -71.15110   80.83840  111.47550   13.23960
 9550.00000    7.48060   53.88380   64.16230   20.24320   43.13670  -75.02110  137.64690  101.37170   12.78570
 9600.00000    7.22110   53.55220   43.98750   35.45040   29.19100  -48.27380   56.22880   66.45390   18.44380
 9650.00000    8.08280   54.59270   65.66820   25.57270   39.32830  -56.99550   87.31890  102.51970   18.06090
 9700.00000    7.48810   55.59030   60.39760   26.45110   38.58470  -56.42190  306.49390  103.84770   23.66250
 9750.00000   10.22290   86.85720    5.42880  220.68730    3.92880  -44.11510    4.87500    5.08130   54.14200
 9800.00000    8.96410   67.15110    5.24460  282.80180    3.20480  -42.21840    5.23360    6.88310   55.52590
 9850.00000    9.07130   84.98810    4.66550  318.74680    2.41550  -40.35170    6.81070    4.80780   50.06780
 9900.00000    8.29490   48.12150   27.35930   76.08250   16.69290  -41.71280    9.63100   11.62550   52.68660
 9950.00000    8.60400   75.33260    7.50930  196.25740    4.91150  -39.18270   10.97660    8.96530   44.53430
 10000.00000    8.46020   93.24210   10.86900  130.09810    7.84650  -41.36580   18.52670   12.47500   68.45560
 10050.00000    8.03150   70.80790   13.13530  117.92300    8.88210  -39.37850    6.61370   12.42780   46.09960
 10100.00000    7.62870   57.81440   27.66570   57.00710   18.01710  -40.69120   14.05300   23.61360   36.31220
 10150.00000    7.56490   53.58300   19.90990   94.80630   10.68130  -40.42790   16.31680   17.52640   37.92090
 10200.00000    9.13500   81.71030    5.50390  266.93080    3.12100  -42.37630    5.20320    4.22880   49.27440
 10250.00000   11.40910  112.13080    2.48350  670.40460    0.64300  -45.73530    1.23040    3.54850   52.72360
 10300.00000    9.12850   60.44850    8.61780  193.55350    4.73030  -41.48430    3.53060    6.54550   36.12920
 10350.00000    7.66770   58.36150   44.50070   33.77190   29.45070  -41.71200  130.64190   34.40500   38.99590
 10400.00000   10.76800   83.20340    3.45540  488.08180    1.49930  -44.14810    6.09220    4.52140   44.20810
 10450.00000    7.78810   51.39300   77.18860   19.62540   45.78480  -43.85480   69.09500  121.57400   25.25470
 10500.00000    7.72000   56.85560   29.91680   50.96160   20.38090  -41.02660   20.36980   33.67220   29.08060
 10550.00000    7.74390   55.12030   21.39230   87.67650   12.21720  -39.89200   26.45200   16.10210   39.54270
 10600.00000    8.13690   52.66440   34.99280   45.50980   21.85300  -42.80290   11.81930   32.95590   32.39550
 10650.00000    7.64850   63.61660   16.76110   93.76030   10.81030  -41.35610   36.01830   29.94890    -999.25
 10700.00000    8.84690   90.68740   11.71950  195.68960    4.70670  -43.42120  217.15610   12.47670    -999.25
 10750.00000    7.55930   69.68940   25.41300   78.60160   14.81350  -47.81840   62.76200   31.72980    -999.25
 10800.00000    7.92220   55.44740   29.17160   80.64400   12.81770  -51.80380   70.37120   36.28210    -999.25
 10850.00000    7.27970   66.33390   60.66720   26.09270   36.13510  -85.51200   30.74820   75.14430    -999.25
 10900.00000    7.64040   53.38190   49.91360   29.90050   33.10740  -42.29440   20.29730   50.05090    -999.25
 10950.00000    7.61460   52.51970   49.39870   37.78500   33.49600  -40.18860   24.13940   39.13120    -999.25
