~Version ---------------------------------------------------
VERS.      2.0 : CWLS log ASCII Standard -VERSION 2.0
WRAP.      YES : MULTIPLE LINES PER DEPTH STEP
CREA. 09/17/13 : LAS CREATION DATE
~Well ------------------------------------------------------
STRT.FT                   2000.0 : START DEPTH
STOP.FT                  11500.0 : STOP DEPTH
STEP.FT                 50.00000 : STEP LENGTH
NULL.                    -999.25 : NULL VALUE
COMP. LADD PETROLEUM CORPORATION : COMPANY
WELL.        LADD FITZSIMMONS #1 : WELL
FLD .                    WILDCAT : FIELD
LOC .                            : LOCATION
CNTY.                     DIMMIT : COUNTY
STAT.                      TEXAS : STATE
CTRY.   UNITED STATES OF AMERICA : COUNTRY
SRVC.               Schlumberger : SERVICE COMPANY
DATE.                19-Jan-1978 : LOGDATE
API .             42127315740000 : API NUMBER
UWI .             42127315740000 : UNIQUE WELL ID
SLAT.WGS84         28.2507010101 : SURFACE LATITUDE
SLON.WGS84       -100.0580378891 : SURFACE LONGITUDE
~Curve Information -----------------------------------------
DEPT    .FT    : DEPTH FEET
CALDED  .IN    : CALIPER FROM DENSITY LOG, DEPTH ADJUSTED WITH [SPRED]
CALWS   .IN    : CALIPER [CALDED]
CILDED  .MMHO  : CONDUCTIVITY FROM RESISTIVITY LOG
CONDWS  .MMHO  : CONDUCTIVITY [1000/DRESWS]
CORRED  .G/C3  : DENSITY CORRECTION FROM DENSITY LOG, DEPTH ADJUSTED WITH [SPRED]
DCORWS  .G/C3  : DENSITY CORRECTION [CORRED]
DENWS   .G/C3  : BULK DENSITY [M=2.71 F=1.0] [RHOBED]
DPHILSED.V/V   : DENSITY POROSITY [M=2.71 F=1.0] FROM DENSITY LOG, DEPTH ADJUSTED WITH [SPRED]
DPHISSED.V/V   : DENSITY POROSITY [M=2.65 F=1.0] FROM DENSITY LOG, DEPTH ADJUSTED WITH [SPRED]
DPOLSWS .V/V   : DEBSITY POROSITY LIMESTONE [CALCULATED FROM DENWS]
DRESWS  .OHMM  : DEEP RESISTIVITY [ILDED] IF DRESWS<1;1000/CONDWS
DTED    .US/F  : DELTA TIME FROM SONIC LOG
DTWS    .US/F  : DELTA TIME [DTED]
GRDED   .GAPI  : GAMMA RAY FROM DENSITY LOG, DEPTH ADJUSTED WITH [SPRED]
GRRED   .GAPI  : GAMMA RAY FROM RESISTIVITY LOG
GRWS    .GAPI  : GAMMA RAY [GRRED], SPLICED WITH [GRDED] FROM TOP TO 5160'
ILDED   .OHMM  : INDUCTION LOG DEEP RESISTIVITY
ILMED   .OHMM  : INDUCTION LOG MEDIUM RESISTIVITY
LL8ED   .OHMM  : 8 INCH LATEROLOG RESISTIVITY
MRESWS  .OHMM  : MEDIUM RESISTIVITY [ILMED]
NPHILSED.V/V   : NEUTRON POROSITY LIMESTONE FROM DENSITY LOG, DEPTH ADJUSTED WITH [SPRED]
NPHISSED.V/V   : NEUTRON POROSITY SANDSTONE FROM DENSITY LOG, DEPTH ADJUSTED WITH [SPRED]
NPOLSWS .V/V   : NEUTRON POROSITY LIMESTONE [NPHILSED], MATRIX CONVERTED [NPHISSED] TO LIMESTONE [TOP-5100]
RHOBED  .G/C3  : BULK DENSITY FROM DENSITY LOG, DEPTH ADJUSTED WITH [SPRED]
SPHIED  .V/V   : SONIC POROSITY FROM SONIC LOG
SPOWS   .V/V   : SONIC POROSITY [SPHIED]
SPRED   .MV    : SPONTANEOUS POTENTIAL FROM RESISTIVITY LOG
SPWS    .MV    : SPONTANEOUS POTENTIAL [BASELINE 0 MV] [SPRED]
SRESWS  .OHMM  : SHALLOW RESISTIVITY [LL8ED]
~Params ----------------------------------------------------
EKB .F                  728.0 : Kelly bushing
EGL .F                  710.0 : Ground level
EDF .F                  727.0 : Drilling floor
EPD .F                  710.0 : Permanent datum
TD  .F                11519.0 : Total depth
DATE.             19-JAN-1978 : DATE LOGGED
CLNT.                 A2DTECH : CLIENT CODE
SL  . 7000' FNEL & 7500' FSEL : SURFACE LOCATION
PD  .                      GL : PERMANENT DATUM
LMF .                      KB : LOG MEASURED FROM
DMF .                      KB : DRILLING MEASURED FROM
DAPD.F                     18 : FEET ABOVE PERMANENT DATUM
DD  .F                  11518 : DEPTH DRILLER
DL  .F                  11519 : DEPTH LOGGER
BLI .F                  11513 : BOTTOM LOG INTERVAL
TLI .F                   9875 : TOP LOG INTERVAL
CS1 .IN                 7.625 : CASING SIZE
CBD1.          7.625" @ 9920' : CASING DRILLER 1
CBL1.F                   9875 : CASING LOGGER 1
BS1 .IN                   6.5 : BIT SIZE
BSD1.F                  11518 : DEPTH DRILLED WITH BIT1
DFT .               SPER-TANN : TYPE FLUID IN HOLE
DFD .                    16.5 : DENSITY
DFV .                      50 : VISCOSITY
DFPH.                    11.8 : PH
MSS .              CIRC. TANK : SOURCE OF SAMPLE
RMS .OHMM                1.41 : RM
RMF .OHMM                0.51 : RMF
RMC .OHMM                 4.6 : RMC
MFSS.                    MEAS : SOURCE RMF.
MCSS.                    CALC : SOURCE RMC.
RMB .OHMM                0.38 : RM. AT BHT
BHT .F                    260 : BHT.
TCS .HRS                 1000 : TIME CIRC. STOPPED
TLAB.                    1500 : TIME LOGGER AT BOTTOM
LUN .                    7739 : LOGGING UNIT NUMBER
LUL .                  LAREDO : LOGGING UNIT LOCATION
ENGI.                   LOGAL : RECORDED BY
WITN.                 ELLISON : WITNESSED BY
ORIG.             1" 5" PRINT : ORIGIN OF DATA
UWI .          42127315740000 : UNIQUE WELL ID
DICO.  A2D TECHNOLOGIES, INC. : DIGITIZING COMPANY
~Other -----------------------------------------------------
~ASCII -----------------------------------------------------
# ...
 7000.00000   11.55440   11.55440   26.69860   26.69860    0.14790    0.14790    2.27670    0.17950    -999.25    0.25340   37.45510   53.56210   53.56210   30.63380   25.46820   25.46820   68.38920    -999.25    -999.25    -999.25    0.08510    -999.25    0.08510    2.27670    0.03930    0.03930 -108.66020  -75.00200    -999.25
 7050.00000   10.37380   10.37380   12.40400   12.40400    0.17520    0.17520    2.65680    0.04700    -999.25    0.03110   80.61920   50.98290   50.98290   21.13960   15.97280   15.97280  187.00840    -999.25  200.40730    -999.25    0.05000    -999.25    0.05000    2.65680    0.02440    0.02440  -73.26970  -40.39660  200.40730
 7100.00000   11.44840   11.44840   87.15780   87.15780    0.05970    0.05970    2.38920    0.16160    -999.25    0.18760   11.47340   65.79230   65.79230   42.24960   29.79140   29.79140   11.44220    -999.25   23.41990    -999.25    0.13560    -999.25    0.13560    2.38920    0.12500    0.12500  -45.57940  -12.99280   23.41990
 7150.00000   10.74250   10.74250   23.34480   23.34480    0.02130    0.02130    2.60870    0.16700    -999.25    0.05920   42.83610   54.96490   54.96490   32.93510   26.75340   26.75340    -999.25    -999.25   71.60980    -999.25    0.10070    -999.25    0.10070    2.60870    0.04730    0.04730  -96.17800  -63.29260   71.60980
 7200.00000   10.01290   10.01290   11.55000   11.55000    0.13370    0.13370    2.67500   -0.05260    -999.25    0.02050   86.58010   50.96080   50.96080   27.57510   15.86160   15.86160    -999.25    -999.25  200.25370    -999.25    0.00550    -999.25    0.00550    2.67500    0.02360    0.02360 -117.33910  -84.15480  200.25370
 7250.00000    9.62240    9.62240   10.43540   10.43540   -0.01100   -0.01100    2.90600   -0.07450    -999.25   -0.11460   95.82770   51.29240   51.29240   27.54700   14.79060   14.79060    -999.25    -999.25    -999.25    -999.25    0.00030    -999.25    0.00030    2.90600    0.02550    0.02550 -117.04730  -83.56420    -999.25
 7300.00000   10.15960   10.15960    9.88890    9.88890    0.02320    0.02320    2.83860   -0.09360    -999.25   -0.07520  101.12350   51.04790   51.04790   22.22780   19.12790   19.12790    -999.25    -999.25  200.26320    -999.25    0.00100    -999.25    0.00100    2.83860    0.02510    0.02510 -128.45850  -94.67650  200.26320
 7350.00000   15.43510   15.43510   13.06990   13.06990    0.13250    0.13250    2.31570    0.16220    -999.25    0.23060   76.51170   53.45340   53.45340   36.17320   23.08650   23.08650  200.38250    -999.25   89.69990    -999.25    0.00760    -999.25    0.00760    2.31570    0.03900    0.03900 -173.78400 -139.70320   89.69990
 7400.00000   11.81840   11.81840   16.66840   16.66840    0.21000    0.21000    2.68740    0.01430    -999.25    0.01320   59.99380   51.07750   51.07750   34.57380   25.01610   25.01610  200.14900    -999.25   96.03600    -999.25    0.00170    -999.25    0.00170    2.68740    0.02160    0.02160 -165.52110 -131.14140   96.03600
 7450.00000   14.51670   14.51670   13.36550   13.36550    0.13950    0.13950    2.51480    0.19030    -999.25    0.11420   74.81950   56.08540   56.08540   40.94800   25.64160   25.64160  190.99870    -999.25   68.78070    -999.25    0.02260    -999.25    0.02260    2.51480    0.05200    0.05200 -114.09160  -79.41310   68.78070
 7500.00000   15.50210   15.50210   16.82470   16.82470    0.14380    0.14380    2.46920    0.25700    -999.25    0.14080   59.43640   51.68970   51.68970   33.01060   22.58370   22.58370  200.26910    -999.25  152.56260    -999.25    0.02060    -999.25    0.02060    2.46920    0.02790    0.02790 -104.08920  -69.11180  152.56260
 7550.00000   15.81480   15.81480   12.94520   12.94520    0.09770    0.09770    2.54240    0.09060    -999.25    0.09800   77.24870   52.28180   52.28180   32.64660   23.04650   23.04650  156.24040    -999.25  117.09990    -999.25    0.01290    -999.25    0.01290    2.54240    0.03360    0.03360 -117.37130  -82.09510  117.09990
 7600.00000   12.43370   12.43370   15.99180   15.99180    0.10440    0.10440    2.67130    0.00980    -999.25    0.02260   62.53200   51.55450   51.55450   44.19000   29.16780   29.16780  148.20880    -999.25  199.32900    -999.25    0.00720    -999.25    0.00720    2.67130    0.03010    0.03010  -97.19680  -61.62180  199.32900
 7650.00000    9.53520    9.53520   14.16570   14.16570    0.00290    0.00290    2.70260    0.00080    -999.25    0.00430   70.59310   50.22840   50.22840   30.54650   20.83840   20.83840  199.97260    -999.25  200.77900    -999.25    0.01240    -999.25    0.01240    2.70260    0.02140    0.02140  -79.43080  -43.55690  200.77900
 7700.00000    9.71310    9.71310   10.97180   10.97180    0.02490    0.02490    2.73840   -0.00650    -999.25   -0.01660   91.14270   50.16340   50.16340   20.52430   14.47490   14.47490    -999.25    -999.25    -999.25    -999.25    0.00240    -999.25    0.00240    2.73840    0.01770    0.01770 -136.32580 -100.15310    -999.25
 7750.00000    9.84440    9.84440   25.38610   25.38610    0.04140    0.04140    2.64360    0.04680    -999.25    0.03880   39.39160   54.83770   54.83770   22.35490   18.31980   18.31980   57.68880    -999.25   85.87680    -999.25    0.02760    -999.25    0.02760    2.64360    0.05150    0.05150 -113.76770  -77.29610   85.87680
 7800.00000   12.70820   12.70820   12.42950   12.42950    0.17790    0.17790    2.56690    0.10460    -999.25    0.08370   80.45380   49.40890   49.40890   37.57100   24.96050   24.96050  198.70810    -999.25  200.05550    -999.25    0.00970    -999.25    0.00970    2.56690    0.01460    0.01460  -98.97920  -62.20880  200.05550
 7850.00000   12.84730   12.84730   11.95160   11.95160    0.15100    0.15100    2.64980    0.04430    -999.25    0.03520   83.67080   50.46480   50.46480   29.69210   21.90480   21.90480  200.20380    -999.25  199.70210    -999.25    0.01140    -999.25    0.01140    2.64980    0.02230    0.02230 -125.43490  -88.36560  199.70210
 7900.00000   15.62100   15.62100   16.58990   16.58990    0.13100    0.13100    2.24140    0.25230    -999.25    0.27400   60.27760   56.34770   56.34770   21.14210   14.78810   14.78810  111.72440    -999.25   73.26090    -999.25    0.03760    -999.25    0.03760    2.24140    0.04630    0.04630 -144.46890 -107.10080   73.26090
 7950.00000   10.15320   10.15320   10.66830   10.66830    0.00270    0.00270    2.70740   -0.00220    -999.25    0.00150   93.73560   50.46510   50.46510   29.03620   18.64400   18.64400    -999.25    -999.25    -999.25    -999.25    0.00350    -999.25    0.00350    2.70740    0.02070    0.02070 -176.72640 -139.05940    -999.25
 8000.00000   10.30160   10.30160    9.50090    9.50090    0.04330    0.04330    2.69780    0.01690    -999.25    0.00710  105.25320   54.18140   54.18140   28.08830   18.10550   18.10550    -999.25    -999.25    -999.25    -999.25    0.00030    -999.25    0.00030    2.69780    0.04410    0.04410 -193.34100 -155.37520    -999.25
 8050.00000   11.32240   11.32240   11.47920   11.47920    0.16940    0.16940    2.72080   -0.03580    -999.25   -0.00630   87.11410   50.02840   50.02840   25.03470   16.12820   16.12820    -999.25    -999.25    -999.25    -999.25   -0.00140    -999.25   -0.00140    2.72080    0.01550    0.01550 -204.18310 -165.91840    -999.25
 8100.00000    9.59900    9.59900   10.72020   10.72020    0.00270    0.00270    2.68880    0.01040    -999.25    0.01240   93.28180   51.52110   51.52110   23.44850   17.21530   17.21530    -999.25    -999.25    -999.25    -999.25    0.00400    -999.25    0.00400    2.68880    0.02580    0.02580 -185.52660 -146.96310    -999.25
 8150.00000    9.36940    9.36940   10.27900   10.27900    0.02550    0.02550    2.64440    0.04600    -999.25    0.03840   97.28570   54.56540   54.56540   15.83170   10.35080   10.35080    -999.25    -999.25    -999.25    -999.25    0.03490    -999.25    0.03490    2.64440    0.04780    0.04780 -170.80490 -131.94250    -999.25
 8200.00000    9.23330    9.23330   31.76040   31.76040    0.04180    0.04180    2.48030    0.13750    -999.25    0.13430   31.48570   66.83790   66.83790   13.42430   10.60380   10.60380   49.87930    -999.25   43.00250    -999.25    0.14840    -999.25    0.14840    2.48030    0.12850    0.12850 -145.14560 -105.98440   43.00250
