~Version ---------------------------------------------------
VERS. 2.0 : CWLS log ASCII Standard -VERSION 2.0
WRAP.  NO : ONE LINE PER DEPTH STEP
~Well ------------------------------------------------------
STRT.F                         1500.0 : START DEPTH
STOP.F                         8950.0 : STOP DEPTH
STEP.F                       50.00000 : STEP LENGTH
NULL.                         -999.25 : NULL VALUE
COMP.        AMOCO PRODUCTION COMPANY : COMPANY
WELL. FRANK L. PATRANELLA UNIT B #1-U : WELL
FLD .                        BRYAN, N : FIELD
LOC .                                 : LOCATION
CNTY.                          BRAZOS : COUNTY
STAT.                           TEXAS : STATE
CTRY.        UNITED STATES OF AMERICA : COUNTRY
SRVC.                    Schlumberger : SERVICE COMPANY
DATE.                     27-Mar-1982 : LOGDATE
API .                  42041307560000 : API NUMBER
UWI .                  42041307560000 : UNIQUE WELL ID
SLAT.WGS84              30.7198358858 : SURFACE LATITUDE
SLON.WGS84             -96.3523405481 : SURFACE LONGITUDE
~Curve Information -----------------------------------------
DEPT   .F    0   1   0  0 : 1 MEASURED DEPTH
NPHI_SS.DEC  42 890 03 00 : NEUTRON POROSITY SANDSTONE
DPHI_SS.DEC  45 890 12 00 : DENSITY POROSITY SANDSTONE
NPHI_LS.DEC  42 890 01 00 : NEUTRON POROSITY LIMESTONE
DPHI_LS.DEC  45 890 10 00 : DENSITY POROSITY LIMESTONE
RHOB   .G/C3 45 350 01 00 : BULK DENSITY
DRHO   .G/C3 45 356 01 00 : BULK DENSITY CORRECTION
CALD   .IN   45 280 60 00 : CALIPER FROM DENSITY LOG
GRR    .GAPI 07 310 01 00 : GAMMA RAY FROM RESISTIVITY LOG
ILD    .OHMM 07 120 46 00 : INDUCTION DEEP RESISTIVITY
ILM    .OHMM 07 120 44 00 : INDUCTION MEDIUM RESISTIVITY
SFLU   .OHMM 07 220 01 00 : SHALLOW FOCUSED RESISTIVITY (UNAVERAGED)
SPR    .MV   07 010 01 00 : SPONTANEOUS POTENTIAL FROM RESISTIVITY LOG
~Params ----------------------------------------------------
PD  .                     GL : PERMANENT DATUM
EPD .FT                346.3 : ELEVATION PERMANENT DATUM
LMF .                     KB : LOG MEASURED FROM
DAPD.FT                 18.3 : FEET ABOVE PERMANENT DATUM
DMF .                     KB : DRILLING MEASURED FROM
EKB .FT                364.6 : KELLY BUSHING
EDF .FT                363.6 : DRILLING FLOOR
EGL .FT                346.3 : GROUND LEVEL
DATE.               03/27/82 : RUN DATE
RUN .                      1 : RUN NUMBER
DD  .FT                 8988 : DEPTH DRILLER
DL  .FT                 8989 : DEPTH LOGGER
BLI .FT                 8983 : BOTTOM LOG INTERVAL
TLI .FT                 1488 : TOP LOG INTERVAL
CS  .IN                9.625 : CASING SIZE
CBD .FT                 1523 : CASING BOTTOM DRILLER
CBL .FT                 1488 : CASING BOTTOM LOGGER
BS  .IN                 8.75 : BIT SIZE
BSD .FT                 8988 : BIT SIZE AT DEPTH
DFT .      GEL LIGNO CAUSTIC : DRILLING FLUID TYPE
DFD .                    9.7 : DRILLING FLUID DENSITY
DFV .                     42 : DRILLING FLUID VISCOSITY
DFPH.                    9.2 : DRILLING FLUID PH
DFL .                    7.5 : DRILLING FLUID LOSS
MSS .               FLOWLINE : MUD SAMPLE SOURCE
RMS .OHMM               3.21 : RESISTIVITY MUD SAMPLE
MST .DEGF                 70 : MUD SAMPLE TEMPERATURE
RMF .OHMM               3.39 : RESISTIVITY MUD FILTRATE SAMPLE
MFST.DEGF                 66 : MUD FILTRATE SAMPLE TEMPERATURE
RMC .OHMM               1.78 : RESISTIVITY MUD CAKE
MCST.DEGF                 66 : MUD CAKE SAMPLE TEMPERATURE
MFSS.                  PRESS : MUD FILTRATE SAMPLE SOURCE
MCSS.               MEASURED : MUD CAKE SAMPLE SOURCE
RMB .OHMM              1.229 : RESISTIVITY MUD AT BHT
TCS .HRS                1200 : TIME CIRCULATED STOPPED
TLAB.HRS                1900 : TIME LOGGER AT BOTTOM
LUN .                   8176 : LOGGING UNIT NUMBER
LUL .                BRENHAM : LOGGING UNIT LOCATION
ENGI.                MARANUK : RECORDING ENGINEER
WITN.                MINSHEW : WITNESSED BY
CLNT.                A2DTECH : CLIENT CODE
ORIG.            2" 5" PRINT : ORIGIN OF DATA
UWI .         42041307560000 : UNIQUE WELL ID
DICO. A2D Technologies, Inc. : DIGITIZING COMPANY
~Other -----------------------------------------------------
~ASCII -----------------------------------------------------
 1500.00000    0.46530    0.29250    -999.25    -999.25    2.14120    0.08240   10.90260   41.08860    5.71090    6.09430    6.58530  -32.07730
 1550.00000    0.45040    0.22920    -999.25    -999.25    2.27380    0.03450   10.86510   51.91280    6.12130    5.82540    5.17810  -25.90990
 1600.00000    0.37730    0.28400    -999.25    -999.25    2.17030    0.01540   10.02170   63.42560    6.51780    6.69180    6.45230  -28.44130
 1650.00000    0.38270    0.30660    -999.25    -999.25    2.14910    0.03570    9.78410   55.33890    6.43930    6.62330    6.71230  -28.69470
 1700.00000    0.42940    0.37480    -999.25    -999.25    2.02950    0.00490    8.31800   57.14210    6.29940    6.68590    7.14950  -36.50170
 1750.00000    0.41390    0.38320    -999.25    -999.25    2.01910    0.01240    7.96220   54.72470    6.03550    5.93250    6.41070  -39.73850
 1800.00000    0.48970    0.27210    -999.25    -999.25    2.21220    0.04840    8.08720   81.33780    2.63120    2.70670    2.38350  -27.35080
 1850.00000    0.32800    0.26610    -999.25    -999.25    2.19850    0.01540    8.39570   44.83420    4.86890    5.29650   16.53550  -47.23040
 1900.00000    0.39540    0.38210    -999.25    -999.25    2.02240    0.00750    8.23770   60.16910    4.21220    4.66470    5.52170  -42.22810
 1950.00000    0.42210    0.30020    -999.25    -999.25    2.15430    0.03970    7.89820   70.24230    3.00810    3.08700    3.23670  -29.20730
 2000.00000    0.41360    0.39410    -999.25    -999.25    1.99570    0.02290    7.92650   47.55530    4.52310    4.80580    6.11920  -47.30420
 2050.00000    0.39600    0.29740    -999.25    -999.25    2.16310    0.04200    8.30070   79.91100    4.61190    4.45770    5.84510  -28.06450
 2100.00000    0.43160    0.33450    -999.25    -999.25    2.09600    0.02830    7.78130   69.72650    4.60040    4.72430    5.07710  -34.89780
 2150.00000    0.42190    0.32730    -999.25    -999.25    2.10310    0.00350    8.15030   82.24580    5.30710    5.61210    6.43510  -33.28630
 2200.00000    0.43780    0.34120    -999.25    -999.25    2.08560    0.05190    8.99630   65.39770    3.99000    4.09370    4.37070  -33.39740
 2250.00000    0.42810    0.27000    -999.25    -999.25    2.20190    0.04250    7.74770   76.35470    3.45060    3.61500    3.10220  -25.40460
 2300.00000    0.39430    0.39150    -999.25    -999.25    2.00150    0.00580    7.71140   49.88530    5.46960    5.81640    6.48000  -43.27850
 2350.00000    0.42810    0.32910    -999.25    -999.25    2.10730    0.02670    7.69870   67.96000    4.72530    4.85950    4.44150  -33.70100
 2400.00000    0.41890    0.30730    -999.25    -999.25    2.15870    0.03560    8.58850   84.47810    2.94120    3.02710    2.38150  -20.24180
 2450.00000    0.40190    0.34770    -999.25    -999.25    2.07310    0.04080    7.86670   54.12760    4.90100    5.21770    7.05350  -48.62040
 2500.00000    0.41820    0.25190    -999.25    -999.25    2.22640    0.05120    9.16130   99.20250    2.88390    3.02520    2.42130  -24.34720
 2550.00000    0.37860    0.24870    -999.25    -999.25    2.24450    0.06230    8.69570   87.24100    4.42500    4.57330    4.13050  -24.66780
 2600.00000    0.36020    0.25990    -999.25    -999.25    2.22570    0.01630    8.60390   78.28970    5.30940    5.17350    4.52330  -31.11250
 2650.00000    0.35650    0.35180    -999.25    -999.25    2.06980    0.00030    8.04910   49.07850    9.01360    9.33440    9.91250  -37.74280
 2700.00000    0.39750    0.30040    -999.25    -999.25    2.14770    0.02520    8.29540   79.87790    8.40380    8.21070    8.70600  -31.39220
 2750.00000    0.46590    0.46330    -999.25    -999.25    1.88140    0.03490    9.35490   51.23290   15.41510   14.28640   11.44140  -32.13560
 2800.00000    0.39460    0.31600    -999.25    -999.25    2.10660    0.07490    8.56000   65.34970   11.53780   11.12830   10.22800  -31.71310
 2850.00000    0.65230    0.78580    -999.25    -999.25    1.34840   -0.03100   10.31360   48.26940   17.84880   20.15640   30.74540  -21.86390
 2900.00000    0.35450    0.27980    -999.25    -999.25    2.19460    0.04210    9.00130   87.12300    4.93020    4.58300    4.42070  -23.94350
 2950.00000    0.41910    0.39620    -999.25    -999.25    1.99570    0.04920   10.03020   39.74530   13.15170   12.40260   10.79490  -32.04370
 3000.00000    0.43360    0.38220    -999.25    -999.25    1.89570    0.02560   10.43450   53.37890   11.50400   11.22440   10.21350  -29.97420
 3050.00000    0.40420    0.36580    -999.25    -999.25    2.04480    0.05200    8.44210   52.71100   11.61450   11.91730   10.32450  -32.43130
 3100.00000    0.40060    0.28540    -999.25    -999.25    2.17840    0.05920    8.40500   78.89120    8.54130    8.32130    6.63870  -24.68820
 3150.00000    0.40220    0.37500    -999.25    -999.25    2.01900    0.02580    8.02290   62.80180    9.51670    9.79720    9.21960  -36.18340
 3200.00000    0.40100    0.33410    -999.25    -999.25    2.09790    0.04970    7.87890   59.25930   10.34570   10.59320   10.01450  -36.82530
 3250.00000    0.37160    0.35160    -999.25    -999.25    2.07010    0.01710    8.09520   60.13960    9.97090   10.23270    9.68120  -37.80810
 3300.00000    0.37050    0.36590    -999.25    -999.25    2.05070    0.03880    8.41780   54.01630    9.42130    9.66690    9.78640  -38.80230
 3350.00000    0.45460    0.28940    -999.25    -999.25    2.16580    0.08170    8.11690  118.58370    2.95910    2.85010    3.79390  -14.34480
 3400.00000    0.33720    0.26310    -999.25    -999.25    2.21210    0.02920    7.93350   86.95000    7.04030    7.65750    9.36610  -34.70260
 3450.00000    0.42180    0.34850    -999.25    -999.25    2.07330    0.02670    7.76380   60.25500    6.03260    6.65110    7.78200  -48.11040
 3500.00000    0.38000    0.30850    -999.25    -999.25    2.13550    0.04660    7.82260   63.98780    6.19230    6.87470    8.61660  -46.76010
 3550.00000    0.38230    0.37840    -999.25    -999.25    2.02390    0.01690    8.17470   52.03490    4.85120    5.49790    6.72770  -52.47920
 3600.00000    0.41150    0.36700    -999.25    -999.25    2.04160    0.01910    7.65680   63.44240    4.91120    5.57350    7.06800  -51.52320
 3650.00000    0.38810    0.35430    -999.25    -999.25    2.06190    0.01610    7.80300   55.11670    4.86250    5.53970    7.46010  -51.21110
 3700.00000    0.36850    0.40890    -999.25    -999.25    1.95960    0.04950    8.02020   59.93980    3.99590    4.42730    5.74660  -50.30360
 3750.00000    0.40970    0.35240    -999.25    -999.25    2.06680    0.04380    7.33530   58.52300    4.40610    5.06210    7.06830  -53.20230
 3800.00000    0.37380    0.30900    -999.25    -999.25    2.14410    0.05670    7.51710   62.66660    4.26440    4.64430    6.56110  -51.31950
 3850.00000    0.35310    0.34660    -999.25    -999.25    2.07920    0.05620    9.54240   50.92530    3.69750    3.98400    6.16110  -52.85620
 3900.00000    0.38780    0.26470    -999.25    -999.25    2.21540    0.02520    8.26940   89.97480    3.11440    3.36410    4.79340  -18.09000
 3950.00000    0.37400    0.18490    -999.25    -999.25    2.34160    0.06730    8.80340  108.81320    3.57120    3.60050    3.73640  -12.79390
 4000.00000    0.57140    0.53420    -999.25    -999.25    1.74530   -0.00140    8.16910   65.41660    4.38340    5.55510    7.26140  -29.71070
 4050.00000    0.37150    0.29990    -999.25    -999.25    2.15190    0.01590    7.52990   78.92960    3.13170    3.50370    5.51990  -49.11060
 4100.00000    0.40760    0.19140    -999.25    -999.25    2.33680    0.04760    8.57250   91.08730    2.57900    2.57370    2.47970   -5.50810
 4150.00000    0.36680    0.25280    -999.25    -999.25    2.23180    0.01760    7.77250   84.98280    3.14990    3.54170    4.81680  -39.23400
 4200.00000    0.34580    0.26470    -999.25    -999.25    2.18460    0.00660    7.89060   76.07700    2.99440    3.64540    5.89710  -49.73180
 4250.00000    0.38710    0.32610    -999.25    -999.25    2.10940    0.01640    7.63320   61.77260    2.77360    3.13960    5.55750  -69.72520
