~Version ---------------------------------------------------
VERS. 2.0 : CWLS log ASCII Standard -VERSION 2.0
WRAP.  NO : ONE LINE PER DEPTH STEP
~Well ------------------------------------------------------
STRT.F                  1750.0 : START DEPTH
STOP.F                  7850.0 : STOP DEPTH
STEP.F                50.00000 : STEP LENGTH
NULL.                  -999.25 : NULL VALUE
COMP.             LOVELADY I W : COMPANY
WELL.       REYNOLDS-WILSON #1 : WELL
FLD .                  WILDCAT : FIELD
LOC .                          : LOCATION
CNTY.                   DIMMIT : COUNTY
STAT.                    TEXAS : STATE
CTRY. UNITED STATES OF AMERICA : COUNTRY
SRVC.             Schlumberger : SERVICE COMPANY
DATE.              29-May-1978 : LOGDATE
API .           42127317010000 : API NUMBER
UWI .           42127317010000 : UNIQUE WELL ID
SLAT.WGS84       28.5815005355 : SURFACE LATITUDE
SLON.WGS84      -99.7303290517 : SURFACE LONGITUDE
~Curve Information -----------------------------------------
DEPT   .F                 : 
ALL8   .OHMM 07 221 08 00 : AMPLIFIED LATEROLOG 8
CILD   .MMHO 07 110 46 00 : INDUCTION DEEP CONDUCTIVITY
SPR    .MV   07 010 01 00 : SPONTANEOUS POTENTIAL FROM RESISTIVITY LOG
ILD    .OHMM 07 120 46 00 : INDUCTION DEEP RESISTIVITY
NPHI_SS.DEC  42 890 03 00 : NEUTRON POROSITY SANDSTONE
DPHI_SS.DEC  45 890 12 00 : DENSITY POROSITY SANDSTONE
NPHI_LS.DEC  42 890 01 00 : NEUTRON POROSITY LIMESTONE
DPHI_LS.DEC  45 890 10 00 : DENSITY POROSITY LIMESTONE
GRD    .GAPI 45 310 01 00 : GAMMA RAY FROM DENSITY LOG
CALD   .IN   45 280 60 00 : CALIPER FROM DENSITY LOG
CORR   .G/C3 45 356 01 00 : DENSITY CORRECTION
RHOB   .G/C3 45 350 01 00 : BULK DENSITY
~Params ----------------------------------------------------
PD  .                     GL : PERMANENT DATUM
EPD .FT                565.3 : ELEVATION PERMANENT DATUM
LMF .                     KB : LOG MEASURED FROM
DAPD.FT                   11 : FEET ABOVE PERMANENT DATUM
DMF .                     KB : DRILLING MEASURED FROM
EDF .FT                575.3 : DRILLING FLOOR
EGL .FT                565.3 : GROUND LEVEL
DATE.               05/29/78 : RUN DATE
RUN .                      2 : RUN NUMBER
DD  .FT                 7872 : DEPTH DRILLER
DL  .FT                 7875 : DEPTH LOGGER
BLI .FT                 7869 : BOTTOM LOG INTERVAL
TLI .FT                 7080 : TOP LOG INTERVAL
CS  .IN                10.75 : CASING SIZE
CBD .FT                 1725 : CASING BOTTOM DRILLER
BS  .IN                 8.75 : BIT SIZE
BSD .FT                 7872 : BIT SIZE AT DEPTH
DFT .              DISPERSED : DRILLING FLUID TYPE
DFD .                   10.1 : DRILLING FLUID DENSITY
DFV .                     56 : DRILLING FLUID VISCOSITY
DFPH.                     10 : DRILLING FLUID PH
DFL .                    8.2 : DRILLING FLUID LOSS
MSS .              CIRC TANK : MUD SAMPLE SOURCE
RMS .OHMM               1.06 : RESISTIVITY MUD SAMPLE
MST .DEGF                 75 : MUD SAMPLE TEMPERATURE
RMF .OHMM                0.6 : RESISTIVITY MUD FILTRATE SAMPLE
MFST.DEGF                 75 : MUD FILTRATE SAMPLE TEMPERATURE
MFSS.                   MEAS : MUD FILTRATE SAMPLE SOURCE
RMB .OHMM               0.44 : RESISTIVITY MUD AT BHT
TCS .HRS                 900 : TIME CIRCULATED STOPPED
TLAB.HRS                1500 : TIME LOGGER AT BOTTOM
LUN .                   2739 : LOGGING UNIT NUMBER
LUL .                 LAREDO : LOGGING UNIT LOCATION
CLNT.                A2DTECH : CLIENT CODE
ORIG.               1" PRINT : ORIGIN OF DATA
UWI .         42127317010000 : UNIQUE WELL ID
DICO. A2D Technologies, Inc. : DIGITIZING COMPANY
~Other -----------------------------------------------------
~ASCII -----------------------------------------------------
# ...
 4550.00000    3.25480  329.42890  -29.55840    2.58180    0.29150    0.12200    -999.25    -999.25  149.61850   14.03880    0.10580    2.43100
 4600.00000    2.54040  420.31250  -27.44840    1.75780    0.32450    0.12370    -999.25    -999.25  104.97640   16.10080    0.11010    2.47760
 4650.00000    2.50460  433.16600  -27.33160    1.92210    0.29670    0.14920    -999.25    -999.25   95.24200   16.75100    0.08760    2.40000
 4700.00000    2.88170  376.28360  -27.57630    2.26850    0.32060    0.21200    -999.25    -999.25  107.64010   14.79300    0.10480    2.34710
 4750.00000    3.26940  332.94160  -28.73390    2.57440    0.28440    0.09570    -999.25    -999.25   94.75760   12.25870    0.02860    2.48270
 4800.00000    2.96110  351.39060  -28.01980    2.50170    0.25570    0.10860    -999.25    -999.25   82.32350   13.27050    0.05300    2.49870
 4850.00000    3.49970  298.91240  -30.25690    2.77880    0.29690    0.15640    -999.25    -999.25   84.01820   12.18000    0.05860    2.41750
 4900.00000    3.68290  298.26370  -30.14810    3.11200    0.26980    0.08910    -999.25    -999.25   83.98980   12.72260    0.02760    2.58840
 4950.00000    3.77930  298.51840  -27.98180    3.11470    0.30080    0.13570    -999.25    -999.25   81.64230   13.68990    0.13670    2.47860
 5000.00000    4.13860  276.51540  -28.16380    3.40360    0.27050    0.10250    -999.25    -999.25   85.64640   13.45030    0.05580    2.54570
 5050.00000    4.30490  260.99730  -28.11300    3.43830    0.24970    0.09960    -999.25    -999.25   87.26110   13.39790    0.04280    2.50470
 5100.00000    4.56520  227.74540  -27.19800    3.95940    0.23080    0.07460    -999.25    -999.25   92.50210   13.66070    0.01970    2.53710
 5150.00000    3.81590  304.61830  -25.14470    2.86470    0.28530    0.10980    -999.25    -999.25   95.81150   13.99820    0.07620    2.49950
 5200.00000    3.17430  371.54100  -24.06170    2.48580    0.29230    0.09030    -999.25    -999.25   93.99240   13.44470    0.08170    2.52860
 5250.00000    3.09710  389.37770  -24.21070    2.07480    0.33380    0.10030    -999.25    -999.25   94.66370   13.27620    0.07550    2.52820
 5300.00000    4.81170  271.89210  -22.92210    3.40870    0.21150    0.02320    -999.25    -999.25   68.93300   11.28770   -0.00170    2.64690
 5350.00000    3.94040  313.67140  -22.35140    2.78070    0.26400    0.05430    -999.25    -999.25   72.28550   11.53310   -0.00060    2.60900
 5400.00000    6.24650  203.00100  -22.30130    4.69010    0.20950    0.01940    -999.25    -999.25   61.66360   10.93020    0.02060    2.65070
 5450.00000    9.80290  118.05450  -23.46070    8.39880    0.17150    0.03810    -999.25    -999.25   43.04650   10.56420    0.02600    2.61620
 5500.00000   10.85460  101.47160  -25.31000    8.90240    0.14980    0.00470    -999.25    -999.25   44.58260   10.48110    0.00130    2.68420
 5550.00000    8.74380  140.21860  -24.07660    6.84630    0.18370    0.06410    -999.25    -999.25   59.66480   11.50780   -0.00440    2.58390
 5600.00000    8.33260  154.45280  -21.19600    6.83140    0.14880    0.03110    -999.25    -999.25   65.37720   11.24320    0.00070    2.63620
 5650.00000    8.66860  159.81540  -20.52370    6.24450    0.12510    0.00880    -999.25    -999.25   57.39790   10.89510   -0.00160    2.66270
 5700.00000    8.69200  148.16770  -20.26390    6.33720    0.16270    0.03080    0.10620    0.02840   60.65280   10.69460    0.00860    2.65260
 5750.00000   19.13410   62.73160  -23.19270   13.11270    -999.25    -999.25    0.07620    0.04480   34.22460   10.05000    0.00240    2.63080
 5800.00000    9.11700  112.76050  -19.48790    9.86650    -999.25    -999.25    0.08550    0.04290   48.49800   10.23110    0.00200    2.61490
 5850.00000   21.89410   89.99880  -20.88610   15.52010    -999.25    -999.25    0.04740    0.02650   45.67490   10.15680   -0.01400    2.64460
 5900.00000   32.52650   44.55900  -23.18110   22.37110    -999.25    -999.25    0.05220    0.01230   38.13550   10.65010    0.04410    2.69170
 5950.00000   33.38370   50.49780  -17.44400   20.21770    -999.25    -999.25    0.03780    0.00810   44.54580   10.23700    0.00750    2.68000
 6000.00000   24.70120   48.17110  -20.24980   21.62920    -999.25    -999.25    0.06080    0.03140   33.17910   10.13960    0.00570    2.68660
 6050.00000   39.82250   45.88510  -75.64720   24.02520    -999.25    -999.25    0.03630   -0.00540   21.54280   10.03310   -0.00340    2.70360
 6100.00000   32.44210   47.33460  -72.49540   22.86860    -999.25    -999.25    0.05220    0.01710   24.21650    9.93530    0.01100    2.69020
 6150.00000   21.91030   56.43750  -72.05720   17.93880    -999.25    -999.25    0.04780    0.02660   25.42800   10.04520    0.00100    2.68470
 6200.00000   39.57910   41.51660  -73.31920   25.23550    -999.25    -999.25    0.04270    0.00700   27.41290   10.01140   -0.01670    2.67240
 6250.00000   41.88170   42.10410  -70.67820   26.20490    -999.25    -999.25    0.12450    0.08970   38.87520    9.73760    0.02680    2.54940
 6300.00000   40.68630   38.54060  -72.44790   28.54130    -999.25    -999.25    0.10650    0.06220   39.88000    9.66100   -0.00180    2.61520
 6350.00000  109.38980   18.07640  -69.81160   59.47070    -999.25    -999.25    0.04820    0.00820   44.79540    9.62290   -0.00960    2.66570
 6400.00000  370.79900    9.13600  -74.97010  141.25680    -999.25    -999.25    0.03880    0.05550   66.63330    9.69480    0.00250    2.64220
 6450.00000   98.49570   15.59910  -64.53630   65.23470    -999.25    -999.25    0.07880    0.04300   63.36300   10.42390    0.00380    2.62090
 6500.00000   63.97650   27.86460  -61.33280   37.18330    -999.25    -999.25    0.10130    0.05310   55.34850   10.15780    0.07220    2.67670
 6550.00000   41.68990   42.85540  -59.22440   24.70740    -999.25    -999.25    0.08000    0.05770   46.40220    9.86640   -0.00530    2.60180
 6600.00000   22.08430   73.39400  -55.95070   13.68320    -999.25    -999.25    0.12080    0.04270   51.75770    9.93960   -0.00460    2.62500
 6650.00000   45.70540   47.88370  -58.05110   24.28730    -999.25    -999.25    0.16530    0.09720   78.34420    9.76890    0.00030    2.54430
 6700.00000   38.83820   35.73140  -55.59180   29.97390    -999.25    -999.25    0.15420    0.09770  104.63220    9.99080    0.00870    2.49690
 6750.00000  118.87170   20.32560  -57.96860   57.61380    -999.25    -999.25    0.14500    0.09240   91.51970    9.84900   -0.00300    2.59460
 6800.00000   96.42040   16.59680  -59.21990   78.32590    -999.25    -999.25    0.01840    0.04340   21.21370   10.06490    0.02230    2.68270
 6850.00000  257.33360    9.36350  -64.93690  346.93900    -999.25    -999.25    0.00970    0.08040   16.77370   10.96620    0.19270    2.58270
 6900.00000  237.21910    5.56180  -60.34790  158.92640    -999.25    -999.25    0.01050   -0.01350   15.25820    9.11890    0.00470    2.72770
 6950.00000    5.37880  253.35530  -44.11430    3.57570    -999.25    -999.25    0.21420    0.05640   81.37130    9.76740    0.05410    2.59690
 7000.00000    3.97140  374.01630  -43.62620    2.25030    -999.25    -999.25    0.22010    0.03180   94.06320    9.82690    0.11690    2.61030
 7050.00000    4.49950  342.28470  -43.14510    2.54340    -999.25    -999.25    0.26190    0.06270  107.44790    8.93350    0.13370    2.61650
 7100.00000    5.32570  333.97300  -13.73380    3.71460    -999.25    -999.25    0.25700    0.27930   66.23630   10.93000    0.13360    2.20660
 7150.00000   74.58130   25.44930  -19.96280   41.53410    -999.25    -999.25    0.01120    0.03210   22.70060    9.95680    0.22740    2.67670
 7200.00000   92.96100   14.52460  -35.45640    -999.25    -999.25    -999.25    0.01510    0.16630   12.90910   12.20580    0.13630    2.45350
 7250.00000   63.65090   17.12330  -29.73220    -999.25    -999.25    -999.25    0.02380    0.17610   17.03190   12.98410    0.19410    2.35220
 7300.00000   60.38030   23.10000  -27.79830    -999.25    -999.25    -999.25    0.01380    0.08050   19.28250   10.13800    0.24210    2.70100
