~Version ---------------------------------------------------
VERS. 2.0 : CWLS log ASCII Standard -VERSION 2.0
WRAP.  NO : ONE LINE PER DEPTH STEP
~Well ------------------------------------------------------
STRT.F                   1950.0 : START DEPTH
STOP.F                   6250.0 : STOP DEPTH
STEP.F                 50.00000 : STEP LENGTH
NULL.                   -999.25 : NULL VALUE
COMP. EVERGREEN OIL CORPORATION : COMPANY
WELL.                SIEVERS #1 : WELL
FLD .                      COST : FIELD
LOC .                           : LOCATION
CNTY.                  GONZALES : COUNTY
STAT.                     TEXAS : STATE
CTRY.  UNITED STATES OF AMERICA : COUNTRY
SRVC.              Schlumberger : SERVICE COMPANY
DATE.               22-Mar-1981 : LOGDATE
API .            42177308260000 : API NUMBER
UWI .            42177308260000 : UNIQUE WELL ID
SLAT.WGS84        29.4304876742 : SURFACE LATITUDE
SLON.WGS84       -97.6217537962 : SURFACE LONGITUDE
~Curve Information -----------------------------------------
DEPT   .F    0   1   0  0 : 1 MEASURED DEPTH
GRR    .GAPI 07 310 01 00 : GAMMA RAY FROM RESISTIVITY LOG
NPHI_SS.DEC  42 890 03 00 : NEUTRON POROSITY SANDSTONE
DRHO   .G/C3 45 356 01 00 : BULK DENSITY CORRECTION
DCAL   .IN   07 280 01 00 : DIFFERENTIAL CALIPER
DPHI_SS.DEC  45 890 12 00 : DENSITY POROSITY SANDSTONE
SFLU   .OHMM 07 220 06 00 : SHALLOW FOCUSED RESISTIVITY (UNAVERAGED)
SPR    .MV   07 010 01 00 : SPONTANEOUS POTENTIAL FROM RESISTIVITY LOG
ILD    .OHMM 07 120 46 00 : INDUCTION DEEP RESISTIVITY
ILM    .OHMM 07 120 44 00 : INDUCTION MEDIUM RESISTIVITY
CALR   .IN   07 280 01 00 : CALIPER FROM RESISTIVITY LOG
~Params ----------------------------------------------------
PD  .                     GL : PERMANENT DATUM
EPD .FT                  347 : ELEVATION PERMANENT DATUM
LMF .                     KB : LOG MEASURED FROM
DAPD.FT                   12 : FEET ABOVE PERMANENT DATUM
DMF .                     KB : DRILLING MEASURED FROM
EKB .FT                  359 : KELLY BUSHING
EDF .FT                  358 : DRILLING FLOOR
EGL .FT                  347 : GROUND LEVEL
DATE.               03/22/81 : RUN DATE
RUN .                      1 : RUN NUMBER
DD  .FT                 6322 : DEPTH DRILLER
DL  .FT                 6262 : DEPTH LOGGER
BLI .FT                 6256 : BOTTOM LOG INTERVAL
TLI .FT                 1959 : TOP LOG INTERVAL
CS  .IN                8.625 : CASING SIZE
CBD .FT                 1963 : CASING BOTTOM DRILLER
CBL .FT                 1959 : CASING BOTTOM LOGGER
BS  .IN                7.875 : BIT SIZE
BSD .FT                 6322 : BIT SIZE AT DEPTH
DFT .                POLYMER : DRILLING FLUID TYPE
DFD .                    9.1 : DRILLING FLUID DENSITY
DFV .                     34 : DRILLING FLUID VISCOSITY
DFPH.                    8.5 : DRILLING FLUID PH
DFL .                    5.6 : DRILLING FLUID LOSS
MSS .              CIRC TANK : MUD SAMPLE SOURCE
RMS .OHMM               2.96 : RESISTIVITY MUD SAMPLE
MST .DEGF                 75 : MUD SAMPLE TEMPERATURE
RMF .OHMM               2.85 : RESISTIVITY MUD FILTRATE SAMPLE
MFST.DEGF                 75 : MUD FILTRATE SAMPLE TEMPERATURE
RMC .OHMM               3.84 : RESISTIVITY MUD CAKE
MCST.DEGF                 75 : MUD CAKE SAMPLE TEMPERATURE
MFSS.                      M : MUD FILTRATE SAMPLE SOURCE
MCSS.                      C : MUD CAKE SAMPLE SOURCE
RMB .OHMM               1.41 : RESISTIVITY MUD AT BHT
TCS .HRS                1400 : TIME CIRCULATED STOPPED
TLAB.HRS                2300 : TIME LOGGER AT BOTTOM
LUN .                   8013 : LOGGING UNIT NUMBER
LUL .               VICTORIA : LOGGING UNIT LOCATION
ENGI.                ANTHONY : RECORDING ENGINEER
WITN.                  EVANS : WITNESSED BY
CLNT.                A2DTECH : CLIENT CODE
ORIG.            1" 5" PRINT : ORIGIN OF DATA
UWI .         42177308260000 : UNIQUE WELL ID
DICO. A2D Technologies, Inc. : DIGITIZING COMPANY
~Other -----------------------------------------------------
~ASCII -----------------------------------------------------
 1950.00000   59.89080    0.58030    -999.25    -999.25    -999.25    -999.25    -999.25    -999.25    -999.25    -999.25
 2000.00000   63.88440    0.43800    0.85920    1.60340    0.32860    7.33550   -4.56580    6.93000    7.25970    -999.25
 2050.00000   74.95980    0.40430    0.85500    1.70010    0.26200    6.73940   -4.75880    5.81780    6.08600    -999.25
 2100.00000   71.85650    0.41600    0.86550    1.97070    0.32380    6.17910   -6.05110    6.59140    6.50570    -999.25
 2150.00000   54.82900    0.45630    0.83370    2.08260    0.36260    7.32740   -7.64730    8.65340    9.10540    -999.25
 2200.00000   90.04580    0.41660    0.98230    2.48500    0.23950    4.63500   -2.73550    4.62740    4.96740    -999.25
 2250.00000   91.62920    0.41180    0.87680    1.97330    0.26510    3.58850   -2.96070    3.95490    3.82700    -999.25
 2300.00000   64.23970    0.39450    0.88260    1.19950    0.31870    7.24100   -9.63520    6.96980    7.28050    -999.25
 2350.00000   59.26620    0.42820    0.84300    0.81230    0.36130   11.63610  -13.64170   10.12870   10.48320    -999.25
 2400.00000   69.30320    0.38840    0.87910    1.30290    0.30090    5.51220   -6.90840    6.73050    6.52720    -999.25
 2450.00000   51.46850    0.41830    0.87960    0.87990    0.34140   11.29560  -12.27750   10.34850   10.63790    -999.25
 2500.00000   69.78400    0.36140    0.89530    1.66340    0.28750    9.25110   -6.98620    7.39010    7.82630    -999.25
 2550.00000   75.18490    0.52720    1.00010    2.22050    0.37240    1.43110   -0.56570    1.43810    1.52270    -999.25
 2600.00000   44.49130    0.38200    0.83140    1.06470    0.35180   11.89600  -13.70820    9.97200   10.31960    -999.25
 2650.00000   70.32710    0.38730    0.92890    0.66650    0.23010    3.41720   -5.89320    3.52560    3.68190    -999.25
 2700.00000   60.84750    0.38090    0.83180    0.46270    0.33320    9.28920  -13.58830    6.18200    6.87790    -999.25
 2750.00000   49.03470    0.38250    0.86040    0.92940    0.32330   11.01140  -17.61960    9.71520   10.05230    -999.25
 2800.00000   29.56190    0.37250    0.82240    1.09760    0.35410   12.10460  -15.59460   10.85440   11.06310    -999.25
 2850.00000   61.76010    0.40370    0.88340    1.56430    0.29480    4.80940   -9.67500    4.46010    4.55390    -999.25
 2900.00000   28.72650    0.37190    0.81740    1.66000    0.33540   11.64130  -21.20170   10.73730   11.10670    -999.25
 2950.00000   46.30570    0.35530    0.85510    2.10370    0.31280   10.89230  -16.34660   10.57010   10.89080    -999.25
 3000.00000   46.36950    0.34080    0.89250    1.43680    0.32700   12.11220  -16.96120   10.27110   10.66500    -999.25
 3050.00000   51.28350    0.37360    0.85520    1.07500    0.32110   10.27360  -11.52990    7.91810    8.30920    -999.25
 3100.00000   44.76770    0.36800    0.85950    1.72710    0.30510    9.95570  -18.37150    8.76550    9.06810    -999.25
 3150.00000   74.24150    0.44920    0.85780    1.47130    0.26800    3.33160   -6.69070    3.36000    3.50310    -999.25
 3200.00000   44.09870    0.36380    0.85540    0.59230    0.34210   10.74240  -17.27570    9.87130   10.25680    -999.25
 3250.00000   40.45740    0.39020    0.91100    1.30960    0.32770   10.71940  -17.35800   10.85350   11.28280    -999.25
 3300.00000   60.46930    0.41350    0.88100   -0.03420    0.30040    9.22980  -14.92780    8.10280    8.56460    -999.25
 3350.00000   72.73830    0.35240    0.97730    0.07860    0.27840   10.74720  -14.12860    9.84930   10.14320    -999.25
 3400.00000  106.60440    0.44400    1.00160    1.01670    0.26400    2.00020   -4.09810    1.98390    2.12620    -999.25
 3450.00000  103.16910    0.43360    -999.25    1.12000    0.21850    2.84260   -7.02340    2.49280    2.58540    -999.25
 3500.00000  105.72750    0.38460    -999.25    0.72580    0.20200    2.58830   -7.53120    2.43300    2.53540    -999.25
 3550.00000   92.39330    0.36760    0.93460    0.08580    0.22060    5.08150  -19.35500    3.60890    4.00200    -999.25
 3600.00000   87.53590    0.37960    0.93890    0.81680    0.26140    2.96920   -9.59320    2.66320    2.79200    -999.25
 3650.00000   97.44010    0.42180    -999.25    0.83560    0.24510    2.15190   -6.30410    2.02000    2.08570    -999.25
 3700.00000   98.79690    0.43120    -999.25    1.10870    0.25120    2.11490   -6.60940    1.93410    2.00890    -999.25
 3750.00000  104.00300    0.34270    -999.25    0.59700    0.16310    2.97020   -6.66780    2.69350    2.78910    -999.25
 3800.00000   98.53580    0.39110    -999.25    1.79150    0.20110    1.89670   -7.80090    1.87620    1.94220    -999.25
 3850.00000   95.62120    0.43690    -999.25    2.31860    0.19790    1.97860   -7.35100    1.77210    1.89050    -999.25
 3900.00000   99.86110    0.42170    -999.25    2.56470    0.22030    1.55730  -10.28860    1.42510    1.55260    -999.25
 3950.00000  104.26320    0.45200    0.98590    2.24600    0.22900    1.32000   -9.50130    1.28680    1.36130    -999.25
 4000.00000   89.79450    0.45490    -999.25    2.61980    0.26820    1.36790  -10.04540    1.21320    1.32820    -999.25
 4050.00000   90.46960    0.42680    -999.25    2.09380    0.27430    1.21370   -8.96930    1.07250    1.16180    -999.25
 4100.00000   78.50880    0.38120    -999.25    1.84860    0.23510    1.87370   -8.62390    1.29130    1.43800    -999.25
 4150.00000   94.31450    0.44560    -999.25    1.41180    0.23030    1.26260   -9.26960    0.99510    1.09840    -999.25
 4200.00000   79.71050    0.26630    0.83800    0.15730    0.14230    3.49220  -11.71150    3.18030    3.30970    -999.25
 4250.00000   87.03680    0.39290    1.00630    0.53720    0.15680    2.10370   -9.59240    1.96350    2.04810    -999.25
 4300.00000   70.85040    0.40980    -999.25    2.29840    0.19900    1.80200  -11.98260    1.65340    1.79360    -999.25
 4350.00000   81.59820    0.35380    -999.25    1.21910    0.12590    2.02240  -12.39900    1.80970    1.97880    -999.25
 4400.00000   80.73030    0.37930    -999.25    1.25850    0.07740    2.30780  -12.25600    1.81950    1.94900    -999.25
 4450.00000   77.63390    0.39550    -999.25    2.57080    0.15980    1.93660  -10.65620    1.65690    1.76020    -999.25
 4500.00000   81.37310    0.37200    -999.25    2.19130    0.11190    1.95470  -10.04900    1.68750    1.76860    -999.25
 4550.00000   92.67170    0.44090    -999.25    2.63900    0.18710    1.38400  -12.50120    1.26610    1.38250    -999.25
 4600.00000   81.83370    0.42940    -999.25    1.53660    0.15510    1.96480  -12.19870    1.69900    1.82430    -999.25
 4650.00000   82.93880    0.42070    -999.25    1.76650    0.17310    1.73380  -12.33810    1.49090    1.61170    -999.25
 4700.00000   80.42390    0.37710    -999.25    2.00920    0.13760    1.93300  -11.50940    1.61690    1.75510    -999.25
 4750.00000   84.83160    0.39280    -999.25    2.08880    0.15880    1.61940  -11.58160    1.34830    1.49850    -999.25
 4800.00000   76.25880    0.38900    0.99280    0.40810    0.13990    2.06950   -8.92730    1.92370    1.99100    -999.25
 4850.00000   77.60940    0.43060    -999.25    1.72010    0.13940    1.85220   -9.42250    1.37680    1.55700    -999.25
 4900.00000   87.89110    0.37330    -999.25    1.55030    0.20000    1.54790  -10.62530    1.31900    1.47270    -999.25
 4950.00000   89.29090    0.36740    -999.25    1.88050    0.15860    1.67650   -8.28560    1.32640    1.42810    -999.25
 5000.00000  105.18800    0.42730    -999.25    2.39610    0.22730    1.04400   -8.54440    1.12730    1.21430    -999.25
 5050.00000  106.04440    0.44900    -999.25    2.91000    0.24390    1.17400   -8.56060    0.99020    1.11210    -999.25
 5100.00000   92.60150    0.38170    -999.25    2.36980    0.18400    1.53490   -8.15810    1.30430    1.43550    -999.25
 5150.00000   82.95600    0.39440    -999.25    1.79340    0.17070    1.52420   -6.34700    1.28280    1.42220    -999.25
 5200.00000   92.06170    0.36220    -999.25    1.58350    0.19500    1.32110   -5.25160    1.11650    1.25360    -999.25
