~Version ---------------------------------------------------
VERS. 2.0 : CWLS log ASCII Standard -VERSION 2.0
WRAP.  NO : ONE LINE PER DEPTH STEP
~Well ------------------------------------------------------
STRT.F                    2300.0 : START DEPTH
STOP.F                    8050.0 : STOP DEPTH
STEP.F                  50.00000 : STEP LENGTH
NULL.                    -999.25 : NULL VALUE
COMP. CHAMPLIN PETROLEUM COMPANY : COMPANY
WELL.             ANNIE WHITE #1 : WELL
FLD .                   GIDDINGS : FIELD
LOC .                            : LOCATION
CNTY.                   BURLESON : COUNTY
STAT.                      TEXAS : STATE
CTRY.   UNITED STATES OF AMERICA : COUNTRY
SRVC.              Dresser Atlas : SERVICE COMPANY
DATE.                28-May-1981 : LOGDATE
API .             42051315190000 : API NUMBER
UWI .             42051315190000 : UNIQUE WELL ID
SLAT.WGS84          30.547123251 : SURFACE LATITUDE
SLON.WGS84         -96.649700636 : SURFACE LONGITUDE
~Curve Information -----------------------------------------
DEPT.F                 : 
GR  .GAPI 30 310 01 00 : GAMMA RAY
NPHI.DEC  42 890 01 00 : NEUTRON POROSITY3526-6100 SS, 6100-8074 LS
GRR .GAPI 07 310 01 00 : GAMMA RAY FROM RES. LOG.
DPHI.DEC  45 890 10 00 : DENSITY POROSITY 3526-6100 SS, 6100-8074 LS
CALR.IN   07 280 01 00 : CALIPER FROM RESISTIVITY
ILD .OHMM 07 120 46 00 : INDUCTION LOG DEEP
ILM .OHMM 07 120 44 00 : INDUCTION LOG MEDIUM
SFL .OHMM 07 220 01 00 : SHALLOW FOCUSED LOG RESISTIVITY
~Params ----------------------------------------------------
PD  .                     GL : PERMANENT DATUM
EPD .FT                  405 : ELEVATION PERMANENT DATUM
LMF .                     KB : LOG MEASURED FROM
DAPD.FT                   18 : FEET ABOVE PERMANENT DATUM
DMF .                     KB : DRILLING MEASURED FROM
EKB .FT                  423 : KELLY BUSHING
EDF .FT                  422 : DRILLING FLOOR
EGL .FT                  405 : GROUND LEVEL
DATE.               05/28/81 : RUN DATE
RUN .                      1 : RUN NUMBER
DD  .FT                 8060 : DEPTH DRILLER
DL  .FT                 8074 : DEPTH LOGGER
BLI .FT                 8072 : BOTTOM LOG INTERVAL
TLI .FT                 3526 : TOP LOG INTERVAL
CS  .IN                9.625 : CASING SIZE
CBD .FT                 3534 : CASING BOTTOM DRILLER
CBL .FT                 3526 : CASING BOTTOM LOGGER
BS  .IN                 8.75 : BIT SIZE
BSD .FT                 8060 : BIT SIZE AT DEPTH
DFT .                    GEL : DRILLING FLUID TYPE
DFD .                    9.5 : DRILLING FLUID DENSITY
DFV .                     39 : DRILLING FLUID VISCOSITY
DFPH.                    8.5 : DRILLING FLUID PH
DFL .                    6.8 : DRILLING FLUID LOSS
MSS .               FLOWLINE : MUD SAMPLE SOURCE
RMS .OHMM               3.09 : RESISTIVITY MUD SAMPLE
MST .DEGF                 75 : MUD SAMPLE TEMPERATURE
RMF .OHMM               2.41 : RESISTIVITY MUD FILTRATE SAMPLE
MFST.DEGF                 75 : MUD FILTRATE SAMPLE TEMPERATURE
RMC .OHMM               3.89 : RESISTIVITY MUD CAKE
MCST.DEGF                 75 : MUD CAKE SAMPLE TEMPERATURE
MFSS.                   CALC : MUD FILTRATE SAMPLE SOURCE
MCSS.                   CALC : MUD CAKE SAMPLE SOURCE
RMB .OHMM               1.72 : RESISTIVITY MUD AT BHT
TCS .HRS                   5 : TIME CIRCULATED STOPPED
LUN .                   6139 : LOGGING UNIT NUMBER
LUL .                  BRYAN : LOGGING UNIT LOCATION
ENGI.                   KIRK : RECORDING ENGINEER
WITN.                CAMERON : WITNESSED BY
CLNT.                A2DTECH : CLIENT CODE
ORIG.          1" 2.5" PRINT : ORIGIN OF DATA
UWI .         42051315190000 : UNIQUE WELL ID
DICO. A2D Technologies, Inc. : DIGITIZING COMPANY
~Other -----------------------------------------------------
~ASCII -----------------------------------------------------
 2300.00000   91.03650    -999.25    -999.25    -999.25    -999.25    -999.25    -999.25    -999.25
 2350.00000   81.13480    -999.25    -999.25    -999.25    -999.25    -999.25    -999.25    -999.25
 2400.00000   92.79100    -999.25    -999.25    -999.25    -999.25    -999.25    -999.25    -999.25
 2450.00000   95.44890    -999.25    -999.25    -999.25    -999.25    -999.25    -999.25    -999.25
 2500.00000    -999.25    -999.25    -999.25    -999.25    -999.25    -999.25    -999.25    -999.25
 2550.00000    -999.25    -999.25    -999.25    -999.25    -999.25    -999.25    -999.25    -999.25
 2600.00000    -999.25    -999.25    -999.25    -999.25    -999.25    -999.25    -999.25    -999.25
 2650.00000    -999.25    -999.25    -999.25    -999.25    -999.25    -999.25    -999.25    -999.25
 2700.00000    -999.25    -999.25    -999.25    -999.25    -999.25    -999.25    -999.25    -999.25
 2750.00000    -999.25    -999.25    -999.25    -999.25    -999.25    -999.25    -999.25    -999.25
 2800.00000    -999.25    -999.25    -999.25    -999.25    -999.25    -999.25    -999.25    -999.25
 2850.00000    -999.25    -999.25    -999.25    -999.25    -999.25    -999.25    -999.25    -999.25
 2900.00000    -999.25    -999.25    -999.25    -999.25    -999.25    -999.25    -999.25    -999.25
 2950.00000    -999.25    -999.25    -999.25    -999.25    -999.25    -999.25    -999.25    -999.25
 3000.00000    -999.25    -999.25    -999.25    -999.25    -999.25    -999.25    -999.25    -999.25
 3050.00000    -999.25    -999.25    -999.25    -999.25    -999.25    -999.25    -999.25    -999.25
 3100.00000    -999.25    -999.25    -999.25    -999.25    -999.25    -999.25    -999.25    -999.25
 3150.00000    -999.25    -999.25    -999.25    -999.25    -999.25    -999.25    -999.25    -999.25
 3200.00000    -999.25    -999.25    -999.25    -999.25    -999.25    -999.25    -999.25    -999.25
 3250.00000    -999.25    -999.25    -999.25    -999.25    -999.25    -999.25    -999.25    -999.25
 3300.00000    -999.25    -999.25    -999.25    -999.25    -999.25    -999.25    -999.25    -999.25
 3350.00000    -999.25    -999.25    -999.25    -999.25    -999.25    -999.25    -999.25    -999.25
 3400.00000    -999.25    -999.25    -999.25    -999.25    -999.25    -999.25    -999.25    -999.25
 3450.00000    -999.25    -999.25    -999.25    -999.25    -999.25    -999.25    -999.25    -999.25
 3500.00000    -999.25    -999.25    -999.25    -999.25    -999.25    -999.25    -999.25    -999.25
 3550.00000    -999.25    0.47230   56.17550    0.45270   10.96050    6.83650    6.03700    6.69840
 3600.00000    -999.25    0.39300   77.25650    0.44020   15.22250    5.44080    4.46980    4.20140
 3650.00000    -999.25    0.50880   77.24930    0.53120   13.95960    1.52530    1.59530    2.12710
 3700.00000    -999.25    0.43950   86.41230    0.69190   14.53600    5.44920    6.03400    5.14880
 3750.00000    -999.25    0.37200   63.04600    0.34950   13.18010   10.06420   11.31630    9.15170
 3800.00000    -999.25    0.33240   94.17550    0.26630    9.26770    4.34610    4.49260    4.26590
 3850.00000    -999.25    0.30240   99.99460    0.24350    9.61960    3.64350    3.91770    3.92310
 3900.00000    -999.25    0.27810   95.93690    0.25520    9.83380    4.28440    4.67320    4.78030
 3950.00000    -999.25    0.33830  104.26960    0.29480   10.58120    1.80190    1.87740    2.38730
 4000.00000    -999.25    0.30610  106.00020    0.22090   10.56620    2.55960    2.72670    3.05670
 4050.00000    -999.25    0.28540  109.89050    0.21900   10.30160    3.03930    3.20880    3.34140
 4100.00000    -999.25    0.32460   98.61860    0.20370   10.11010    2.23230    2.31300    2.51100
 4150.00000    -999.25    0.33550  104.33520    0.32590    9.81290    1.96050    1.99930    2.26700
 4200.00000    -999.25    0.41520  102.43100    0.41110   11.11860    1.41000    1.46110    1.91980
 4250.00000    -999.25    0.35130  100.33960    0.29310   11.69120    1.55850    1.60170    2.01830
 4300.00000    -999.25    0.36940  103.95200    0.30490   12.36260    1.41870    1.48450    1.79080
 4350.00000    -999.25    0.36100  100.06610    0.32150   12.38180    1.29840    1.32410    1.72560
 4400.00000    -999.25    0.36560  101.18930    0.42530   13.07470    1.30880    1.34490    1.71810
 4450.00000    -999.25    0.41780  100.94930    0.44880   12.16770    1.18850    1.24290    1.63900
 4500.00000    -999.25    0.32060  113.89540    0.22110   10.17400    1.70060    1.79430    2.13580
 4550.00000    -999.25    0.37680  105.48990    0.35640   10.23610    1.14010    1.21490    1.64800
 4600.00000    -999.25    0.37990   99.96300    0.35140   10.55630    0.84280    0.88650    1.40500
 4650.00000    -999.25    0.30360  102.37200    0.19810   11.61910    1.97960    2.09140    2.23620
 4700.00000    -999.25    0.34210  104.49750    0.28160   10.17100    1.33470    1.38580    1.87830
 4750.00000    -999.25    0.35270   98.99490    0.23620   11.25310    1.22020    1.28830    1.83700
 4800.00000    -999.25    0.34330   97.95110    0.26910   11.55970    1.16040    1.21240    1.79770
 4850.00000    -999.25    0.35410   97.46730    0.28370   11.75200    1.04990    1.08070    1.54500
 4900.00000    -999.25    0.37970   96.83310    0.36550   12.85280    1.00190    1.03670    1.39220
 4950.00000    -999.25    0.34300   95.90630    0.31250   12.95830    1.13190    1.22220    1.67480
 5000.00000    -999.25    0.35140   94.55850    0.24640   11.12150    1.22470    1.27300    1.56320
 5050.00000    -999.25    0.36670   99.95570    0.30540   12.72320    0.82100    0.84730    1.23960
 5100.00000    -999.25    0.37780   97.14840    0.30500   12.61260    0.89160    0.93530    1.32410
 5150.00000    -999.25    0.33200   93.13920    0.15460   11.01890    1.46250    1.54020    1.75650
 5200.00000    -999.25    0.32330  128.91730    0.21860   10.08870    1.12530    1.19700    1.72380
 5250.00000    -999.25    0.31390   97.37710    0.23530   10.48840    1.21850    1.26710    1.53320
 5300.00000    -999.25    0.26140   84.95210    0.20830   10.81520    1.47110    1.55650    1.81530
 5350.00000    -999.25    0.31920  112.47900    0.24010   10.28670    1.22970    1.28200    1.67590
 5400.00000    -999.25    0.35760  122.87890    0.32730   10.78040    0.98610    1.02330    1.32960
 5450.00000    -999.25    0.32520  109.57830    0.24480   11.14660    1.12370    1.18620    1.43480
 5500.00000    -999.25    0.38430   98.33930    0.29110   11.36910    1.06600    1.12780    1.39110
 5550.00000    -999.25    0.36450  121.03130    0.26030   10.96110    0.83000    0.85440    1.26840
 5600.00000    -999.25    0.28930  111.58650    0.17830   10.50180    1.53920    1.58660    1.70090
 5650.00000    -999.25    0.29050  102.48500    0.21260    9.30120    1.59480    1.67890    1.96410
 5700.00000    -999.25    0.29580  101.45980    0.19540    9.37300    1.58120    1.66110    1.89210
 5750.00000    -999.25    0.32150  102.47360    0.24020   10.45330    1.40840    1.54070    1.79110
 5800.00000    -999.25    0.29370  110.85050    0.15480   10.63710    1.41650    1.51980    1.68210
 5850.00000    -999.25    0.29960  113.69660    0.20160   11.44210    1.23680    1.31280    1.44250
 5900.00000    -999.25    0.27850   91.72870    0.16780   11.56550    1.44900    1.54420    1.74050
 5950.00000    -999.25    0.29970  107.27130    0.20360   11.74270    1.24300    1.34070    1.62720
 6000.00000    -999.25    0.32820  107.50270    0.20010   12.22230    1.15210    1.24480    1.39450
 6050.00000    -999.25    0.34790  100.20920    0.20930   11.79850    1.00560    1.09400    1.47410
 6100.00000    -999.25    0.19000   96.92070    0.01780   11.03510    1.53390    1.61920    1.76480
 6150.00000    -999.25    0.16440   62.94650    0.05950    9.39700    2.77740    2.94390    2.61610
 6200.00000    -999.25    0.13620   52.33330    0.05360    9.37190    3.28020    3.68140    3.39540
 6250.00000    -999.25    0.13310   56.51880    0.04000    9.35530    3.37570    3.67160    3.07600
