~Version ---------------------------------------------------
VERS. 2.0 : CWLS log ASCII Standard -VERSION 2.0
WRAP. YES : Multiple lines per depth step
~Well ------------------------------------------------------
STRT.FT                   2500.0 : START DEPTH
STOP.FT                  17250.0 : STOP DEPTH
STEP.FT                 50.00000 : STEP LENGTH
NULL.                    -999.25 : NULL VALUE
COMP. CHAMPLIN PETROLEUM COMPANY : COMPANY
WELL.    FRIAR RANCH GAS UNIT #1 : WELL
FLD .                    WILDCAT : FIELD
LOC .                            : LOCATION
CNTY.                    DE WITT : COUNTY
STAT.                      TEXAS : STATE
CTRY.   UNITED STATES OF AMERICA : COUNTRY
SRVC.                    Unknown : SERVICE COMPANY
DATE.                27-Nov-1979 : LOGDATE
API .             42123309830000 : API NUMBER
UWI .             42123309830000 : UNIQUE WELL ID
SLAT.WGS84           29.12059862 : SURFACE LATITUDE
SLON.WGS84          -97.21043026 : SURFACE LONGITUDE
~Curve Information -----------------------------------------
DEPT    .FT    : DEPTH FEET
ACED    .US/F  : DELTA TIME (ACOUSTIC) FROM SONIC LOG [DEP ADJ TO DTED]
CALDED  .IN    : CALIPER FROM DENSITY LOG [DEP ADJ TO GRRED]
CALRED  .IN    : CALIPER FROM RESISTIVITY LOG
CALWS   .IN    : CALIPER [CALDED]
CONDWS  .MMHO  : CONDUCTIVITY [1000/DRESWS]
CORRED  .G/C3  : DENSITY CORRECTION FROM DENSITY LOG
DCORWS  .G/C3  : DENSITY CORRECTION [CORRED]
DENWS   .G/C3  : BULK DENSITY [M=2.71 F=1.0] [RHOBED]
DPHILSED.V/V   : DENSITY POROSITY [M=2.71 F=1.0] FROM DENSITY LOG [DEP ADJ TO GRRED]
DPHISSED.V/V   : DENSITY POROSITY [M=2.65 F=1.0][7100-10800F M=2.68] FROM DENSITY LOG
DPOLSWS .V/V   : DENSITY POROSITY [M=2.71 F=1.0] [CAL FR DENWS]
DRESWS  .OHMM  : DEEP RESISTIVITY [ILDED]
DTED    .US/F  : DELTA TIME FROM SONIC LOG
DTWS    .US/F  : DELTA TIME [2490 DTED 15878 ACED]
GRDED   .GAPI  : GAMMA RAY FROM DENSITY LOG [DEP ADJ TO GRRED]
GRRED   .GAPI  : GAMMA RAY FROM RESISTIVITY LOG
GRWS    .GAPI  : GAMMA RAY [2490 GRDED 17231 GRRED]
ILDED   .OHMM  : INDUCTION LOG DEEP RESISTIVITY
ILMED   .OHMM  : INDUCTION LOG MEDIUM RESISTIVITY
MRESWS  .OHMM  : MEDIUM RESISTIVITY [ILMED]
NPHILSED.V/V   : NEUTRON POROSITY LIMESTONE FROM DENSITY LOG [DEP ADJ TO GRRED]
NPHISSED.V/V   : NEUTRON POROSITY SANDSTONE FROM DENSITY LOG
NPOLSWS .V/V   : NEUTRON POROSITY LIMESTONE [2490 NPOLSCAL 14943 NPHILSED] [NPHISSED WAS CONVERTED TO NPOLSCAL USING POWERLOG MODULE]
RHOBED  .G/C3  : BULK DENSITY FROM DENSITY LOG [DEP ADJ TO GRRED]
SFLED   .OHMM  : SPHERICALLY FOCUSED LOG RESISTIVITY
SPHILSED.V/V   : SONIC POROSITY FROM SONIC LOG [DEP ADJ TO DTED] [LIMESTONE M=47.5, F=189]
SPOWS   .V/V   : SONIC POROSITY [CAL FR DTWS] [LIMESTONE M=47.5, F=189]
SPRED   .MV    : SPONTANEOUS POTENTIAL FROM RESISTIVITY LOG [SHIFTS ARE REMOVED]
SPWS    .MV    : SPONTANEOUS POTENTIAL [BASELINE 0 MV] [SPRED]
SRESWS  .OHMM  : SHALLOW RESISTIVITY [SFLED]
~Params ----------------------------------------------------
PD  .                     GL : PERMANENT DATUM
EPD .FT                223.8 : ELEVATION PERMANENT DATUM
LMF .                     KB : LOG MEASURED FROM
DAPD.FT                   26 : FEET ABOVE PERMANENT DATUM
DMF .                     KB : DRILLING MEASURED FROM
EKB .FT                249.8 : KELLY BUSHING
EDF .FT                248.8 : DRILLING FLOOR
EGL .FT                223.8 : GROUND LEVEL
DATE.               11/27/79 : RUN DATE
RUN .                      1 : RUN NUMBER
DD  .FT                17252 : DEPTH DRILLER
DL  .FT                17259 : DEPTH LOGGER
BLI .FT                17258 : BOTTOM LOG INTERVAL
TLI .FT                15013 : TOP LOG INTERVAL
CS  .IN                    7 : CASING SIZE
CBD .FT                15015 : CASING BOTTOM DRILLER
CBL .FT                15018 : CASING BOTTOM LOGGER
BS  .IN                5.875 : BIT SIZE
BSD .FT                17252 : BIT SIZE AT DEPTH
DFT .               OIL FAZE : DRILLING FLUID TYPE
DFD .                   12.8 : DRILLING FLUID DENSITY
DFV .                     45 : DRILLING FLUID VISCOSITY
DFL .                   13.6 : DRILLING FLUID LOSS
TCS .HRS                 545 : TIME CIRCULATED STOPPED
TLAB.HRS                1500 : TIME LOGGER AT BOTTOM
LUN .                   8011 : LOGGING UNIT NUMBER
LUL .                   VICT : LOGGING UNIT LOCATION
ENGI.                   SHEA : RECORDING ENGINEER
WITN.            BLANKENSHIP : WITNESSED BY
CLNT.                A2DTECH : CLIENT CODE
ORIG.            1" 5" PRINT : ORIGIN OF DATA
UWI .         42123309830000 : UNIQUE WELL ID
DICO. A2D Technologies, Inc. : DIGITIZING COMPANY
~Other -----------------------------------------------------
~ASCII -----------------------------------------------------
# ...
 15700.00000   58.84440    7.01140    6.93820    7.01140   70.53830    0.23420    0.23420    2.78340   -0.04280    -999.25   -0.04290   14.17670   60.63930   60.63930   10.69390   13.98830   10.69390   14.17670   13.02180   13.02180    0.05780    -999.25    0.05780    2.78340    -999.25    0.08980    0.09290    -999.25    -999.25    -999.25
 15750.00000   56.62680    7.02010    6.94440    7.02010   59.58980    0.22210    0.22210    2.75420   -0.02690    -999.25   -0.02580   16.78140   58.58170   58.58170   12.73610   15.87870   12.73610   16.78140   15.44420   15.44420    0.05390    -999.25    0.05390    2.75420    -999.25    0.07460    0.07830    -999.25    -999.25    -999.25
 15800.00000   72.98160    7.01420    6.96440    7.01420  304.12700    0.22130    0.22130    2.70400    0.00630    -999.25    0.00350    3.28810   73.30620   73.30620   28.73480   39.11580   28.73480    3.28810    3.36360    3.36360    0.13040    -999.25    0.13040    2.70400    -999.25    0.18810    0.18240    -999.25    -999.25    -999.25
 15850.00000   72.17880    6.70500    6.49670    6.70500  250.23150    0.25870    0.25870    2.75980   -0.02890    -999.25   -0.02910    3.99630   71.61740   71.61740   25.41620   34.52370   25.41620    3.99630    4.16000    4.16000    0.12620    -999.25    0.12620    2.75980    -999.25    0.18290    0.17040    -999.25    -999.25    -999.25
 15900.00000   50.85550    6.71080    6.49300    6.71080   17.45530    0.24720    0.24720    2.74490   -0.01930    -999.25   -0.02040   57.28910   53.87480   50.85550    5.96950    8.62910    5.96950   57.28910   65.32520   65.32520    0.02130    -999.25    0.02130    2.74490    -999.25    0.03480    0.02370    -999.25    -999.25    -999.25
 15950.00000   52.74130    6.63940    6.47000    6.63940   32.85180    0.21000    0.21000    2.67530    0.01860    -999.25    0.02030   30.43970   55.41440   52.74130   14.15870   34.67770   14.15870   30.43970   57.15260   57.15260    0.03670    -999.25    0.03670    2.67530    -999.25    0.04790    0.03700    -999.25    -999.25    -999.25
 16000.00000   56.92270    6.64620    6.49110    6.64620   58.24420    0.22750    0.22750    2.71400   -0.00140    -999.25   -0.00230   17.16910   57.19400   56.92270    8.88850   17.78240    8.88850   17.16910   21.47720   21.47720    0.03460    -999.25    0.03460    2.71400    -999.25    0.07840    0.06660    -999.25    -999.25    -999.25
 16050.00000   77.78070    5.98010    6.27530    5.98010   37.05800    0.30270    0.30270    2.63480    0.04470    -999.25    0.04400   26.98470   80.49160   77.78070    7.47070   10.25720    7.47070   26.98470   31.62830   31.62830    0.05160    -999.25    0.05160    2.63480    -999.25    0.19220    0.21400    -999.25    -999.25    -999.25
 16100.00000   49.47040    6.79260    6.45930    6.79260   31.36860    0.23430    0.23430    2.73770   -0.01920    -999.25   -0.01620   31.87900   52.72550   49.47040    8.61590    9.42650    8.61590   31.87900   42.38790   42.38790    0.01080    -999.25    0.01080    2.73770    -999.25    0.02390    0.01390    -999.25    -999.25    -999.25
 16150.00000   53.76290    6.78440    6.48160    6.78440   91.33500    0.23210    0.23210    2.72140   -0.00460    -999.25   -0.00670   10.94870   58.28880   53.76290    9.09110   16.03230    9.09110   10.94870   12.24600   12.24600    0.01670    -999.25    0.01670    2.72140    -999.25    0.05390    0.04430    -999.25    -999.25    -999.25
 16200.00000   63.14160    6.91490    6.47990    6.91490  168.74220    0.24440    0.24440    2.75100   -0.02680    -999.25   -0.02400    5.92620   66.34410   63.14160   22.41610   33.91710   22.41610    5.92620    6.29080    6.29080    0.06990    -999.25    0.06990    2.75100    -999.25    0.11790    0.11050    -999.25    -999.25    -999.25
 16250.00000   56.33390    7.01130    6.45930    7.01130   67.27850    0.23480    0.23480    2.73870   -0.01800    -999.25   -0.01680   14.86360   59.35000   56.33390   21.03020   26.06700   21.03020   14.86360   14.20410   14.20410    0.05580    -999.25    0.05580    2.73870    -999.25    0.07340    0.06240    -999.25    -999.25    -999.25
 16300.00000   58.20570    7.03010    6.47590    7.03010  107.39640    0.21390    0.21390    2.70240    0.00430    -999.25    0.00440    9.31130   60.68740   58.20570   19.57640   30.04430   19.57640    9.31130    9.50940    9.50940    0.04870    -999.25    0.04870    2.70240    -999.25    0.08410    0.07570    -999.25    -999.25    -999.25
 16350.00000   58.24530    7.04790    6.48180    7.04790  132.40470    0.24760    0.24760    2.77670   -0.03690    -999.25   -0.03900    7.55260   60.93340   58.24530   18.02800   26.41720   18.02800    7.55260    8.78970    8.78970    0.05020    -999.25    0.05020    2.77670    -999.25    0.08740    0.07590    -999.25    -999.25    -999.25
 16400.00000   57.00070    7.05230    6.48630    7.05230   74.30640    0.21680    0.21680    2.70370    0.00360    -999.25    0.00370   13.45780   58.54250   57.00070   18.78240   26.88580   18.78240   13.45780   12.82430   12.82430    0.04130    -999.25    0.04130    2.70370    -999.25    0.07600    0.06710    -999.25    -999.25    -999.25
 16450.00000   60.50930    7.08150    6.46630    7.08150   91.84590    0.23180    0.23180    2.73070   -0.01300    -999.25   -0.01210   10.88780   61.45760   60.50930   17.86410   34.14260   17.86410   10.88780   11.57470   11.57470    0.04870    -999.25    0.04870    2.73070    -999.25    0.10260    0.09190    -999.25    -999.25    -999.25
 16500.00000   62.46930    6.87940    -999.25    6.87940   29.45990    0.25390    0.25390    2.76980   -0.03520    -999.25   -0.03500   33.94440    -999.25   62.46930   13.44520   20.38170   13.44520   33.94440    -999.25    -999.25    0.02560    -999.25    0.02560    2.76980    -999.25    0.11500    0.10580    -999.25    -999.25    -999.25
 16550.00000   53.94780    6.87750    -999.25    6.87750   44.43020    0.25350    0.25350    2.78680   -0.04420    -999.25   -0.04490   22.50720    -999.25   53.94780   15.35520   44.53530   15.35520   22.50720    -999.25    -999.25    0.03240    -999.25    0.03240    2.78680    -999.25    0.05470    0.04560    -999.25    -999.25    -999.25
 16600.00000   59.66810    6.91460    -999.25    6.91460  104.69780    0.26950    0.26950    2.79910   -0.05280    -999.25   -0.05210    9.55130    -999.25   59.66810   21.96830   46.07290   21.96830    9.55130    -999.25    -999.25    0.05120    -999.25    0.05120    2.79910    -999.25    0.09490    0.08600    -999.25    -999.25    -999.25
 16650.00000   53.12860    7.03250    -999.25    7.03250   40.22530    0.23100    0.23100    2.74500   -0.02220    -999.25   -0.02050   24.86000    -999.25   53.12860   12.70760   28.01590   12.70760   24.86000    -999.25    -999.25    0.01920    -999.25    0.01920    2.74500    -999.25    0.04910    0.03980    -999.25    -999.25    -999.25
 16700.00000   60.62480    7.04470    -999.25    7.04470   98.54940    0.22540    0.22540    2.72350   -0.00910    -999.25   -0.00790   10.14720    -999.25   60.62480   15.70570   36.01540   15.70570   10.14720    -999.25    -999.25    0.04240    -999.25    0.04240    2.72350    -999.25    0.10210    0.09280    -999.25    -999.25    -999.25
 16750.00000   57.02220    7.01790    -999.25    7.01790   39.91270    0.23160    0.23160    2.77110   -0.04050    -999.25   -0.03570   25.05470    -999.25   57.02220   13.71680   29.76190   13.71680   25.05470    -999.25    -999.25    0.02730    -999.25    0.02730    2.77110    -999.25    0.07590    0.06730    -999.25    -999.25    -999.25
 16800.00000   53.22920    7.02500    -999.25    7.02500   24.12270    0.24020    0.24020    2.76180   -0.03290    -999.25   -0.03030   41.45480    -999.25   53.22920   14.11790   25.99860   14.11790   41.45480    -999.25    -999.25    0.02760    -999.25    0.02760    2.76180    -999.25    0.04730    0.04050    -999.25    -999.25    -999.25
 16850.00000   64.31220    6.60140    -999.25    6.60140  143.03290    0.21430    0.21430    2.71190   -0.00520    -999.25   -0.00110    6.99140    -999.25   64.31220   18.39420   37.65990   18.39420    6.99140    -999.25    -999.25    0.06520    -999.25    0.06520    2.71190    -999.25    0.12840    0.11880    -999.25    -999.25    -999.25
