~Version ---------------------------------------------------
VERS. 2.0 : CWLS log ASCII Standard -VERSION 2.0
WRAP. YES : MULTIPLE LINES PER DEPTH STEP
~Well ------------------------------------------------------
STRT.FT                        2500.0 : START DEPTH
STOP.FT                       18000.0 : STOP DEPTH
STEP.FT                      50.00000 : STEP LENGTH
NULL.                         -999.25 : NULL VALUE
COMP. UNION PACIFIC RESOURCES COMPANY : COMPANY
WELL.       UPR T-BAR-X KING COBRA #1 : WELL
FLD .                         WILDCAT : FIELD
LOC .                                 : LOCATION
CNTY.                            LEON : COUNTY
STAT.                           TEXAS : STATE
CTRY.        UNITED STATES OF AMERICA : COUNTRY
SRVC.                    Schlumberger : SERVICE COMPANY
DATE.                     05-Nov-1997 : LOGDATE
API .                  42289312660000 : API NUMBER
UWI .                  42289312660000 : UNIQUE WELL ID
SLAT.WGS84              31.2008912115 : SURFACE LATITUDE
SLON.WGS84             -96.2874133979 : SURFACE LONGITUDE
~Curve Information -----------------------------------------
DEPT    .FT    : DEPTH FEET
AT10ED  .OHMM  : 10 INCH RESISTIVITY TWO FOOT RESOLUTION FROM AIT LOG
AT20ED  .OHMM  : 20 INCH RESISTIVITY TWO FOOT RESOLUTION FROM AIT LOG
AT30ED  .OHMM  : 30 INCH RESISTIVITY TWO FOOT RESOLUTION FROM AIT LOG
AT60ED  .OHMM  : 60 INCH RESISTIVITY TWO FOOT RESOLUTION FROM AIT LOG
AT90ED  .OHMM  : 90 INCH RESISTIVITY TWO FOOT RESOLUTION FROM AIT LOG
CALDED  .IN    : CALIPER FROM DENSITY LOG [DEP ADJ TO GRRED]
CALRED  .IN    : CALIPER FROM RESISTIVITY LOG
CALWS   .IN    : CALIPER [2484 CALICAL 15888 CALRED]
CGRDED  .GAPI  : GAMMA RAY FROM DENSITY LOG [DEP ADJ TO GRRED]
CONDWS  .MMHO  : CONDUCTIVITY [1000/DRESWS]
DCALED  .IN    : DIFFERENTIAL CALIPER FROM DENSITY LOG
DCORWS  .G/C3  : DENSITY CORRECTION [2484 DRHOED 9946 DRHED 15888.5 DRHOED]
DENWS   .G/C3  : BULK DENSITY [M=2.71 F=1.0] [CALCULATED FROM DPOWS]
DPHILSED.V/V   : DENSITY POROSITY [M=2.71 F=1.0] FROM DENSITY LOG [DEP ADJ TO GRRED]
DPOLSED .V/V   : DENSITY POROSITY HIGH RESOLUTION [M=2.71 F=1.0] FROM DENSITY LOG
DPOWS   .V/V   : DENSITY POROSITY [M=2.71 F=1.0] [2484 DPHILSED 9942 DPOLSED 15888 DPHILSED]
DRESWS  .OHMM  : DEEP RESISTIVITY [A2484 AT90ED 9948.5 IDPHED 15892 LLDED]
DRHED   .G/C3  : DENSITY CORRECTION
DRHOED  .G/C3  : DENSITY CORRECTION FROM DENSITY LOG [DEP ADJ TO GRRED]
DTCOED  .US/F  : DELTA TIME COMPRESSIONAL FROM SONIC LOG [DEP ADJ TO GRRED]
DTED    .US/F  : DELTA TIME FROM SONIC LOG
DTLED   .US/F  : DELTA TIME LONG SPACING FROM SONIC LOG
DTLFED  .US/F  : DELTA TIME LONG SPACING FAR DETECTOR FROM SONIC LOG
DTLNED  .US/F  : DELTA TIME LONG SPACING NEAR DETECTOR FROM SONIC LOG
DTSMED  .US/F  : DELTA TIME SHEAR WAVE FROM SONIC LOG [DEP ADJ TO GRRED]
DTSWS   .US/F  : DELTA TIME SHEAR [DTSMED]
DTWS    .US/F  : DELTA TIME [2484 DTLNED 10155.5 DTLFED 10297.5 DTLNED 10506.5 DTLFED 10628.5 DTLNED 10694 DTLFED 10859 DTLNED 11620 DTLFED 13285.5 DTLNED 14723 DTLFED 15057 DTLNED 15798 DTLFED 15889.5 DTED 15912.5 DTCOED]
GRRED   .GAPI  : GAMMA RAY FROM RESISTIVITY LOG
GRSED   .GAPI  : GAMMA RAY FROM SONIC LOG [DEP ADJ TO GRRED]
GRWS    .GAPI  : GAMMA RAY [2484 GRRED 9881.5 GRREDNRM 9946 GRRED 15728.5 GRSEDNRM 15878 CGRDED 16070 GRRED]
IDPHED  .OHMM  : INDUCTION DEEP PHASE RESISTIVITY
IMPHED  .OHMM  : INDUCTION MEDIUM PHASE RESISTIVITY
LLDED   .OHMM  : LATEROLOG DEEP RESISTIVITY
LLSED   .OHMM  : LATEROLOG SHALLOW RESISTIVITY
MRESWS  .OHMM  : MEDIUM RESISTIVITY [2484 AT30ED 9949.5 IMPHED]
NPHILSED.V/V   : NEUTRON POROSITY LIMESTONE FROM DENSITY LOG [DEP ADJ TO GRRED]
NPOWS   .V/V   : NEUTRON POROSITY LIMESTONE [2484 NPHILSED 15780.5 NPHILNRM 15883.5 NPHILSED]
PEFED   .B/E   : PHOTOELECTRIC FACTOR FROM DENSITY LOG
PEFLED  .B/E   : PHOTOELECTRIC FACTOR FROM DENSITY LOG
PEFWS   .B/E   : PHOTOELECTRIC FACTOR [2484 PEFED 9952.5 PEFLED]
RESED   .OHMM  : SYNTHETIC RESISTIVITY
SFLUED  .OHMM  : SPHERICALLY FOCUSED LOG RESISTIVITY
SPHILSED.V/V   : SONIC POROSITY FROM SONIC LOG [DEP ADJ TO GRRED]
SPOWS   .V/V   : SONIC POROSITY [CAL FR DTWS; M= 47.6, F=189]
SPRED   .MV    : SPONTANEOUS POTENTIAL FROM RESISTIVITY LOG [SHIFTS ARE REMOVED]
SPWS    .MV    : SPONTANEOUS POTENTIAL [BASELINE 0 MV] [SPRED]
SRESWS  .OHMM  : SHALLOW RESISTIVITY [2484 AT10ED 9945.5 SFLUED 15891.5 LLSED]
TENDED  .LBF   : TENSION FROM DENSITY LOG [DEP ADJ TO GRRED]
TENRED  .LBF   : TENSION FROM RESISTIVITY LOG
~Params ----------------------------------------------------
PD  .                     GL : PERMANENT DATUM
EPD .FT                  348 : ELEVATION PERMANENT DATUM
LMF .                     KB : LOG MEASURED FROM
DAPD.FT                   28 : FEET ABOVE PERMANENT DATUM
DMF .                     KB : DRILLING MEASURED FROM
EKB .FT                  376 : KELLY BUSHING
EDF .FT                  374 : DRILLING FLOOR
EGL .FT                  348 : GROUND LEVEL
DATE.               11/05/97 : RUN DATE
RUN .                      3 : RUN NUMBER
DD  .FT                18038 : DEPTH DRILLER
DL  .FT                18024 : DEPTH LOGGER
BLI .FT                 1800 : BOTTOM LOG INTERVAL
TLI .FT                15888 : TOP LOG INTERVAL
CS  .IN                7.625 : CASING SIZE
CBD .FT                15888 : CASING BOTTOM DRILLER
CBL .FT                15888 : CASING BOTTOM LOGGER
BS  .IN                    6 : BIT SIZE
BSD .FT                18038 : BIT SIZE AT DEPTH
DFT .                POLYMER : DRILLING FLUID TYPE
DFD .                   18.2 : DRILLING FLUID DENSITY
DFV .                     40 : DRILLING FLUID VISCOSITY
DFPH.                      9 : DRILLING FLUID PH
DFL .                    5.6 : DRILLING FLUID LOSS
MSS .       CIRCULATION TANK : MUD SAMPLE SOURCE
RMS .OHMM               1.14 : RESISTIVITY MUD SAMPLE
MST .DEGF                 90 : MUD SAMPLE TEMPERATURE
RMF .OHMM              0.969 : RESISTIVITY MUD FILTRATE SAMPLE
MFST.DEGF                 90 : MUD FILTRATE SAMPLE TEMPERATURE
RMC .OHMM              1.311 : RESISTIVITY MUD CAKE
MCST.DEGF                 90 : MUD CAKE SAMPLE TEMPERATURE
MFSS.             CALCULATED : MUD FILTRATE SAMPLE SOURCE
MCSS.             CALCULATED : MUD CAKE SAMPLE SOURCE
RMB .OHMM              0.278 : RESISTIVITY MUD AT BHT
TCS .HRS                2200 : TIME CIRCULATED STOPPED
TLAB.HRS                 445 : TIME LOGGER AT BOTTOM
LUN .                   8400 : LOGGING UNIT NUMBER
LUL .                   6450 : LOGGING UNIT LOCATION
ENGI.                SKRBICH : RECORDING ENGINEER
WITN.          BLANKE WEAVER : WITNESSED BY
CLNT.                A2DTECH : CLIENT CODE
ORIG.         1" 2" 5" PRINT : ORIGIN OF DATA
UWI .         42289312660000 : UNIQUE WELL ID
DICO. A2D Technologies, Inc. : DIGITIZING COMPANY
~Other -----------------------------------------------------
~ASCII -----------------------------------------------------
# ...
 12250.00000    -999.25    -999.25    -999.25    -999.25    -999.25    -999.25    -999.25   10.65310    -999.25   39.68270    2.15310   -0.07820    2.69820    -999.25    0.00690    0.00690   25.19990   -0.07820    -999.25    -999.25    -999.25    -999.25  101.80120   59.11430    -999.25    -999.25  101.80120   31.14580    -999.25   31.14580   25.19990   21.74790    -999.25    -999.25   21.74790   -0.00140   -0.00140    -999.25   10.00650   10.00650   10.00650   35.50720    -999.25    0.38330   68.07160  -18.82390   35.50720    -999.25 4930.55570
 12300.00000    -999.25    -999.25    -999.25    -999.25    -999.25    -999.25    -999.25   10.36760    -999.25   12.00960    1.86760   -0.12090    2.61700    -999.25    0.05440    0.05440   83.26640   -0.12090    -999.25    -999.25    -999.25    -999.25   73.21130   59.64780    -999.25    -999.25   73.21130   45.36080    -999.25   45.36080   83.26640  168.76360    -999.25    -999.25  168.76360    0.00660    0.00660    -999.25   10.00670   10.00670   10.00670   60.52280    -999.25    0.18110   72.34050  -15.83690   60.52280    -999.25 4984.32620
 12350.00000    -999.25    -999.25    -999.25    -999.25    -999.25    -999.25    -999.25   11.58890    -999.25   33.11980    3.08890    0.08710    2.71120    -999.25   -0.00070   -0.00070   30.19340    0.08710    -999.25    -999.25    -999.25    -999.25   84.57500   58.65420    -999.25    -999.25   84.57500   82.58580    -999.25   82.58580   30.19340   36.54850    -999.25    -999.25   36.54850    0.06000    0.06000    -999.25   10.00350   10.00350   10.00350   20.09760    -999.25    0.26150   80.83990   -8.61930   20.09760    -999.25 4972.13130
 12400.00000    -999.25    -999.25    -999.25    -999.25    -999.25    -999.25    -999.25   10.71240    -999.25   10.04190    2.21240   -0.00560    2.59830    -999.25    0.06530    0.06530   99.58240   -0.00560    -999.25    -999.25    -999.25    -999.25   64.27380   59.98540    -999.25    -999.25   64.27380   13.15390    -999.25   13.15390   99.58240  137.40640    -999.25    -999.25  137.40640   -0.00280   -0.00280    -999.25    9.98030    9.98030    9.98030   69.84680    -999.25    0.11790   72.37310  -17.38860   69.84680    -999.25 4904.83740
 12450.00000    -999.25    -999.25    -999.25    -999.25    -999.25    -999.25    -999.25   10.31630    -999.25    9.84340    1.81630   -0.03860    2.63900    -999.25    0.04150    0.04150  101.59060   -0.03860    -999.25    -999.25    -999.25    -999.25   70.35310   61.21090    -999.25    -999.25   70.35310   15.73300    -999.25   15.73300  101.59060   70.39610    -999.25    -999.25   70.39610    0.01470    0.01470    -999.25   10.02560   10.02560   10.02560   53.50060    -999.25    0.16090   63.38470  -26.23940   53.50060    -999.25 4987.04790
 12500.00000    -999.25    -999.25    -999.25    -999.25    -999.25    -999.25    -999.25   10.68380    -999.25   17.60970    2.18380   -0.02540    2.59900    -999.25    0.06490    0.06490   56.78680   -0.02540    -999.25    -999.25    -999.25    -999.25   82.12660   57.65260    -999.25    -999.25   82.12660   23.22380    -999.25   23.22380   56.78680   60.24330    -999.25    -999.25   60.24330   -0.00350   -0.00350    -999.25   10.01890   10.01890   10.01890   67.57920    -999.25    0.24420   34.05030  -55.43630   67.57920    -999.25 5062.02340
 12550.00000    -999.25    -999.25    -999.25    -999.25    -999.25    -999.25    -999.25   10.88550    -999.25   37.25130    2.38550   -0.06560    2.48990    -999.25    0.12870    0.12870   26.84470   -0.06560    -999.25    -999.25    -999.25    -999.25   91.98400   64.55670    -999.25    -999.25   91.98400   16.92350    -999.25   16.92350   26.84470   31.41220    -999.25    -999.25   31.41220    0.02180    0.02180    -999.25   10.00460   10.00460   10.00460   34.59300    -999.25    0.31390   45.23530  -44.11370   34.59300    -999.25 4950.38920
 12600.00000    -999.25    -999.25    -999.25    -999.25    -999.25    -999.25    -999.25   11.35760    -999.25   23.27800    2.85760   -0.05620    2.68470    -999.25    0.01480    0.01480   42.95910   -0.05620    -999.25    -999.25    -999.25    -999.25   70.94260   58.89810    -999.25    -999.25   70.94260   45.30920    -999.25   45.30920   42.95910   50.31740    -999.25    -999.25   50.31740    0.01640    0.01640    -999.25   10.02700   10.02700   10.02700   38.38660    -999.25    0.16510   67.85600  -21.35550   38.38660    -999.25 4969.05810
 12650.00000    -999.25    -999.25    -999.25    -999.25    -999.25    -999.25    -999.25   10.17940    -999.25   24.38630    1.67940   -0.03220    2.58280    -999.25    0.07440    0.07440   41.00660   -0.03220    -999.25    -999.25    -999.25    -999.25   60.59290   60.59490    -999.25    -999.25   60.59290   20.91520    -999.25   20.91520   41.00660   75.28630    -999.25    -999.25   75.28630    0.01160    0.01160    -999.25   10.00220   10.00220   10.00220   54.51660    -999.25    0.09190   56.28330  -32.79060   54.51660    -999.25 5001.27150
 12700.00000    -999.25    -999.25    -999.25    -999.25    -999.25    -999.25    -999.25   10.15580    -999.25   49.77720    1.65580   -0.12060    2.54500    -999.25    0.09650    0.09650   20.08950   -0.12060    -999.25    -999.25    -999.25    -999.25   68.55820   55.78960    -999.25    -999.25   68.55820   37.27050    -999.25   37.27050   20.08950 1345.41770    -999.25    -999.25 1345.41770    0.16240    0.16240    -999.25   10.00170   10.00170   10.00170   50.08030    -999.25    0.14820   62.39530  -26.54110   50.08030    -999.25 5015.44630
 12750.00000    -999.25    -999.25    -999.25    -999.25    -999.25    -999.25    -999.25   10.32930    -999.25    3.95420    1.82930   -0.21500    2.62160    -999.25    0.05170    0.05170  252.89280   -0.21500    -999.25    -999.25    -999.25    -999.25   59.27130   57.70810    -999.25    -999.25   59.27130   18.90950    -999.25   18.90950  252.89280  166.24470    -999.25    -999.25  166.24470   -0.00250   -0.00250    -999.25   10.01570   10.01570   10.01570   78.07820    -999.25    0.08250   58.75570  -30.40920   78.07820    -999.25 5697.08640
 12800.00000    -999.25    -999.25    -999.25    -999.25    -999.25    -999.25    -999.25   10.26540    -999.25   17.71710    1.76540   -0.04120    2.61850    -999.25    0.05350    0.05350   56.44280   -0.04120    -999.25    -999.25    -999.25    -999.25   71.49040   57.27660    -999.25    -999.25   71.49040   33.84410    -999.25   33.84410   56.44280   49.97310    -999.25    -999.25   49.97310    0.00940    0.00940    -999.25    9.99690    9.99690    9.99690   74.89920    -999.25    0.16900   65.10840  -24.85780   74.89920    -999.25 5694.68120
 12850.00000    -999.25    -999.25    -999.25    -999.25    -999.25    -999.25    -999.25   10.27720    -999.25    1.71500    1.77720    0.00650    2.59540    -999.25    0.06700    0.06700  583.08650    0.00650    -999.25    -999.25    -999.25    -999.25   82.28050   56.71520    -999.25    -999.25   82.28050   24.95960    -999.25   24.95960  583.08650  112.69770    -999.25    -999.25  112.69770   -0.00360   -0.00360    -999.25    8.13060    8.13060    8.13060   75.97060    -999.25    0.24530   63.28590  -27.48150   75.97060    -999.25 5794.46730
 12900.00000    -999.25    -999.25    -999.25    -999.25    -999.25    -999.25    -999.25   11.35480    -999.25   34.60210    2.85480    0.02080    2.65130    -999.25    0.03430    0.03430   28.90000    0.02080    -999.25    -999.25    -999.25    -999.25   57.85290   59.55650    -999.25    -999.25   57.85290   59.96080    -999.25   59.96080   28.90000   23.62820    -999.25    -999.25   23.62820    0.01370    0.01370    -999.25    5.30430    5.30430    5.30430   27.67680    -999.25    0.07250   77.62700  -13.94170   27.67680    -999.25 5785.35550
 12950.00000    -999.25    -999.25    -999.25    -999.25    -999.25    -999.25    -999.25   10.54840    -999.25   34.80860    2.04840    0.01540    2.65320    -999.25    0.03320    0.03320   28.72850    0.01540    -999.25    -999.25    -999.25    -999.25   63.22720   61.95690    -999.25    -999.25   63.22720   21.67330    -999.25   21.67330   28.72850   20.27100    -999.25    -999.25   20.27100    0.00260    0.00260    -999.25    9.97870    9.97870    9.97870   21.92060    -999.25    0.11050   81.08360  -11.28630   21.92060    -999.25 5727.45460
