~Version ---------------------------------------------------
VERS. 2.0 : CWLS log ASCII Standard -VERSION 2.0
WRAP.  NO : ONE LINE PER DEPTH STEP
~Well ------------------------------------------------------
STRT.F                        650.0 : START DEPTH
STOP.F                       6650.0 : STOP DEPTH
STEP.F                     50.00000 : STEP LENGTH
NULL.                       -999.25 : NULL VALUE
COMP. SOUTHEASTERN PIPELINE COMPANY : COMPANY
WELL.          WILLIAMS BLAKE JR #1 : WELL
FLD .                     GOLDFINCH : FIELD
LOC .                               : LOCATION
CNTY.                          FRIO : COUNTY
STAT.                         TEXAS : STATE
CTRY.      UNITED STATES OF AMERICA : COUNTRY
SRVC.                  Schlumberger : SERVICE COMPANY
DATE.                   13-Jul-1980 : LOGDATE
API .                42163317830000 : API NUMBER
UWI .                42163317830000 : UNIQUE WELL ID
SLAT.WGS84            28.8586124899 : SURFACE LATITUDE
SLON.WGS84           -98.8512748822 : SURFACE LONGITUDE
~Curve Information -----------------------------------------
DEPT.F    0   1   0  0 : 1 MEASURED DEPTH
GRR .GAPI 07 310 01 00 : GAMMA RAY FROM RESISTIVITY LOG
RILD.OHMM 07 120 46 00 : RAW DEEP INDUCTION RESISTIVITY
ASFL.OHMM 07 221 01 00 : AMPLIFIED SPHERICALLY FOCUSED LOG
CILD.MMHO 07 110 46 00 : INDUCTION DEEP CONDUCTIVITY
SPR .MV   07 010 01 00 : SPONTANEOUS POTENTIAL FROM RESISTIVITY LOG
~Params ----------------------------------------------------
PD  .                     GL : PERMANENT DATUM
EPD .FT                  617 : ELEVATION PERMANENT DATUM
LMF .                     KB : LOG MEASURED FROM
DAPD.FT                   10 : FEET ABOVE PERMANENT DATUM
DMF .                     KB : DRILLING MEASURED FROM
EKB .FT                  627 : KELLY BUSHING
EDF .FT                  626 : DRILLING FLOOR
EGL .FT                  617 : GROUND LEVEL
DATE.               07/13/80 : RUN DATE
RUN .                      1 : RUN NUMBER
DD  .FT                 6700 : DEPTH DRILLER
DL  .FT                 6691 : DEPTH LOGGER
BLI .FT                 6685 : BOTTOM LOG INTERVAL
TLI .FT                  657 : TOP LOG INTERVAL
CS  .IN                8.625 : CASING SIZE
CBD .FT                  662 : CASING BOTTOM DRILLER
CBL .FT                  657 : CASING BOTTOM LOGGER
BS  .IN                7.875 : BIT SIZE
BSD .FT                 6700 : BIT SIZE AT DEPTH
DFT .         LIGNOSULFONATE : DRILLING FLUID TYPE
DFD .                     10 : DRILLING FLUID DENSITY
DFV .                     44 : DRILLING FLUID VISCOSITY
DFPH.                     10 : DRILLING FLUID PH
DFL .                    5.9 : DRILLING FLUID LOSS
MSS .               FLOWLINE : MUD SAMPLE SOURCE
RMS .OHMM               1.13 : RESISTIVITY MUD SAMPLE
MST .DEGF                 85 : MUD SAMPLE TEMPERATURE
RMF .OHMM               1.11 : RESISTIVITY MUD FILTRATE SAMPLE
MFST.DEGF                 85 : MUD FILTRATE SAMPLE TEMPERATURE
RMC .OHMM                1.9 : RESISTIVITY MUD CAKE
MCST.DEGF                 85 : MUD CAKE SAMPLE TEMPERATURE
MFSS.                   MEAS : MUD FILTRATE SAMPLE SOURCE
MCSS.                  CHART : MUD CAKE SAMPLE SOURCE
RMB .OHMM               0.56 : RESISTIVITY MUD AT BHT
TCS .HRS                1000 : TIME CIRCULATED STOPPED
TLAB.HRS                1500 : TIME LOGGER AT BOTTOM
LUN .                   8137 : LOGGING UNIT NUMBER
LUL .                  PLEAS : LOGGING UNIT LOCATION
ENGI.             TURBEVILLE : RECORDING ENGINEER
WITN.             WOODS HOPH : WITNESSED BY
CLNT.                A2DTECH : CLIENT CODE
ORIG.               1" PRINT : ORIGIN OF DATA
UWI .         42163317830000 : UNIQUE WELL ID
DICO. A2D Technologies, Inc. : DIGITIZING COMPANY
~Other -----------------------------------------------------
~ASCII -----------------------------------------------------
  650.00000   53.12310    -999.25    -999.25    -999.25    -999.25
  700.00000   53.07380   14.36010   11.85760   63.46400  -23.54350
  750.00000   68.11770    3.85500    3.69400  259.40660   -9.07580
  800.00000   40.64720   16.30420   13.79840   63.31760  -24.99070
  850.00000   56.29330   10.76790    9.44150   91.95950  -20.99710
  900.00000   40.07730   17.09050   15.31540   57.08470  -27.06920
  950.00000   39.08400    8.22930    7.83080  137.07140  -18.35780
 1000.00000   39.01500   16.89720   15.10690   61.39780  -31.44250
 1050.00000   69.85730    7.09650    5.98410  140.91530  -15.73170
 1100.00000   54.29260    8.30350    7.24020  120.44610  -19.66150
 1150.00000  142.07710   15.23100   14.32950   71.60160  -25.25400
 1200.00000   74.16050    3.39160    3.13710  294.84700   -6.19340
 1250.00000   33.03560   32.33300   25.57500   32.53150  -24.20690
 1300.00000   38.24360   35.32030   27.10320   27.63080  -25.89370
 1350.00000   68.22260    7.47980    6.84960  133.63660  -15.04680
 1400.00000   59.80320   14.78160   13.98720   63.15420  -22.39170
 1450.00000   66.70460   11.76290   10.56920   86.36090  -12.82790
 1500.00000   37.11430   64.90150   40.90850   14.79270  -33.88400
 1550.00000   34.08470   66.28900   46.29740   11.73170  -28.01020
 1600.00000   24.84930   57.50060   40.35700   16.01260  -30.99460
 1650.00000   51.69520   20.12900   18.13210   45.14780  -20.20860
 1700.00000   29.42150   34.22710   28.72670   24.80060  -27.22560
 1750.00000   17.22210   74.39740   53.06440    5.68960  -30.47220
 1800.00000   33.69790   59.45500   40.06780   14.80450  -33.83190
 1850.00000   57.00730   39.24550   30.33350   24.09180  -27.63130
 1900.00000   56.39490   26.45440   21.92880   34.87220  -24.29020
 1950.00000   34.68310   69.04040   45.62050   16.41450  -30.06790
 2000.00000   38.62450   49.08150   38.80150   17.98390  -29.86790
 2050.00000   50.92850   30.42250   27.77110   33.68450  -27.07710
 2100.00000   43.92320   42.07720   31.39610   23.41580  -33.02840
 2150.00000   40.00360   36.33010   33.32050   29.37390  -31.92590
 2200.00000   41.96390   22.70600   23.61920   42.10750  -29.95150
 2250.00000   60.90710   23.96230   22.72650   39.77470  -28.24810
 2300.00000   69.92950    4.50410    5.01380  222.02290  -18.85910
 2350.00000   55.68790   11.46890   10.68860   86.36950  -29.06100
 2400.00000   66.82340    6.79940    6.29390  147.07260  -21.32880
 2450.00000   78.81390    3.37300    3.49390  281.04100  -19.05310
 2500.00000   69.48380    7.94420    6.73820  136.21550  -26.59710
 2550.00000   78.39660    9.66820    9.38560  103.47440  -30.04250
 2600.00000   67.95160    5.56590    4.96730  179.65900  -27.28280
 2650.00000   77.76710    3.35040    2.93820  298.46890  -21.70710
 2700.00000   84.54400    7.07980    6.63700  150.38550  -25.06190
 2750.00000   53.69490   13.24850   11.95590   79.73740  -26.87300
 2800.00000   54.60270    6.39210    7.66850  156.45520  -22.58680
 2850.00000   59.56810   16.54270   15.74680   58.89950  -29.15710
 2900.00000   84.18080    7.35110    7.34720  137.65280  -31.37080
 2950.00000   76.65130    3.29100    3.40300  303.86290  -24.16030
 3000.00000   82.01670    9.93640    8.17980   98.97010  -32.55980
 3050.00000   55.64740   13.24080   12.57060   74.86350  -32.29630
 3100.00000   74.61400    3.61400    3.64190  315.82840  -25.30540
 3150.00000   46.08770   13.03500   12.95900   75.25430  -34.72480
 3200.00000   39.92790   13.46250   13.66860   73.95600  -35.16920
 3250.00000   66.32540    5.45100    5.16600  189.29590  -35.37690
 3300.00000   41.47560    9.41570    8.96320  106.20290  -36.32850
 3350.00000   77.23660   10.46340   11.24120   95.76290  -36.77100
 3400.00000   86.57730    4.36730    4.38610  228.97920  -31.09150
 3450.00000   89.06110    2.19380    2.08580  455.83880  -27.82060
 3500.00000   84.36020    2.98720    2.83060  334.76320  -27.44370
 3550.00000   84.44830    2.40100    2.32070  416.50320  -27.23670
 3600.00000   92.71920    2.37470    2.43970  421.10430  -26.81040
 3650.00000   80.08950    2.42740    2.37910  411.96550  -26.53510
 3700.00000   73.24850    3.28670    3.20010  304.25860  -30.91140
 3750.00000   68.17660    3.33620    3.27490  299.74160  -30.91610
 3800.00000   45.73200    5.14440    6.74020  198.79140  -39.87820
 3850.00000   71.57370    2.24780    2.16230  444.87650  -27.68510
 3900.00000   85.02810    1.33270    1.36420  750.35380  -25.18280
 3950.00000   73.28490    1.93660    2.05530  516.36060  -29.77130
 4000.00000   61.75240    1.99990    1.82990  500.26280  -27.98830
 4050.00000   63.54950    2.95690    3.12290  338.19240  -32.49880
 4100.00000   64.48180    2.51260    2.36590  397.99730  -32.26470
 4150.00000   69.47200    1.82260    1.90110  548.67520  -31.48460
 4200.00000   79.53210    1.78840    1.90890  559.15700  -31.89930
 4250.00000   68.09380    2.91930    2.85190  342.54210  -34.23350
 4300.00000   68.30280    2.25230    2.13890  444.00130  -34.79450
 4350.00000   67.73740    2.20070    2.25160  454.40050  -36.77880
 4400.00000   68.16820    1.74800    1.80570  572.08280  -33.81070
 4450.00000   76.51930    1.98330    2.08140  504.19970  -34.63770
 4500.00000   70.34720    1.87410    1.95670  533.59900  -35.76670
 4550.00000   65.42520    2.05450    2.13660  486.74270  -34.74890
 4600.00000   57.30760    3.38520    3.47300  295.40570  -30.21750
 4650.00000   49.39590    3.57580    7.09910  279.65660  -43.46550
 4700.00000   59.74710    2.43180    4.87710  411.21890  -60.16450
 4750.00000   80.22690    2.05660    1.99780  486.24700  -37.86270
 4800.00000   70.94100    1.85840    1.77080  538.11360  -29.72260
 4850.00000   69.93390    1.63370    1.68330  612.12490  -27.88780
 4900.00000   72.84170    2.13770    2.05340  467.79770  -27.48920
 4950.00000   74.97450    2.43390    2.35070  410.86350  -30.31750
 5000.00000   81.12910    1.76200    1.73380  567.55780  -29.17210
 5050.00000   74.61990    2.07220    1.97140  482.59980  -29.94060
 5100.00000   64.93230    2.61930    2.89710  381.78540  -31.81940
 5150.00000   68.86570    2.52890    2.49620  395.43730  -40.65080
 5200.00000   82.34600    2.96900    3.10500  336.81510  -31.35130
 5250.00000   81.10010    2.58210    2.50470  387.27710  -31.81460
 5300.00000   80.46060    1.51880    1.90120  692.40630  -33.65760
 5350.00000  124.03230    0.80610    0.80390 1240.47790  -30.69480
 5400.00000   80.97150    1.72190    1.80000  580.75460  -34.99630
 5450.00000   72.97760    1.80300    1.88470  554.64420  -32.96660
 5500.00000   71.02500    2.76880    2.90330  361.17550  -34.91800
 5550.00000   73.73250    1.85330    1.90450  539.58070  -34.54240
 5600.00000   69.65270    2.09300    2.09880  477.78190  -32.88130
 5650.00000   59.55280    2.20520    2.25210  485.83350  -50.93310
 5700.00000   52.10720    2.99050    3.07550  334.39030  -49.20680
 5750.00000   42.18460    2.99990    3.59480  333.38070  -47.89900
 5800.00000   42.16400    4.53310    4.78320  220.60330  -47.09660
 5850.00000   42.35240    4.55240    4.71620  219.66790  -43.41570
 5900.00000   40.11720    4.00130    3.98230  249.91870  -44.02660
 5950.00000   46.27200    3.35480    3.36000  298.08400  -43.20570
 6000.00000   31.41530    6.01880    6.18990  165.94980  -46.72010
 6050.00000   29.27690    5.39210    5.70430  174.94140  -50.23160
 6100.00000   24.87240   10.63600   12.01630   84.78160  -57.15740
 6150.00000   32.58380   17.53860   21.32410   57.68380  -45.19410
 6200.00000   32.60320    8.61140    8.90970  116.12600  -44.60940
 6250.00000   30.34740    7.64380    7.83140  130.82530  -55.08330
 6300.00000   54.58040   14.32300   15.95280   72.85950  -42.01900
 6350.00000   85.65040   14.49950   21.70210   72.52000  -32.68020
 6400.00000   65.50920   18.25320   27.91790   54.78530  -29.49240
 6450.00000   17.90140   22.73200   22.67260   43.60900  -67.26320
 6500.00000   15.54560   20.72000   21.74740   48.77750  -57.73760
 6550.00000   69.59950    2.66180    3.22940  375.68930  -25.27350
 6600.00000   16.98030   28.21120   34.96620   34.93220  -60.41020
