~Version ---------------------------------------------------
VERS. 2.0 : CWLS log ASCII Standard -VERSION 2.0
WRAP.  NO : ONE LINE PER DEPTH STEP
~Well ------------------------------------------------------
STRT.F                   300.0 : START DEPTH
STOP.F                 14600.0 : STOP DEPTH
STEP.F                50.00000 : STEP LENGTH
NULL.                  -999.25 : NULL VALUE
COMP.        SHELL OIL COMPANY : COMPANY
WELL. E D HAY ETAL GAS UNIT #1 : WELL
FLD .              BUCHEL AREA : FIELD
LOC .                          : LOCATION
CNTY.                  DE WITT : COUNTY
STAT.                    TEXAS : STATE
CTRY. UNITED STATES OF AMERICA : COUNTRY
SRVC.             Schlumberger : SERVICE COMPANY
DATE.              26-Dec-1976 : LOGDATE
API .           42123303590000 : API NUMBER
UWI .           42123303590000 : UNIQUE WELL ID
SLAT.WGS84       29.0604728181 : SURFACE LATITUDE
SLON.WGS84        -97.48437084 : SURFACE LONGITUDE
~Curve Information -----------------------------------------
DEPT.F                 : 
DT  .US/F 60 500 00 00 : DELTA-T (INTERVAL TRANSIT TIME)
GRD .GAPI 45 310 01 00 : GAMMA RAY FROM DENSITY LOG
CORR.G/C3 45 356 01 00 : DENSITY CORRECTION
CALD.IN   45 280 60 00 : CALIPER FROM DENSITY LOG
RHOB.G/C3 45 350 01 00 : BULK DENSITY
ILD .OHMM 07 120 46 00 : INDUCTION DEEP RESISTIVITY
ILM .OHMM 07 120 44 00 : INDUCTION MEDIUM RESISTIVITY
LL8 .OHMM 07 220 08 00 : LATEROLOG 8
SPR .MV   07 010 01 00 : SPONTANEOUS POTENTIAL FROM RESISTIVITY LOG
~Params ----------------------------------------------------
PD  .                     GL : PERMANENT DATUM
EPD .FT                  372 : ELEVATION PERMANENT DATUM
LMF .                     KB : LOG MEASURED FROM
DAPD.FT                   28 : FEET ABOVE PERMANENT DATUM
DMF .                     KB : DRILLING MEASURED FROM
EKB .FT                  400 : KELLY BUSHING
EDF .FT                  399 : DRILLING FLOOR
EGL .FT                  372 : GROUND LEVEL
DATE.               12/26/76 : RUN DATE
RUN .                      2 : RUN NUMBER
DD  .FT                14600 : DEPTH DRILLER
DL  .FT                14609 : DEPTH LOGGER
BLI .FT                14603 : BOTTOM LOG INTERVAL
TLI .FT                 2336 : TOP LOG INTERVAL
CS  .IN                10.75 : CASING SIZE
CBD .FT                 2332 : CASING BOTTOM DRILLER
CBL .FT                 2336 : CASING BOTTOM LOGGER
BS  .IN                 8.75 : BIT SIZE
BSD .FT                14600 : BIT SIZE AT DEPTH
DFT .             IMCO GELEX : DRILLING FLUID TYPE
DFD .                   10.5 : DRILLING FLUID DENSITY
DFV .                     38 : DRILLING FLUID VISCOSITY
DFPH.                      9 : DRILLING FLUID PH
DFL .                      6 : DRILLING FLUID LOSS
MSS .               CIRC PIT : MUD SAMPLE SOURCE
RMS .OHMM               2.13 : RESISTIVITY MUD SAMPLE
MST .DEGF                 73 : MUD SAMPLE TEMPERATURE
RMF .OHMM               1.53 : RESISTIVITY MUD FILTRATE SAMPLE
MFST.DEGF                 75 : MUD FILTRATE SAMPLE TEMPERATURE
RMC .OHMM               3.19 : RESISTIVITY MUD CAKE
MCST.DEGF                 73 : MUD CAKE SAMPLE TEMPERATURE
MFSS.                      M : MUD FILTRATE SAMPLE SOURCE
MCSS.                      C : MUD CAKE SAMPLE SOURCE
RMB .OHMM               0.58 : RESISTIVITY MUD AT BHT
TCS .HRS                   5 : TIME CIRCULATED STOPPED
TLAB.HRS                1200 : TIME LOGGER AT BOTTOM
LUN .                   7685 : LOGGING UNIT NUMBER
LUL .                   VICT : LOGGING UNIT LOCATION
CLNT.                A2DTECH : CLIENT CODE
ORIG.            2" 5" PRINT : ORIGIN OF DATA
UWI .         42123303590000 : UNIQUE WELL ID
DICO. A2D Technologies, Inc. : DIGITIZING COMPANY
~Other -----------------------------------------------------
~ASCII -----------------------------------------------------
# ...
 11200.00000   72.82780   85.42230    0.15300   12.22700    2.59830    2.19620    2.31950    3.25480  -11.65180
 11250.00000   80.05220   92.14990    0.12710   11.60250    2.55140    1.75200    1.86770    2.71850  -10.13060
 11300.00000   71.89250   86.67130    0.10140   10.80240    2.56490    2.21590    2.32840    3.16530  -11.05540
 11350.00000   73.02080   84.60180    0.14740   10.97080    2.52470    2.00860    2.09390    2.95310  -10.10340
 11400.00000   74.25080   86.69310    0.09520   10.54740    2.61600    2.55600    2.67920    3.68460   -7.71160
 11450.00000   77.79760   84.27030    0.10400   10.45980    2.22840    1.95820    2.03650    2.80840  -10.59750
 11500.00000   80.64220   73.57510    0.14690   10.64280    2.46470    1.79920    1.88170    2.36420   -9.47000
 11550.00000   84.74080   68.26530    0.07240   11.00320    2.05430    1.44670    1.49330    2.12360  -11.87640
 11600.00000   82.44330   82.21860    0.13900   11.86290    2.49910    1.59890    1.67730    2.20930  -10.56450
 11650.00000   74.26460   72.56790    0.15210   10.19970    2.32570    1.76690    1.84470    2.47080   -9.70950
 11700.00000   76.21870   70.76620    0.15640   10.90360    2.26290    1.51140    1.57880    2.07160   -9.67800
 11750.00000   81.11270   79.93740    0.03460   11.05540    2.63270    1.65350    1.77030    2.36240   -8.11050
 11800.00000   73.27280   61.69790    0.00800   12.01010    2.60530    1.91890    2.02340    2.69970   -8.44430
 11850.00000   75.02470   77.98350    0.11610   13.29040    2.56600    1.65980    1.79010    2.50880   -9.77100
 11900.00000   81.02090   74.72370    0.12770   12.66540    2.53790    1.45730    1.54540    2.27770   -6.98160
 11950.00000   67.32100   72.11950    0.09310   12.14270    2.57920    1.69030    1.78720    2.32070   -7.40190
 12000.00000   80.57120   68.12560    0.14610   11.55000    2.26620    1.38010    1.44520    2.04590   -9.61170
 12050.00000   80.31670   71.38550    0.09940   11.46960    2.55980    1.54420    1.61450    2.26160   -8.79590
 12100.00000   78.12420   74.22270    0.14090   11.32790    2.55350    1.85230    1.94760    2.72940   -7.70220
 12150.00000   69.05600   67.51220    0.03960   11.12160    2.59850    2.48460    2.63710    3.04770   -7.32660
 12200.00000   66.68740   72.60360    0.17390   11.51280    2.66210    2.27820    2.34330    3.11370   -7.60660
 12250.00000   67.53030   71.91440    0.00220   11.95140    2.55820    2.41650    2.46190    3.07360   -8.40680
 12300.00000   75.70710   79.55580    0.07930   11.84940    2.50300    1.64770    1.75090    2.30830  -10.87110
 12350.00000   78.75210   85.86220    0.12830   12.37630    2.58330    1.68210    1.76260    2.36050   -9.89530
 12400.00000   87.17370   74.96040    0.08350   11.74180    2.59170    1.80710    1.85900    2.18760   -9.47090
 12450.00000   64.93400   72.61900    0.01970   11.69610    2.56820    2.72260    2.86410    3.85350   -6.75680
 12500.00000   69.71300   69.28050    0.12500   12.06970    2.55850    2.28250    2.39660    3.10980   -8.38290
 12550.00000   73.10620   72.97610    0.13080   12.56120    2.53780    2.05560    2.16070    2.93150   -9.64560
 12600.00000   76.74570   80.47270    0.10330   12.46430    2.54700    1.86710    1.97400    2.66730   -8.52410
 12650.00000   77.35600   75.40230    0.08860   13.19040    2.45130    1.71170    1.80530    2.44930  -10.28760
 12700.00000   72.63220   76.88490    0.14040   12.35720    2.53470    1.88120    1.99030    2.81570   -9.12960
 12750.00000   72.15540   79.02960    0.13590   12.72930    2.55080    1.97440    2.07480    2.83530  -10.26860
 12800.00000   74.19110   78.46600    0.14320   13.10180    2.53710    2.02050    2.10950    2.93570  -11.95350
 12850.00000   76.08960   79.27840    0.10490   12.59600    2.50290    1.79130    1.88180    2.64250  -10.59600
 12900.00000   73.97930   77.05010    0.16350   13.04580    2.59700    1.88770    1.98990    2.71940  -10.68480
 12950.00000   74.49980   89.70850    0.09620   12.35730    2.56260    1.73560    1.87690    2.51020   -9.51650
 13000.00000   71.40820  104.07400    0.04720   11.22160    2.52110    2.01750    2.13030    3.18330   -9.97880
 13050.00000   71.74410   83.28670    0.08150   11.36060    2.99900    2.04280    2.18030    3.16930   -7.77490
 13100.00000   63.74880   81.13910    0.24890   12.08970    2.99580    2.56510    2.62580    3.80630   -9.80570
 13150.00000   54.17180   38.13570   -0.00010   10.02140    2.65540    9.57490   10.43900   25.41290   -8.97320
 13200.00000   68.32230   51.22300    0.01970   11.19520    2.63180    3.66430    3.85930    3.87900  -10.46540
 13250.00000   67.60120   69.71010    0.04400   10.78210    2.64360    3.30780    3.60760    5.05820   -8.06830
 13300.00000   39.87150   22.62560   -0.00510    9.51660    2.63710   36.77530   40.89070  124.21970  -16.97540
 13350.00000   40.02620   22.68730    0.02650    9.72770    2.67460   28.91440   34.22620   92.72700  -16.42210
 13400.00000   41.52550   27.53750   -0.00040    9.68980    2.66820    6.08040    6.33790    6.97780  -16.80430
 13450.00000   39.94450   31.27420    0.02710    9.45500    2.70980   28.34220   24.67520   42.21460  -14.45730
 13500.00000   40.07320   27.04030    0.02510    9.49540    2.69080   30.95920   27.66300   47.23750  -17.60590
 13550.00000   46.65890   53.16920    0.04850    9.63130    2.53410    3.77810    3.20480    5.90420  -14.34030
 13600.00000   39.84150   22.65410    0.01130    9.51710    2.62750   31.88440   28.43600   53.81280  -15.51930
 13650.00000   39.95870   27.52270    0.00180    9.98270    2.60640   44.70060   62.70700  281.10030  -19.26690
 13700.00000   68.24750   67.06250    0.08130   10.49670    2.49580    5.69100    6.39880   18.26070  -11.62580
 13750.00000   82.55550   71.98020    0.00410   10.81970    2.41010    7.09780    7.58260   12.33430  -13.21920
 13800.00000   73.97400   88.99670    0.07010   10.77880    2.41270   15.73970   16.35540   27.45860  -16.83660
 13850.00000   90.02000   59.51760   -0.01150   10.05780    2.41980   36.95780   39.33870  106.74890  -19.13790
 13900.00000   53.08270   68.96290    0.00800   10.26710    2.46590   17.46330   19.97070   50.09050  -17.96870
 13950.00000   81.90850   24.03350   -0.00530    9.42220    2.65340   56.48380   49.66030  132.37590  -20.84620
 14000.00000   76.49730   46.42550   -0.01020   10.40200    2.60180   27.77080   28.87610  118.04510 -147.12530
 14050.00000   75.10310   32.61360   -0.00790   10.56190    2.62770   11.96520   14.51850   81.63330 -156.01200
 14100.00000   75.78960   27.77290    0.00420    9.93110    2.60520    5.18630    7.39200   79.66500 -166.28010
 14150.00000   73.86770   34.94890   -0.01160    9.82500    2.58720    8.87090   11.91970   53.97230 -152.05730
 14200.00000   80.65800   34.72430   -0.00420    9.85160    2.56670    9.50070   11.47490   66.75630 -136.72580
 14250.00000   73.99650   35.64760    0.02070    9.91190    2.64970   11.11470   12.76970   34.89040 -134.57820
 14300.00000   69.72380   26.65070    0.00110    9.72870    2.63810    7.86470    9.86840   43.86470 -138.90350
 14350.00000   67.53910   41.12810    0.00240    9.75890    2.67210   59.91520   55.06770   95.40350 -120.59040
 14400.00000   67.67240   32.62400   -0.00260    9.63340    2.67690  187.97460  156.14800  381.98870  -79.84710
 14450.00000   75.90270   15.04060    0.02610    9.31520    2.58690   11.42350   15.23030  159.48670 -169.22990
 14500.00000   69.48060   15.51850    0.00110    9.81910    2.62250   20.89840   22.51600   42.79060 -135.81760
 14550.00000   73.77980   19.32170    0.05660    9.73100    2.63370   19.78610   17.61290   24.75830 -131.40940
 14600.00000   76.84290    -999.25    -999.25    7.61840    -999.25   12.03120   14.08690   32.90370 -152.30840
