~Version ---------------------------------------------------
VERS. 2.0 : CWLS log ASCII Standard -VERSION 2.0
WRAP. YES : MULTIPLE LINES PER DEPTH STEP
~Well ------------------------------------------------------
STRT.FT                    1650.0 : START DEPTH
STOP.FT                    9350.0 : STOP DEPTH
STEP.FT                  50.00000 : STEP LENGTH
NULL.                     -999.25 : NULL VALUE
COMP. ASAMERA- TARINA OIL COMPANY : COMPANY
WELL.        BRISCOE RANCH #13-93 : WELL
FLD .                 CATARINA SW : FIELD
LOC .                             : LOCATION
CNTY.                      DIMMIT : COUNTY
STAT.                       TEXAS : STATE
CTRY.    UNITED STATES OF AMERICA : COUNTRY
SRVC.                Schlumberger : SERVICE COMPANY
DATE.                 16-Apr-1977 : LOGDATE
API .              42127311860000 : API NUMBER
UWI .              42127311860000 : UNIQUE WELL ID
SLAT.WGS84          28.3043808828 : SURFACE LATITUDE
SLON.WGS84         -99.7817592367 : SURFACE LONGITUDE
~Curve Information -----------------------------------------
DEPT  .FT    : DEPTH FEET
CALDED.IN    : CALIPER FROM DENSITY LOG
CALWS .IN    : CALIPER [CALDED]
CONDWS.MMHO  : CONDUCTIVITY [1000/DRESWS]
CORRED.G/C3  : DENSITY CORRECTION FROM DENSITY LOG
DCORWS.G/C3  : DENSITY CORRECTION [CORRED]
DENWS .G/C3  : BULK DENSITY [M=N/A F=N/A] [RHOBED]
DPHIED.V/V   : DENSITY POROSITY [M=N/A F=N/A] FROM DENSITY LOG
DPOWS .V/V   : DENSITY POROSITY [M=N/A F=N/A] [DPHIED]
DRESWS.OHMM  : DEEP RESISTIVITY [ILDED]
DTED  .US/F  : DELTA TIME FROM SONIC LOG
DTWS  .US/F  : DELTA TIME [DTED]
GRDED .GAPI  : GAMMA RAY FROM DENSITY LOG [DEPTH ADJ TO GRR]
GRRED .GAPI  : GAMMA RAY FROM RESISTIVITY LOG
GRWS  .GAPI  : GAMMA RAY [GRDED]
ILDED .OHMM  : INDUCTION LOG DEEP RESISTIVITY
ILMED .OHMM  : INDUCTION LOG MEDIUM RESISTIVITY
LL8ED .OHMM  : 8 INCH LATEROLOG RESISTIVITY
MRESWS.OHMM  : MEDIUM RESISTIVITY [ILMED]
NPHIED.V/V   : NEUTRON POROSITY FROM DENSITY LOG
NPOWS .V/V   : NEUTRON POROSITY [NPHIED]
RHOBED.G/C3  : BULK DENSITY FROM DENSITY LOG
SPRED .MV    : SPONTANEOUS POTENTIAL FROM RESISTIVITY LOG SHIFTED
SPWS  .MV    : SPONTANEOUS POTENTIAL [SHIFTED/BASELINE 0 MV] [SPRED]
SRESWS.OHMM  : SHALLOW RESISTIVITY [LL8ED]
~Params ----------------------------------------------------
PD  .                     GL : PERMANENT DATUM
EPD .F                636.13 : ELEVATION PERMANENT DATUM
LMF .                     KB : LOG MEASURED FROM
DAPD.F                 13.13 : FEET ABOVE PERMANENT DATUM
DMF .                     KB : DRILLING MEASURED FROM
EKB .F                   649 : KELLING BUSHING
EDF .F                 647.5 : DRILLING FLOOR
EGL .F                636.13 : GROUND LEVEL
DATE.              4-15-1977 : RUN DATE
RUN .                      2 : RUN NUMBER
DD  .F                  9370 : DEPTH DRILLER
DL  .F                  9374 : DEPTH LOGGER
BLI .F                  9368 : BOTTOM LOG INTERVAL
TLI .F                  4400 : TOP LOG INTERVAL
CS  .IN                8.625 : CASING SIZE
CBD .F                  1600 : CASING BOTTOM DRILLER
BS  .IN                7.875 : BIT SIZE
BSD .F                  9370 : BIT SIZE AT DEPTH
DFT .       CALCIUM CHLORIDE : DRILLING FLUID TYPE
DFD .                   10.2 : DRILLING FLUID DENSITY
DFV .                     37 : DRILLING FLUID VISCOSITY
DFPH.                     10 : DRILLING FLUID PH
DFL .                      6 : DRILLING FLUID LOSS
MSS .                    PIT : MUD SAMPLE SOURCE
RMS .OHMM               0.07 : RESISTIVITY MUD SAMPLE
MST .F                    70 : MUD SAMPLE TEMPERATURE
RMF .OHMM              0.057 : RESISTIVITY MUD FILTRATE SAMPLE
MFST.F                    70 : MUD FILTRATE SAMPLE TEMPERATURE
RMB .OHMM              0.026 : RESISTIVITY MUD AT BHT
TCS .HRS                1300 : TIME CURCULATED STOPPED
TLAB.HRS                1900 : TIME LOGGER AT BOTTOM
LUN .                   7734 : LOGGING UNIT NUMBER
LUL .                 LAREDO : LOGGING UNIT LOCATION
ENGI.                HARTLEY : RECORDING ENGINEER
WITN.                  LYONS : WITNESSED BY
CLNT.                A2DTECH : CLIENT CODE
ORIG.          1" 2.5" PRINT : ORIGIN OF DATA
UWI .         42127311860000 : UNIQUE WELL ID
DICO. A2D Technologies, Inc. : DIGITIZING COMPANY
~Other -----------------------------------------------------
~ASCII -----------------------------------------------------
# ...
 4550.00000   11.31130   11.31130  180.92670    0.19890    0.19890    2.54520    0.07860    0.07860    5.52710   71.43710   71.43710   27.17590    -999.25   27.17590    5.52710    5.61060    6.98240    5.61060    0.24380    0.24380    2.54520   -4.00900   -2.82720    6.98240
 4600.00000   11.28220   11.28220  185.97730    0.14940    0.14940    2.52230    0.09020    0.09020    5.37700   73.53440   73.53440   26.92010    -999.25   26.92010    5.37700    5.24480    7.04710    5.24480    0.22860    0.22860    2.52230   -3.70890   -2.80300    7.04710
 4650.00000   12.58790   12.58790  180.49890    0.14290    0.14290    2.19040    0.28400    0.28400    5.54020   71.18780   71.18780   25.96300    -999.25   25.96300    5.54020    5.28580    6.68330    5.28580    0.35000    0.35000    2.19040   -3.78380   -3.15370    6.68330
 4700.00000   10.68840   10.68840  225.87640    0.18120    0.18120    2.47510    0.13280    0.13280    4.42720   91.79640   91.79640   23.42180    -999.25   23.42180    4.42720    4.52960    5.41460    4.52960    0.24560    0.24560    2.47510   -1.68170   -1.32740    5.41460
 4750.00000   10.15580   10.15580  155.54280   -0.01300   -0.01300    2.43850    0.14870    0.14870    6.42910   67.24970   67.24970   17.82700    -999.25   17.82700    6.42910    5.68150    7.37500    5.68150    0.23610    0.23610    2.43850   -4.48420   -4.40570    7.37500
 4800.00000   12.72850   12.72850  230.06490    0.15090    0.15090    2.13160    0.32700    0.32700    4.34660   95.08840   95.08840   22.18930    -999.25   22.18930    4.34660    3.58630    5.79940    3.58630    0.36810    0.36810    2.13160   -1.30630   -1.50370    5.79940
 4850.00000   10.06080   10.06080  139.12460    0.01920    0.01920    2.14040    0.26160    0.26160    7.18780   83.26520   83.26520   21.30180    -999.25   21.30180    7.18780   11.21440   12.31600   11.21440    0.29870    0.29870    2.14040   -2.65770   -3.13090   12.31600
 4900.00000   14.57520   14.57520  233.23620    0.10140    0.10140    2.15300    0.32400    0.32400    4.28750   81.61680   81.61680   25.73960    -999.25   25.73960    4.28750    4.22870    6.93310    4.22870    0.37050    0.37050    2.15300   -1.00600   -1.75500    6.93310
 4950.00000   11.96080   11.96080  176.76590    0.04530    0.04530    2.36010    0.16340    0.16340    5.65720   77.27550   77.27550   25.56580    -999.25   25.56580    5.65720    5.35900    6.41210    5.35900    0.28910    0.28910    2.36010   -2.18220   -3.20700    6.41210
 5000.00000   10.14210   10.14210  139.22340    0.00160    0.00160    2.44150    0.14430    0.14430    7.18270   66.64670   66.64670   15.66290    -999.25   15.66290    7.18270    6.99300    9.57220    6.99300    0.26640    0.26640    2.44150  -11.81680  -12.81000    9.57220
 5050.00000    9.35310    9.35310  192.47430    0.01510    0.01510    2.50240    0.10560    0.10560    5.19550   68.64290   68.64290   24.97080    -999.25   24.97080    5.19550    5.24940    8.99480    5.24940    0.25760    0.25760    2.50240  -11.91680  -12.70550    8.99480
 5100.00000   10.34720   10.34720  245.04400    0.14160    0.14160    2.54530    0.11600    0.11600    4.08090   79.22330   79.22330   30.73820    -999.25   30.73820    4.08090    4.42090    5.10500    4.42090    0.23840    0.23840    2.54530   -4.10940   -4.69360    5.10500
 5150.00000   12.08710   12.08710  199.25080    0.17190    0.17190    2.21590    0.26460    0.26460    5.01880   80.42060   80.42060   36.39530    -999.25   36.39530    5.01880    5.00260    7.98250    5.00260    0.26790    0.26790    2.21590   -4.30930   -4.68890    7.98250
 5200.00000   12.86850   12.86850  310.28920    0.15560    0.15560    2.23630    0.27530    0.27530    3.22280   92.09730   92.09730   25.15210   27.75510   25.15210    3.22280    1.66810    3.51320    1.66810    0.35400    0.35400    2.23630   -6.63660   -6.81170    3.51320
 5250.00000   11.87580   11.87580  235.31070    0.12060    0.12060    2.40060    0.15990    0.15990    4.24970   78.02470   78.02470   27.51770   23.24000   27.51770    4.24970    3.88070    4.97510    3.88070    0.28220    0.28220    2.40060   -8.40360   -8.37410    4.97510
 5300.00000   10.75310   10.75310  178.45350    0.20690    0.20690    2.45030    0.14090    0.14090    5.60370   74.73150   74.73150   27.23370   22.40920   27.23370    5.60370    4.43060    6.12960    4.43060    0.25800    0.25800    2.45030   -9.15660   -8.92260    6.12960
 5350.00000   11.69730   11.69730  248.69440    0.05810    0.05810    2.26790    0.26570    0.26570    4.02100   77.42420   77.42420   24.99790   25.56840   24.99790    4.02100    2.93540    4.64080    2.93540    0.31430    0.31430    2.26790   -7.50000   -7.06150    4.64080
 5400.00000   14.66470   14.66470  351.40740    0.10210    0.10210    2.10420    0.33320    0.33320    2.84570   90.29940   90.29940   25.44380   25.18150   25.44380    2.84570    1.89130    2.34700    1.89130    0.37970    0.37970    2.10420   -4.43110   -3.78800    2.34700
 5450.00000   12.13020   12.13020  179.67520    0.18580    0.18580    2.31730    0.21350    0.21350    5.56560   76.77650   76.77650   24.83500   25.55040   24.83500    5.56560    3.21430    4.18070    3.21430    0.27040    0.27040    2.31730   -6.45210   -5.60450    4.18070
 5500.00000   13.47050   13.47050  356.30300    0.16440    0.16440    2.32300    0.20690    0.20690    2.80660   84.31140   84.31140   23.99560   22.50330   23.99560    2.80660    2.10510    3.07150    2.10510    0.34230    0.34230    2.32300   -6.67660   -5.62450    3.07150
 5550.00000   12.84380   12.84380  264.65530    0.18370    0.18370    2.32530    0.20700    0.20700    3.77850   78.57290   78.57290   25.92750   17.79150   25.92750    3.77850    2.69970    3.20950    2.69970    0.34770    0.34770    2.32530   -6.40230   -5.14560    3.20950
 5600.00000   12.70890   12.70890  367.82290    0.10170    0.10170    2.25310    0.23450    0.23450    2.71870   85.80840   85.80840   31.97930   21.05780   31.97930    2.71870    2.05700    2.70230    2.05700    0.32850    0.32850    2.25310   -5.02990   -3.56870    2.70230
 5650.00000   11.54930   11.54930  206.12610    0.08730    0.08730    2.47180    0.11340    0.11340    4.85140   72.73910   72.73910   27.45750   26.55620   27.45750    4.85140    3.15650    4.25880    3.15650    0.26160    0.26160    2.47180   -7.05090   -5.38520    4.25880
 5700.00000   12.82570   12.82570  282.15110    0.13020    0.13020    2.38400    0.18690    0.18690    3.54420   78.09620   78.09620   28.40840   21.69060   28.40840    3.54420    2.08610    3.38060    2.08610    0.32040    0.32040    2.38400   -6.67660   -4.80630    3.38060
 5750.00000   12.05350   12.05350  235.33840    0.18570    0.18570    2.44490    0.14580    0.14580    4.24920   72.73810   72.73810   32.05140   22.55620   32.05140    4.24920    2.94280    4.31940    2.94280    0.25910    0.25910    2.44490   -3.90720   -1.83240    4.31940
 5800.00000   11.01570   11.01570  204.69150    0.00300    0.00300    2.45690    0.12470    0.12470    4.88540   69.76070   69.76070   22.48960   15.88220   22.48960    4.88540    4.03560    5.59510    4.03560    0.21240    0.21240    2.45690   -3.53290   -1.25360    5.59510
 5850.00000   12.28160   12.28160  278.24150    0.17830    0.17830    2.31930    0.21350    0.21350    3.59400   79.28570   79.28570   31.05330   25.56850   31.05330    3.59400    3.00510    3.57530    3.00510    0.28400    0.28400    2.31930   -5.70360   -3.21970    3.57530
 5900.00000   12.75620   12.75620  274.33340    0.11990    0.11990    2.44740    0.12930    0.12930    3.64520   77.50000   77.50000   27.52480   30.19740   27.52480    3.64520    2.50360    3.87070    2.50360    0.28120    0.28120    2.44740   -5.77840   -3.09000    3.87070
 5950.00000   11.07920   11.07920  254.11670    0.04300    0.04300    2.48370    0.11280    0.11280    3.93520   73.63100   73.63100   26.33420   36.47680   26.33420    3.93520    2.96350    3.80760    2.96350    0.30800    0.30800    2.48370   -6.75150   -3.85860    3.80760
