~Version ---------------------------------------------------
VERS. 2.0 : CWLS log ASCII Standard -VERSION 2.0
WRAP. YES : Multiple lines per depth step
~Well ------------------------------------------------------
STRT.FT                 3300.0 : START DEPTH
STOP.FT                 7900.0 : STOP DEPTH
STEP.FT               50.00000 : STEP LENGTH
NULL.                  -999.25 : NULL VALUE
COMP. AMOCO PRODUCTION COMPANY : COMPANY
WELL.    VINCE COURT UNIT A #1 : WELL
FLD .             CALDWELL, NE : FIELD
LOC .                          : LOCATION
CNTY.                   BRAZOS : COUNTY
STAT.                    TEXAS : STATE
CTRY. UNITED STATES OF AMERICA : COUNTRY
SRVC.                    Welex : SERVICE COMPANY
DATE.              19-Dec-1984 : LOGDATE
API .           42041312500000 : API NUMBER
UWI .           42041312500000 : UNIQUE WELL ID
SLAT.WGS84       30.6670683471 : SURFACE LATITUDE
SLON.WGS84      -96.5218651415 : SURFACE LONGITUDE
~Curve Information -----------------------------------------
DEPT    .FT        : DEPTH
CALDED  .IN        : CALIPER FROM DENSITY LOG (ADJ TO RES.)
CALWS   .IN        : CALIPER (CALDED)
CONDWS  .MMHO      : CONDUCTIVITY (1000/DRESWS)
CORRED  .G/C3      : DENSITY CORRECTION (ADJ TO RES.)
DCORWS  .G/C3      : DENSITY CORRECTION (CORRED)
DENWS   .G/C3      : BULK DENSITY  (RHOBED LS)
DPHILSED.V/V       : DENSITY POROSITY LIMESTONE (ADJ TO RES.)
DPHISSED.V/V       : DENSITY POROSITY  SANDSTONE (ADJ TO RES.)
DPOWS   .V/V       : DENSITY POROSITY (M=2.71 F=1 FROM DENWS)
DRESWS  .OHMM      : DEEP RESISTIVITY (ILDED)
GRDED   .GAPI      : GAMMA RAY FROM DENSITY LOG (ADJ TO RES.)
GRRED   .GAPI      : GAMMA RAY FROM RESISTIVITY LOG
GRTED   .GAPI      : GAMMA RAY TDT LOG (ADJ TO RES.)
GRWS    .GAPI      : GAMMA RAY (GRDED)
ILDED   .OHMM      : DEEP INDUCTION RESISTIVITY
ILMED   .OHMM      : MEDIUM INDUCTION RESISTIVITY
MRESWS  .OHMM      : MEDIUM RESISTIVITY (ILMED)
NPHILSED.V/V       : NEUTRON POROSITY LIMESTONE (ADJ TO RES.)
NPHISSED.V/V       : NEUTRON POROSITY SANDSTONE (ADJ TO RES.)
NPOWS   .V/V       : NEUTRON POROSITY LIMESTONE (NPHISSED CONVERTED TO LIMESTONE/NPHILSED)
RATIOED .UNITLESS  : RATIO (ADJ TO RES.)
RHOBED  .G/C3      : BULK DENSITY (ADJ TO RES.)
SGUARDED.OHMM      : SHORT GUARD LOG RESISTIVITY
SIGMED  .CU        : NEUTRON CAPTURE CROSS SECTION (ADJ TO RES.)
SPRED   .MV        : SPONTANEOUS POTENTIAL FROM RESISTIVITY
SPWS    .MV        : SPONTANEOUS POTENTIAL BASELINE 0 MV (SPRED)
SRESWS  .OHMM      : SHALLOW RESISTIVITY (SGUARDED)
TENDED  .LBF       : TENSION FROM DENSITY LOG (ADJ TO RES.)
TENRED  .LBF       : TENSION FROM RESISTIVITY LOG
TENTED  .LBF       : TENSION TDT LOG (ADJ TO RES.)
~Params ----------------------------------------------------
PD  .                     GL : PERMANENT DATUM
EPD .F                   247 : ELEVATION PERMANENT DATUM
LMF .                    TKB : LOG MEASURED FROM
DAPD.F                    21 : FEET ABOVE PERMANENT DATUM
DMF .                    TKB : DRILLING MEASURED FROM
EKB .F                   268 : KELLING BUSHING
EDF .F                   267 : DRILLING FLOOR
EGL .F                   247 : GROUND LEVEL
DATE.             12-19-1984 : RUN DATE
RUN .                      1 : RUN NUMBER
DD  .F                  7940 : DEPTH DRILLER
DL  .F                  7941 : DEPTH LOGGER
BLI .F                  7939 : BOTTOM LOG INTERVAL
TLI .F                  3279 : TOP LOG INTERVAL
CS  .IN                8.625 : CASING SIZE
CBD .F                  3269 : CASING BOTTOM DRILLER
CBL .F                  3379 : CASING BOTTOM LOGGER
BS  .IN                7.875 : BIT SIZE
BSD .F                  7940 : BIT SIZE AT DEPTH
DFT .            POLYMER MUD : DRILLING FLUID TYPE
DFD .                    9.3 : DRILLING FLUID DENSITY
DFV .                     38 : DRILLING FLUID VISCOSITY
DFPH.                    9.4 : DRILLING FLUID PH
DFL .                    7.8 : DRILLING FLUID LOSS
MSS .               FLOWLINE : MUD SAMPLE SOURCE
RMS .OHMM               3.65 : RESISTIVITY MUD SAMPLE
MST .F                    75 : MUD SAMPLE TEMPERATURE
RMF .OHMM               4.29 : RESISTIVITY MUD FILTRATE SAMPLE
MFST.F                    75 : MUD FILTRATE SAMPLE TEMPERATURE
RMC .OHMM                3.9 : RESISTIVITY MUD CAKE
MCST.F                    75 : MUD CAKE SAMPLE TEMPERATURE
MFSS.                   MEAS : MUD FILTRATE SAMPLE SOURCE
MCSS.                   MEAS : MUD CAKE SAMPLE SOURCE
RMB .OHMM                1.4 : RESISTIVITY MUD AT BHT
TCS .HRS                   3 : TIME CURCULATED STOPPED
TLAB.HRS                2210 : TIME LOGGER AT BOTTOM
LUN .                   1905 : LOGGING UNIT NUMBER
LUL .                  BRYAN : LOGGING UNIT LOCATION
ENGI.                MCENERY : RECORDING ENGINEER
WITN.              BOUCKAERT : WITNESSED BY
CLNT.                A2DTECH : CLIENT CODE
ORIG.               5" PRINT : ORIGIN OF DATA
UWI .         42041312500000 : UNIQUE WELL ID
DICO. A2D Technologies, Inc. : DIGITIZING COMPANY
~Other -----------------------------------------------------
~ASCII -----------------------------------------------------
 3300.00000   12.54980   12.54980   91.49050    0.01080    0.01080    2.08600    -999.25    0.34690    0.36490   10.93010   59.72380   59.78240    -999.25   59.72380   10.93010   13.43260   13.43260    -999.25    0.33960    0.39420    -999.25    2.08600   13.64420    -999.25 -115.13680  -41.77110   13.64420 1250.50440 1070.84960    -999.25
 3350.00000   11.32300   11.32300   98.34870   -0.00510   -0.00510    2.09360    -999.25    0.33090    0.36050   10.16790   54.48620   52.59350    -999.25   54.48620   10.16790   13.64150   13.64150    -999.25    0.31330    0.37670    -999.25    2.09360   13.84490    -999.25 -115.44370  -49.50660   13.84490 1270.26450 1079.74880    -999.25
 3400.00000   12.08520   12.08520  524.87930    0.04240    0.04240    2.16930    -999.25    0.28390    0.31620    1.90520   80.59260   82.74010    -999.25   80.59260    1.90520    1.78660    1.78660    -999.25    0.39700    0.42810    -999.25    2.16930    2.28860    -999.25  -71.77640   -9.95410    2.28860 1296.84770 1137.77540    -999.25
 3450.00000   11.43680   11.43680  160.54460   -0.01190   -0.01190    2.15430    -999.25    0.27490    0.32500    6.22880   65.15850   52.75410    -999.25   65.15850    6.22880    8.73870    8.73870    -999.25    0.29380    0.36270    -999.25    2.15430   12.25270    -999.25 -106.18510  -44.74090   12.25270 1314.57120 1137.30770    -999.25
 3500.00000   12.72140   12.72140  199.78820    0.04690    0.04690    2.18640    -999.25    0.26700    0.30620    5.00530   61.89620   60.92710    -999.25   61.89620    5.00530    5.97060    5.97060    -999.25    0.32030    0.38160    -999.25    2.18640    8.73350    -999.25  -86.19700  -25.13080    8.73350 1330.69170 1142.77810    -999.25
 3550.00000   12.15650   12.15650  377.17350    0.03890    0.03890    1.98120    -999.25    0.41090    0.42620    2.65130   80.61100   97.78060    -999.25   80.61100    2.65130    2.91970    2.91970    -999.25    0.33980    0.39440    -999.25    1.98120    2.63660    -999.25  -66.95890   -6.27080    2.63660 1355.50990 1147.54870    -999.25
 3600.00000   11.75900   11.75900  448.73240    0.08640    0.08640    2.15000    -999.25    0.30350    0.32750    2.22850   89.70800   81.95930    -999.25   89.70800    2.22850    2.18270    2.18270    -999.25    0.32790    0.38660    -999.25    2.15000    2.66410    -999.25  -63.99940   -3.68940    2.66410 1362.51490 1149.95070    -999.25
 3650.00000   11.70510   11.70510  486.57060    0.08510    0.08510    2.16930    -999.25    0.27470    0.31620    2.05520   83.26320   87.58240    -999.25   83.26320    2.05520    1.96740    1.96740    -999.25    0.36500    0.40990    -999.25    2.16930    2.28130    -999.25  -63.00620   -3.07430    2.28130 1379.90890 1159.53080    -999.25
 3700.00000   10.02410   10.02410  469.17520    0.06760    0.06760    2.27220    -999.25    0.22260    0.25600    2.13140   86.85850   87.38100    -999.25   86.85850    2.13140    2.15630    2.15630    -999.25    0.34260    0.39620    -999.25    2.27220    2.49580    -999.25  -62.05910   -2.50520    2.49580 1378.14500 1158.23230    -999.25
 3750.00000    9.69350    9.69350  431.55530    0.06490    0.06490    2.36770    -999.25    0.17340    0.20020    2.31720   90.58070   78.20190    -999.25   90.58070    2.31720    2.34840    2.34840    -999.25    0.30030    0.36740    -999.25    2.36770    2.64390    -999.25  -61.34260   -2.16680    2.64390 1394.88440 1198.26980    -999.25
 3800.00000   10.26950   10.26950  309.26240    0.09510    0.09510    2.32530    -999.25    0.19340    0.22500    3.23350   89.11470   71.82890    -999.25   89.11470    3.23350    3.30900    3.30900    -999.25    0.30620    0.37160    -999.25    2.32530    3.51540    -999.25  -67.48920   -8.69150    3.51540 1409.35840 1207.63060    -999.25
 3850.00000   10.22750   10.22750  455.16610    0.09080    0.09080    2.21290    -999.25    0.27180    0.29070    2.19700   93.39300   87.23380    -999.25   93.39300    2.19700    2.26080    2.26080    -999.25    0.34500    0.39780    -999.25    2.21290    2.39780    -999.25  -60.62310   -2.20340    2.39780 1412.24010 1222.28920    -999.25
 3900.00000   10.25180   10.25180  490.05190    0.16590    0.16590    2.23840    -999.25    0.24870    0.27580    2.04060   88.17390   96.28520    -999.25   88.17390    2.04060    1.93500    1.93500    -999.25    0.33790    0.39310    -999.25    2.23840    2.22730    -999.25  -59.44400   -1.40240    2.22730 1433.74460 1233.52380    -999.25
 3950.00000   10.30340   10.30340  572.04960    0.14860    0.14860    2.30370    -999.25    0.23780    0.23760    1.74810   90.03450   78.64500    -999.25   90.03450    1.74810    1.72720    1.72720    -999.25    0.35330    0.40300    -999.25    2.30370    2.00860    -999.25  -60.19920   -2.53570    2.00860 1448.39940 1244.30190    -999.25
 4000.00000    9.89710    9.89710  500.25010    0.14180    0.14180    2.26310    -999.25    0.21600    0.26130    1.99900   87.21940   89.63500    -999.25   87.21940    1.99900    1.95390    1.95390    -999.25    0.33780    0.39310    -999.25    2.26310    2.24110    -999.25  -60.71700   -3.43160    2.24110 1468.63320 1249.91310    -999.25
 4050.00000   10.00620   10.00620  586.75120    0.10340    0.10340    2.33320    -999.25    0.21850    0.22040    1.70430   85.70890   85.95560    -999.25   85.70890    1.70430    1.62780    1.62780    -999.25    0.34590    0.39840    -999.25    2.33320    1.84710    -999.25  -59.83120   -2.92380    1.84710 1457.02530 1274.32840    -999.25
 4100.00000    9.64450    9.64450  671.72700    0.10230    0.10230    2.33170    -999.25    0.18860    0.22120    1.48870  101.45290  105.34350    -999.25  101.45290    1.48870    1.44100    1.44100    -999.25    0.33410    0.39060    -999.25    2.33170    1.64660    -999.25  -59.53510   -3.00580    1.64660 1475.02890 1280.96510    -999.25
 4150.00000    9.41610    9.41610  658.45790    0.09200    0.09200    2.39960    -999.25    0.14990    0.18150    1.51870  104.49180   88.95070    -999.25  104.49180    1.51870    1.49000    1.49000    -999.25    0.33510    0.39130    -999.25    2.39960    1.72960    -999.25  -61.04920   -4.89800    1.72960 1483.77420 1294.24040    -999.25
 4200.00000   10.31140   10.31140  732.11800    0.10780    0.10780    2.26810    -999.25    0.23990    0.25840    1.36590   99.79450  109.79190    -999.25   99.79450    1.36590    1.38430    1.38430    -999.25    0.37990    0.41880    -999.25    2.26810    1.51910    -999.25  -59.87850   -3.94480    1.51910 1468.04820 1303.94320    -999.25
 4250.00000   10.65350   10.65350  659.67410    0.14840    0.14840    2.31870    -999.25    0.21110    0.22880    1.51590  106.33930  117.99650    -999.25  106.33930    1.51590    1.53600    1.53600    -999.25    0.39000    0.42440    -999.25    2.31870    1.64550    -999.25  -58.38220   -2.55910    1.64550 1483.73280 1304.49240    -999.25
 4300.00000   10.88910   10.88910  972.19530    0.08980    0.08980    2.23590    -999.25    0.25770    0.27730    1.02860   88.21250   96.59080    -999.25   88.21250    1.02860    1.04510    1.04510    -999.25    0.37400    0.41530    -999.25    2.23590    1.05800    -999.25  -57.74880   -2.03630    1.05800 1494.96830 1310.48850    -999.25
 4350.00000   10.44240   10.44240  874.89060    0.12570    0.12570    2.20400    -999.25    0.26570    0.29590    1.14300   84.61280  101.99730    -999.25   84.61280    1.14300    1.15840    1.15840    -999.25    0.37440    0.41550    -999.25    2.20400    1.26280    -999.25  -59.90830   -4.30630    1.26280 1510.65340 1318.73780    -999.25
 4400.00000    9.81320    9.81320 1087.90250    0.07900    0.07900    2.19430    -999.25    0.27350    0.30160    0.91920  100.03540   89.61610    -999.25  100.03540    0.91920    0.94330    0.94330    -999.25    0.37840    0.41790    -999.25    2.19430    1.04970    -999.25  -55.70060   -0.20920    1.04970 1524.50200 1334.52050    -999.25
 4450.00000    9.12640    9.12640  701.06570    0.02060    0.02060    2.33680    -999.25    0.14950    0.21820    1.42640   83.75930   82.85270    -999.25   83.75930    1.42640    1.46340    1.46340    -999.25    0.31190    0.37570    -999.25    2.33680    1.51440    -999.25  -57.62910   -2.24820    1.51440 1524.35440 1350.60360    -999.25
