~Version ---------------------------------------------------
VERS.      2.0 : CWLS log ASCII Standard -VERSION 2.0
WRAP.      YES : Multiple lines per depth step
CREA. 10/16/20 : LAS Creation Date
~Well ------------------------------------------------------
STRT.FT                   3800.0 : START DEPTH
STOP.FT                   8250.0 : STOP DEPTH
STEP.FT                 50.00000 : STEP LENGTH
NULL.                    -999.25 : NULL VALUE
COMP. CHAMPLIN PETROLEUM COMPANY : COMPANY
WELL.        EMAGENE R. PITTS #1 : WELL
FLD .                   GIDDINGS : FIELD
LOC .                            : LOCATION
CNTY.                   BURLESON : COUNTY
STAT.                      TEXAS : STATE
CTRY.   UNITED STATES OF AMERICA : COUNTRY
SRVC.               Schlumberger : SERVICE COMPANY
DATE.                03-Jul-1980 : LOGDATE
API .             42051307530000 : API NUMBER
UWI .             42051307530000 : UNIQUE WELL ID
SLAT.WGS84         30.4281479846 : SURFACE LATITUDE
SLON.WGS84        -96.7120434342 : SURFACE LONGITUDE
~Curve Information -----------------------------------------
DEPT    .FT    : DEPTH FEET
BITSED  .IN    : BIT SIZE
CALDED  .IN    : CALIPER FROM FDC-CNL LOG [DSH. TO GRRED]
CALSED  .IN    : CALIPER FROM CDL-SONIC LOG [DSH. TO GRRED]
CALWS   .IN    : CALIPER [CALDED]
CONDWS  .MMHO  : CONDUCTIVITY [1000/DRESWS]
DCORWS  .G/C3  : DENSITY CORRECTION [DRHOED]
DENWS   .G/C3  : FORMATION BULK DENSITY [RHOBED]
DPHIED  .V/V   : DENSITY POROSITY FROM CDL-SONIC LOG [DSH. TO GRRED]
DPHISSED.V/V   : DENSITY POROSITY SANDSTONE [M=2.65,F=1.0] FROM FDC-CNL LOG [DSH. TO GRRED]
DPOSSWS .V/V   : DENSITY POROSITY SANDSTONE [CALC. FROM DENWS M=2.65,F=1.0]
DRESWS  .OHMM  : DEEP RESISTIVITY [ILDED]
DRHOED  .G/C3  : DENSITY CORRECTION FROM FDC-CNL LOG [DSH. TO GRRED]
DTED    .US/F  : DELTA TIME FROM DIL-SFL-SONIC LOG
DTWS    .US/F  : COMPRESSIONAL SONIC [DTED]
GRDED   .GAPI  : GAMMA RAY FROM FDC-CNL LOG [DSH. TO GRRED]
GRED    .GAPI  : GAMMA RAY FROM SGR LOG [DSH. TO GRRED]
GRRED   .GAPI  : GAMMA RAY FROM DIL-SFL-SONIC LOG
GRSED   .GAPI  : GAMMA RAY FROM CDL-SONIC LOG [DSH. TO GRRED]
GRWS    .GAPI  : GAMMA RAY [TOP GRRED 8226' GRDED TD]
ILDED   .OHMM  : DEEP INDUCTION RESISTIVITY FROM DIL-SFL-SONIC LOG
ILMED   .OHMM  : MEDIUM INDUCTION RESISTIVITY FROM DIL-SFL-SONIC LOG
MRESWS  .OHMM  : MEDIUM RESISTIVITY [ILMED]
NPHISSED.V/V   : NEUTRON POROSITY SANDSTONE FROM FDC-CNL LOG [DSH. TO GRRED]
NPOSSWS .V/V   : NEUTRON POROSITY SANDSTONE [NPHILSED]
POTAED  .PCT   : POTASSIUM CONCENTRATION FROM SGR LOG [DSH. TO GRRED]
RHOBED  .G/C3  : BULK DENSITY FROM FDC-CNL LOG [DSH. TO GRRED]
SFLUED  .OHMM  : SPHERICALLY FOCUSED LOG RESISTIVITY FROM DIL-SFL-SONIC LOG
SPHIED  .V/V   : SONIC POROSITY FROM CDL-SONIC LOG [DSH. TO GRRED]
SPOLSWS .V/V   : SONIC POROSITY LIMESTONE [CALC. FROM DTWS DTM=56,DTF=189,Cp=1.0 (WYLLIE)]
SPRED   .MV    : SPONTANEOUS POTENTIAL FROM DIL-SFL-SONIC LOG
SPWS    .MV    : SPONTANEOUS POTENTIAL [BASELINE 0MV,SPRED]
SRESWS  .OHMM  : SHALLOW RESISTIVITY [SFLED]
THORED  .PPM   : THORIUM CONCENTRATION FROM SGR LOG [DSH. TO GRRED]
URANED  .PPM   : URANIUM CONCENTRATION FROM SGR LOG [DSH. TO GRRED]
~Params ----------------------------------------------------
PD  .                     GL : PERMANENT DATUM
EPD .FT                  345 : ELEVATION PERMANENT DATUM
LMF .                     KB : LOG MEASURED FROM
DAPD.FT                   16 : FEET ABOVE PERMANENT DATUM
DMF .                     KB : DRILLING MEASURED FROM
EKB .FT                  361 : KELLY BUSHING
EDF .FT                  360 : DRILLING FLOOR
EGL .FT                  345 : GROUND LEVEL
DATE.               07/03/80 : RUN DATE
RUN .                      1 : RUN NUMBER
DD  .FT                 8300 : DEPTH DRILLER
DL  .FT                 8283 : DEPTH LOGGER
BLI .FT                 8276 : BOTTOM LOG INTERVAL
TLI .FT                 3807 : TOP LOG INTERVAL
CS  .IN                9.625 : CASING SIZE
CBD .FT                 3810 : CASING BOTTOM DRILLER
CBL .FT                 3807 : CASING BOTTOM LOGGER
BS  .IN                 8.75 : BIT SIZE
BSD .FT                 8300 : BIT SIZE AT DEPTH
DFT .                   BENX : DRILLING FLUID TYPE
DFD .                    9.3 : DRILLING FLUID DENSITY
DFV .                     48 : DRILLING FLUID VISCOSITY
DFPH.                    9.5 : DRILLING FLUID PH
DFL .                      6 : DRILLING FLUID LOSS
MSS .               MUD TANK : MUD SAMPLE SOURCE
RMS .OHMM               1.69 : RESISTIVITY MUD SAMPLE
MST .DEGF                 85 : MUD SAMPLE TEMPERATURE
RMF .OHMM               1.26 : RESISTIVITY MUD FILTRATE SAMPLE
MFST.DEGF                 85 : MUD FILTRATE SAMPLE TEMPERATURE
RMC .OHMM               2.53 : RESISTIVITY MUD CAKE
MCST.DEGF                 85 : MUD CAKE SAMPLE TEMPERATURE
MFSS.                   CALC : MUD FILTRATE SAMPLE SOURCE
MCSS.                   CALC : MUD CAKE SAMPLE SOURCE
RMB .OHMM              0.736 : RESISTIVITY MUD AT BHT
TCS .HRS                 700 : TIME CIRCULATED STOPPED
TLAB.HRS                1100 : TIME LOGGER AT BOTTOM
LUN .                        : LOGGING UNIT NUMBER
LUL .                BRENHAM : LOGGING UNIT LOCATION
ENGI.              ALEXANDER : RECORDING ENGINEER
WITN.                 SCHELL : WITNESSED BY
CLNT.                A2DTECH : CLIENT CODE
ORIG.          1" 2.5" PRINT : ORIGIN OF DATA
UWI .         42051307530000 : UNIQUE WELL ID
DICO. A2D Technologies, Inc. : DIGITIZING COMPANY
OS  .                        : OTHER SERVICES
PWI .                        : PRIMARY WELL IDENTIFIER
R1  .                        : REMARKS 1
R2  .                        : REMARKS 2
LSRV.                        : LOG MNEMONIC
~Other -----------------------------------------------------
DIL-SFL-SONIC-FDC-CNL-CDL TOOL RUN.
~ASCII -----------------------------------------------------
# ...
 4850.00000    8.75000   11.27620    -999.25   11.27620  658.54460    0.05170    2.46200    -999.25    0.11220    0.11390    1.51850    0.05170  102.58910  102.58910  100.92680    -999.25   90.20290    -999.25   90.20290    1.51850    1.56460    1.56460    0.36580    0.36580    -999.25    2.46200    1.75010    -999.25    0.35030    0.93990   -2.92910    1.75010    -999.25    -999.25
 4900.00000    8.75000   10.60880    -999.25   10.60880  659.93530    0.02350    2.42670    -999.25    0.13430    0.13530    1.51530    0.02350  102.52850  102.52850   92.23730    -999.25   93.98920    -999.25   93.98920    1.51530    1.59240    1.59240    0.38650    0.38650    -999.25    2.42670    1.69910    -999.25    0.34980   -0.56180   -4.57860    1.69910    -999.25    -999.25
 4950.00000    8.75000   10.94820    -999.25   10.94820  604.48530    0.01960    2.45940    -999.25    0.11690    0.11550    1.65430    0.01960   99.41310   99.41310  112.73050    -999.25  115.76120    -999.25  115.76120    1.65430    1.74370    1.74370    0.39180    0.39180    -999.25    2.45940    1.88390    -999.25    0.32640    1.81920   -2.34530    1.88390    -999.25    -999.25
 5000.00000    8.75000   11.11840    -999.25   11.11840  655.47980    0.01660    2.45800    -999.25    0.11870    0.11640    1.52560    0.01660   99.55700   99.55700   97.11410    -999.25  103.14140    -999.25  103.14140    1.52560    1.61970    1.61970    0.36420    0.36420    -999.25    2.45800    1.73440    -999.25    0.32750    1.32480   -2.98750    1.73440    -999.25    -999.25
 5050.00000    8.75000   10.92010    -999.25   10.92010  733.56810    0.04390    2.45700    -999.25    0.11670    0.11700    1.36320    0.04390  100.27350  100.27350  108.42680    -999.25  105.24190    -999.25  105.24190    1.36320    1.44750    1.44750    0.36260    0.36260    -999.25    2.45700    1.50060    -999.25    0.33290   -0.58240   -5.04240    1.50060    -999.25    -999.25
 5100.00000    8.75000   10.66270    -999.25   10.66270 1025.22040    0.04730    2.41310    -999.25    0.14480    0.14360    0.97540    0.04730  105.76440  105.76440   90.69520    -999.25   91.38700    -999.25   91.38700    0.97540    1.03640    1.03640    0.36980    0.36980    -999.25    2.41310    1.24470    -999.25    0.37420    2.11070   -2.49700    1.24470    -999.25    -999.25
 5150.00000    8.75000    9.82040    -999.25    9.82040  576.00370    0.02260    2.43360    -999.25    0.13150    0.13120    1.73610    0.02260   95.86260   95.86260   87.90080    -999.25   90.25820    -999.25   90.25820    1.73610    1.84360    1.84360    0.34210    0.34210    -999.25    2.43360    2.09550    -999.25    0.29970    1.54270   -3.21280    2.09550    -999.25    -999.25
 5200.00000    8.75000    9.99370    -999.25    9.99370  859.91920    0.07600    2.43390    -999.25    0.13250    0.13100    1.16290    0.07600  108.47840  108.47840   88.14620    -999.25   89.90730    -999.25   89.90730    1.16290    1.23470    1.23470    0.38160    0.38160    -999.25    2.43390    1.36320    -999.25    0.39460    0.32690   -4.57630    1.36320    -999.25    -999.25
 5250.00000    8.75000   10.06100    -999.25   10.06100  718.75220    0.02880    2.44880    -999.25    0.12270    0.12190    1.39130    0.02880  100.98410  100.98410   85.55580    -999.25   98.25490    -999.25   98.25490    1.39130    1.47710    1.47710    0.38560    0.38560    -999.25    2.44880    1.62710    -999.25    0.33820   -1.06330   -6.11430    1.62710    -999.25    -999.25
 5300.00000    8.75000   10.21070    -999.25   10.21070  872.90500    0.04320    2.42000    -999.25    0.14160    0.13940    1.14560    0.04320  106.38540  106.38540   91.49110    -999.25   96.27210    -999.25   96.27210    1.14560    1.21640    1.21640    0.38430    0.38430    -999.25    2.42000    1.42180    -999.25    0.37880    0.27640   -4.92230    1.42180    -999.25    -999.25
 5350.00000    8.75000    9.65230    -999.25    9.65230  772.49900    0.05970    2.41660    -999.25    0.14200    0.14150    1.29450    0.05970  102.36610  102.36610   87.86710    -999.25   92.38930    -999.25   92.38930    1.29450    1.37440    1.37440    0.39300    0.39300    -999.25    2.41660    1.47510    -999.25    0.34860    2.49040   -2.85600    1.47510    -999.25    -999.25
 5400.00000    8.75000    9.84890    -999.25    9.84890  483.23190    0.01800    2.48570    -999.25    0.10070    0.09960    2.06940    0.01800   88.24080   88.24080   74.28920    -999.25   80.57860    -999.25   80.57860    2.06940    2.19720    2.19720    0.26380    0.26380    -999.25    2.48570    2.29290    -999.25    0.24240    2.85860   -2.47610    2.29290    -999.25    -999.25
 5450.00000    8.75000   10.18310    -999.25   10.18310  598.94590    0.05130    2.46160    -999.25    0.11620    0.11420    1.66960    0.05130   95.60290   95.60290   75.54400    -999.25   77.70820    -999.25   77.70820    1.66960    1.77260    1.77260    0.32500    0.32500    -999.25    2.46160    1.81350    -999.25    0.29780    2.10720   -1.78060    1.81350    -999.25    -999.25
 5500.00000    8.75000   11.17170    -999.25   11.17170  967.96050    0.03610    2.38190    -999.25    0.16350    0.16250    1.03310    0.03610  110.01160  110.01160   89.37380    -999.25   85.18850    -999.25   85.18850    1.03310    1.09710    1.09710    0.42240    0.42240    -999.25    2.38190    1.13750    -999.25    0.40610   -1.11460   -3.55550    1.13750    -999.25    -999.25
 5550.00000    8.75000   11.86220    -999.25   11.86220  977.13500    0.04350    2.44390    -999.25    0.12640    0.12490    1.02340    0.04350  106.83330  106.83330   91.14050    -999.25   86.57740    -999.25   86.57740    1.02340    1.08570    1.08570    0.41740    0.41740    -999.25    2.44390    1.29100    -999.25    0.38220   -2.11510   -3.10910    1.29100    -999.25    -999.25
 5600.00000    8.75000   11.30660    -999.25   11.30660  889.75890    0.02480    2.43230    -999.25    0.13300    0.13190    1.12390    0.02480  106.80590  106.80590   94.26680    -999.25   92.96860    -999.25   92.96860    1.12390    1.19340    1.19340    0.38560    0.38560    -999.25    2.43230    1.37600    -999.25    0.38200   -3.57950   -3.76470    1.37600    -999.25    -999.25
 5650.00000    8.75000   10.30270    -999.25   10.30270  870.85260    0.02240    2.45200    -999.25    0.12070    0.12000    1.14830    0.02240  104.57450  104.57450   91.06490    -999.25   89.40520    -999.25   89.40520    1.14830    1.21930    1.21930    0.39000    0.39000    -999.25    2.45200    1.41220    -999.25    0.36520   -4.72940   -5.74640    1.41220    -999.25    -999.25
 5700.00000    8.75000    9.47530    -999.25    9.47530  756.71590    0.07640    2.41420    -999.25    0.14270    0.14290    1.32150    0.07640   96.93790   96.93790   88.23780    -999.25   98.27780    -999.25   98.27780    1.32150    1.40320    1.40320    0.36520    0.36520    -999.25    2.41420    1.46580    -999.25    0.30780   -2.49440   -4.34320    1.46580    -999.25    -999.25
 5750.00000    8.75000    9.84980    -999.25    9.84980  810.89850    0.08380    2.32410    -999.25    0.19960    0.19750    1.23320    0.08380  100.54470  100.54470   81.82930    -999.25   85.87180    -999.25   85.87180    1.23320    1.30900    1.30900    0.34320    0.34320    -999.25    2.32410    1.33870    -999.25    0.33490   -3.13900   -5.81950    1.33870    -999.25    -999.25
 5800.00000    8.75000    9.74950    -999.25    9.74950 1005.22720    0.04950    2.33900    -999.25    0.19020    0.18850    0.99480    0.04950  100.55080  100.55080  105.26540    -999.25   93.68390    -999.25   93.68390    0.99480    1.05650    1.05650    0.36090    0.36090    -999.25    2.33900    1.12200    -999.25    0.33500    1.73370   -1.77860    1.12200    -999.25    -999.25
 5850.00000    8.75000    9.51690    -999.25    9.51690  513.53160    0.02910    2.43840    -999.25    0.12840    0.12820    1.94730    0.02910   87.59620   87.59620   75.13070    -999.25   72.34850    -999.25   72.34850    1.94730    2.06660    2.06660    0.30300    0.30300    -999.25    2.43840    2.06890    -999.25    0.23760   -3.56830   -7.20540    2.06890    -999.25    -999.25
