~Version ---------------------------------------------------
VERS. 2.0 : CWLS log ASCII Standard -VERSION 2.0
WRAP.  NO : ONE LINE PER DEPTH STEP
~Well ------------------------------------------------------
STRT.F                     300.0 : START DEPTH
STOP.F                   19600.0 : STOP DEPTH
STEP.F                  50.00000 : STEP LENGTH
NULL.                    -999.25 : NULL VALUE
COMP. CITIES SERVICE OIL COMPANY : COMPANY
WELL.          PEELER RANCH A #1 : WELL
FLD .                    WILDCAT : FIELD
LOC .                            : LOCATION
CNTY.                   ATASCOSA : COUNTY
STAT.                      TEXAS : STATE
CTRY.   UNITED STATES OF AMERICA : COUNTRY
SRVC.               Schlumberger : SERVICE COMPANY
DATE.                12-Feb-1972 : LOGDATE
API .             42013301410000 : API NUMBER
UWI .             42013301410000 : UNIQUE WELL ID
SLAT.WGS84         28.6903618688 : SURFACE LATITUDE
SLON.WGS84        -98.4697337546 : SURFACE LONGITUDE
~Curve Information -----------------------------------------
DEPT.F                 : 
GRD .GAPI 45 310 01 00 : GAMMA RAY FROM DENSITY LOG
CALD.IN   45 280 60 00 : CALIPER FROM DENSITY LOG
CORR.G/C3 45 356 01 00 : DENSITY CORRECTION
RHOB.G/C3 45 350 01 00 : BULK DENSITY
GRS .GAPI 60 310 01 00 : GAMMA RAY FROM SONIC LOG
DT  .US/F 60 500 32 00 : DELTA-T (INTERVAL TRANSIT TIME)
CALS.IN   60 280 50 00 : CALIPER FROM SONIC LOG
ALL8.OHMM 05 221 08 00 : AMPLIFIED LATEROLOG-8
ILD .OHMM 05 120 46 00 : INDUCTION LOG DEEP
ASN .OHMM 05 041 16 00 : AMPLIFIED SHORT NORMAL 16"
CILD.MMHO 05 110 46 00 : CONDUCTIVITY INDUCTION LOG DEEP
SPR .MV   05 010 01 00 : SPONTANEOUS POTENTIAL FROM RES.
NEUT.NAPI 35 330 01 00 : NEUTRON
SNP .DEC  41 890 01 00 : SIDEWALL NEUTRON POROSITY
~Params ----------------------------------------------------
PD  .                     GL : PERMANENT DATUM
EPD .F                   297 : ELEVATION PERMANENT DATUM
LMF .                     KB : LOG MEASURED FROM
DAPD.F                  30.5 : FEET ABOVE PERMANENT DATUM
DMF .                     KB : DRILLING MEASURED FROM
EKB .F                 327.5 : KELLING BUSHING
EDF .F                 326.5 : DRILLING FLOOR
EGL .F                   297 : GROUND LEVEL
DATE.             02-12-1972 : RUN DATE
RUN .                      9 : RUN NUMBER
DD  .F                 19629 : DEPTH DRILLER
DL  .F                 19635 : DEPTH LOGGER
BLI .F                 19628 : BOTTOM LOG INTERVAL
TLI .F                 19127 : TOP LOG INTERVAL
BS  .IN                  4.4 : BIT SIZE
BSD .F                 19629 : BIT SIZE AT DEPTH
DFT .       INVERMUL 43% OIL : DRILLING FLUID TYPE
DFD .                   19.1 : DRILLING FLUID DENSITY
DFV .                     88 : DRILLING FLUID VISCOSITY
TCS .HRS                  12 : TIME CURCULATED STOPPED
LUN .                   7504 : LOGGING UNIT NUMBER
LUL .                  PLEAS : LOGGING UNIT LOCATION
ENGI.               CLEMENTS : RECORDING ENGINEER
WITN.         GRIGSBY THOMAS : WITNESSED BY
CLNT.                A2DTECH : CLIENT CODE
ORIG.            2" 5" PRINT : ORIGIN OF DATA
UWI .         42013301410000 : UNIQUE WELL ID
DICO. A2D Technologies, Inc. : DIGITIZING COMPANY
~Other -----------------------------------------------------
~ASCII -----------------------------------------------------
  300.00000    -999.25    -999.25    -999.25    -999.25   60.53330  156.84360   13.68410    -999.25    2.17390    2.04950  508.98200  -25.60000    -999.25    -999.25
  350.00000    -999.25    -999.25    -999.25    -999.25   64.94180  176.38720   13.68990    -999.25    1.88410    1.66560  599.65780  -27.80000    -999.25    -999.25
  400.00000    -999.25    -999.25    -999.25    -999.25   58.94070  175.95500   13.69600    -999.25    2.28550    2.25780  470.92710  -28.20000    -999.25    -999.25
  450.00000    -999.25    -999.25    -999.25    -999.25   51.18980  157.75740   13.70470    -999.25    2.45860    2.57590  413.24540  -45.00000    -999.25    -999.25
  500.00000    -999.25    -999.25    -999.25    -999.25   59.43760  153.96140   13.71060    -999.25    2.12220    2.06400  520.43040  -21.00000    -999.25    -999.25
  550.00000    -999.25    -999.25    -999.25    -999.25   51.17620  156.32950   13.69870    -999.25    2.23080    2.22600  438.08340  -25.80000    -999.25    -999.25
  600.00000    -999.25    -999.25    -999.25    -999.25   53.66240  176.39960   13.70770    -999.25    2.10510    1.98390  524.95010  -29.80000    -999.25    -999.25
  650.00000    -999.25    -999.25    -999.25    -999.25   57.81130  170.85130   13.70580    -999.25    1.52170    1.58200  682.64660  -22.60000    -999.25    -999.25
  700.00000    -999.25    -999.25    -999.25    -999.25   39.22990  142.58230   13.72480    -999.25    3.47830    3.43450  354.75950  -27.40000    -999.25    -999.25
  750.00000    -999.25    -999.25    -999.25    -999.25   42.04340  158.30570   13.71120    -999.25    3.01240    3.24870  626.61830  -22.40000    -999.25    -999.25
  800.00000    -999.25    -999.25    -999.25    -999.25   51.15070  160.10980   13.70910    -999.25    2.60870    2.59440  414.02200  -29.80000    -999.25    -999.25
  850.00000    -999.25    -999.25    -999.25    -999.25   36.26170  158.23680   13.69470    -999.25    4.18740    4.20740  249.50100  -40.70040    -999.25    -999.25
  900.00000    -999.25    -999.25    -999.25    -999.25   42.28850  147.54250   13.69630    -999.25    2.48450    2.70590  445.10980  -33.40000    -999.25    -999.25
  950.00000    -999.25    -999.25    -999.25    -999.25   55.41240  148.69550   13.69230    -999.25    2.32400    2.38390  478.64270  -28.20000    -999.25    -999.25
 1000.00000    -999.25    -999.25    -999.25    -999.25   59.93360  141.36050   13.68570    -999.25    2.33950    2.28890  507.11510  -23.00000    -999.25    -999.25
 1050.00000    -999.25    -999.25    -999.25    -999.25   68.86930  173.96620   13.68450    -999.25    1.36650    1.49540  728.54290  -21.60000    -999.25    -999.25
 1100.00000    -999.25    -999.25    -999.25    -999.25   57.89230  153.55000   13.70550    -999.25    2.11180    2.08050  592.10060  -25.80000    -999.25    -999.25
 1150.00000    -999.25    -999.25    -999.25    -999.25   68.76430  175.14260   13.69330    -999.25    1.28880    1.34670  740.51900  -25.40000    -999.25    -999.25
 1200.00000    -999.25    -999.25    -999.25    -999.25   58.06430  156.03390   13.69530    -999.25    1.75580    1.76470  674.67960  -22.60000    -999.25    -999.25
 1250.00000    -999.25    -999.25    -999.25    -999.25   57.09980  134.29260   13.69840    -999.25    3.42650    3.24770  309.38120  -27.40000    -999.25    -999.25
 1300.00000    -999.25    -999.25    -999.25    -999.25   60.02380  146.80250   13.70280    -999.25    2.13250    2.14600  532.36830  -21.60000    -999.25    -999.25
 1350.00000    -999.25    -999.25    -999.25    -999.25   54.78790  135.52230   13.68050    -999.25    2.12220    2.31680  495.62920  -21.00000    -999.25    -999.25
 1400.00000    -999.25    -999.25    -999.25    -999.25   62.60490  128.91600   13.70530    -999.25    2.78250    3.00000  335.32930  -20.60000    -999.25    -999.25
 1450.00000    -999.25    -999.25    -999.25    -999.25   54.40260  135.10090   13.69230    -999.25    3.06940    3.04640  358.82080  -23.00000    -999.25    -999.25
 1500.00000    -999.25    -999.25    -999.25    -999.25   28.42830  123.43310   13.70470    -999.25    6.84260    7.41180  137.73070  -47.40000    -999.25    -999.25
 1550.00000    -999.25    -999.25    -999.25    -999.25   45.91680  125.56080   13.69670    -999.25    3.99070    4.40460  227.14570  -31.00000    -999.25    -999.25
 1600.00000    -999.25    -999.25    -999.25    -999.25   64.69890  146.30910   13.70800    -999.25    2.43850    2.29720  475.40580  -21.00000    -999.25    -999.25
 1650.00000    -999.25    -999.25    -999.25    -999.25   67.08780  132.68070   13.70920    -999.25    2.25160    1.78020  612.77450  -19.80000    -999.25    -999.25
 1700.00000    -999.25    -999.25    -999.25    -999.25   28.01500  129.30720   13.70370    -999.25    5.37270    6.31580  184.75410  -47.00000    -999.25    -999.25
 1750.00000    -999.25    -999.25    -999.25    -999.25   34.03410  122.17020   13.69050    -999.25    6.16460    6.29000  166.84810  -36.20000    -999.25    -999.25
 1800.00000    -999.25    -999.25    -999.25    -999.25   35.57190  120.75930   13.69750    -999.25    6.21120    7.25290  153.70610  -44.20000    -999.25    -999.25
 1850.00000    -999.25    -999.25    -999.25    -999.25   33.46610  129.37560   13.68230    -999.25    5.04660    5.33440  204.79040  -26.40000    -999.25    -999.25
 1900.00000    -999.25    -999.25    -999.25    -999.25   41.14850  106.89820   13.67670    -999.25    8.13660    8.84210  111.37720  -42.60000    -999.25    -999.25
 1950.00000    -999.25    -999.25    -999.25    -999.25   48.59920  123.22170   13.67750    -999.25    4.42550    4.30030  230.36610  -25.40000    -999.25    -999.25
 2000.00000    -999.25    -999.25    -999.25    -999.25   41.92470  124.61530   13.66970    -999.25    8.94410    8.55110  103.77120  -35.80000    -999.25    -999.25
 2050.00000    -999.25    -999.25    -999.25    -999.25   62.54580  118.79090   13.67800    -999.25   10.01550    9.86390  101.64290  -38.20000    -999.25    -999.25
 2100.00000    -999.25    -999.25    -999.25    -999.25   43.84860  112.83070   13.68780    -999.25   11.93570   12.14240   88.30220  -35.80000    -999.25    -999.25
 2150.00000    -999.25    -999.25    -999.25    -999.25   48.94390   92.75120   13.68510    -999.25    6.07140    5.84520  149.70060  -24.60000    -999.25    -999.25
 2200.00000    -999.25    -999.25    -999.25    -999.25   48.90600  115.61380   13.68160    -999.25    6.90700    6.79260  143.96210  -29.40000    -999.25    -999.25
 2250.00000    -999.25    -999.25    -999.25    -999.25   34.65510  129.53800   13.67330    -999.25   12.30340   11.69160   81.33730  -37.20000    -999.25    -999.25
 2300.00000    -999.25    -999.25    -999.25    -999.25   37.13820  117.13730   13.68020    -999.25   12.67080   12.68110   71.02460  -39.00000    -999.25    -999.25
 2350.00000    -999.25    -999.25    -999.25    -999.25   74.01440  110.67930   13.68850    -999.25   12.01350   12.69040   78.84230  -39.40000    -999.25    -999.25
 2400.00000    -999.25    -999.25    -999.25    -999.25   64.37760  113.66750   13.68290    -999.25    5.40370    6.58940  185.36880  -29.80000    -999.25    -999.25
 2450.00000    -999.25    -999.25    -999.25    -999.25   58.99930  114.21860   13.68520    -999.25    3.24530    3.98140  336.42030  -24.00000    -999.25    -999.25
 2500.00000    -999.25    -999.25    -999.25    -999.25   43.78380  115.56760   13.67120    -999.25   11.02480   11.07740   75.84830  -37.40000    -999.25    -999.25
 2550.00000    -999.25    -999.25    -999.25    -999.25   53.96790  106.92250   13.67970    -999.25    9.08390    9.12380  105.12310  -34.60000    -999.25    -999.25
 2600.00000    -999.25    -999.25    -999.25    -999.25   46.43240  116.80600   13.66270    -999.25   12.69150   12.68710   63.87970  -39.00000    -999.25    -999.25
 2650.00000    -999.25    -999.25    -999.25    -999.25   56.95800  104.65630   13.66190    -999.25   11.27850   10.27550  155.95990  -36.60000    -999.25    -999.25
 2700.00000    -999.25    -999.25    -999.25    -999.25   57.92450  110.83720   13.65780    -999.25    3.71640    4.10670  253.49300  -30.20000    -999.25    -999.25
