~Version ---------------------------------------------------
VERS. 2.0 : CWLS log ASCII Standard -VERSION 2.0
WRAP.  NO : ONE LINE PER DEPTH STEP
~Well ------------------------------------------------------
STRT.FT                            300.0 : START DEPTH
STOP.FT                          22000.0 : STOP DEPTH
STEP.FT                         50.00000 : STEP LENGTH
NULL.                            -999.25 : NULL VALUE
COMP. PAN AMERICAN PETROLEUM CORPORATION : COMPANY
WELL.                  A. M. FOERSTER #1 : WELL
FLD .                            WILDCAT : FIELD
LOC .                                    : LOCATION
CNTY.                           LA SALLE : COUNTY
STAT.                              TEXAS : STATE
CTRY.           UNITED STATES OF AMERICA : COUNTRY
SRVC.                       Schlumberger : SERVICE COMPANY
DATE.                        20-Aug-1964 : LOGDATE
API .                     42283002040000 : API NUMBER
UWI .                     42283002040000 : UNIQUE WELL ID
SLAT.WGS84                 28.3371650608 : SURFACE LATITUDE
SLON.WGS84                -98.9649233845 : SURFACE LONGITUDE
~Curve Information -----------------------------------------
DEPT  .FT    : DEPTH
CONDWS.MMHO  : CONDUCTIVITY [CILDED] FROM IEL
ILDED .OHMM  : INDUCTION LOG DEEP RESISTIVITY FROM IEL
ASNED .OHMM  : SHORT NORMAL RESISTIVITY 16 INCH FROM IEL
CILDED.MMHO  : CONDUCTIVITY FROM IEL
DRESWS.OHMM  : DEEP RESISTIVITY [ILDED] FROM IEL [IF ILDED < 1 THEN 1000/CILDED]
DTWS  .US/F  : DELTA TIME FROM SONIC LOG
NEUTWS.CU    : NEUTRON FROM GAMMA RAY NEUTRON LOG
GRNED .GAPI  : GAMMA RAY FROM NEUTRON LOG
NEUTED.NAPI  : NEUTRON  FROM GAMMA RAY NEUTRON LOG
SPED  .MV    : SPONTANEOUS POTENTIAL [MECHANICAL SHIFTS REMOVED]
SPWS  .MV    : SPONTANEOUS POTENTIAL [BASELINE 0 MV]
CALSED.IN    : CALIPER FROM SONIC LOG
DTED  .US/F  : DELTA TIME FROM SONIC LOG
SRESWS.OHMM  : SHALLOW RESISTIVITY [ASNED] FROM IEL
GRWS  .GAPI  : GAMMA RAY [GRNED] FROM GAMMA RAY NEUTRON LOG
CALWS .IN    : CALIPER [CALSED] FROM SONIC LOG
SPSED .MV    : SPONTANEOUS POTENTIAL FROM SONIC LOG [MECHANICAL SHIFTS REMOVED]
~Params ----------------------------------------------------
EKB .F                 473.5 : KELLY BUSHING
EGL .F                   445 : ELEVATION GROUND LEVEL
EDF .F                   471 : ELEVATION DERRICK FLOOR
EPD .F                   445 : ELEVATION PERMANENT DATUM
TD  .F               21995.0 : TOTAL DEPTH
DATE.            20-AUG-1964 : DATE LOGGED
CLNT.                A2DTECH : CLIENT CODE
SL  .   1320' FSL & 660' FWL : SURFACE LOCATION
PD  .                     GL : PERMANENT DATUM
LMF .                     KB : LOG MEASURED FROM
DMF .                     KB : DRILLING MEASURED FROM
DAPD.F                  28.5 : FEET ABOVE PERMANENT DATUM
DD  .F                 21995 : DEPTH DRILLER
DL  .F                 21992 : DEPTH LOGGER
BLI .F                 21991 : BOTTOM LOG INTERVAL
TLI .F                 20005 : TOP LOG INTERVAL
CS1 .IN                9.625 : CASING SIZE
CBD1.        9.625" @ 15993' : CASING DRILLER 1
CBL1.F                 15993 : CASING LOGGER 1
BS1 .IN                  8.5 : BIT SIZE
BSD1.F                 21995 : DEPTH DRILLED WITH BIT1
DFT .              XP-20-O.E : TYPE FLUID IN HOLE
DFD .                   18.4 : DENSITY
DFV .                     54 : VISCOSITY
DFPH.                    8.9 : PH
DFL .                      4 : FLUID LOSS
MSS .                MUD/PIT : SOURCE OF SAMPLE
RMS .OHMM               0.15 : RM
RMF .OHMM              0.089 : RMF
RMC .OHMM               0.32 : RMC
MFSS.                   MEAS : SOURCE RMF.
MCSS.                   MEAS : SOURCE RMC.
RMB .OHMM              0.046 : RM. AT BHT
BHT .F                   404 : BHT.
TCS .HRS                  10 : TIME CIRC. STOPPED
LUN .                   4526 : LOGGING UNIT NUMBER
LUL .                    KEN : LOGGING UNIT LOCATION
ENGI.                  HARSH : RECORDED BY
WITN.          FREEMAN/WALSH : WITNESSED BY
ORIG.          1" & 5" PRINT : ORIGIN OF DATA
UWI .         42283002040000 : UNIQUE WELL ID
DICO. A2D TECHNOLOGIES, INC. : DIGITIZING COMPANY
~Other -----------------------------------------------------
~ASCII -----------------------------------------------------
# ...
 8500.00000  423.62500    2.35800    2.57000  423.62500    2.35800   86.92800    -999.25    -999.25    -999.25  -31.93700   -0.95150   15.19600   86.92800    2.57000    -999.25   15.19600  -25.19900
 8550.00000  477.49200    2.11500    2.35900  477.49200    2.11500  101.14300    -999.25    -999.25    -999.25  -31.12900   -0.21670   15.43100  101.14300    2.35900    -999.25   15.43100  -24.46800
 8600.00000  436.11000    2.32700    2.59300  436.11000    2.32700   86.85500    -999.25    -999.25    -999.25  -31.26700   -0.42780   15.23200   86.85500    2.59300    -999.25   15.23200  -24.43200
 8650.00000  463.96300    2.16900    2.51100  463.96300    2.16900   83.66200    -999.25    -999.25    -999.25  -31.36900   -0.60300   14.95200   83.66200    2.51100    -999.25   14.95200  -23.46300
 8700.00000  386.04400    2.60300    2.87100  386.04400    2.60300   82.72500    -999.25    -999.25    -999.25  -31.99400   -1.30110   15.08300   82.72500    2.87100    -999.25   15.08300  -24.07800
 8750.00000  364.69300    2.65400    2.88900  364.69300    2.65400   86.60500    -999.25    -999.25    -999.25  -30.97400   -0.35430   15.27400   86.60500    2.88900    -999.25   15.27400  -23.61600
 8800.00000  467.17100    2.19900    2.35500  467.17100    2.19900   88.57900    -999.25    -999.25    -999.25  -30.52800    0.01860   15.39100   88.57900    2.35500    -999.25   15.39100  -23.77000
 8850.00000  396.67600    2.58300    2.89300  396.67600    2.58300   82.04300    -999.25    -999.25    -999.25  -30.81200   -0.33860   14.96600   82.04300    2.89300    -999.25   14.96600  -22.79700
 8900.00000  404.07600    2.47400    2.80900  404.07600    2.47400   88.91700    -999.25    -999.25    -999.25  -30.44100   -0.04070   15.28700   88.91700    2.80900    -999.25   15.28700  -23.61000
 8950.00000  489.86600    2.02800    2.30300  489.86600    2.02800   91.06400    -999.25    -999.25    -999.25  -29.92500    0.40210   15.21200   91.06400    2.30300    -999.25   15.21200  -23.55200
 9000.00000  431.75500    2.33800    2.42000  431.75500    2.33800   90.00300    -999.25    -999.25    -999.25  -29.06100    1.19300   14.94800   90.00300    2.42000    -999.25   14.94800  -23.13000
 9050.00000  311.55000    3.22400    3.30900  311.55000    3.22400   82.67200    -999.25    -999.25    -999.25  -29.96300    0.21790   14.93300   82.67200    3.30900    -999.25   14.93300  -22.56900
 9100.00000  319.06000    3.18600    2.97500  319.06000    3.18600   94.16100    -999.25    -999.25    -999.25  -28.39600    1.71170   15.39400   94.16100    2.97500    -999.25   15.39400  -21.46100
 9150.00000  385.14600    2.56900    2.70800  385.14600    2.56900   85.04000    -999.25    -999.25    -999.25  -28.95200    1.08260   15.40300   85.04000    2.70800    -999.25   15.40300  -22.88000
 9200.00000  404.97500    2.48900    2.58700  404.97500    2.48900   87.12700    -999.25    -999.25    -999.25  -29.18600    0.77540   15.38100   87.12700    2.58700    -999.25   15.38100  -23.10000
 9250.00000  358.56200    2.88300    2.80500  358.56200    2.88300   98.16100    -999.25    -999.25    -999.25  -28.94300    0.94530   15.38900   98.16100    2.80500    -999.25   15.38900  -22.59900
 9300.00000  361.33000    2.93100    3.05900  361.33000    2.93100   80.07000    -999.25    -999.25    -999.25  -28.80600    1.00910   15.35100   80.07000    3.05900    -999.25   15.35100  -23.23100
 9350.00000  382.52100    2.76200    2.96400  382.52100    2.76200   72.81300    -999.25    -999.25    -999.25  -28.21300    1.52900   15.35100   72.81300    2.96400    -999.25   15.35100  -24.18600
 9400.00000  334.37800    3.00600    3.05000  334.37800    3.00600   81.10800    -999.25    -999.25    -999.25  -28.68200    0.98680   15.32000   81.10800    3.05000    -999.25   15.32000  -24.05900
 9450.00000  196.90300    5.02900    4.15800  196.90300    5.02900   82.20600    -999.25    -999.25    -999.25  -30.57900   -0.98330   15.34400   82.20600    4.15800    -999.25   15.34400  -22.67200
 9500.00000  298.24800    3.36600    3.79300  298.24800    3.36600   97.96200    -999.25    -999.25    -999.25  -29.86600   -0.34340   15.25500   97.96200    3.79300    -999.25   15.25500  -23.35300
 9550.00000  263.03400    3.75700    3.94200  263.03400    3.75700   82.25200    -999.25    -999.25    -999.25  -30.20400   -0.75460   14.63700   82.25200    3.94200    -999.25   14.63700  -24.29300
 9600.00000  241.72200    4.13300    4.24600  241.72200    4.13300   83.70600    -999.25    -999.25    -999.25  -29.18200    0.19430   15.09400   83.70600    4.24600    -999.25   15.09400  -22.60500
 9650.00000  198.01000    4.90800    5.23300  198.01000    4.90800   76.49100    -999.25    -999.25    -999.25  -29.86500   -0.56190   14.48000   76.49100    5.23300    -999.25   14.48000  -22.69500
 9700.00000    -999.25    -999.25    -999.25    -999.25    -999.25    -999.25    -999.25    -999.25    -999.25    -999.25    -999.25   14.25500    -999.25    -999.25    -999.25   14.25500  -18.53200
 9750.00000  215.32300    5.60000    5.26900  215.32300    5.60000   70.55100    -999.25    -999.25    -999.25  -30.03500   -2.28360   14.03900   70.55100    5.26900    -999.25   14.03900  -17.92700
 9800.00000  132.70500    7.55200    7.46700  132.70500    7.55200   67.02100    -999.25    -999.25    -999.25  -29.75900   -2.03350   13.37500   67.02100    7.46700    -999.25   13.37500  -13.38600
 9850.00000  160.88200    6.74100    6.74000  160.88200    6.74100   65.67600    -999.25    -999.25    -999.25  -29.92900   -2.49100   13.32100   65.67600    6.74000    -999.25   13.32100  -16.69700
 9900.00000   57.61600   16.62200   13.09400   57.61600   16.62200   60.33500    -999.25    -999.25    -999.25  -30.82200   -3.67150   12.82200   60.33500   13.09400    -999.25   12.82200   -5.92000
 9950.00000   93.44600   11.65700   10.00500   93.44600   11.65700   66.17500    -999.25    -999.25    -999.25  -30.69700   -3.83400   12.78600   66.17500   10.00500    -999.25   12.78600  -13.26700
 10000.00000  107.00000    8.65100    8.85600  107.00000    8.65100   70.15500    -999.25    -999.25    -999.25  -30.47300   -3.89750   12.68000   70.15500    8.85600    -999.25   12.68000  -17.25600
 10050.00000   84.60600   12.10500   11.07700   84.60600   12.10500   63.76700    -999.25    -999.25    -999.25  -29.96700   -3.67900   12.56700   63.76700   11.07700    -999.25   12.56700  -16.19000
 10100.00000  185.73300    5.99700    7.49500  185.73300    5.99700   85.26500    -999.25    -999.25    -999.25  -29.40100   -3.40060   12.97600   85.26500    7.49500    -999.25   12.97600  -18.92300
 10150.00000  185.29800    6.08200    6.59600  185.29800    6.08200   74.19400    -999.25    -999.25    -999.25  -30.79300   -5.08010   12.87000   74.19400    6.59600    -999.25   12.87000  -18.36100
 10200.00000  143.87200    7.52900    7.77600  143.87200    7.52900   69.76100    -999.25    -999.25    -999.25  -30.62400   -5.19860   12.70000   69.76100    7.77600    -999.25   12.70000  -13.98400
 10250.00000  177.79000    6.56100    6.91200  177.79000    6.56100   70.15000    -999.25    -999.25    -999.25  -29.24800   -4.11010   13.05100   70.15000    6.91200    -999.25   13.05100  -15.07100
 10300.00000  245.33700    4.78200    5.25700  245.33700    4.78200   82.11100    -999.25    -999.25    -999.25  -28.65900   -3.80860   12.83600   82.11100    5.25700    -999.25   12.83600  -17.51600
 10350.00000  251.54200    4.67700    5.18100  251.54200    4.67700   79.33900    -999.25    -999.25    -999.25  -28.73800   -4.17520   12.97500   79.33900    5.18100    -999.25   12.97500  -18.03800
 10400.00000  199.60200    5.81100    6.10000  199.60200    5.81100   77.96200    -999.25    -999.25    -999.25  -29.02500   -4.74970   12.95900   77.96200    6.10000    -999.25   12.95900  -19.94200
 10450.00000  172.88500    6.06400    6.74300  172.88500    6.06400   67.91800    -999.25    -999.25    -999.25  -27.11900   -3.13120   12.84100   67.91800    6.74300    -999.25   12.84100  -20.32900
 10500.00000  129.89800    8.45500    8.24100  129.89800    8.45500   64.65000    -999.25    -999.25    -999.25  -26.49500   -2.79470   12.74500   64.65000    8.24100    -999.25   12.74500  -22.10500
