~Version ---------------------------------------------------
VERS. 2.0 : CWLS log ASCII Standard -VERSION 2.0
WRAP.  NO : ONE LINE PER DEPTH STEP
~Well ------------------------------------------------------
STRT.F                        3800.0 : START DEPTH
STOP.F                        8250.0 : STOP DEPTH
STEP.F                      50.00000 : STEP LENGTH
NULL.                        -999.25 : NULL VALUE
COMP. COLUMBIA GAS DEVELOPMENT CORP. : COMPANY
WELL.           KUCERA ET AL UNIT #1 : WELL
FLD .                       GIDDINGS : FIELD
LOC .                                : LOCATION
CNTY.                       BURLESON : COUNTY
STAT.                          TEXAS : STATE
CTRY.       UNITED STATES OF AMERICA : COUNTRY
SRVC.                       Gearhart : SERVICE COMPANY
DATE.                    14-Jan-1980 : LOGDATE
API .                 42051305140000 : API NUMBER
UWI .                 42051305140000 : UNIQUE WELL ID
SLAT.WGS84             30.3602402537 : SURFACE LATITUDE
SLON.WGS84            -96.7630552245 : SURFACE LONGITUDE
~Curve Information -----------------------------------------
DEPT  .F    0   1   0  0 : 1 MEASURED DEPTH
CDL_LS.DEC  45 890 10 00 : COMPENSATED DENSITY POROSITY LIMESTONE
CNS_LS.DEC  42 890 01 00 : COMPENSATED NEUTRON POROSITY
GRD   .GAPI 45 310 01 00 : GAMMA RAY FROM DENSITY LOG
CALX  .IN   45 280 13 00 : CALIPER FROM X AXIS OF X-Y CALIPER(S)
DRHO  .G/C3 45 356 01 00 : BULK DENSITY CORRECTION
RHOB  .G/C3 45 350 01 00 : BULK DENSITY
ARLL  .OHMM 07 221 04 00 : AMPLIFIED RAW LATEROLOG
CILD  .MMHO 07 110 46 00 : INDUCTION DEEP CONDUCTIVITY
RILD  .OHMM 07 120 46 00 : RAW DEEP INDUCTION RESISTIVITY
SPR   .MV   07 010 01 00 : SPONTANEOUS POTENTIAL FROM RESISTIVITY LOG
DT    .US/F 60 500 00 00 : DELTA-T (INTERVAL TRANSIT TIME)
RILM  .OHMM 07 120 44 00 : RAW MEDIUM INDUCTION RESISTIVITY
RLL   .OHMM 07 220 04 00 : RAW LATEROLOG COUNT RATE
~Params ----------------------------------------------------
PD  .                     GL : PERMANENT DATUM
EPD .FT                  280 : ELEVATION PERMANENT DATUM
LMF .                     KB : LOG MEASURED FROM
DAPD.FT                    3 : FEET ABOVE PERMANENT DATUM
DMF .                     KB : DRILLING MEASURED FROM
EKB .FT                  280 : KELLY BUSHING
EDF .FT                  284 : DRILLING FLOOR
EGL .FT                  280 : GROUND LEVEL
DATE.               01/14/80 : RUN DATE
RUN .                      1 : RUN NUMBER
DD  .FT                 8265 : DEPTH DRILLER
DL  .FT                 8265 : DEPTH LOGGER
BLI .FT                 8264 : BOTTOM LOG INTERVAL
TLI .FT                 7231 : TOP LOG INTERVAL
CS  .IN                    1 : CASING SIZE
CBD .FT                 7240 : CASING BOTTOM DRILLER
CBL .FT                 7231 : CASING BOTTOM LOGGER
BSD .FT                 8265 : BIT SIZE AT DEPTH
DFT .                 STARCH : DRILLING FLUID TYPE
DFD .                    9.4 : DRILLING FLUID DENSITY
DFV .                     64 : DRILLING FLUID VISCOSITY
MSS .                MUD PIT : MUD SAMPLE SOURCE
RMS .OHMM               0.04 : RESISTIVITY MUD SAMPLE
MST .DEGF                 72 : MUD SAMPLE TEMPERATURE
RMF .OHMM               0.06 : RESISTIVITY MUD FILTRATE SAMPLE
MFST.DEGF                 72 : MUD FILTRATE SAMPLE TEMPERATURE
RMC .OHMM              0.065 : RESISTIVITY MUD CAKE
MCST.DEGF                 72 : MUD CAKE SAMPLE TEMPERATURE
MFSS.                      M : MUD FILTRATE SAMPLE SOURCE
MCSS.                      M : MUD CAKE SAMPLE SOURCE
RMB .OHMM               0.11 : RESISTIVITY MUD AT BHT
TCS .HRS                1800 : TIME CIRCULATED STOPPED
TLAB.HRS                 230 : TIME LOGGER AT BOTTOM
LUN .                   1524 : LOGGING UNIT NUMBER
LUL .                 CONRAE : LOGGING UNIT LOCATION
ENGI.          MAHONEY HOGAN : RECORDING ENGINEER
WITN.                   HOWE : WITNESSED BY
CLNT.                A2DTECH : CLIENT CODE
ORIG.            2" 5" PRINT : ORIGIN OF DATA
UWI .         42051305140000 : UNIQUE WELL ID
DICO. A2D Technologies, Inc. : DIGITIZING COMPANY
~Other -----------------------------------------------------
~ASCII -----------------------------------------------------
 3800.00000    0.33590    0.31710   66.94830   13.72140    0.08190    2.13420    6.56250  188.55360    5.15930  -74.59270    -999.25    -999.25    -999.25
 3850.00000    0.19250    0.32800  122.64890   14.17550    0.06190    2.38430    3.27000  413.05030    2.42100  -39.22050    -999.25    -999.25    -999.25
 3900.00000    0.25210    0.31160  126.46410   12.03380    0.11550    2.28010    3.80580  272.41200    3.67090  -44.68490    -999.25    -999.25    -999.25
 3950.00000    0.28150    0.30310   93.88940   13.78230    0.08000    2.22910    7.42420  137.06200    6.99750  -64.36760    -999.25    -999.25    -999.25
 4000.00000    0.21470    0.31670  129.81750   11.12080    0.17600    2.33710   10.74710  160.40460    6.23490  -55.37730    -999.25    -999.25    -999.25
 4050.00000    0.16060    0.30140  159.57100   13.06140    0.16520    2.43060    4.88120  215.22440    4.73760  -47.58560    -999.25    -999.25    -999.25
 4100.00000    0.26700    0.31600  124.42160   13.00330    0.10880    2.25250    6.13770  207.80790    4.81220  -56.01330    -999.25    -999.25    -999.25
 4150.00000    0.27330    0.31000   92.26120   11.87930    0.13040    2.23910    7.77140  162.80130    5.89570  -67.72720    -999.25    -999.25    -999.25
 4200.00000    0.18340    0.31280  185.36690    9.63970    0.10340    2.39210    3.72520  306.43260    3.25350  -41.36110    -999.25    -999.25    -999.25
 4250.00000    0.17810    0.25050  190.60350    9.27520    0.07040    2.40720    3.81950  259.59470    3.85240  -40.97670    -999.25    -999.25    -999.25
 4300.00000    0.16340    0.28090  182.86710    9.81280    0.10850    2.42730    3.35710  307.72630    3.24970  -40.26300    -999.25    -999.25    -999.25
 4350.00000    0.12610    0.14300  169.34500    9.48770    0.08240    2.50310    5.44890  293.87200    3.40290  -41.94380    -999.25    -999.25    -999.25
 4400.00000    0.17380    0.29140  169.30460    9.43010    0.07960    2.40830    3.91290  281.64960    3.55050  -45.01160    -999.25    -999.25    -999.25
 4450.00000    0.16590    0.29800  175.93680    9.64960    0.14500    2.42460    3.22440  329.65490    3.03350  -43.08820    -999.25    -999.25    -999.25
 4500.00000    0.16410    0.27580  172.16150    9.84820    0.11000    2.42760    3.52150  337.54910    2.96250  -41.32660    -999.25    -999.25    -999.25
 4550.00000    0.13960    0.24180  171.22740    9.92020    0.13580    2.46910    3.11710  367.24860    2.72300  -39.39880    -999.25    -999.25    -999.25
 4600.00000    0.14990    0.29330  178.80940   10.41650    0.18790    2.45020    3.06880  343.66530    2.90980  -40.21390    -999.25    -999.25    -999.25
 4650.00000    0.12500    0.24830  173.63410    9.97140    0.14760    2.49690    3.20410  349.67530    2.85980  -40.79810    -999.25    -999.25    -999.25
 4700.00000    0.13210    0.28340  187.41900   10.45160    0.15850    2.48430    2.51020  499.96640    2.00010  -38.09690    -999.25    -999.25    -999.25
 4750.00000    0.16230    0.29920  179.58320   10.59940    0.15010    2.43040    2.31020  583.52950    1.71370  -37.51640    -999.25    -999.25    -999.25
 4800.00000    0.13740    0.29890  167.97420   10.75820    0.15090    2.47340    2.59400  462.01840    2.16440  -40.56620    -999.25    -999.25    -999.25
 4850.00000    0.14300    0.27230  180.25210   10.35060    0.13560    2.46190    2.25660  583.26880    1.71450  -39.63140    -999.25    -999.25    -999.25
 4900.00000    0.16390    0.31720  190.05120    9.93170    0.18150    2.42800    2.43910  551.63080    1.81280  -39.59010    -999.25    -999.25    -999.25
 4950.00000    0.15670    0.31460  184.35440   10.03440    0.16450    2.43910    2.10510  646.33370    1.54720  -41.64340    -999.25    -999.25    -999.25
 5000.00000    0.11860    0.29990  206.51020    9.75590    0.15730    2.51000    2.23780  632.21120    1.58180  -41.48880    -999.25    -999.25    -999.25
 5050.00000    0.14060    0.32270  186.21040    9.76480    0.17850    2.46750    2.06220  736.86540    1.35710  -38.46610    -999.25    -999.25    -999.25
 5100.00000    0.15360    0.29150  172.58790    9.56790    0.16620    2.44460    1.89170  786.00710    1.27230  -38.28270    -999.25    -999.25    -999.25
 5150.00000    0.26590    0.27900  199.63190    9.91340    0.14140    2.25900    1.41550 1462.71770    0.68400  -37.47430    -999.25    -999.25    -999.25
 5200.00000    0.18530    0.31010  167.76180   10.32750    0.20530    2.39350    1.86380  893.92200    1.11870  -42.08080    -999.25    -999.25    -999.25
 5250.00000    0.16870    0.29770  146.07410    9.06100    0.23030    2.43320    2.21750  668.25420    1.49640  -49.68410    -999.25    -999.25    -999.25
 5300.00000    0.25240    0.32090  164.92940   10.37340    0.17530    2.27550    1.71150  959.58060    1.04210  -42.11090    -999.25    -999.25    -999.25
 5350.00000    0.13290    0.20180  141.18370    9.15810    0.04500    2.48710    2.32490  592.38730    1.68810  -42.04660    -999.25    -999.25    -999.25
 5400.00000    0.11060    0.19390  147.79250    9.06220    0.09050    2.52120    2.34680  516.67990    1.93540  -40.92490    -999.25    -999.25    -999.25
 5450.00000    0.09030    0.21710  145.38250    9.20810    0.06050    2.54740    2.63730  508.25310    1.96750  -41.32200    -999.25    -999.25    -999.25
 5500.00000    0.15570    0.22540  126.24050    9.31120    0.19160    2.44630    2.26950  656.55420    1.80530  -47.70770    -999.25    -999.25    -999.25
 5550.00000    0.19880    0.29920  155.20640    9.46080    0.16830    2.37050    1.66090  998.43750    0.99030  -55.99670    -999.25    -999.25    -999.25
 5600.00000    0.15270    0.31040  159.40170   10.03090    0.15270    2.45050    1.82920  773.47830    1.29290  -45.07670    -999.25    -999.25    -999.25
 5650.00000    0.13020    0.29110  167.59400    9.72840    0.15060    2.48620    1.86310  870.69290    1.14850  -46.18850    -999.25    -999.25    -999.25
 5700.00000    0.18560    0.32220  168.71320    9.24640    0.11500    2.39730    1.58760 1073.94400    0.93110  -46.39140    -999.25    -999.25    -999.25
 5750.00000    0.08850    0.18950  167.35650    9.05790    0.16390    2.55550    1.93600  439.49980    2.26150  -44.37910    -999.25    -999.25    -999.25
 5800.00000    0.14600    0.29270  145.55080    9.48330    0.19970    2.45460    1.91170  671.02960    1.49020  -45.67840    -999.25    -999.25    -999.25
 5850.00000    0.16220    0.27480  162.21240   10.34740    0.21900    2.42800    1.80650  735.68100    1.35930  -49.38430    -999.25    -999.25    -999.25
 5900.00000    0.17980    0.30840  183.23020    9.66010    0.09070    2.40510    1.83880  801.81370    1.24720  -42.90650    -999.25    -999.25    -999.25
 5950.00000    0.16680    0.29580  161.54540   10.55670    0.17160    2.42230    1.81660  671.51360    1.48920  -48.84880    -999.25    -999.25    -999.25
 6000.00000    0.16300    0.29460  161.99230   10.14200    0.16460    2.43120    1.84360  796.95140    1.25480  -45.88500    -999.25    -999.25    -999.25
 6050.00000    0.16620    0.26200  179.52860   10.60420    0.14160    2.42840    1.97000  797.09890    1.25450  -45.51580    -999.25    -999.25    -999.25
 6100.00000    0.17790    0.21370  214.65870   11.02680    0.15530    2.40320    1.71280  943.14760    1.06030  -45.57280    -999.25    -999.25    -999.25
 6150.00000    0.18030    0.26030  168.65470   12.67890    0.15400    2.40070    1.75520  896.34960    1.11560  -42.19420    -999.25    -999.25    -999.25
 6200.00000    0.16920    0.31050  171.40510   12.20110    0.16160    2.42260    1.85830  823.93110    1.21370  -48.88080    -999.25    -999.25    -999.25
 6250.00000    0.09630    0.21980  203.33190   10.38300    0.18360    2.54560    2.28900  642.28800    1.55690  -45.78830    -999.25    -999.25    -999.25
 6300.00000    0.12420    0.23710  222.89540    9.27780    0.16490    2.49560    2.13100  650.48070    1.53730  -46.32810    -999.25    -999.25    -999.25
 6350.00000    0.11230    0.25350  169.34090    9.33210    0.12000    2.51830    2.23000  586.45420    1.70520  -47.85490    -999.25    -999.25    -999.25
