~Version ---------------------------------------------------
VERS. 2.0 : CWLS log ASCII Standard -VERSION 2.0
WRAP.  NO : ONE LINE PER DEPTH STEP
~Well ------------------------------------------------------
STRT.F                  3000.0 : START DEPTH
STOP.F                 12550.0 : STOP DEPTH
STEP.F                50.00000 : STEP LENGTH
NULL.                  -999.25 : NULL VALUE
COMP.       QMG HOLDINGS, INC. : COMPANY
WELL.              LEACHMAN #1 : WELL
FLD .                  WILDCAT : FIELD
LOC .                          : LOCATION
CNTY.                 BURLESON : COUNTY
STAT.                    TEXAS : STATE
CTRY. UNITED STATES OF AMERICA : COUNTRY
SRVC.             Schlumberger : SERVICE COMPANY
DATE.              23-Mar-1981 : LOGDATE
API .           42051311590000 : API NUMBER
UWI .           42051311590000 : UNIQUE WELL ID
SLAT.WGS84           30.445344 : SURFACE LATITUDE
SLON.WGS84          -96.315711 : SURFACE LONGITUDE
~Curve Information -----------------------------------------
DEPT   .F    0   1   0  0 : 1 MEASURED DEPTH
NPHI_SS.DEC  42 890 03 00 : NEUTRON POROSITY SANDSTONE
GRR    .GAPI 07 310 01 00 : GAMMA RAY FROM RESISTIVITY LOG
SPR    .MV   07 010 01 00 : SPONTANEOUS POTENTIAL FROM RESISTIVITY LOG
DRHO   .G/C3 45 356 01 00 : BULK DENSITY CORRECTION
DCALR  .IN   07 280 01 00 : DIFFERENTIAL CALIPER FROM RESISTIVITY LOG
ILD    .OHMM 07 120 46 00 : INDUCTION DEEP RESISTIVITY
SFLU   .OHMM 07 220 01 00 : SHALLOW FOCUSED RESISTIVITY (UNAVERAGED)
ILM    .OHMM 07 120 44 00 : INDUCTION MEDIUM RESISTIVITY
DPHI_SS.DEC  45 890 12 00 : DENSITY POROSITY SANDSTONE
NPHI_LS.DEC  42 890 01 00 : NEUTRON POROSITY LIMESTONE
DPHI_LS.DEC  45 890 10 00 : DENSITY POROSITY LIMESTONE
~Params ----------------------------------------------------
PD  .                     GL : PERMANENT DATUM
EPD .FT                  210 : ELEVATION PERMANENT DATUM
LMF .                     KB : LOG MEASURED FROM
DAPD.FT                 18.2 : FEET ABOVE PERMANENT DATUM
DMF .                     KB : DRILLING MEASURED FROM
EKB .FT                228.2 : KELLY BUSHING
EDF .FT                227.2 : DRILLING FLOOR
EGL .FT                  210 : GROUND LEVEL
DATE.               03/23/81 : RUN DATE
RUN .                      2 : RUN NUMBER
DD  .FT                12568 : DEPTH DRILLER
DL  .FT                12562 : DEPTH LOGGER
BLI .FT                12556 : BOTTOM LOG INTERVAL
TLI .FT                10872 : TOP LOG INTERVAL
CS  .IN                7.625 : CASING SIZE
CBD .FT                10876 : CASING BOTTOM DRILLER
CBL .FT                10872 : CASING BOTTOM LOGGER
BS  .IN                 6.05 : BIT SIZE
BSD .FT                12568 : BIT SIZE AT DEPTH
DFT .                LIGNITE : DRILLING FLUID TYPE
DFD .                    9.6 : DRILLING FLUID DENSITY
DFV .                     40 : DRILLING FLUID VISCOSITY
DFPH.                     10 : DRILLING FLUID PH
DFL .                      8 : DRILLING FLUID LOSS
MSS .               CIRC PIT : MUD SAMPLE SOURCE
RMS .OHMM              0.894 : RESISTIVITY MUD SAMPLE
MST .DEGF                 80 : MUD SAMPLE TEMPERATURE
RMF .OHMM               1.36 : RESISTIVITY MUD FILTRATE SAMPLE
MFST.DEGF                 66 : MUD FILTRATE SAMPLE TEMPERATURE
RMC .OHMM                1.3 : RESISTIVITY MUD CAKE
MCST.DEGF                 80 : MUD CAKE SAMPLE TEMPERATURE
MFSS.                      M : MUD FILTRATE SAMPLE SOURCE
MCSS.                      C : MUD CAKE SAMPLE SOURCE
RMB .OHMM               0.45 : RESISTIVITY MUD AT BHT
TCS .HRS                 200 : TIME CIRCULATED STOPPED
TLAB.HRS                1130 : TIME LOGGER AT BOTTOM
LUN .                   8176 : LOGGING UNIT NUMBER
LUL .                BRCNHAM : LOGGING UNIT LOCATION
ENGI.                 WRIGHT : RECORDING ENGINEER
WITN.          FISCHER BURXY : WITNESSED BY
CLNT.                A2DTECH : CLIENT CODE
ORIG.               5" PRINT : ORIGIN OF DATA
UWI .         42051311590000 : UNIQUE WELL ID
DICO. A2D Technologies, Inc. : DIGITIZING COMPANY
~Other -----------------------------------------------------
~ASCII -----------------------------------------------------
# ...
 6050.00000    0.26530  117.10660  -40.86880    0.04250    1.22110    1.69620    2.97770    2.09220    0.07780    -999.25    -999.25
 6100.00000    0.22500   93.75100  -62.80310    0.05900    0.57240    1.61900    5.64900    2.19330    0.12550    -999.25    -999.25
 6150.00000    0.25800   72.73500  -89.64260    0.03820    0.08110    0.90430    5.28520    1.46400    0.20070    -999.25    -999.25
 6200.00000    0.25550  116.73740  -57.46080    0.06320    0.20290    1.72470    3.55310    2.60750    0.11780    -999.25    -999.25
 6250.00000    0.24490   51.60750 -117.36290    0.03510   -0.25600    0.68060    4.34040    0.96910    0.21500    -999.25    -999.25
 6300.00000    0.25100   73.93790  -88.97670    0.02050   -0.22430    1.42470    6.51850    1.86750    0.13940    -999.25    -999.25
 6350.00000    0.25080   75.07770  -98.48490    0.02490   -0.05360    0.95950    5.84690    1.59350    0.19730    -999.25    -999.25
 6400.00000    0.27120  120.79980  -17.96490    0.01430    0.27210    2.33560    2.61920    2.46480    0.07830    -999.25    -999.25
 6450.00000    0.24100   68.19790 -108.04080    0.03580   -0.28770    0.76090    5.43820    1.29530    0.20950    -999.25    -999.25
 6500.00000    0.25480   68.17370 -105.77960    0.03080   -0.24430    0.57030    3.34120    0.84190    0.22300    -999.25    -999.25
 6550.00000    0.26000   66.44960 -101.45230    0.06130   -0.03460    0.87860    6.09890    1.52920    0.18990    -999.25    -999.25
 6600.00000    0.25050  101.85490  -47.04610    0.04600    0.50900    1.70780    4.72160    2.12240    0.09830    -999.25    -999.25
 6650.00000    0.26190   54.35040 -118.09950    0.02310    0.05210    0.44570    3.55290    0.69340    0.24190    -999.25    -999.25
 6700.00000    0.37470   98.80330  -54.58840    0.05540    0.53250    1.34480    2.90390    2.17840    0.18370    -999.25    -999.25
 6750.00000    0.28560   96.50970  -66.19760    0.08970    0.12360    1.54240    3.48120    2.24650    0.13420    -999.25    -999.25
 6800.00000    0.29180  100.13510  -37.93320    -999.25    0.96780    1.66300    2.71550    1.94290    0.19460    -999.25    -999.25
 6850.00000    0.24860  109.07350  -78.61040    0.08740   -0.16260    1.45170    7.58750    2.50410    0.15740    -999.25    -999.25
 6900.00000    0.35780   88.00230  -18.67090    0.04270    4.26750    2.11680    2.34020    2.16160    0.24040    -999.25    -999.25
 6950.00000    0.47640  104.42800  -11.25140    0.05780    2.49620    1.98760    1.91580    2.02140    0.51350    -999.25    -999.25
 7000.00000    0.36990   90.61010  -14.00400    0.05040    3.43680    2.27340    2.44900    2.33390    0.13860    -999.25    -999.25
 7050.00000    0.29460   78.97620  -32.28830    -999.25    2.23750    2.36790    4.57180    2.74520    0.26920    -999.25    -999.25
 7100.00000    0.45990   84.02520  -11.76610    0.07470    3.54940    2.22450    2.29150    2.28470    0.50040    -999.25    -999.25
 7150.00000    0.47700   84.51880  -12.42920    0.04400    3.99880    2.28500    2.40370    2.34700    0.58840    -999.25    -999.25
 7200.00000    0.44510   95.14610   -8.93960    0.06260    3.51190    2.16210    2.22910    2.22060    0.50930    -999.25    -999.25
 7250.00000    0.40570   75.87330   -9.40100    0.09340    4.00800    2.41320    2.58420    2.48990    0.49810    -999.25    -999.25
 7300.00000    0.37520   76.63270   -8.05360    0.04790    4.14460    2.61650    2.88540    2.68980    0.16380    -999.25    -999.25
 7350.00000    0.36020   89.33880   -0.60570    0.10020    2.85220    2.19160    2.34950    2.32780    0.27370    -999.25    -999.25
 7400.00000    0.32020   99.79510   -5.16020    -999.25    2.01650    2.20800    2.54650    2.26890    0.11130    -999.25    -999.25
 7450.00000    0.31290  115.68860   -4.83380    -999.25    1.02630    2.28580    2.61320    2.34760    0.15100    -999.25    -999.25
 7500.00000    0.30240  111.96430   -0.95500    0.09970    0.74590    2.02420    2.38010    2.07890    0.08730    -999.25    -999.25
 7550.00000    0.30990  105.29850   -1.26660    -999.25    0.72500    2.11140    2.40300    2.16850    0.08410    -999.25    -999.25
 7600.00000    0.30490  108.52220   -2.03810    0.08290    1.12280    2.08060    2.43660    2.13690    0.12180    -999.25    -999.25
 7650.00000    0.28290  113.93990   -0.26940    0.07800    0.84100    1.94490    2.20770    1.99760    0.08260    -999.25    -999.25
 7700.00000    0.31580  116.15990   -3.59810    -999.25    1.09200    1.81360    2.08430    1.86260    0.12540    -999.25    -999.25
 7750.00000    0.31010  113.37860   -3.29400    -999.25    1.20430    1.72560    1.99580    1.77340    0.15960    -999.25    -999.25
 7800.00000    0.29230  119.67870   -2.66110    0.04990    1.10620    1.98780    2.18130    2.04150    0.06730    -999.25    -999.25
 7850.00000    0.29330  113.71200   -6.53910    0.06130    1.36940    1.91050    2.17610    1.96220    0.05780    -999.25    -999.25
 7900.00000    0.32920  105.87390   -4.56900    0.09670    0.67250    1.58300    1.77430    1.62620    0.13490    -999.25    -999.25
 7950.00000    0.22860   87.08450   -3.04720    0.03090    0.71010    2.24820    2.41620    2.30910    0.07980    -999.25    -999.25
 8000.00000    0.25100   91.97610   -1.87370    0.06310    1.01620    1.96340    2.20000    2.01660    0.06140    -999.25    -999.25
 8050.00000    0.24060   90.41370   -3.11050    0.08200    0.98200    1.87500    2.17440    1.92480    0.07600    -999.25    -999.25
 8100.00000    0.29960   94.89160   -1.11760    -999.25    1.17610    1.56490    1.78710    1.60800    0.16100    -999.25    -999.25
 8150.00000    0.32380   92.09090   -0.84630    -999.25    1.37990    1.29230    1.55260    1.33370    0.22790    -999.25    -999.25
 8200.00000    0.32090   95.88960   -0.35380    -999.25    1.59700    1.46770    1.79560    1.52220    0.18170    -999.25    -999.25
 8250.00000    0.33000   93.26360   -6.13220    -999.25    1.30150    1.31650    1.46930    1.35750    0.33400    -999.25    -999.25
 8300.00000    0.27730   87.50580   -6.24660    -999.25    1.23650    1.44330    1.76900    1.48380    0.18210    -999.25    -999.25
 8350.00000    0.27660  104.38640   -4.04100    -999.25    1.30130    1.45300    1.75900    1.51450    0.13450    -999.25    -999.25
 8400.00000    0.33830  102.22650   -4.26930    0.09680    1.26350    1.21670    1.46650    1.25000    0.19420    -999.25    -999.25
 8450.00000    0.31480   92.01280   -3.67270    -999.25    1.77590    1.27080    1.55670    1.35320    0.18530    -999.25    -999.25
 8500.00000    0.28870   97.30320   -7.76680    -999.25    1.79330    1.45840    1.79210    1.49800    0.17490    -999.25    -999.25
 8550.00000    0.27410   91.43820   -5.81250    -999.25    1.64810    1.38250    1.68150    1.46000    0.17310    -999.25    -999.25
 8600.00000    0.30850   98.41070   -6.12370    -999.25    1.33250    1.24790    1.48890    1.30830    0.16240    -999.25    -999.25
 8650.00000    -999.25   97.25920   -5.99100    -999.25    1.05250    1.30560    1.65960    1.38360    0.20700    0.37630    -999.25
 8700.00000    -999.25   80.21230   -9.09410    0.04750    0.44520    2.14790    2.25390    2.34180    0.05850    0.19840    -999.25
 8750.00000    -999.25   86.00060   -7.17970    0.02550    0.17240    2.25590    2.72660    2.31770    0.03950    0.25950    -999.25
 8800.00000    -999.25   89.53260   -8.24500    0.01330    0.86220    4.96600    2.80800    2.69840    0.02140    0.25290    -999.25
 8850.00000    -999.25   72.54210   -6.97530    0.01610    1.20910    4.07490    5.00360    4.20730    0.00050    0.21850    -999.25
 8900.00000    -999.25   91.69760    -999.25    -999.25    -999.25    -999.25    -999.25    -999.25    -999.25    0.23530    -999.25
 8950.00000    -999.25  117.07140    -999.25    -999.25    -999.25    -999.25    -999.25    -999.25    -999.25    0.37860    -999.25
 9000.00000    -999.25  113.79090    -999.25    -999.25    -999.25    -999.25    -999.25    -999.25    -999.25    0.43010    -999.25
 9050.00000    -999.25  153.26470    -999.25    -999.25    -999.25    -999.25    -999.25    -999.25    -999.25    0.35950    -999.25
