~Version ---------------------------------------------------
VERS. 2.0 : CWLS log ASCII Standard -VERSION 2.0
WRAP.  NO : ONE LINE PER DEPTH STEP
~Well ------------------------------------------------------
STRT.F                    3800.0 : START DEPTH
STOP.F                    8600.0 : STOP DEPTH
STEP.F                  50.00000 : STEP LENGTH
NULL.                    -999.25 : NULL VALUE
COMP. CHAMPLIN PETROLEUM COMPANY : COMPANY
WELL.          BRINKMAN  L.W. #1 : WELL
FLD .                   GIDDINGS : FIELD
LOC .                            : LOCATION
CNTY.                   BURLESON : COUNTY
STAT.                      TEXAS : STATE
CTRY.   UNITED STATES OF AMERICA : COUNTRY
SRVC.               Schlumberger : SERVICE COMPANY
DATE.                10-Nov-1981 : LOGDATE
API .             42051319560000 : API NUMBER
UWI .             42051319560000 : UNIQUE WELL ID
SLAT.WGS84         30.3788096116 : SURFACE LATITUDE
SLON.WGS84        -96.7341742716 : SURFACE LONGITUDE
~Curve Information -----------------------------------------
DEPT.F                 : 
GRR .GAPI 07 310 01 00 : GAMMA RAY FROM RESISTIVITY
SPR .MV   07 010 01 00 : SPONTANEOUS POTENTIAL FROM RESISTIVITY
ILD .OHMM 07 120 46 00 : INDUCTION DEEP RESISTIVITY
ILM .OHMM 07 120 44 00 : INDUCTION MEDIUM RESISTIVITY
SFLU.OHMM 07 220 01 00 : SFL RESISTIVITY (UNAVERAGED)
DCAL.IN   07 280 01 00 : DIFFERENTIAL CALIPER
DT  .US/F 60 520 00 00 : DELTA-T (INTERVAL TRANSIT TIME)
DTL .US/F 60 523 00 00 : DELTA-T LONG SPACING
NPHI.DEC  42 890 03 00 : NEUTRON POROSITY
DPHI.DEC  45 890 12 00 : DENSITY POROSITY
DRHO.G/C3 45 356 01 00 : BULK DENSITY CORRECTION
PEF .B/E  45 358 01 00 : PHOTO ELECTRIC FACTOR
RHOB.G/C3 45 350 01 00 : BULK DENSITY
~Params ----------------------------------------------------
PD  .                     GL : PERMANENT DATUM
EPD .FT                  364 : ELEVATION PERMANENT DATUM
LMF .                    RKB : LOG MEASURED FROM
DAPD.FT                   17 : FEET ABOVE PERMANENT DATUM
DMF .                    RKB : DRILLING MEASURED FROM
EKB .FT                  381 : KELLY BUSHING
EDF .FT                  380 : DRILLING FLOOR
EGL .FT                  364 : GROUND LEVEL
DATE.               11/10/81 : RUN DATE
RUN .                      1 : RUN NUMBER
DD  .FT                 8613 : DEPTH DRILLER
DL  .FT                 8618 : DEPTH LOGGER
BLI .FT                 8612 : BOTTOM LOG INTERVAL
TLI .FT                 3816 : TOP LOG INTERVAL
CS  .IN                9.625 : CASING SIZE
CBD .FT                 3816 : CASING BOTTOM DRILLER
CBL .FT                 3816 : CASING BOTTOM LOGGER
BS  .IN                 8.75 : BIT SIZE
BSD .FT                 8613 : BIT SIZE AT DEPTH
DFT .                  BENEX : DRILLING FLUID TYPE
DFD .                      9 : DRILLING FLUID DENSITY
DFV .                     40 : DRILLING FLUID VISCOSITY
DFPH.                     10 : DRILLING FLUID PH
DFL .                    6.4 : DRILLING FLUID LOSS
MSS .                   TANK : MUD SAMPLE SOURCE
RMS .OHMM               2.02 : RESISTIVITY MUD SAMPLE
MST .DEGF                 93 : MUD SAMPLE TEMPERATURE
RMF .OHMM              1.515 : RESISTIVITY MUD FILTRATE SAMPLE
MFST.DEGF                 93 : MUD FILTRATE SAMPLE TEMPERATURE
RMC .OHMM               3.03 : RESISTIVITY MUD CAKE
MCST.DEGF                 93 : MUD CAKE SAMPLE TEMPERATURE
MFSS.                   CALC : MUD FILTRATE SAMPLE SOURCE
MCSS.                   CALC : MUD CAKE SAMPLE SOURCE
RMB .OHMM              0.952 : RESISTIVITY MUD AT BHT
TCS .HRS                1400 : TIME CIRCULATED STOPPED
TLAB.HRS                2030 : TIME LOGGER AT BOTTOM
LUN .                   8227 : LOGGING UNIT NUMBER
LUL .                BRENHAM : LOGGING UNIT LOCATION
ENGI.     ALEXANDER PRISTLEY : RECORDING ENGINEER
WITN.                  VODAK : WITNESSED BY
CLNT.                A2DTECH : CLIENT CODE
ORIG.            2" 5" PRINT : ORIGIN OF DATA
UWI .         42051319560000 : UNIQUE WELL ID
DICO. A2D Technologies, Inc. : DIGITIZING COMPANY
~Other -----------------------------------------------------
~ASCII -----------------------------------------------------
 3800.00000   54.00670    -999.25    -999.25    -999.25    -999.25    -999.25    -999.25    -999.25    -999.25    -999.25    -999.25    -999.25    -999.25
 3850.00000   48.31840   -0.85640   22.71010   19.14720   20.63500    2.64550  104.47980  105.33040    -999.25    -999.25    -999.25    -999.25    -999.25
 3900.00000   44.25710   -5.70540   18.06710   17.60280   18.97510    1.68260  102.79990  103.45670    -999.25    -999.25    -999.25    -999.25    -999.25
 3950.00000   40.41150   -9.86690   16.18120   15.12400   16.53580    1.62820   97.77630   98.15220    -999.25    -999.25    -999.25    -999.25    -999.25
 4000.00000   24.17000   -8.80590   19.64920   18.92290   21.85680    2.03850  101.31160  101.30160    -999.25    -999.25    -999.25    -999.25    -999.25
 4050.00000   79.63150   -0.62090    2.86150    2.91760    3.02420    2.20090  100.68640  100.55170    -999.25    -999.25    -999.25    -999.25    -999.25
 4100.00000   75.85570  -14.20070    6.62550    6.67260    7.91070    2.25480   97.69030   98.00580    -999.25    -999.25    -999.25    -999.25    -999.25
 4150.00000   54.32380  -22.29840    7.74300    9.33590   12.89300    1.57840   71.10010   71.35350    -999.25    -999.25    -999.25    -999.25    -999.25
 4200.00000   78.51800  -17.96680    6.68440    7.02320    8.91490    2.37940   98.37750   98.43480    -999.25    -999.25    -999.25    -999.25    -999.25
 4250.00000   56.06540  -25.58710    7.31720    8.31480   10.48980    1.39550   97.06770   97.30340    -999.25    -999.25    -999.25    -999.25    -999.25
 4300.00000   56.36340  -24.97940    6.56780    7.83870    9.74280    2.10190  101.17440   99.36090    -999.25    -999.25    -999.25    -999.25    -999.25
 4350.00000   92.90450   -6.55920    4.41230    4.44570    4.76410    1.57340  100.16820   99.74430    -999.25    -999.25    -999.25    -999.25    -999.25
 4400.00000   93.53920   -6.55980    2.79120    2.67800    2.04180    1.19460  106.68880  107.66320    -999.25    -999.25    -999.25    -999.25    -999.25
 4450.00000   90.25560  -23.25060    4.23850    4.88440    5.25740    0.47420  100.11130  100.16440    -999.25    -999.25    -999.25    -999.25    -999.25
 4500.00000   85.58170   -8.28000    2.90360    2.86660    2.27510    0.47260   98.64410   98.78360    -999.25    -999.25    -999.25    -999.25    -999.25
 4550.00000   84.58140   -0.81660    2.61160    2.63020    2.77720    0.78290  103.09940  103.78210    -999.25    -999.25    -999.25    -999.25    -999.25
 4600.00000   92.21260   -1.53350    3.07380    3.09630    3.39960    0.73080  100.96930  100.19790    -999.25    -999.25    -999.25    -999.25    -999.25
 4650.00000   73.79680   -3.97960    3.54240    3.80000    5.86720    0.44230  107.40820   96.22060    -999.25    -999.25    -999.25    -999.25    -999.25
 4700.00000   84.27900   -1.63650    3.15200    3.15910    3.50700    0.71160   96.62740   97.60700    -999.25    -999.25    -999.25    -999.25    -999.25
 4750.00000   87.13810    0.23410    2.73240    2.71770    2.73090    0.77380   96.13350   96.19970    -999.25    -999.25    -999.25    -999.25    -999.25
 4800.00000   84.27380    1.72300    2.32530    2.34210    2.75830    0.64050   96.75490   96.82710    -999.25    -999.25    -999.25    -999.25    -999.25
 4850.00000   86.89400    1.15310    1.84740    1.86000    2.13090    1.10150  101.69970  101.78050    -999.25    -999.25    -999.25    -999.25    -999.25
 4900.00000   86.50030    0.95260    1.74120    1.75450    2.02260    1.39500  102.53960  103.07260    -999.25    -999.25    -999.25    -999.25    -999.25
 4950.00000   85.78710    0.77290    2.16360    2.17830    2.37690    1.23260   98.60960   98.66270    -999.25    -999.25    -999.25    -999.25    -999.25
 5000.00000   83.66100    0.16750    1.82910    1.84230    2.12130    0.90460  100.34850  100.50830    -999.25    -999.25    -999.25    -999.25    -999.25
 5050.00000   84.65710    0.86490    1.67520    1.68660    1.95770    1.20040  101.74180  102.40900    -999.25    -999.25    -999.25    -999.25    -999.25
 5100.00000   80.86100  -13.64420    1.62480    1.63610    1.87330    1.19830  102.63160  102.88700    -999.25    -999.25    -999.25    -999.25    -999.25
 5150.00000   81.13790  -23.06860    1.43610    1.44590    1.66710    1.31690  104.78260  106.16770    -999.25    -999.25    -999.25    -999.25    -999.25
 5200.00000   77.17730  -19.44500    1.59660    1.62980    1.88030    1.09250  101.39910  108.42640    -999.25    -999.25    -999.25    -999.25    -999.25
 5250.00000   86.94150  -17.39300    1.51090    1.52130    1.70920    1.61400  102.10410  103.38850    -999.25    -999.25    -999.25    -999.25    -999.25
 5300.00000   82.74270  -18.78410    1.24200    1.25730    1.38470    1.41510  107.73470  108.97750    0.36260    0.14030    0.08230    2.71220    2.42350
 5350.00000   80.60680  -19.15660    1.67580    1.68780    1.87970    1.26100  100.19900  100.27110    0.31450    0.13000    0.03430    2.64140    2.43810
 5400.00000   79.70970  -18.63970    1.78820    1.86110    1.90210    0.81660   97.98770   99.21060    0.31680    0.15010    0.16110    2.39440    2.40660
 5450.00000   83.55250  -20.13890    1.11050    1.13020    1.29510    1.48070  111.89070  111.97270    0.39820    0.20810    0.05730    2.35390    2.30870
 5500.00000   72.61480  -18.47340    1.10840    1.12900    1.33080    2.42180  109.51110  109.57380    0.39700    0.14400    0.01270    2.74270    2.41320
 5550.00000   77.09300  -18.17180    1.50960    1.52070    1.75730    1.48110  101.59840  101.66390    0.33490    0.11580    0.00190    2.55780    2.45920
 5600.00000   70.14610  -19.70090    2.00920    2.02290    2.11000    0.89090   93.96220   94.14340    0.27010    0.10180    0.00610    2.62050    2.48230
 5650.00000   72.03510  -19.87950    1.73640    1.76150    1.79070    0.91320   96.26350   96.30550    0.29190    0.10390    0.02090    2.52940    2.47910
 5700.00000   72.30820  -19.92950    1.10650    1.13050    1.31900    1.35320  106.92310  107.43010    0.31300    0.17400    -999.25    2.57130    2.36080
 5750.00000   70.97410  -22.44230    1.12950    1.17970    1.27130    1.42580  107.85750  107.91050    -999.25    -999.25    -999.25    -999.25    -999.25
 5800.00000   77.37930  -19.24850    1.21840    1.25200    1.52270    1.51400  103.88560  104.35030    -999.25    -999.25    -999.25    -999.25    -999.25
 5850.00000   76.93920  -16.38420    1.22410    1.26190    1.37600    2.04360  107.92000  107.97810    -999.25    -999.25    -999.25    -999.25    -999.25
 5900.00000   87.70570  -18.39240    1.27490    1.33240    1.41870    1.39280  100.52040  101.31760    -999.25    -999.25    -999.25    -999.25    -999.25
 5950.00000   75.39470  -16.02540    1.65380    1.68270    1.76330    0.96870   92.29200   92.34670    -999.25    -999.25    -999.25    -999.25    -999.25
 6000.00000   85.58750  -12.27920    1.35230    1.37310    1.44980    1.48390   98.38400   98.44000    -999.25    -999.25    -999.25    -999.25    -999.25
 6050.00000   72.19180  -14.62640    1.88010    1.92880    1.97170    0.80360   91.39570   91.44960    -999.25    -999.25    -999.25    -999.25    -999.25
 6100.00000   82.76920  -16.34280    1.64830    1.71680    1.77650    1.20500   95.83220   95.90290    -999.25    -999.25    -999.25    -999.25    -999.25
 6150.00000   88.46560  -15.33510    1.32620    1.39280    1.50830    1.44260   99.82480   99.89360    -999.25    -999.25    -999.25    -999.25    -999.25
 6200.00000   93.71480  -13.27240    1.43020    1.49160    1.58140    1.31300   99.77690   99.82930    -999.25    -999.25    -999.25    -999.25    -999.25
 6250.00000   84.88850  -16.47310    1.47910    1.52610    1.63560    1.14930   95.96170   96.03260    -999.25    -999.25    -999.25    -999.25    -999.25
 6300.00000   90.93280  -16.15630    1.31610    1.39340    1.42860    1.10100  106.62870  102.84790    -999.25    -999.25    -999.25    -999.25    -999.25
 6350.00000   78.20140  -12.21570    1.71210    1.73340    1.99340    1.49850   95.39970   94.13410    -999.25    -999.25    -999.25    -999.25    -999.25
