~Version ---------------------------------------------------
VERS.      2.0 : CWLS log ASCII Standard -VERSION 2.0
WRAP.      YES : Multiple lines per depth step
CREA. 10/06/20 : LAS Creation Date
~Well ------------------------------------------------------
STRT.FT                 3150.0 : START DEPTH
STOP.FT                18400.0 : STOP DEPTH
STEP.FT               50.00000 : STEP LENGTH
NULL.                  -999.25 : NULL VALUE
COMP. AMOCO PRODUCTION COMPANY : COMPANY
WELL.       MARTIN GAS UNIT #1 : WELL
FLD .                  WILDCAT : FIELD
LOC .                          : LOCATION
CNTY.                     LEON : COUNTY
STAT.                    TEXAS : STATE
CTRY. UNITED STATES OF AMERICA : COUNTRY
SRVC.             Schlumberger : SERVICE COMPANY
DATE.              06-Oct-1998 : LOGDATE
API .           42289312900000 : API NUMBER
UWI .           42289312900000 : UNIQUE WELL ID
SLAT.WGS84       31.2448401024 : SURFACE LATITUDE
SLON.WGS84      -96.2384028977 : SURFACE LONGITUDE
~Curve Information -----------------------------------------
DEPT    .FT    : DEPTH FEET
AT20ED  .OHMM  : 20 INCH ARRAY RESISTIVITY TWO FOOT RESOLUTION FROM AIT LOG
AT30ED  .OHMM  : 30 INCH ARRAY RESISTIVITY TWO FOOT RESOLUTION FROM AIT LOG
AT60ED  .OHMM  : 60 INCH ARRAY RESISTIVITY TWO FOOT RESOLUTION FROM AIT LOG
AT90ED  .OHMM  : 90 INCH ARRAY RESISTIVITY TWO FOOT RESOLUTION FROM AIT LOG
BITSED  .IN    : BIT SIZE FROM RUN HEADERS
CALDED  .IN    : CALIPER FROM DENSITY LOG [DSH. TO GRRED]
CALWS   .IN    : CALIPER [TOP CALDED 14108' (DCALDED+BITSED) TD]
CONDWS  .MMHO  : DEEP CONDUCTIVITY [1000/DRESWS]
DCALDED .IN    : DIFFERENTIAL CALIPER FROM DENSITY LOG [DSH. TO GRRED]
DCORWS  .G/C3  : DENSITY CORRECTION [TOP DRHOED 16650' DRHED TD]
DENWS   .G/C3  : BULK DENSITY [CALC. FROM DPOLSWS]
DPHILSED.V/V   : DENSITY POROSITY (LS) [M=2.71 F=1.00] [DSH. TO GRRED]
DPOLSED .V/V   : DENSITY POROSITY (LS) [M=2.71 F=1.00] [DSH. TO GRRED]
DPOLSWS .V/V   : DENSITY POROSITY (LS) [M=2.71 F=1.00] [TOP DPHILSED 16650' DPOLSED TD]
DRESWS  .OHMM  : DEEP RESISTIVITY [TOP AT90ED 14100' ILDED 16650' IDPHED TD]
DRHED   .G/C3  : DENSITY CORRECTION FROM DENSITY LOG [DSH. TO GRRED]
DRHOED  .G/C3  : DENSITY CORRECTION FROM DENSITY LOG [DSH. TO GRRED]
DTCOED  .US/F  : DELTA TIME COMPRESSIONAL FROM SONIC LOG
DTLFED  .US/F  : DELTA TIME LONG SPACING FAR DETECTOR FROM SONIC LOG
DTLNED  .US/F  : DELTA TIME LONG SPACING NEAR DETECTOR FROM SONIC LOG
DTSMED  .US/F  : DELTA TIME SHEAR WAVE FROM SONIC LOG
DTSWS   .US/F  : DELTA TIME SHEAR [DTSMED]
DTWS    .US/F  : DELTA TIME COMPRESSIONAL [TOP DTCOED 16650' DTLNED TD]
GRDED   .GAPI  : GAMMA RAY FROM DENSITY LOG [DSH. TO GRRED]
GRRED   .GAPI  : GAMMA RAY FROM RESISTIVITY LOG
GRWS    .GAPI  : GAMMA RAY [GRRED][RESCALED GRWS IN CSG )14030-14106' & 16606-16645') FROM 0/90-0/150]
IDPHED  .OHMM  : DEEP INDUCTION PHASE RESISTIVITY
ILDED   .OHMM  : DEEP INDUCTION RESISTIVITY
ILMED   .OHMM  : MEDIUM INDUCTION RESISTIVITY
IMPHED  .OHMM  : MEDIUM INDUCTION PHASE RESISTIVITY
MRESWS  .OHMM  : MEDIUM RESISTIVITY [TOP AT30ED 14100' ILMED 16650' IMPHED TD]
NPHILSED.V/V   : NEUTRON POROSITY (LS) [DSH. TO GRRED]
NPOLSWS .V/V   : NEUTRON POROSITY (LS) [NPHILSED]
PEFED   .B/E   : PHOTOELECTRIC FACTOR FROM DENSITY LOG [DSH. TO GRRED]
PEFWS   .B/E   : PHOTOELECTRIC FACTOR [PEFED]
SFLUED  .OHMM  : SPHERICALLY FOCUSED UNAVERAGED RESISTIVITY
SPWS    .MV    : SPONTANEOUS POTENTIAL [BASELINE 0 MV] [SPRED]
SPRED   .MV    : SPONTANEOUS POTENTIAL FROM RESISTIVITY LOG
SRESWS  .OHMM  : SHALLOW RESISTIVITY [TOP AT20ED 14100' SFLUED TD]
TENDED  .LBF   : TENSION FROM DENSITY LOG [DSH. TO GRRED]
TENRED  .LBF   : TENSION FROM RESISTIVITY LOG
~Params ----------------------------------------------------
PD  .                     GL : PERMANENT DATUM
EPD .FT                389.3 : ELEVATION PERMANENT DATUM
LMF .                     KB : LOG MEASURED FROM
DAPD.FT                 33.7 : MEASUREMENT ABOVE PERMANENT DATUM
DMF .                     KB : DRILLING MEASURED FROM
EKB .FT                  423 : KELLY BUSHING
EDF .FT                  422 : DRILLING FLOOR
EGL .FT                389.3 : GROUND LEVEL
DATE.               10/06/98 : RUN DATE
RUN .                      3 : RUN NUMBER
DD  .FT                18400 : DEPTH DRILLER
DL  .FT                18391 : DEPTH LOGGER
BLI .FT                18381 : BOTTOM LOG INTERVAL
TLI .FT                16646 : TOP LOG INTERVAL
CS  .IN                7.625 : CASING SIZE
CBD .FT                16650 : CASING BOTTOM DRILLER
CBL .FT                16646 : CASING BOTTOM LOGGER
BS  .IN                 6.25 : BIT SIZE
BSD .FT                18400 : BIT SIZE AT DEPTH
DFT .             VERSADRILL : DRILLING FLUID TYPE
DFD .                   17.9 : DRILLING FLUID DENSITY
DFV .                     45 : DRILLING FLUID VISCOSITY
MSS .                MUD PIT : MUD SAMPLE SOURCE
MFSS.                   CALC : MUD FILTRATE SAMPLE SOURCE
MCSS.                   CALC : MUD CAKE SAMPLE SOURCE
TCS .HRS                 830 : TIME CIRCULATED STOPPED
TLAB.HRS                2357 : TIME LOGGER AT BOTTOM
LUN .                   2142 : LOGGING UNIT NUMBER
LUL .                  TYLER : LOGGING UNIT LOCATION
ENGI.                SKRBICH : RECORDING ENGINEER
WITN.       WALKER WYSZYNSKI : WITNESSED BY
CLNT.                A2DTECH : CLIENT CODE
ORIG.         1" 2" 5" PRINT : ORIGIN OF DATA
UWI .         42289312900000 : UNIQUE WELL ID
DICO. A2D Technologies, Inc. : DIGITIZING COMPANY
~Other -----------------------------------------------------
1) RESISTIVITY INVALID 14360-14404', 15400-15475 NULLED (REPEAT LOG N/A). PATCHED FROM REPEAT LOG 15950-15980' & 16590-16645'.
2) GRRED PATCHED FROM REPEAT LOG 15400-15500 & 16550-16606'.
3) SONIC NOT LOGGED 14100-16650' AND ERRATIC ON SOME AREAS ABOVE 6300' WITH SOME GAPS AND SPIKES HENCE PATCHED SOME SMALL AREAS.
4) LDL/CNL STICKING TOOL ENTIRE RUN2 - NULLED PEF INVALID @ 15410-15625' & 15730-15410', PATCHED DENSITY@16025-16040', PATCHED NEUTRON@14295-14320' & PATCHED GRDED@VARIOUS DEPTHS BASED ON GRRED. ANY DOUBTS, PLEASE REFER TO ORIGINAL CURVES IN STANDARD LAS. STICKING TOOL MAY SLIGHTLY AFFECT LOG QUALITY ON OTHER AREAS, PLEASE USE WITH CAUTIONS.
~ASCII -----------------------------------------------------
# ...
 9450.00000    6.94420    7.23460    8.02570    8.21650   12.25000   14.61890   14.61890  121.70630    -999.25    0.02720    2.53160    0.10430    -999.25    0.10430    8.21650    -999.25    0.02720   61.36830    -999.25    -999.25  125.24310  125.24310   61.36830   47.79850   47.93330   47.93330    -999.25    -999.25    -999.25    -999.25    7.23460    0.13060    0.13060    7.23330    7.23330    -999.25   -2.99230  -15.22020    6.94420 3798.38090 4135.95610
 9500.00000    4.34120    5.10170    5.34920    5.50180   12.25000   15.47440   15.47440  181.75870    -999.25    0.12350    2.48860    0.12950    -999.25    0.12950    5.50180    -999.25    0.12350   83.22250    -999.25    -999.25  152.71720  152.71720   83.22250   70.25240   70.77220   70.77220    -999.25    -999.25    -999.25    -999.25    5.10170    0.25830    0.25830    6.76420    6.76420    -999.25   -4.15980  -15.12050    4.34120 3850.11600 4122.35690
 9550.00000   19.82620   38.24680   62.18470   69.76020   12.25000   14.05590   14.05590   14.33480    -999.25   -0.00120    2.72500   -0.00880    -999.25   -0.00880   69.76020    -999.25   -0.00120   48.43210    -999.25    -999.25   98.21560   98.21560   48.43210   44.53100   44.84090   44.84090    -999.25    -999.25    -999.25    -999.25   38.24680   -0.00230   -0.00230    5.54680    5.54680    -999.25  -30.53630  -41.33850   19.82620 3803.35720 4094.05150
 9600.00000   14.70840   18.16700   25.47980   30.87630   12.25000   14.23020   14.23020   32.38730    -999.25    0.00210    2.72420   -0.00830    -999.25   -0.00830   30.87630    -999.25    0.00210   51.17430    -999.25    -999.25  100.43840  100.43840   51.17430   34.47460   32.14390   32.14390    -999.25    -999.25    -999.25    -999.25   18.16700    0.02020    0.02020    5.62380    5.62380    -999.25  -45.31320  -55.95690   14.70840 3822.35960 4132.92770
 9650.00000   11.38200   11.86080   12.80850   15.49180   12.25000   14.30490   14.30490   64.55030    -999.25    0.00170    2.68930    0.01210    -999.25    0.01210   15.49180    -999.25    0.00170   52.72550    -999.25    -999.25  104.82040  104.82040   52.72550   22.76290   22.50780   22.50780    -999.25    -999.25    -999.25    -999.25   11.86080    0.01120    0.01120    6.06780    6.06780    -999.25  -73.86780  -84.35300   11.38200 3885.61380 4199.90140
 9700.00000   18.41940   20.72980   21.72650   24.64440   12.25000   13.72920   13.72920   40.57720    -999.25    0.00540    2.66950    0.02370    -999.25    0.02370   24.64440    -999.25    0.00540   50.60770    -999.25    -999.25   98.58630   98.58630   50.60770   41.85030   41.64810   41.64810    -999.25    -999.25    -999.25    -999.25   20.72980    0.00770    0.00770    7.03080    7.03080    -999.25  -48.31190  -58.63860   18.41940 3910.08760 4223.34030
 9750.00000   21.71650   22.82840   24.10650   25.11580   12.25000   13.28860   13.28860   39.81560    -999.25    0.00350    2.69910    0.00640    -999.25    0.00640   25.11580    -999.25    0.00350   51.59650    -999.25    -999.25  101.94860  101.94860   51.59650   14.56330   15.80090   15.80090    -999.25    -999.25    -999.25    -999.25   22.82840    0.00760    0.00760    5.72550    5.72550    -999.25  -58.22300  -68.39130   21.71650 3948.87060 4216.90090
 9800.00000   44.15060   49.85330   62.81360   66.94090   12.25000   13.02470   13.02470   14.93860    -999.25    0.00380    2.70560    0.00260    -999.25    0.00260   66.94090    -999.25    0.00380   51.25420    -999.25    -999.25   97.32510   97.32510   51.25420   29.28350   26.51830   26.51830    -999.25    -999.25    -999.25    -999.25   49.85330    0.00820    0.00820    6.08400    6.08400    -999.25   -6.37260  -16.38240   44.15060 3919.98490 4204.37600
 9850.00000   20.77540   11.98010   10.41110    9.99500   12.25000   13.16060   13.16060  100.05000    -999.25    0.00010    2.38490    0.19010    -999.25    0.19010    9.99500    -999.25    0.00010   48.41060    -999.25    -999.25   93.70610   93.70610   48.41060   55.99960   45.65820   45.65820    -999.25    -999.25    -999.25    -999.25   11.98010    0.10430    0.10430    4.81670    4.81670    -999.25   -5.27640  -15.12770   20.77540 3940.10960 4205.92140
 9900.00000   42.69570   39.63780   47.46070   52.55700   12.25000   13.19150   13.19150   19.02700    -999.25    0.00550    2.66250    0.02780    -999.25    0.02780   52.55700    -999.25    0.00550   98.77050    -999.25    -999.25  140.52310  140.52310   98.77050   22.96460   23.05900   23.05900    -999.25    -999.25    -999.25    -999.25   39.63780    0.00580    0.00580    7.25520    7.25520    -999.25   -7.41800  -17.17690   42.69570 3968.34720 4173.33740
 9950.00000   20.85650    9.28670   12.60720   14.79170   12.25000   13.23240   13.23240   67.60550    -999.25    0.02620    2.62430    0.05010    -999.25    0.05010   14.79170    -999.25    0.02620   78.31780    -999.25    -999.25    -999.25    -999.25   78.31780   60.78730   52.22080   52.22080    -999.25    -999.25    -999.25    -999.25    9.28670    0.02860    0.02860    6.42540    6.42540    -999.25   -3.94550  -13.75240   20.85650 3959.15210 4236.07080
 10000.00000    2.44270    2.12650    2.21260    2.28020   12.25000   12.70800   12.70800  438.55800    -999.25    0.00290    2.56790    0.08310    -999.25    0.08310    2.28020    -999.25    0.00290   68.54780    -999.25    -999.25  112.74500  112.74500   68.54780   59.78400   48.59830   48.59830    -999.25    -999.25    -999.25    -999.25    2.12650    0.09040    0.09040    3.01700    3.01700    -999.25  -41.93430  -51.17030    2.44270 3940.26220 4255.48680
 10050.00000   62.37900   72.39270  138.24070  109.41850   12.25000   12.84790   12.84790    9.13920    -999.25    0.00040    2.70590    0.00240    -999.25    0.00240  109.41850    -999.25    0.00040   50.82010    -999.25    -999.25   96.98350   96.98350   50.82010   21.80740   21.32520   21.32520    -999.25    -999.25    -999.25    -999.25   72.39270    0.00200    0.00200    6.16760    6.16760    -999.25  -12.09910  -20.21550   62.37900 3919.70260 4282.73240
 10100.00000    5.60600    5.74220    5.27840    5.05150   12.25000   12.84400   12.84400  197.96100    -999.25    0.03290    2.57510    0.07890    -999.25    0.07890    5.05150    -999.25    0.03290   68.70060    -999.25    -999.25  120.71500  120.71500   68.70060   77.90570   69.95090   69.95090    -999.25    -999.25    -999.25    -999.25    5.74220    0.15090    0.15090    4.66620    4.66620    -999.25   -9.24360  -16.24030    5.60600 4069.98610 4267.79150
 10150.00000    7.26830    7.65160    6.47780    5.84510   12.25000   12.61940   12.61940  171.08350    -999.25    0.01030    2.61490    0.05560    -999.25    0.05560    5.84510    -999.25    0.01030   62.04970    -999.25    -999.25  102.61270  102.61270   62.04970   35.63240   40.53260   40.53260    -999.25    -999.25    -999.25    -999.25    7.65160    0.02170    0.02170    3.32890    3.32890    -999.25  -27.50910  -33.38620    7.26830 4054.60960 4297.16650
 10200.00000    4.96150    5.24040    4.92940    4.58900   12.25000   12.72620   12.72620  217.91240    -999.25   -0.00080    2.61590    0.05500    -999.25    0.05500    4.58900    -999.25   -0.00080   65.28030    -999.25    -999.25  113.64120  113.64120   65.28030   69.10430   67.26000   67.26000    -999.25    -999.25    -999.25    -999.25    5.24040    0.13540    0.13540    4.01520    4.01520    -999.25  -23.99290  -28.75030    4.96150 4102.57760 4279.66800
 10250.00000    4.04280    4.38720    4.24510    4.17900   12.25000   13.48120   13.48120  239.29170    -999.25    0.00250    2.60930    0.05890    -999.25    0.05890    4.17900    -999.25    0.00250   66.44350    -999.25    -999.25  113.53430  113.53430   66.44350   66.06910   51.99070   51.99070    -999.25    -999.25    -999.25    -999.25    4.38720    0.09980    0.09980    3.06650    3.06650    -999.25  -19.71100  -23.34880    4.04280 4129.93460 4300.54540
 10300.00000    4.73110    4.49520    4.21700    4.09690   12.25000   12.70120   12.70120  244.08700    -999.25    0.07030    2.55340    0.09160    -999.25    0.09160    4.09690    -999.25    0.07030   62.54200    -999.25    -999.25  106.86660  106.86660   62.54200   87.08140   80.44990   80.44990    -999.25    -999.25    -999.25    -999.25    4.49520    0.15240    0.15240    5.97320    5.97320    -999.25   -9.65740  -12.17550    4.73110 4092.36400 4320.57910
