~Version ---------------------------------------------------
VERS. 2.0 : CWLS log ASCII Standard -VERSION 2.0
WRAP.  NO : ONE LINE PER DEPTH STEP
~Well ------------------------------------------------------
STRT.F                     4050.0 : START DEPTH
STOP.F                    10500.0 : STOP DEPTH
STEP.F                   50.00000 : STEP LENGTH
NULL.                     -999.25 : NULL VALUE
COMP. MITCHELL ENERGY CORPORATION : COMPANY
WELL.                MOORE LEO #1 : WELL
FLD .               ALABAMA FERRY : FIELD
LOC .                             : LOCATION
CNTY.                        LEON : COUNTY
STAT.                       TEXAS : STATE
CTRY.    UNITED STATES OF AMERICA : COUNTRY
SRVC.                    Gearhart : SERVICE COMPANY
DATE.                 11-Jun-1985 : LOGDATE
API .              42289306600000 : API NUMBER
UWI .              42289306600000 : UNIQUE WELL ID
SLAT.WGS84          31.1850630157 : SURFACE LATITUDE
SLON.WGS84         -95.8358112072 : SURFACE LONGITUDE
~Curve Information -----------------------------------------
DEPT  .F    0   1   0  0 : 1 MEASURED DEPTH
GRR   .GAPI 07 310 01 00 : GAMMA RAY FROM RESISTIVITY LOG
RILD  .OHMM 07 120 46 00 : INDUCTION DEEP RESISTIVITY
RILM  .OHMM 07 120 44 00 : INDUCTION MEDIUM RESISTIVITY
RILS  .OHMM 07 120 04 00 : INDUCTION SHALLOW RESISTIVITY
SPR   .MV   07 010 01 00 : SPONTANEOUS POTENTIAL FROM RESISTIVITY LOG
CALX  .IN   07 280 13 00 : CALIPER FROM X AXIS OF X-Y CALIPER(S)
DT    .US/F 60 500 00 00 : DELTA-T (INTERVAL TRANSIT TIME)
CDL_LS.DEC  45 890 10 00 : COMPENSATED DENSITY POROSITY LIMESTONE
CNS_LS.DEC  42 890 01 00 : COMPENSATED NEUTRON POROSITY
DRHO  .G/C3 45 356 01 00 : BULK DENSITY CORRECTION
RHOB  .G/C3 45 350 01 00 : BULK DENSITY
~Params ----------------------------------------------------
PD  .                     GL : PERMANENT DATUM
EPD .FT                  228 : ELEVATION PERMANENT DATUM
LMF .                     KB : LOG MEASURED FROM
DAPD.FT                   18 : FEET ABOVE PERMANENT DATUM
DMF .                     KB : DRILLING MEASURED FROM
EKB .FT                  246 : KELLY BUSHING
EDF .FT                  245 : DRILLING FLOOR
EGL .FT                  228 : GROUND LEVEL
DATE.               06/11/85 : RUN DATE
RUN .                      1 : RUN NUMBER
DD  .FT                10510 : DEPTH DRILLER
DL  .FT                10530 : DEPTH LOGGER
BLI .FT                10528 : BOTTOM LOG INTERVAL
TLI .FT                 4046 : TOP LOG INTERVAL
CS  .IN                8.625 : CASING SIZE
CBD .FT                 4600 : CASING BOTTOM DRILLER
CBL .FT                 4046 : CASING BOTTOM LOGGER
BS  .IN                7.875 : BIT SIZE
BSD .FT                10510 : BIT SIZE AT DEPTH
DFT .                    FGM : DRILLING FLUID TYPE
DFD .                    9.9 : DRILLING FLUID DENSITY
DFV .                     43 : DRILLING FLUID VISCOSITY
DFPH.                    9.8 : DRILLING FLUID PH
DFL .                    9.8 : DRILLING FLUID LOSS
MSS .             CIRCULATED : MUD SAMPLE SOURCE
RMS .OHMM                2.4 : RESISTIVITY MUD SAMPLE
MST .DEGF                 75 : MUD SAMPLE TEMPERATURE
RMF .OHMM                1.8 : RESISTIVITY MUD FILTRATE SAMPLE
MFST.DEGF                 75 : MUD FILTRATE SAMPLE TEMPERATURE
RMC .OHMM                2.7 : RESISTIVITY MUD CAKE
MCST.DEGF                 75 : MUD CAKE SAMPLE TEMPERATURE
MFSS.                      M : MUD FILTRATE SAMPLE SOURCE
MCSS.                      M : MUD CAKE SAMPLE SOURCE
RMB .OHMM               0.78 : RESISTIVITY MUD AT BHT
TCS .HRS                1900 : TIME CIRCULATED STOPPED
TLAB.HRS                 232 : TIME LOGGER AT BOTTOM
LUN .                   7577 : LOGGING UNIT NUMBER
LUL .                  BRYAN : LOGGING UNIT LOCATION
ENGI.                MAHONEY : RECORDING ENGINEER
WITN.                EDWARDS : WITNESSED BY
CLNT.                A2DTECH : CLIENT CODE
ORIG.         1" 2" 5" PRINT : ORIGIN OF DATA
UWI .         42289306600000 : UNIQUE WELL ID
DICO. A2D Technologies, Inc. : DIGITIZING COMPANY
~Other -----------------------------------------------------
~ASCII -----------------------------------------------------
# ...
 7100.00000   34.75720    5.03610    5.16700    5.44580  -67.52660   10.93280   69.12060    0.04850    0.12800    0.00940    2.62690
 7150.00000   39.48570    6.18590    4.97550    5.52490  -67.66710   10.98820   78.08910    0.15410    0.17050    0.04870    2.44070
 7200.00000   15.10170    5.54150    5.68640    5.93940  -80.40860   11.30380   63.03740    0.07810    0.10870    0.01110    2.57640
 7250.00000   54.91490    3.84080    4.00370    4.70100  -79.85650   11.18560   74.59770    0.10040    0.19960    0.09420    2.54010
 7300.00000   32.86390    2.37390    4.00620    6.85280 -124.84130    7.87840   82.91350    0.22350    0.21150    0.21440    2.32790
 7350.00000   67.84520    1.23010    1.30630    1.50560  -69.65850   12.10600  107.31720    0.30580    0.40670    0.06220    2.18700
 7400.00000   71.80550    1.15180    1.18170    1.36210  -71.17110   13.42310   99.37530    0.22650    0.42200    0.15570    2.32270
 7450.00000   69.14860    1.03730    1.06540    1.23420  -70.70030   12.93870   99.20200    0.22940    0.41800    0.14800    2.31770
 7500.00000   67.30050    1.81860    1.86600    1.94370  -67.08360   11.68130   95.71260    0.29410    0.34660    0.20150    2.20700
 7550.00000   70.31540    1.75100    1.89640    2.00090  -67.01400   12.17620   94.61110    0.29710    0.37860    0.20710    2.19690
 7600.00000   68.46610    1.61740    1.66040    1.79260  -65.01310   13.71780   94.85240    0.20770    0.35220    0.16160    2.35480
 7650.00000   68.00390    2.04930    1.92470    2.28320  -65.97010   12.62090   94.31780    0.33100    0.37260    0.21250    2.14410
 7700.00000   65.19000    1.50870    1.64800    1.78760  -67.77440   13.39730  114.96960    0.33650    0.39700    0.19250    2.13460
 7750.00000   42.96840    2.79480    2.92170    3.25470  -71.20120   10.80740   95.11100    0.10980    0.19720    0.05510    2.52230
 7800.00000   65.62410    1.49440    1.53320    1.58820  -65.88890   12.64930   90.28280    0.24340    0.35560    0.14910    2.29380
 7850.00000   55.49310    1.88620    1.91050    2.00760  -65.96550   11.34890   92.58760    0.19120    0.36070    0.15920    2.38300
 7900.00000   47.42470    2.45040    2.68540    2.93870  -81.76440   10.66150   82.04870    0.19330    0.22310    0.10040    2.37950
 7950.00000   68.10020    1.84710    1.89530    2.02140  -67.01950   10.16440   88.83680    0.32790    0.34740    0.22010    2.14920
 8000.00000   63.32850    1.74880    1.79810    1.90560  -66.07170   10.99220   89.84210    0.17910    0.32790    0.15720    2.40380
 8050.00000   63.32860    1.29760    1.23810    1.48370  -67.72540   11.86520  103.04410    0.34050    0.43030    0.18180    2.12840
 8100.00000   65.25500    1.57490    1.34300    1.48340  -69.54110   10.82710   98.89790    0.29430    0.41530    0.14520    2.19050
 8150.00000   59.85210    1.49600    1.56440    1.67560  -69.23840   11.31140   86.05920    0.24160    0.35950    0.16160    2.29670
 8200.00000   16.94530    8.96570    8.25050    7.30440  -67.13390   10.47020   58.40630    0.03130    0.07650    0.01300    2.65650
 8250.00000   18.63520    7.72540    8.30730    7.45120  -64.39100   11.38630   75.83020    0.02050    0.08230    0.04870    2.67500
 8300.00000   16.86950    6.96060    6.10840    7.99940  -66.18520   10.16590   60.34150    0.03050    0.05690    0.02580    2.65790
 8350.00000   14.71070   10.29500   10.08960    9.21070  -75.16410   10.15830   81.42560    0.02060    0.06100    0.07980    2.67470
 8400.00000   11.14520   15.35840   13.66000   14.12260  -64.14370   10.14770   73.32170    0.02770    0.04860    0.05270    2.66270
 8450.00000   12.86710   11.86810   10.94450   12.53900  -67.68380   10.15190   69.22430    0.02040    0.05160    0.05070    2.67510
 8500.00000   14.61790   12.75180   12.22180   14.04450  -65.77220   10.10460   70.03390    0.02630    0.04610    0.07790    2.66500
 8550.00000   10.55910    8.15690    7.63530   10.17370 -111.58080    9.94460   55.91220    0.04970    0.06290    0.07140    2.62490
 8600.00000   24.50630    6.96640    6.85240    7.32030  -53.81000    9.91700   62.07070    0.02070    0.09870    0.02780    2.67460
 8650.00000   13.73200   16.45860   15.33530   18.12070  -59.47380    9.16720   55.52080    0.03950    0.04860    0.03680    2.64240
 8700.00000   16.16900    9.99240    8.92260   12.54220  -53.26860    9.60260   55.77000    0.02880    0.08700    0.02800    2.66080
 8750.00000   51.82420    1.87890    2.36290    3.16130  -59.48290   12.90860  102.71400    0.09480    0.19660    0.11640    2.54780
 8800.00000   29.00440   20.33210   16.56400   19.42490  -55.29340   10.14340   64.07720    0.04460    0.04150    0.11080    2.63360
 8850.00000   38.12550    8.19360    7.12600    7.75570  -54.17720    9.88500   84.08770    0.04320    0.09150    0.00720    2.63620
 8900.00000   40.33090   10.87680    9.79330    9.72970  -52.92170    9.81540   56.61240    0.02620    0.06470    0.00290    2.66520
 8950.00000   28.77820   23.29150   18.19950   28.44830  -50.07800    9.75210   52.95060    0.01200    0.03060    0.00510    2.68940
 9000.00000   39.43430    4.81680    4.94940    5.09470  -52.17680    8.84430   66.32360    0.03970    0.13660    0.00170    2.64200
 9050.00000   67.26970    2.41410    2.56190    2.90320  -57.58360   11.08290   83.56450    0.11130    0.29420    0.19260    2.51980
 9100.00000   42.45170    2.46280    2.54700    2.81450  -55.89400    9.96850   93.82830    0.10790    0.20780    0.13390    2.52540
 9150.00000   33.61390    8.34350    7.85660    9.22590  -51.11300    9.01030   75.58850    0.00740    0.07050    0.03060    2.69730
 9200.00000   29.56030    4.67560    4.72300    6.25250  -53.75780    8.72540   63.51800    0.09050    0.12250    0.11710    2.55540
 9250.00000   36.96700    2.68280    2.80660    3.07610  -56.47030   10.91350   94.04630    0.04800    0.20130    0.23540    2.62810
 9300.00000   58.55660    1.18540    1.16980    1.94170  -64.26940   10.57390   89.25000    0.33680    0.35280    0.19640    2.13460
 9350.00000   34.76960    1.83100    2.36480    3.56440  -59.57230    9.94600   71.84630    0.28580    0.18160    0.15400    2.26880
 9400.00000   40.80960    1.75680    1.86090    2.23490  -59.27260   10.66300  103.07900    0.33520    0.25590    0.15790    2.13660
 9450.00000   25.66300    6.14580    6.63620    7.45120  -52.14980   10.06660   59.95480    0.01560    0.08320    0.01510    2.68340
 9500.00000   51.83090    1.51280    1.56760    2.16920  -57.50680   10.94370   91.07360    0.28690    0.37200    0.22610    2.21940
 9550.00000   15.58830   17.35470   14.96190   19.42220  -39.43310    9.73420   52.94840    0.01320    0.03850   -0.00070    2.68740
 9600.00000   22.94770   18.67810   15.22030   19.45360  -42.29720    9.28880   53.82320    0.02000    0.04440    0.02450    2.67580
 9650.00000   31.31320    5.47930    5.73380    6.50900  -50.26710    9.75230   62.50460    0.00500    0.13230    0.02540    2.70140
 9700.00000   23.41450    6.87690    7.44600   12.29540  -48.47280    9.93330   61.15130    0.06950    0.09570    0.02010    2.59100
 9750.00000   31.56430   11.19530    9.18090   11.36000  -44.47810   10.02660   74.05590    0.01190    0.08370    0.00700    2.68960
 9800.00000   52.60360    3.34260    3.49600    4.51160  -50.79000   10.00150   78.71410    0.03340    0.22500    0.00750    2.65290
 9850.00000   30.19160   12.83270   11.21380   16.85900  -45.33830    9.52970   63.38470    0.02210    0.06280    0.00280    2.67220
 9900.00000   41.29050    6.93320    7.42760   10.66400  -49.94660    9.79790   63.86950    0.05850    0.12600    0.25290    2.61030
 9950.00000   33.81050   13.19320   11.23220   16.33120  -45.16520    9.65850   58.87240    0.00110    0.07830    0.02130    2.70820
 10000.00000   59.51690    3.61210    2.79370    7.63250  -59.67450    9.99530   84.47850    0.34530    0.34110    0.16220    2.11890
 10050.00000   42.99740    3.06890    3.50330    5.11290  -56.10470    9.69400   66.93310    0.15110    0.19390    0.12790    2.45170
 10100.00000   48.32070    4.94060    4.83410    7.68210  -53.66360    9.77430   70.02870    0.03780    0.17000    0.05380    2.64540
