~Version ---------------------------------------------------
VERS. 2.0 : CWLS log ASCII Standard -VERSION 2.0
WRAP.  NO : ONE LINE PER DEPTH STEP
~Well ------------------------------------------------------
STRT.F                      3900.0 : START DEPTH
STOP.F                     12600.0 : STOP DEPTH
STEP.F                    50.00000 : STEP LENGTH
NULL.                      -999.25 : NULL VALUE
COMP.       KIMBALL PRODUCTION CO. : COMPANY
WELL. CLAY GAS UNIT NO. 1       #1 : WELL
FLD .              JERRYS QUARTERS : FIELD
LOC .                              : LOCATION
CNTY.                   WASHINGTON : COUNTY
STAT.                        TEXAS : STATE
CTRY.     UNITED STATES OF AMERICA : COUNTRY
SRVC.                 Schlumberger : SERVICE COMPANY
DATE.                  12-Mar-1982 : LOGDATE
API .               42477304680000 : API NUMBER
UWI .               42477304680000 : UNIQUE WELL ID
SLAT.WGS84           30.3797480443 : SURFACE LATITUDE
SLON.WGS84          -96.3148004385 : SURFACE LONGITUDE
~Curve Information -----------------------------------------
DEPT.F                 : 
CALD.IN   45 280 60 00 : CALIPER FROM DENSITY LOG
DPHI.DEC  45 890 10 00 : DENSITY POROSITY LIMESTONE
DRHO.G/C3 45 356 01 00 : DENSITY CORRECTION
NPHI.DEC  42 890 01 00 : NEUTRON POROSITY LIMESTONE
RHOB.G/C3 45 350 01 00 : BULK DENSITY
GRR .GAPI 07 310 01 00 : GAMMA RAY FROM RESISTIVITY
ILD .OHMM 07 120 46 00 : INDUCTION LOG DEEP
ILM .OHMM 07 120 44 00 : INDUCTION LOG MEDIUM
SFLU.OHMM 07 220 01 00 : SPHERICALLY FOCUSED LOG UNAVERAGED RESISTIVITY
SPR .MV   07 010 01 00 : SPONTANEOUS POTENTIAL FROM RES.
~Params ----------------------------------------------------
PD  .                     GL : PERMANENT DATUM
EPD .F                   200 : ELEVATION PERMANENT DATUM
LMF .                     KB : LOG MEASURED FROM
DAPD.F                    17 : FEET ABOVE PERMANENT DATUM
DMF .                     KB : DRILLING MEASURED FROM
EKB .F                   217 : KELLING BUSHING
EDF .F                   216 : DRILLING FLOOR
EGL .F                   200 : GROUND LEVEL
DATE.               03/12/82 : RUN DATE
RUN .                      1 : RUN NUMBER
DD  .F                 12615 : DEPTH DRILLER
DL  .F                 12618 : DEPTH LOGGER
BLI .F                 12618 : BOTTOM LOG INTERVAL
TLI .F                 10600 : TOP LOG INTERVAL
CS  .IN                8.625 : CASING SIZE
CBD .F                  3897 : CASING BOTTOM DRILLER
CBL .F                  3901 : CASING BOTTOM LOGGER
BS  .IN                 8.75 : BIT SIZE
BSD .F                 12615 : BIT SIZE AT DEPTH
DFT .                   BENE : DRILLING FLUID TYPE
DFD .                    9.9 : DRILLING FLUID DENSITY
DFV .                     40 : DRILLING FLUID VISCOSITY
DFPH.                    6.6 : DRILLING FLUID PH
DFL .                    7.6 : DRILLING FLUID LOSS
MSS .                   TANK : MUD SAMPLE SOURCE
RMS .OHMM               2.21 : RESISTIVITY MUD SAMPLE
MST .F                    95 : MUD SAMPLE TEMPERATURE
RMF .OHMM               1.66 : RESISTIVITY MUD FILTRATE SAMPLE
MFST.F                    97 : MUD FILTRATE SAMPLE TEMPERATURE
RMC .OHMM               3.31 : RESISTIVITY MUD CAKE
MCST.F                    97 : MUD CAKE SAMPLE TEMPERATURE
MFSS.                   CALC : MUD FILTRATE SAMPLE SOURCE
MCSS.                   CALC : MUD CAKE SAMPLE SOURCE
RMB .OHMM              1.366 : RESISTIVITY MUD AT BHT
TLAB.HRS                1100 : TIME LOGGER AT BOTTOM
LUN .                   8176 : LOGGING UNIT NUMBER
LUL .                BRENHAM : LOGGING UNIT LOCATION
ENGI.                CARON R : RECORDING ENGINEER
WITN.             BILDERBACK : WITNESSED BY
CLNT.                A2DTECH : CLIENT CODE
ORIG.               5" PRINT : ORIGIN OF DATA
UWI .         42477304680000 : UNIQUE WELL ID
DICO. A2D Technologies, Inc. : DIGITIZING COMPANY
~Other -----------------------------------------------------
~ASCII -----------------------------------------------------
# ...
 7200.00000    -999.25    -999.25    -999.25    -999.25    -999.25   49.18620    1.71660    2.83410   11.50560 -116.05090
 7250.00000    -999.25    -999.25    -999.25    -999.25    -999.25   87.51850    2.38690    2.71960    6.03290  -46.13640
 7300.00000    -999.25    -999.25    -999.25    -999.25    -999.25   95.92300    2.25930    3.22910    7.51580  -84.81900
 7350.00000    -999.25    -999.25    -999.25    -999.25    -999.25   70.89890    1.72840    2.48200    8.36330  -86.25370
 7400.00000    -999.25    -999.25    -999.25    -999.25    -999.25   56.07330    0.96410    1.51700    8.07280 -116.04790
 7450.00000    -999.25    -999.25    -999.25    -999.25    -999.25   71.78730    1.36840    2.06630    8.74190 -105.13390
 7500.00000    -999.25    -999.25    -999.25    -999.25    -999.25   56.05330    1.14470    1.86400    9.55810 -132.56640
 7550.00000    -999.25    -999.25    -999.25    -999.25    -999.25  104.67830    1.85120    2.37060    5.18680  -72.39030
 7600.00000    -999.25    -999.25    -999.25    -999.25    -999.25   62.03660    1.20930    1.95590    8.86260 -123.12690
 7650.00000    -999.25    -999.25    -999.25    -999.25    -999.25   48.30310    1.40650    2.52180   11.50580 -143.77720
 7700.00000    -999.25    -999.25    -999.25    -999.25    -999.25  101.03400    2.85360    2.87330    3.99540  -42.59700
 7750.00000    -999.25    -999.25    -999.25    -999.25    -999.25   91.06280    2.75730    2.75730    2.89310  -37.28610
 7800.00000    -999.25    -999.25    -999.25    -999.25    -999.25   96.15850    3.31910    3.27390    3.67930  -36.69710
 7850.00000    -999.25    -999.25    -999.25    -999.25    -999.25  104.41540    3.65400    3.57950    3.65410  -27.26040
 7900.00000    -999.25    -999.25    -999.25    -999.25    -999.25   80.81630    4.16340    4.19210    5.15720  -30.79790
 7950.00000    -999.25    -999.25    -999.25    -999.25    -999.25  113.43990    3.19070    3.18500    3.40490  -25.78410
 8000.00000    -999.25    -999.25    -999.25    -999.25    -999.25   95.05170    3.01480    2.99410    3.27380  -25.19240
 8050.00000    -999.25    -999.25    -999.25    -999.25    -999.25   83.08630    3.20710    3.22920    3.34200  -26.37260
 8100.00000    -999.25    -999.25    -999.25    -999.25    -999.25   91.72680    2.83410    2.83990    3.04010  -25.35460
 8150.00000    -999.25    -999.25    -999.25    -999.25    -999.25   87.89610    2.68250    2.71960    2.99510  -23.71680
 8200.00000    -999.25    -999.25    -999.25    -999.25    -999.25   89.29060    2.87330    2.91300    2.95330  -23.12680
 8250.00000    -999.25    -999.25    -999.25    -999.25    -999.25   93.27860    3.05630    3.07750    3.36500  -23.42250
 8300.00000    -999.25    -999.25    -999.25    -999.25    -999.25   87.73980    3.12010    3.05660    3.22910  -22.83190
 8350.00000    -999.25    -999.25    -999.25    -999.25    -999.25   85.08040    3.48250    3.50650    3.88710  -23.71800
 8400.00000    -999.25    -999.25    -999.25    -999.25    -999.25   92.39240    3.45880    3.48260    3.57960  -20.76790
 8450.00000    -999.25    -999.25    -999.25    -999.25    -999.25  102.58460    3.31910    3.29630    3.53070  -21.65190
 8500.00000    -999.25    -999.25    -999.25    -999.25    -999.25   90.35350    3.20040    3.27860    3.66060  -20.67790
 8550.00000    -999.25    -999.25    -999.25    -999.25    -999.25   99.85170    3.33490    3.34710    3.56120  -24.50660
 8600.00000    -999.25    -999.25    -999.25    -999.25    -999.25   96.31700    3.20040    3.23370    3.21160  -26.56850
 8650.00000    -999.25    -999.25    -999.25    -999.25    -999.25   89.91270    2.92720    2.95670    2.93640  -27.45210
 8700.00000    -999.25    -999.25    -999.25    -999.25    -999.25  101.61930    2.56930    2.64820    2.59400  -20.67750
 8750.00000    -999.25    -999.25    -999.25    -999.25    -999.25   86.81960    3.24460    3.25610    3.23370  -25.68510
 8800.00000    -999.25    -999.25    -999.25    -999.25    -999.25  102.72350    3.47510    3.51240    3.27860  -24.21180
 8850.00000    -999.25    -999.25    -999.25    -999.25    -999.25   77.76040    3.15680    3.23390    3.08150  -19.79380
 8900.00000    -999.25    -999.25    -999.25    -999.25    -999.25   97.42290    2.65910    2.70350    3.10280  -18.44090
 8950.00000    -999.25    -999.25    -999.25    -999.25    -999.25   80.85310    2.53440    2.54090    2.85660  -18.61560
 9000.00000    -999.25    -999.25    -999.25    -999.25    -999.25   87.48160    2.06270    2.09520    2.22920  -19.50020
 9050.00000    -999.25    -999.25    -999.25    -999.25    -999.25   96.75840    2.28640    2.30730    2.35560  -19.20840
 9100.00000    -999.25    -999.25    -999.25    -999.25    -999.25   79.08480    2.96760    2.97710    3.41690  -20.38290
 9150.00000    -999.25    -999.25    -999.25    -999.25    -999.25  103.83020    1.82300    1.80060    1.77590  -22.15090
 9200.00000    -999.25    -999.25    -999.25    -999.25    -999.25   91.45700    2.02080    1.99660    2.32340  -20.38270
 9250.00000    -999.25    -999.25    -999.25    -999.25    -999.25   74.22680    2.04860    2.26020    3.97630  -28.04120
 9300.00000    -999.25    -999.25    -999.25    -999.25    -999.25   77.31820    1.74950    1.78830    2.05240  -24.80090
 9350.00000    -999.25    -999.25    -999.25    -999.25    -999.25   91.45800    1.89980    1.96920    2.10970  -23.62270
 9400.00000    -999.25    -999.25    -999.25    -999.25    -999.25   87.92230    1.93920    1.96920    2.43810  -26.86280
 9450.00000    -999.25    -999.25    -999.25    -999.25    -999.25   93.66720    1.81060    1.82560    2.03830  -23.32840
 9500.00000    -999.25    -999.25    -999.25    -999.25    -999.25   88.58620    1.83560    1.83810    2.43810  -22.15020
 9550.00000    -999.25    -999.25    -999.25    -999.25    -999.25   94.77170    1.83560    1.82550    2.08080  -20.97390
 9600.00000    -999.25    -999.25    -999.25    -999.25    -999.25   83.28340    3.15680    3.14600    3.14590  -21.26800
 9650.00000    -999.25    -999.25    -999.25    -999.25    -999.25   74.66860    2.78990    2.89620    3.01850  -20.38290
 9700.00000    -999.25    -999.25    -999.25    -999.25    -999.25   76.65680    3.98650    4.37870    5.09520  -19.79380
 9750.00000    -999.25    -999.25    -999.25    -999.25    -999.25  104.49050    2.58700    2.89630    4.00370  -24.50540
 9800.00000    -999.25    -999.25    -999.25    -999.25    -999.25   95.21350    1.67890    1.70400    1.77590  -20.67820
 9850.00000    -999.25    -999.25    -999.25    -999.25    -999.25   88.80740    1.71390    1.76380    1.96930  -21.26680
 9900.00000    -999.25    -999.25    -999.25    -999.25    -999.25   88.14360    1.99320    2.06660    2.24460  -19.49950
 9950.00000    -999.25    -999.25    -999.25    -999.25    -999.25   89.46960    1.86100    1.85090    1.95570  -25.68480
 10000.00000    -999.25    -999.25    -999.25    -999.25    -999.25  107.36340    1.70210    1.70400    1.90260  -38.35000
 10050.00000    -999.25    -999.25    -999.25    -999.25    -999.25   90.35350    1.86100    1.87660    2.01040  -41.00190
 10100.00000    -999.25    -999.25    -999.25    -999.25    -999.25   85.05080    2.06270    2.08090    2.95680  -46.30340
 10150.00000    -999.25    -999.25    -999.25    -999.25    -999.25   97.64220    2.04860    2.06650    2.30740  -53.66720
 10200.00000    -999.25    -999.25    -999.25    -999.25    -999.25   86.59790    2.10570    2.13900    2.40470  -54.25630
 10250.00000    -999.25    -999.25    -999.25    -999.25    -999.25   94.99280    2.12020    2.24460    2.08090  -56.61290
 10300.00000    -999.25    -999.25    -999.25    -999.25    -999.25   91.67880    2.00690    2.06660    2.26020  -58.67450
 10350.00000    -999.25    -999.25    -999.25    -999.25    -999.25   82.62100    1.70210    1.70410    1.92900  -62.50420
 10400.00000    -999.25    -999.25    -999.25    -999.25    -999.25   89.91110    1.67890    1.69230    1.80060  -62.21200
 10450.00000    -999.25    -999.25    -999.25    -999.25    -999.25   90.13250    2.20930    2.22930    2.54110  -61.03090
