~Version ---------------------------------------------------
VERS. 2.0 : CWLS log ASCII Standard -VERSION 2.0
WRAP. YES : MULTIPLE LINES PER DEPTH STEP
~Well ------------------------------------------------------
STRT.FT                 2500.0 : START DEPTH
STOP.FT                 7750.0 : STOP DEPTH
STEP.FT               50.00000 : STEP LENGTH
NULL.                  -999.25 : NULL VALUE
COMP.   CITIES SERVICE COMPANY : COMPANY
WELL.              GALIPP A #1 : WELL
FLD .                  WILDCAT : FIELD
LOC .                          : LOCATION
CNTY.                      LEE : COUNTY
STAT.                    TEXAS : STATE
CTRY. UNITED STATES OF AMERICA : COUNTRY
SRVC.             Schlumberger : SERVICE COMPANY
DATE.              05-May-1981 : LOGDATE
API .           42287309240000 : API NUMBER
UWI .           42287309240000 : UNIQUE WELL ID
SLAT.WGS84       30.2175747671 : SURFACE LATITUDE
SLON.WGS84      -96.9733709603 : SURFACE LONGITUDE
~Curve Information -----------------------------------------
DEPT    .FT    : DEPTH FEET
CALDED  .IN    : CALIPER FROM DENSITY LOG
CALRED  .IN    : CALIPER FROM RESISTIVITY LOG [DEPTH ADJ. TO GRR.]
CALWS   .IN    : CALIPER [CALDED]
CILDED  .MMHO  : CONDUCTIVITY FROM RESISTIVITY LOG
CONDWS  .MMHO  : CONDUCTIVITY [1000/DRESWS]
DCORWS  .G/C3  : DENSITY CORRECTION [DRHOED]
DENWS   .G/C3  : BULK DENSITY [M=2.65 F=1.0] [RHOBED]
DPHILSED.V/V   : DENSITY POROSITY [M=2.71 F=1.0] FROM DENSITY [DEPTH ADJ. TO GRR.]
DPHISSED.V/V   : DENSITY POROSITY [M=2.65 F=1.0] FROM DENSITY [DEPTH ADJ. TO GRR.]
DPOWS   .V/V   : DENSITY POROSITY [M=2.65 F=1.0] [DPHISSED]
DRESWS  .OHMM  : DEEP RESISTIVITY [ILDED]
DRHOED  .G/C3  : DENSITY CORRECTION FROM DENSITY LOG[DEPTH ADJ. TO GRR.]
DTED    .US/F  : DELTA TIME FROM SONIC LOG
DTWS    .US/F  : DELTA TIME [DTED]
GRDED   .GAPI  : GAMMA RAY FROM DENSITY LOG[DEPTH ADJ. TO GRR.]
GRNED   .GAPI  : GAMMA RAY FROM NEUTRON LOG [DEPTH ADJ. TO GRR.]
GRRED   .GAPI  : GAMMA RAY FROM RESISTIVITY LOG
GRWS    .GAPI  : GAMMA RAY [GRRED,SPLICED GRNED RESCALE AT 3554 AND GRDED+30 AT 7689']
ILDED   .OHMM  : INDUCTION LOG DEEP RESISTIVITY
ILMED   .OHMM  : INDUCTION LOG MEDIUM RESISTIVITY
MRESWS  .OHMM  : MEDIUM RESISTIVITY [ILMED]
NEUTED  .NAPI  : NEUTRON FROM NEUTRON LOG[DEPTH ADJ. TO GRR.]
NEUTWS  .NAPI  : NEUTRON [NEUTED]
NPHILSED.V/V   : NEUTRON POROSITY LIMESTONE FROM DENSITY LOG [DEPTH ADJ. TO GRR.]
NPHISSED.V/V   : NEUTRON POROSITY SANDSTONE FROM DENSITY LOG [DEPTH ADJ. TO GRR.]
NPOWS   .V/V   : NEUTRON POROSITY SANDSTONE [NPHISSED]
RHOBED  .G/C3  : BULK DENSITY FROM DENSITY LOG [DEPTH ADJ. TO GRR.]
SFLUED  .OHMM  : SPHERICALLY FOCUSED LOG RESISTIVITY
SPRED   .MV    : SPONTANEOUS POTENTIAL FROM RESISTIVITY LOG
SPWS    .MV    : SPONTANEOUS POTENTIAL [BASELINE 0 MV] [SPRED]
SRESWS  .OHMM  : SHALLOW RESISTIVITY [SFLUED]
TENDED  .LBF   : TENSION FROM DENSITY LOG [DEPTH ADJ. TO GRR.]
TENRED  .LBF   : TENSION FROM RESISTIVITY LOG
~Params ----------------------------------------------------
PD  .                      GL : PERMANENT DATUM
EPD .FT                   452 : ELEVATION PERMANENT DATUM
LMF .                      KB : LOG MEASURED FROM
DAPD.FT                    15 : FEET ABOVE PERMANENT DATUM
DMF .                      KB : DRILLING MEASURED FROM
EKB .FT                   467 : KELLY BUSHING
EDF .FT                   466 : DRILLING FLOOR
EGL .FT                   452 : GROUND LEVEL
DATE.                05/05/81 : RUN DATE
RUN .                       1 : RUN NUMBER
DD  .FT                  7755 : DEPTH DRILLER
DL  .FT                  7737 : DEPTH LOGGER
BLI .FT                  7730 : BOTTOM LOG INTERVAL
TLI .FT                  3566 : TOP LOG INTERVAL
CS  .IN                 9.625 : CASING SIZE
CBD .FT                  3545 : CASING BOTTOM DRILLER
CBL .FT                  3566 : CASING BOTTOM LOGGER
BS  .IN                   7.5 : BIT SIZE
BSD .FT                  7755 : BIT SIZE AT DEPTH
DFT .                BENX KCL : DRILLING FLUID TYPE
DFD .                     9.8 : DRILLING FLUID DENSITY
DFV .                      45 : DRILLING FLUID VISCOSITY
DFPH.                      11 : DRILLING FLUID PH
DFL .                      12 : DRILLING FLUID LOSS
MSS .                FLOWLINE : MUD SAMPLE SOURCE
RMS .OHMM                0.51 : RESISTIVITY MUD SAMPLE
MST .DEGF                  75 : MUD SAMPLE TEMPERATURE
RMF .OHMM                0.86 : RESISTIVITY MUD FILTRATE SAMPLE
MFST.DEGF                  75 : MUD FILTRATE SAMPLE TEMPERATURE
RMC .OHMM                0.76 : RESISTIVITY MUD CAKE
MCST.DEGF                  75 : MUD CAKE SAMPLE TEMPERATURE
MFSS.                       M : MUD FILTRATE SAMPLE SOURCE
MCSS.                       C : MUD CAKE SAMPLE SOURCE
RMB .OHMM                 0.2 : RESISTIVITY MUD AT BHT
TCS .HRS                 1700 : TIME CIRCULATED STOPPED
TLAB.HRS                  100 : TIME LOGGER AT BOTTOM
LUN .                    8173 : LOGGING UNIT NUMBER
LUL .                VICTORIA : LOGGING UNIT LOCATION
ENGI.                   ADAMS : RECORDING ENGINEER
WITN. WILLIAMS YOUNG MCCARTHY : WITNESSED BY
CLNT.                 A2DTECH : CLIENT CODE
ORIG.          1" 2" 5" PRINT : ORIGIN OF DATA
UWI .          42287309240000 : UNIQUE WELL ID
DICO.  A2D Technologies, Inc. : DIGITIZING COMPANY
~Other -----------------------------------------------------
~ASCII -----------------------------------------------------
# ...
 4700.00000    -999.25   12.12490   12.12490  645.01030  639.05930    -999.25    -999.25    -999.25    -999.25    -999.25    1.56480    -999.25  104.18410  104.18410    -999.25    -999.25   94.78200   94.78200    1.56480    1.58440    1.58440    -999.25    -999.25    -999.25    -999.25    -999.25    -999.25    1.72640   -6.39020   -1.00390    1.72640    -999.25 2400.36330
 4750.00000    -999.25   11.80280   11.80280  671.94990  670.46600    -999.25    -999.25    -999.25    -999.25    -999.25    1.49150    -999.25  106.13740  106.13740    -999.25    -999.25   96.25110   96.25110    1.49150    1.51020    1.51020    -999.25    -999.25    -999.25    -999.25    -999.25    -999.25    1.63470   -5.93560   -0.99690    1.63470    -999.25 2442.64500
 4800.00000    -999.25   10.51800   10.51800  719.81290  719.99420    -999.25    -999.25    -999.25    -999.25    -999.25    1.38890    -999.25  106.55950  106.55950    -999.25    -999.25   94.09800   94.09800    1.38890    1.41910    1.41910    -999.25    -999.25    -999.25    -999.25    -999.25    -999.25    1.58400   -5.60060   -1.10940    1.58400    -999.25 2427.05620
 4850.00000    -999.25   10.00210   10.00210  626.88990  624.45360    -999.25    -999.25    -999.25    -999.25    -999.25    1.60140    -999.25   99.85010   99.85010    -999.25    -999.25  100.75850  100.75850    1.60140    1.66920    1.66920    -999.25    -999.25    -999.25    -999.25    -999.25    -999.25    1.80370   -6.14370   -2.10010    1.80370    -999.25 2445.48510
 4900.00000    -999.25    9.99100    9.99100  709.57340  703.48220    -999.25    -999.25    -999.25    -999.25    -999.25    1.42150    -999.25  102.25500  102.25500    -999.25    -999.25   88.12180   88.12180    1.42150    1.43910    1.43910    -999.25    -999.25    -999.25    -999.25    -999.25    -999.25    1.52960   -5.30460   -1.70860    1.52960    -999.25 2460.53320
 4950.00000    -999.25   10.12120   10.12120  671.09550  665.29170    -999.25    -999.25    -999.25    -999.25    -999.25    1.50310    -999.25   98.10200   98.10200    -999.25    -999.25   86.92360   86.92360    1.50310    1.52300    1.52300    -999.25    -999.25    -999.25    -999.25    -999.25    -999.25    1.59120   -5.46560   -1.74070    1.59120    -999.25 2473.01860
 5000.00000    -999.25   10.38540   10.38540  794.94020  791.76560    -999.25    -999.25    -999.25    -999.25    -999.25    1.26300    -999.25  101.03910  101.03910    -999.25    -999.25   92.65210   92.65210    1.26300    1.27980    1.27980    -999.25    -999.25    -999.25    -999.25    -999.25    -999.25    1.42570   -3.41060    2.08380    1.42570    -999.25 2499.52590
 5050.00000    -999.25    9.74470    9.74470  526.34110  521.15910    -999.25    -999.25    -999.25    -999.25    -999.25    1.91880    -999.25   95.78090   95.78090    -999.25    -999.25   83.17750   83.17750    1.91880    1.94770    1.94770    -999.25    -999.25    -999.25    -999.25    -999.25    -999.25    1.93630   -9.53440   -3.40630    1.93630    -999.25 2547.44340
 5100.00000    -999.25    9.78370    9.78370 1028.98180  999.60020    -999.25    -999.25    -999.25    -999.25    -999.25    1.00040    -999.25  113.36580  113.36580    -999.25    -999.25   93.59870   93.59870    1.00040    1.04730    1.04730    -999.25    -999.25    -999.25    -999.25    -999.25    -999.25    1.18970   -6.38000    0.18790    1.18970    -999.25 2535.89160
 5150.00000    -999.25    9.65000    9.65000  552.19500  560.25550    -999.25    -999.25    -999.25    -999.25    -999.25    1.78490    -999.25   93.60290   93.60290    -999.25    -999.25   69.94660   69.94660    1.78490    1.83780    1.83780    -999.25    -999.25    -999.25    -999.25    -999.25    -999.25    1.94820  -10.90590   -4.33800    1.94820    -999.25 2573.32570
 5200.00000    -999.25    8.96640    8.96640  472.58790  470.27840    -999.25    -999.25    -999.25    -999.25    -999.25    2.12640    -999.25   90.78120   90.78120    -999.25    -999.25   72.99270   72.99270    2.12640    2.15380    2.15380    -999.25    -999.25    -999.25    -999.25    -999.25    -999.25    2.35870   -9.61900   -3.05110    2.35870    -999.25 2577.67360
 5250.00000    -999.25   10.74060   10.74060  721.56320  725.00540    -999.25    -999.25    -999.25    -999.25    -999.25    1.37930    -999.25  102.56640  102.56640    -999.25    -999.25   85.44510   85.44510    1.37930    1.42330    1.42330    -999.25    -999.25    -999.25    -999.25    -999.25    -999.25    1.53310   -7.56080   -0.99290    1.53310    -999.25 2585.08500
 5300.00000    -999.25   11.02870   11.02870 1002.40840  998.60200    -999.25    -999.25    -999.25    -999.25    -999.25    1.00140    -999.25  109.71230  109.71230    -999.25    -999.25   91.38060   91.38060    1.00140    1.03730    1.03730    -999.25    -999.25    -999.25    -999.25    -999.25    -999.25    1.20980   -6.07090    0.28400    1.20980    -999.25 2576.58520
 5350.00000    -999.25   10.92760   10.92760  954.70120  945.35830    -999.25    -999.25    -999.25    -999.25    -999.25    1.05780    -999.25  109.40690  109.40690    -999.25    -999.25   82.17230   82.17230    1.05780    1.09090    1.09090    -999.25    -999.25    -999.25    -999.25    -999.25    -999.25    1.30040   -4.97200    1.15640    1.30040    -999.25 2586.58690
 5400.00000    -999.25   10.90570   10.90570  784.38540  781.06690    -999.25    -999.25    -999.25    -999.25    -999.25    1.28030    -999.25  102.44050  102.44050    -999.25    -999.25   81.23520   81.23520    1.28030    1.31800    1.31800    -999.25    -999.25    -999.25    -999.25    -999.25    -999.25    1.48680   -7.42220   -1.52040    1.48680    -999.25 2614.61080
 5450.00000    -999.25   12.37450   12.37450 1194.84120 1178.82820    -999.25    -999.25    -999.25    -999.25    -999.25    0.84830    -999.25  113.42790  113.42790    -999.25   33.52270   81.32500   81.32500    0.84830    0.87000    0.87000    -999.25    -999.25    -999.25    -999.25    -999.25    -999.25    1.06810   -3.75390    1.92140    1.06810    -999.25 2643.94170
 5500.00000    -999.25   11.64370   11.64370  952.46280  940.46840    -999.25    -999.25    -999.25    -999.25    -999.25    1.06330    -999.25  110.01230  110.01230    -999.25   34.41430   82.80600   82.80600    1.06330    1.09050    1.09050  200.96530  200.96530    -999.25    -999.25    -999.25    -999.25    1.21130   -6.58030   -1.13160    1.21130    -999.25 2638.17580
 5550.00000    -999.25   11.21460   11.21460  891.42380  886.36770    -999.25    -999.25    -999.25    -999.25    -999.25    1.12820    -999.25  107.38400  107.38400    -999.25   20.18920   68.61870   68.61870    1.12820    1.17510    1.17510  214.60670  214.60670    -999.25    -999.25    -999.25    -999.25    1.31080   -6.67060   -1.44840    1.31080    -999.25 2641.01460
 5600.00000    -999.25    8.92040    8.92040  518.83520  516.60900    -999.25    -999.25    -999.25    -999.25    -999.25    1.93570    -999.25   92.94090   92.94090    -999.25   17.24420   66.72520   66.72520    1.93570    2.06640    2.06640  515.14920  515.14920    -999.25    -999.25    -999.25    -999.25    2.14960  -16.18950  -11.19390    2.14960    -999.25 2678.73340
 5650.00000    -999.25   10.86880   10.86880  633.35190  636.01090    -999.25    -999.25    -999.25    -999.25    -999.25    1.57230    -999.25   93.79680   93.79680    -999.25   29.46780   73.61070   73.61070    1.57230    1.59200    1.59200  510.72870  510.72870    -999.25    -999.25    -999.25    -999.25    1.62310   -5.67680   -3.02390    1.62310    -999.25 2692.15770
 5700.00000    -999.25   10.08190   10.08190  951.96300  949.93830    -999.25    -999.25    -999.25    -999.25    -999.25    1.05270    -999.25  104.65400  104.65400    -999.25   54.29010  101.39150  101.39150    1.05270    1.10770    1.10770  415.16380  415.16380    -999.25    -999.25    -999.25    -999.25    1.18090   -2.62080   -3.45010    1.18090    -999.25 2709.45950
 5750.00000    -999.25   10.60980   10.60980  892.97120  883.08020    -999.25    -999.25    -999.25    -999.25    -999.25    1.13240    -999.25   99.12900   99.12900    -999.25   51.38310  107.33020  107.33020    1.13240    1.14760    1.14760  318.52710  318.52710    -999.25    -999.25    -999.25    -999.25    1.30360   -2.57720   -0.17120    1.30360    -999.25 2745.38570
