~Version ---------------------------------------------------
VERS. 2.0 : CWLS log ASCII Standard -VERSION 2.0
WRAP.  NO : ONE LINE PER DEPTH STEP
~Well ------------------------------------------------------
STRT.F                   900.0 : START DEPTH
STOP.F                  9150.0 : STOP DEPTH
STEP.F                50.00000 : STEP LENGTH
NULL.                  -999.25 : NULL VALUE
COMP.           ROBBINS ENERGY : COMPANY
WELL.            BALDWIN J. #1 : WELL
FLD .                       WC : FIELD
LOC .                          : LOCATION
CNTY.                ROBERTSON : COUNTY
STAT.                    TEXAS : STATE
CTRY. UNITED STATES OF AMERICA : COUNTRY
SRVC.             Schlumberger : SERVICE COMPANY
DATE.              16-Nov-1991 : LOGDATE
API .           42395303790000 : API NUMBER
UWI .           42395303790000 : UNIQUE WELL ID
SLAT.WGS84       31.3093381365 : SURFACE LATITUDE
SLON.WGS84       -96.343477195 : SURFACE LONGITUDE
~Curve Information -----------------------------------------
DEPT.F                 : 
GRR .GAPI 07 310 01 00 : GAMMA RAY FROM RESISTIVITY
DRHO.G/C3 45 356 01 00 : BULK DENSITY CORRECTION
SFLU.OHMM 07 220 01 00 : SHALLOW FOCUSED RESISTIVITY (UNAVERAGED)
SPR .MV   07 010 01 00 : SPONTANEOUS POTENTIAL FROM RESISTIVITY
ILD .OHMM 07 120 46 00 : INDUCTION DEEP RESISTIVITY
ILM .OHMM 07 120 44 00 : INDUCTION MEDIUM RESISTIVITY
DCAL.IN   07 280 01 00 : DIFFERENTIAL CALIPER
PEF .B/E  45 358 01 00 : PHOTO ELECTRIC FACTOR
NPHI.DEC  42 890 01 00 : NEUTRON POROSITY
DPHI.DEC  45 890 10 00 : DENSITY POROSITY
~Params ----------------------------------------------------
PD  .                     GL : PERMANENT DATUM
EPD .FT                  338 : ELEVATION PERMANENT DATUM
LMF .                    RKB : LOG MEASURED FROM
DAPD.FT                   16 : FEET ABOVE PERMANENT DATUM
DMF .                    RKB : DRILLING MEASURED FROM
EKB .FT                  354 : KELLY BUSHING
EDF .FT                  353 : DRILLING FLOOR
EGL .FT                  338 : GROUND LEVEL
DATE.               11/18/91 : RUN DATE
RUN .                      1 : RUN NUMBER
DD  .FT                 9200 : DEPTH DRILLER
DL  .FT                 9188 : DEPTH LOGGER
BLI .FT                 9181 : BOTTOM LOG INTERVAL
TLI .FT                  945 : TOP LOG INTERVAL
CS  .IN                8.625 : CASING SIZE
CBD .FT                  955 : CASING BOTTOM DRILLER
CBL .FT                  945 : CASING BOTTOM LOGGER
BS  .IN                7.875 : BIT SIZE
BSD .FT                 9200 : BIT SIZE AT DEPTH
DFT .                    GEL : DRILLING FLUID TYPE
DFD .                    9.8 : DRILLING FLUID DENSITY
DFV .                     39 : DRILLING FLUID VISCOSITY
DFPH.                      9 : DRILLING FLUID PH
DFL .                    9.2 : DRILLING FLUID LOSS
MSS .              CIRC TANK : MUD SAMPLE SOURCE
RMS .OHMM                2.4 : RESISTIVITY MUD SAMPLE
MST .DEGF                 96 : MUD SAMPLE TEMPERATURE
RMF .OHMM                1.8 : RESISTIVITY MUD FILTRATE SAMPLE
MFST.DEGF                 96 : MUD FILTRATE SAMPLE TEMPERATURE
RMC .OHMM                3.6 : RESISTIVITY MUD CAKE
MCST.DEGF                 96 : MUD CAKE SAMPLE TEMPERATURE
MFSS.                   CALC : MUD FILTRATE SAMPLE SOURCE
MCSS.                   CALC : MUD CAKE SAMPLE SOURCE
RMB .OHMM              1.148 : RESISTIVITY MUD AT BHT
TCS .HRS                 300 : TIME CIRCULATED STOPPED
TLAB.HRS                 930 : TIME LOGGER AT BOTTOM
LUN .                   2019 : LOGGING UNIT NUMBER
LUL .                  TYLER : LOGGING UNIT LOCATION
ENGI.               BROWNING : RECORDING ENGINEER
WITN.                  SNELL : WITNESSED BY
CLNT.                A2DTECH : CLIENT CODE
ORIG.     1" 2" 5" 10" PRINT : ORIGIN OF DATA
UWI .         42395303790000 : UNIQUE WELL ID
DICO. A2D Technologies, Inc. : DIGITIZING COMPANY
~Other -----------------------------------------------------
~ASCII -----------------------------------------------------
# ...
 4200.00000   71.06970    0.17210    2.00110  -33.36820    1.85670    1.87570    4.47160    3.29630    -999.25    -999.25
 4250.00000   59.41710    0.03470    2.65300  -29.41400    2.18360    2.20800    2.60030    3.32150    -999.25    -999.25
 4300.00000   31.59070    0.03070    3.51670  -32.41430    3.08040    3.11200    2.09090    3.34670    -999.25    -999.25
 4350.00000   30.13480    0.01690    4.15860  -33.93870    3.20370    3.23590    2.38770    3.37190    -999.25    -999.25
 4400.00000   42.17730    0.01230    2.91810  -29.30920    2.89040    2.93410    2.88660    3.39710    -999.25    -999.25
 4450.00000   37.07470    0.02060    4.48380  -31.39320    3.96890    4.02060    3.05900    3.42220    -999.25    -999.25
 4500.00000   36.03610    0.00890    4.70690  -33.90960    3.48640    3.52150    3.03820    3.44740    -999.25    -999.25
 4550.00000   23.42930    0.01370    3.63320  -51.47360    3.50420    3.54460    2.57020    3.47260    -999.25    -999.25
 4600.00000   22.72880    0.03650    6.20990  -52.66000    3.70770    4.02140    2.55290    3.49780    -999.25    -999.25
 4650.00000   89.12100    0.09830    2.09940  -33.73920    1.13330    1.14590    3.98450    3.52300    -999.25    -999.25
 4700.00000   48.36530    0.02830   10.37940  -41.01160    5.87810    6.02260    2.46340    3.54820    -999.25    -999.25
 4750.00000  105.40790    0.01330    1.31880  -31.91750    1.08120    1.09400    5.83240    3.57340    -999.25    -999.25
 4800.00000   88.34590    0.05730    1.38600  -33.14910    1.05340    1.06410    6.83060    3.59850    -999.25    -999.25
 4850.00000   91.52580    0.04040    1.67010  -32.53650    1.33240    1.34590    7.85630    3.62370    -999.25    -999.25
 4900.00000   82.27430    0.14640    1.78460  -31.63560    1.61220    1.62860    8.31120    3.64890    -999.25    -999.25
 4950.00000   93.52430    0.01610    1.71660  -30.89490    1.32590    1.33980    8.36180    3.67410    -999.25    -999.25
 5000.00000  104.41080    0.12800    2.46850  -30.82840    2.18220    2.20580    4.96620    3.69930    -999.25    -999.25
 5050.00000   88.94110    0.09310    3.03840  -28.76080    2.06550    2.08630    3.95570    3.72450    -999.25    -999.25
 5100.00000   92.49400    0.10990    4.05420  -25.33730    3.06520    3.09610    2.39210    3.74960    -999.25    -999.25
 5150.00000   57.39900    0.11890    7.14720  -33.56470    3.70230    3.75530    2.47660    3.77480    -999.25    -999.25
 5200.00000   76.26370    0.13440    1.95750  -31.84290    1.86980    1.88960    4.84860    3.80000    -999.25    -999.25
 5250.00000   72.52070    0.14610    2.37340  -31.66660    2.06300    2.08440    5.70860    3.82520    -999.25    -999.25
 5300.00000   71.35280    0.09000    1.80090  -29.05940    1.38660    1.40090    8.36720    3.85040    -999.25    -999.25
 5350.00000   84.42520    0.03090    1.74840  -30.90240    1.35900    1.37630    5.23360    3.87560    -999.25    -999.25
 5400.00000   20.63360    0.01190   14.28490  -39.69940   11.98400   12.10460    2.21130    3.90070    -999.25    -999.25
 5450.00000   12.41360    0.01930   40.56470  -28.69850   15.61820   18.65570    2.87030    3.92590    -999.25    -999.25
 5500.00000   58.28510    0.04510    3.10210  -26.90190    3.32290    3.37450    4.77580    3.95110    -999.25    -999.25
 5550.00000   21.57200    0.02780   11.97520  -31.06000   10.41600   10.53230    2.79340    3.97630    -999.25    -999.25
 5600.00000   18.52700    0.01960   10.12670  -35.93520   10.08580   10.19070    3.10510    4.00150    -999.25    -999.25
 5650.00000   12.75410    0.01060   27.79640  -47.07800   14.17160   16.64990    3.67040    4.02670    -999.25    -999.25
 5700.00000   20.23980    0.03730   13.42410  -25.88020   11.68380   12.96580    4.18910    4.05180    -999.25    -999.25
 5750.00000   21.14100    0.01750   12.55380  -27.78670   11.24100   11.37480    3.30610    4.07700    -999.25    -999.25
 5800.00000   20.89460    0.02540   14.00380  -26.22350   12.53530   12.67270    3.57500    4.10220    -999.25    -999.25
 5850.00000   28.96740    0.01870   10.33120  -29.22560    9.95420   10.08920    3.20660    4.12740    -999.25    -999.25
 5900.00000   11.40970    0.01910   59.27970  -43.48710   24.63410   24.51070    3.17680    4.15260    -999.25    -999.25
 5950.00000   39.11270    0.07990   10.13870  -29.33240    7.04760    7.16540    3.90960    4.17780    -999.25    -999.25
 6000.00000   20.02530    0.00310   22.58350  -55.68920   16.42160   16.59910    3.16800    4.20290    -999.25    -999.25
 6050.00000   40.58630    0.02830   17.80540  -39.45810   15.29740   15.58230    3.29090    4.22810    -999.25    -999.25
 6100.00000   70.50030    0.04610    3.43540  -38.30250    3.02750    3.08080    3.83630    4.25330    -999.25    -999.25
 6150.00000   36.17770    0.00440   15.02910  -25.97640   11.08840   11.20660    2.96200    4.27850    -999.25    -999.25
 6200.00000   53.40010    0.05100    8.45070  -27.32100    5.44290    5.61530    3.65330    4.30370    -999.25    -999.25
 6250.00000   59.07380    0.16390    2.32960  -26.10340    2.23220    2.28140    5.65640    4.32890    -999.25    -999.25
 6300.00000   67.58130    0.15570    2.64250  -26.50610    1.99910    2.25980    6.71390    4.35400    -999.25    -999.25
 6350.00000   41.42690    0.01660   11.73950  -27.55020   12.80390   12.95210    2.63750    4.37920    -999.25    -999.25
 6400.00000   33.48960    0.01780    7.15740  -25.82960    5.05330    5.10580    3.26040    4.40440    -999.25    -999.25
 6450.00000   53.58780    0.13780    2.00320  -30.87880    1.30730    1.32410    7.10370    4.42960    -999.25    -999.25
 6500.00000   44.29650    0.08940    2.59470  -38.51070    2.08040    2.19410    5.22600    4.45480    -999.25    -999.25
 6550.00000   34.05910    0.01750    9.24750  -38.53550    8.42160    8.50990    2.92020    4.48000    -999.25    -999.25
 6600.00000   43.44340    0.11340    3.16930  -41.43700    2.63960    2.68060    4.36820    4.50510    -999.25    -999.25
 6650.00000   24.32370    0.01830   36.45780  -41.04290   12.16420   16.13460    3.10460    4.53030    -999.25    -999.25
 6700.00000   38.48200    0.00700    4.45920  -41.36970    4.52550    4.44260    3.83530    4.55550    -999.25    -999.25
 6750.00000   53.83380    0.00420   30.17990  -45.57530   24.19450   24.44040    2.96710    4.58070    -999.25    -999.25
 6800.00000   28.95810    0.01430   24.91610  -40.58610    6.56880    6.66610    3.12190    4.60590    -999.25    -999.25
 6850.00000   51.41940   -0.00020    7.24480  -40.68520    6.05990    6.12670    4.29540    4.63110    -999.25    -999.25
 6900.00000   51.48920    0.02790   51.30890  -39.76290    9.94020   10.10530    2.91090    4.65620    -999.25    -999.25
 6950.00000   65.92150    0.06820    2.94850  -42.68720    3.04280    3.07800    6.00490    4.68140    -999.25    -999.25
 7000.00000   68.82770    0.04340    4.36960  -42.40740    3.25870    3.29490    4.08850    4.70660    -999.25    -999.25
 7050.00000   59.85790    0.04120    7.69230  -39.89780    6.15120    6.31340    4.32650    4.73180    -999.25    -999.25
 7100.00000   40.52140    0.01650   40.46120  -38.43920   14.39770   14.54250    2.73610    4.75700    -999.25    -999.25
 7150.00000   49.31930    0.04420    3.25720  -41.18890    3.03900    3.07920    4.85080    4.78220    -999.25    -999.25
 7200.00000   73.64480    0.00500    5.57810  -41.52070    7.13290    7.20570    3.18810    4.80730    -999.25    -999.25
 7250.00000   24.46220    0.04320   88.33230  -51.44460   12.71310   13.17760    3.90370    4.83250    -999.25    -999.25
 7300.00000   31.37310    0.01770   27.41840  -39.79510   17.78200   18.52910    2.84640    4.85770    -999.25    -999.25
 7350.00000   41.92830    0.01450   11.52290  -40.96320    6.51060    6.67840    3.19750    4.88290    -999.25    -999.25
 7400.00000   42.40720    0.01850   19.63380  -41.19230    8.62460    9.99350    2.78150    4.30470    -999.25    -999.25
 7450.00000   34.35690    0.02330   45.45300  -38.00870   25.62370   26.01280    2.64000    5.05950    0.01280    0.00150
