~Version ---------------------------------------------------
VERS.      2.0 : CWLS log ASCII Standard -VERSION 2.0
WRAP.      YES : Multiple lines per depth step
CREA. 03/04/13 : LAS Creation Date
~Well ------------------------------------------------------
STRT.FT                 1400.0 : START DEPTH
STOP.FT                10150.0 : STOP DEPTH
STEP.FT               50.00000 : STEP LENGTH
NULL.                  -999.25 : NULL VALUE
COMP.     TXO PRODUCTION CORP. : COMPANY
WELL.               GUEST A #1 : WELL
FLD .               BEAR GRASS : FIELD
LOC .                          : LOCATION
CNTY.                     LEON : COUNTY
STAT.                    TEXAS : STATE
CTRY. UNITED STATES OF AMERICA : COUNTRY
SRVC.            Dresser Atlas : SERVICE COMPANY
DATE.              30-Oct-1981 : LOGDATE
API .           42289304700000 : API NUMBER
UWI .           42289304700000 : UNIQUE WELL ID
SLAT.WGS84        31.355337108 : SURFACE LATITUDE
SLON.WGS84       -96.287476523 : SURFACE LONGITUDE
~Curve Information -----------------------------------------
DEPT    .FT    : DEPTH FEET
ACED    .US/F  : ACOUSTIC FROM SONIC LOG
CALDED  .IN    : CALIPER FROM DENSITY LOG
CALSED  .IN    : CALIPER FROM SONIC LOG [ADJ. TO CALDED]
CALWS   .IN    : CALIPER [CALSED]
CNLSED  .V/V   : COMPENSATED NEUTRON POROSITY LIME FROM DENSITY LOG
CONDWS  .MMHO  : CONDUCTIVITY [1000/DRESWS]
CORRED  .G/C3  : DENSITY CORRECTION FROM DENSITY LOG
DCORWS  .G/C3  : DENSITY CORRECTION [CORRED]
DENED   .G/C3  : COMPENSATED BULK DENSITY FROM DENSITY LOG
DENWS   .G/C3  : FORMATION BULK DENSITY [DENED]
DPOWS   .V/V   : DENSITY POROSITY LIME [PORDLSED]
DRESWS  .OHMM  : DEEP RESISTIVITY [RILDED]
DTWS    .US/F  : COMPRESSIONAL SONIC [ACED]
GR1ED   .GAPI  : GAMMA RAY FROM CBL LOG [ADJ. TO GRDED]
GRDED   .GAPI  : GAMMA RAY FROM DENSITY LOG
GRED    .GAPI  : GAMMA RAY FROM CBL LOG [ADJ. TO GRDED]
GRSED   .GAPI  : GAMMA RAY FROM SONIC LOG [ADJ. TO GRDED]
GRWS    .GAPI  : GAMMA RAY [GRED SPL. TO GRDED 2138'- 2296' & 10100.5-10122']
MRESWS  .OHMM  : MEDIUM RESISTIVITY [RILMED]
NPOWS   .V/V   : NEUTRON POROSITY LIME [CNLSED]
PORDLSED.V/V   : DENSITY POROSITY LIME [M=2.71, F=1.0] FROM DENSITY LOG
RFOCED  .OHMM  : SHALLOW FOCUSED RESISTIVITY FROM RESISTIVITY LOG
RILDED  .OHMM  : DEEP INDUCTION RESISTIVITY FROM RESISTIVITY LOG
RILMED  .OHMM  : MEDIUM INDUCTION RESISTIVITY FROM RESISITIVITY LOG
SPRED   .MV    : SPONTANEOUS POTENTIAL FROM RESISTIVITY LOG
SPSED   .MV    : SPONTANEOUS POTENTIAL FROM SONIC LOG [ADJ. TO SPRED]
SPWS    .MV    : SPONATNEOUS POTENTIAL [BASELINE 0 MV, SPRED]
SRESWS  .OHMM  : SHALLOW RESISTIVITY [RFOCED]
TENDED  .LBF   : TENSION FROM DENSITY LOG
TENRED  .LBF   : TENSION FROM RESISTIVITY LOG
TENSED  .LBF   : TENSION FROM SONIC LOG
~Params ----------------------------------------------------
PD  .                     GL : PERMANENT DATUM
EPD .FT                  418 : ELEVATION PERMANENT DATUM
LMF .                     KB : LOG MEASURED FROM
DAPD.FT                   23 : FEET ABOVE PERMANENT DATUM
DMF .                     KB : DRILLING MEASURED FROM
EKB .FT                  441 : KELLY BUSHING
EDF .FT                  440 : DRILLING FLOOR
EGL .FT                  418 : GROUND LEVEL
DATE.               10/30/81 : RUN DATE
RUN .                      2 : RUN NUMBER
DD  .FT                10174 : DEPTH DRILLER
DL  .FT                10156 : DEPTH LOGGER
BLI .FT                10154 : BOTTOM LOG INTERVAL
TLI .FT                 9800 : TOP LOG INTERVAL
CS  .IN                8.625 : CASING SIZE
CBD .FT                 1350 : CASING BOTTOM DRILLER
BS  .IN                7.875 : BIT SIZE
BSD .FT                10174 : BIT SIZE AT DEPTH
DFT .                  LIGNO : DRILLING FLUID TYPE
DFD .                     10 : DRILLING FLUID DENSITY
DFPH.                     10 : DRILLING FLUID PH
DFL .                   10.5 : DRILLING FLUID LOSS
MSS .               FLOWLINE : MUD SAMPLE SOURCE
RMS .OHMM               1.48 : RESISTIVITY MUD SAMPLE
MST .DEGF                 90 : MUD SAMPLE TEMPERATURE
RMF .OHMM               1.11 : RESISTIVITY MUD FILTRATE SAMPLE
MFST.DEGF                 90 : MUD FILTRATE SAMPLE TEMPERATURE
RMC .OHMM               1.85 : RESISTIVITY MUD CAKE
MCST.DEGF                 90 : MUD CAKE SAMPLE TEMPERATURE
MFSS.                      C : MUD FILTRATE SAMPLE SOURCE
MCSS.                      C : MUD CAKE SAMPLE SOURCE
RMB .OHMM               0.51 : RESISTIVITY MUD AT BHT
TCS .HRS                 600 : TIME CIRCULATED STOPPED
LUN .                   6335 : LOGGING UNIT NUMBER
LUL .                  TYLER : LOGGING UNIT LOCATION
ENGI.                  BANKS : RECORDING ENGINEER
WITN.                  WYNNE : WITNESSED BY
CLNT.                A2DTECH : CLIENT CODE
ORIG.            2" 5" PRINT : ORIGIN OF DATA
UWI .         42289304700000 : UNIQUE WELL ID
DICO. A2D Technologies, Inc. : DIGITIZING COMPANY
~Other -----------------------------------------------------
TOOL RUN: CBL-DIL-SFL-CNFD-SONIC
~ASCII -----------------------------------------------------
# ...
 4850.00000   94.25610   13.71820   13.46180   13.46180    0.21110  481.53320    0.15770    0.15770    2.35750    2.35750    0.20300    2.07670   94.25610    -999.25  103.25610    -999.25   96.75100  103.25610    2.14940    0.21110    0.20300    2.80390    2.07670    2.14940  -71.66870  -60.84310   -4.84240    2.80390   -2.44870    6.62000    5.24070
 4900.00000   96.90840   14.30520   14.21500   14.21500    0.20710  498.70340    0.10220    0.10220    2.38700    2.38700    0.19180    2.00520   96.90840    -999.25  106.08020    -999.25   91.32340  106.08020    2.07540    0.20710    0.19180    2.38990    2.00520    2.07540  -72.19090  -61.01110   -5.36460    2.38990   -0.58450    5.26280    8.67590
 4950.00000  109.57030   14.47550   14.33650   14.33650    0.26070  864.67790    0.15030    0.15030    2.21350    2.21350    0.29030    1.15650  109.57030    -999.25  109.78820    -999.25   97.73700  109.78820    1.18370    0.26070    0.29030    1.77190    1.15650    1.18370  -71.35590  -58.82570   -4.52960    1.77190   -1.18700   -3.05310   -1.92280
 5000.00000  106.35010   14.66860   14.53430   14.53430    0.24430  805.73680    0.14280    0.14280    2.27200    2.27200    0.25600    1.24110  106.35010    -999.25  100.62700    -999.25   91.14220  100.62700    1.27060    0.24430    0.25600    1.81040    1.24110    1.27060  -69.85070  -58.51940   -3.02440    1.81040    5.61880   -3.65050   -0.62230
 5050.00000  111.00490   15.11840   14.81410   14.81410    0.24110  810.96420    0.04480    0.04480    2.31100    2.31100    0.23330    1.23310  111.00490    -999.25  108.05110    -999.25   94.16480  108.05110    1.26160    0.24110    0.23330    1.99100    1.23310    1.26160  -69.32370  -58.45660   -2.49740    1.99100    0.95360   -0.82000   -0.35760
 5100.00000   96.01080   13.30800   13.30590   13.30590    0.25090  670.46600    0.13820    0.13820    2.46810    2.46810    0.14170    1.49150   96.01080    -999.25  117.16420    -999.25  101.09800  117.16420    1.62780    0.25090    0.14170    2.03280    1.49150    1.62780  -68.37130  -58.01570   -1.54490    2.03280    0.70330   -3.81860    1.93470
 5150.00000   99.58320   12.39170   12.25200   12.25200    0.24190  431.22040    0.15380    0.15380    2.38430    2.38430    0.19040    2.31900   99.58320    -999.25  107.05650    -999.25   97.67200  107.05650    2.39840    0.24190    0.19040    3.02230    2.31900    2.39840  -72.78610  -58.88240   -5.95970    3.02230    3.06270   -4.63940    5.90550
 5200.00000   91.44930   11.77560   11.95960   11.95960    0.21090  443.79350    0.15840    0.15840    2.41830    2.41830    0.17060    2.25330   91.44930    -999.25  122.81380    -999.25  108.30480  122.81380    2.43940    0.21090    0.17060    2.90090    2.25330    2.43940  -71.33490  -58.12790   -4.50850    2.90090    3.93070    5.77670   -1.11990
 5250.00000   98.71500    9.93080   10.21030   10.21030    0.10920  208.35940    0.04860    0.04860    2.37730    2.37730    0.19460    4.79940   98.71500   66.54180   74.08390   56.83470   69.72390   74.08390    4.42210    0.10920    0.19460    3.95440    4.79940    4.42210  -77.40780  -65.74950  -10.58140    3.95440   -4.60430   -0.85960   10.83640
 5300.00000   81.86350   13.43970   13.73990   13.73990    0.18950  337.87210    0.18560    0.18560    2.22380    2.22380    0.28440    2.95970   81.86350   73.48420   74.55470   51.41940   62.62850   74.55470    3.05400    0.18950    0.28440    3.03520    2.95970    3.05400  -78.01950  -67.77430  -11.19310    3.03520    2.69890   -0.56640    0.46200
 5350.00000  101.59080   13.38220   13.70760   13.70760    0.21090  436.18600    0.09600    0.09600    2.30730    2.30730    0.23570    2.29260  101.59080   73.41710   79.03460   63.55440   73.38960   79.03460    2.48450    0.21090    0.23570    2.68920    2.29260    2.48450  -74.09560  -61.22280   -7.26920    2.68920    1.69460    0.59500    0.28810
 5400.00000   97.06660   15.52660   15.42620   15.42620    0.23420  709.77360    0.07860    0.07860    2.35310    2.35310    0.20880    1.40890   97.06660   63.87540   98.98980   54.84770   80.73900   98.98980    1.44280    0.23420    0.20880    1.93780    1.40890    1.44280  -71.25930  -58.44720   -4.43290    1.93780   -1.13000   -3.60400    5.98160
 5450.00000   92.85410   14.03670   14.39010   14.39010    0.23360  656.42640    0.17150    0.17150    2.32990    2.32990    0.22220    1.52340   92.85410   61.99830   87.15990   67.22520   80.68980   87.15990    1.59070    0.23360    0.22220    2.25820    1.52340    1.59070  -68.88630  -58.24170   -2.05990    2.25820   -3.24090   -4.00280    0.61080
 5500.00000  104.01150   14.13430   13.68180   13.68180    0.23740  707.11360    0.15740    0.15740    2.18480    2.18480    0.30720    1.41420  104.01150   58.83970   85.05420   52.37100   77.34850   85.05420    1.44880    0.23740    0.30720    1.94450    1.41420    1.44880  -69.13560  -58.33170   -1.79730    1.94450    6.50350   -6.32290   -1.18530
 5550.00000   79.12550   11.46990   11.92850   11.92850    0.18600  365.07010    0.22690    0.22690    2.45950    2.45950    0.14630    2.73920   79.12550   33.82570   67.02160   45.29780   65.10220   67.02160    3.36530    0.18600    0.14630    3.01300    2.73920    3.36530  -70.85290  -58.62160   -4.84840    3.01300    5.42110    8.81480    2.88580
 5600.00000   56.04760   10.59430   10.49270   10.49270    0.05520   75.54350    0.03380    0.03380    2.60670    2.60670    0.05610   13.23740   56.04760   37.18090   25.72560   45.22640   32.31530   25.72560   15.01600    0.05520    0.05610   11.30850   13.23740   15.01600  -82.12150  -69.16230  -15.29100   11.30850   -1.08420   -0.14960    1.30480
 5650.00000   67.87550   11.10350   10.78280   10.78280    0.05720  132.72100    0.01700    0.01700    2.64270    2.64270    0.03790    7.53460   67.87550   63.60450   41.30430   47.55930   41.35450   41.30430    8.34790    0.05720    0.03790    8.96950    7.53460    8.34790  -69.11580  -58.95280   -1.45940    8.96950    2.75200   -2.32580    0.91470
 5700.00000   70.65900   11.18950   11.48120   11.48120    0.10680  169.21330    0.00850    0.00850    2.61970    2.61970    0.05070    5.90970   70.65900   40.08920   42.24130   36.01340   45.95860   42.24130    7.07890    0.10680    0.05070    5.99900    5.90970    7.07890  -72.37050  -58.37740   -5.22390    5.99900    0.94580   -2.45190    3.38940
 5750.00000   61.66050   10.41420   10.21340   10.21340    0.05730  119.94430   -0.01800   -0.01800    2.65470    2.65470    0.03100    8.33720   61.66050   33.45030   35.15910   39.44340   36.53380   35.15910    9.98550    0.05730    0.03100    8.28660    8.33720    9.98550  -72.53400  -58.68950   -4.03100    8.28660   -2.89510   -5.07120    5.00430
 5800.00000   58.95970   10.34270    9.99350    9.99350    0.04020   60.79620   -0.02250   -0.02250    2.63770    2.63770    0.03950   16.44840   58.95970   26.80080   23.68030   35.45220   27.65480   23.68030   22.35130    0.04020    0.03950   19.10490   16.44840   22.35130  -93.85450  -78.33220  -25.35150   19.10490   -3.31990    2.12220   -5.80230
 5850.00000   62.82890   10.98920   10.75620   10.75620    0.08520  126.23230    0.04910    0.04910    2.62040    2.62040    0.05250    7.92190   62.82890   39.70560   35.82630   31.95310   25.34680   35.82630    9.56710    0.08520    0.05250    7.36110    7.92190    9.56710  -82.62180  -61.18280  -14.11880    7.36110   -3.54950    4.22450   -0.09800
 5900.00000   58.38130   11.22710   10.53550   10.53550    0.04260  103.87020    0.21280    0.21280    2.52170    2.52170    0.10300    9.62740   58.38130   44.82280   26.79580   40.31480   18.69940   26.79580    9.97050    0.04260    0.10300   11.19440    9.62740    9.97050  -78.77330  -55.89920  -10.27030   11.19440   -1.22930   -0.02980    0.33740
 5950.00000   56.36930   10.66260   10.19910   10.19910    0.04090   97.47920    0.10880    0.10880    2.54150    2.54150    0.09600   10.25860   56.36930   28.75580   21.55530   32.37060   15.38690   21.55530   10.66510    0.04090    0.09600    9.35530   10.25860   10.66510  -83.73450  -60.76140  -15.23150    9.35530    1.49600   -2.93970    0.66100
