~Version ---------------------------------------------------
VERS.      2.0 : CWLS log ASCII Standard -VERSION 2.0
WRAP.      YES : Multiple lines per depth step
CREA. 09/17/18 : LAS Creation Date
~Well ------------------------------------------------------
STRT.FT                 1100.0 : START DEPTH
STOP.FT                 9550.0 : STOP DEPTH
STEP.FT               50.00000 : STEP LENGTH
NULL.                  -999.25 : NULL VALUE
COMP.     BURK ROYALTY COMPANY : COMPANY
WELL.             KING UNIT #1 : WELL
FLD .               JACQUELINE : FIELD
LOC .                          : LOCATION
CNTY.                 ATASCOSA : COUNTY
STAT.                    TEXAS : STATE
CTRY. UNITED STATES OF AMERICA : COUNTRY
SRVC.             Schlumberger : SERVICE COMPANY
DATE.              17-Aug-1994 : LOGDATE
API .           42013340230000 : API NUMBER
UWI .           42013340230000 : UNIQUE WELL ID
SLAT.WGS84         28.87747446 : SURFACE LATITUDE
SLON.WGS84      -98.2411771051 : SURFACE LONGITUDE
~Curve Information -----------------------------------------
DEPT    .FT    : DEPTH FEET
CALWS   .IN    : CALIPER [DCALRED+BIT]
CONDWS  .MMHO  : DEEP CONDUCTIVITY [1000/DRESWS]
DCALRED .IN    : DIFFERENTIAL CALIPER FROM PISFL-LDT-CNL LOG
DCORWS  .G/C3  : DENSITY CORRECTION [DRHOED]
DENWS   .G/C3  : BULK DENSITY [CALC. FROM DPOLSWS]
DPOLSWS .V/V   : DENSITY POROSITY (LS) [M=2.71 F=1.00] [PHNDLSED]
DRESWS  .OHMM  : DEEP RESISTIVITY [IDERED]
DRHOED  .G/C3  : DENSITY CORRECTION  FROM PISFL-LDT-CNL LOG
GRRED   .GAPI  : GAMMA RAY  FROM PISFL-LDT-CNL LOG
GRWS    .GAPI  : GAMMA RAY [GRRED]
IDERED  .OHMM  : INDUCTION DEEP ENHANCED RESOLUTION PHASE RESISTIVITY
IMERED  .OHMM  : INDUCTION MEDIUM ENHANCED RESOLUTION PHASE RESISTIVITY
MRESWS  .OHMM  : MEDIUM RESISTIVITY [IMERED]
NPHILSED.V/V   : NEUTRON POROSITY LIMESTONE  FROM PISFL-LDT-CNL LOG
NPOLSWS .V/V   : NEUTRON POROSITY LIMESTONE [NPHILSED]
PEFED   .B/E   : PHOTOELECTRIC FACTOR  FROM PISFL-LDT-CNL LOG
PEFWS   .B/E   : PHOTOELECTRIC FACTOR [PEFED]
DPHILSED.V/V   : DENSITY POROSITY (LS)  FROM PISFL-LDT-CNL LOG
SFLUED  .OHMM  : SPHERICALLY FOCUSED LOG RESISTIVITY
SPRED   .MV    : SPONTANEOUS POTENTIAL  FROM PISFL-LDT-CNL LOG
SPWS    .MV    : SPONTANEOUS POTENTIAL [BASELINE 0 MV] [SPRED]
SRESWS  .OHMM  : SHALLOW RESISTIVITY [SFLUED]
TENRED  .LBF   : TENSION  FROM PISFL-LDT-CNL LOG
~Params ----------------------------------------------------
PD  .                     GL : PERMANENT DATUM
EPD .FT                  279 : ELEVATION PERMANENT DATUM
LMF .                     KB : LOG MEASURED FROM
DAPD.FT                 14.4 : FEET ABOVE PERMANENT DATUM
DMF .                     KB : DRILLING MEASURED FROM
EKB .FT                293.4 : KELLY BUSHING
EDF .FT                292.4 : DRILLING FLOOR
EGL .FT                  279 : GROUND LEVEL
DATE.               08/17/94 : RUN DATE
RUN .                      1 : RUN NUMBER
DD  .FT                 9532 : DEPTH DRILLER
DL  .FT                 9524 : DEPTH LOGGER
BLI .FT                 9515 : BOTTOM LOG INTERVAL
TLI .FT                 1095 : TOP LOG INTERVAL
CS  .IN                8.625 : CASING SIZE
CBD .FT                 1095 : CASING BOTTOM DRILLER
CBL .FT                 1100 : CASING BOTTOM LOGGER
BS  .IN                7.875 : BIT SIZE
BSD .FT                 9532 : BIT SIZE AT DEPTH
DFT .         LIGNOSULFONATE : DRILLING FLUID TYPE
DFD .                   10.3 : DRILLING FLUID DENSITY
DFV .                     41 : DRILLING FLUID VISCOSITY
DFPH.                    8.5 : DRILLING FLUID PH
DFL .                    7.6 : DRILLING FLUID LOSS
MSS .               FLOWLINE : MUD SAMPLE SOURCE
RMS .OHMM              3.123 : RESISTIVITY MUD SAMPLE
MST .FT                   75 : MUD SAMPLE TEMPERATURE
RMF .OHMM              2.469 : RESISTIVITY MUD FILTRATE SAMPLE
MFST.FT                   75 : MUD FILTRATE SAMPLE TEMPERATURE
RMC .OHMM               1.98 : RESISTIVITY MUD CAKE
MCST.FT                   75 : MUD CAKE SAMPLE TEMPERATURE
MFSS.               MEASURED : MUD FILTRATE SAMPLE SOURCE
MCSS.               MEASURED : MUD CAKE SAMPLE SOURCE
RMB .OHMM              1.266 : RESISTIVITY MUD AT BHT
TCS .HRS                  30 : TIME CURCULATED STOPPED
TLAB.HRS                 830 : TIME LOGGER AT BOTTOM
LUN .                   2017 : LOGGING UNIT NUMBER
LUL .               VICTORIA : LOGGING UNIT LOCATION
ENGI.         DAVID BUMBAUGH : RECORDING ENGINEER
WITN.            JACK AUSTIN : WITNESSED BY
CLNT.                A2DTECH : CLIENT CODE
ORIG.           5" 10" PRINT : ORIGIN OF DATA
UWI .         42013340230000 : UNIQUE WELL ID
DICO. A2D Technologies, Inc. : DIGITIZING COMPANY
~Other -----------------------------------------------------
PISFL-LDT-CNL LOGGED I COMBO.
GAPS ON NEUTRON/DENSITY DUE TO INTERVALS NOT RECORDED ON LOG IMAGE.
~ASCII -----------------------------------------------------
 1100.00000   10.53170    -999.25    0.65670    -999.25    -999.25    -999.25    -999.25    -999.25   34.21250   34.21250    -999.25    -999.25    -999.25    -999.25    -999.25    -999.25    -999.25    -999.25    -999.25    -999.25    -999.25    -999.25 1181.56270
 1150.00000   13.66580  776.21670    3.79080    -999.25    -999.25    -999.25    1.28830    -999.25   75.22630   75.22630    1.28830    1.30520    1.30520    -999.25    -999.25    -999.25    -999.25    -999.25    1.40890    4.31780   -4.01780    1.40890 1146.77640
 1200.00000   15.30780  401.28410    5.43280    -999.25    -999.25    -999.25    2.49200    -999.25   76.79640   76.79640    2.49200    2.17200    2.17200    -999.25    -999.25    -999.25    -999.25    -999.25    2.33500    2.78680   -5.74590    2.33500 1188.26930
 1250.00000   15.81530  432.78800    5.94030    -999.25    -999.25    -999.25    2.31060    -999.25   60.17960   60.17960    2.31060    2.10090    2.10090    -999.25    -999.25    -999.25    -999.25    -999.25    1.74880    1.99890   -6.73100    1.74880 1169.29720
 1300.00000   17.53900  739.80910    7.66400    -999.25    -999.25    -999.25    1.35170    -999.25   67.58980   67.58980    1.35170    1.32290    1.32290    -999.25    -999.25    -999.25    -999.25    -999.25    1.63860    5.81710   -3.11000    1.63860 1196.72380
 1350.00000   17.30760  743.77090    7.43260    -999.25    -999.25    -999.25    1.34450    -999.25   70.73500   70.73500    1.34450    1.26050    1.26050    -999.25    -999.25    -999.25    -999.25    -999.25    1.33520    5.51720   -3.60700    1.33520 1206.41540
 1400.00000   15.33710  242.63600    5.46210    -999.25    -999.25    -999.25    4.12140    -999.25   61.61360   61.61360    4.12140    4.06430    4.06430    -999.25    -999.25    -999.25    -999.25    -999.25    5.35060  -15.77210  -25.09350    5.35060 1245.26350
 1450.00000   14.42700  324.27520    4.55200    -999.25    -999.25    -999.25    3.08380    -999.25   36.37720   36.37720    3.08380    3.68750    3.68750    -999.25    -999.25    -999.25    -999.25    -999.25    4.95540  -34.35830  -43.87680    4.95540 1247.06580
 1500.00000   14.97950  438.76970    5.10450    -999.25    -999.25    -999.25    2.27910    -999.25   61.75150   61.75150    2.27910    2.26340    2.26340    -999.25    -999.25    -999.25    -999.25    -999.25    2.20200   -2.03940  -11.75510    2.20200 1303.98450
 1550.00000   15.65100  618.73530    5.77600    -999.25    -999.25    -999.25    1.61620    -999.25   73.42810   73.42810    1.61620    1.49850    1.49850    -999.25    -999.25    -999.25    -999.25    -999.25    1.60870    6.11690   -3.79600    1.60870 1301.85330
 1600.00000   14.02430  484.73100    4.14930    -999.25    -999.25    -999.25    2.06300    -999.25   55.69390   55.69390    2.06300    2.10710    2.10710    -999.25    -999.25    -999.25    -999.25    -999.25    2.35870    5.81710   -4.29290    2.35870 1336.76380
 1650.00000   14.05370  284.57600    4.17870    -999.25    -999.25    -999.25    3.51400    -999.25   47.21360   47.21360    3.51400    3.51400    3.51400    -999.25    -999.25    -999.25    -999.25    -999.25    3.28400   -6.32060  -16.17050    3.28400 1357.18550
 1700.00000   14.17370  210.31820    4.29870    -999.25    -999.25    -999.25    4.75470    -999.25   68.71260   68.71260    4.75470    4.59470    4.59470    -999.25    -999.25    -999.25    -999.25    -999.25    4.00370  -11.27130  -20.32420    4.00370 1337.07310
 1750.00000   13.84490  129.98490    3.96990    -999.25    -999.25    -999.25    7.69320    -999.25   39.07190   39.07190    7.69320    7.48450    7.48450    -999.25    -999.25    -999.25    -999.25    -999.25    7.48450  -15.47230  -23.72820    7.48450 1338.30160
 1800.00000   12.62130  222.19750    2.74630    -999.25    -999.25    -999.25    4.50050    -999.25   72.30540   72.30540    4.50050    4.30020    4.30020    -999.25    -999.25    -999.25    -999.25    -999.25    5.03710   -8.98180  -16.44070    5.03710 1389.92350
 1850.00000   12.05450  435.74880    2.17950    -999.25    -999.25    -999.25    2.29490    -999.25   77.47270   77.47270    2.29490    2.32330    2.32330    -999.25    -999.25    -999.25    -999.25    -999.25    2.07700   -5.66790  -12.32980    2.07700 1402.12850
 1900.00000   10.32290  116.44560    0.44790    -999.25    -999.25    -999.25    8.58770    -999.25   62.24580   62.24580    8.58770    8.56260    8.56260    -999.25    -999.25    -999.25    -999.25    -999.25    8.54720  -15.17240  -21.03730    8.54720 1490.26200
 1950.00000   10.56090  115.35090    0.68590    -999.25    -999.25    -999.25    8.66920    -999.25   90.49400   90.49400    8.66920    8.82830    8.82830    -999.25    -999.25    -999.25    -999.25    -999.25    8.65550  -14.27290  -19.34080    8.65550 1510.01880
 2000.00000   12.92010  226.82420    3.04510    -999.25    -999.25    -999.25    4.40870    -999.25   57.53730   57.53730    4.40870    4.75690    4.75690    -999.25    -999.25    -999.25    -999.25    -999.25    3.61200  -12.47380  -16.74470    3.61200 1531.29110
 2050.00000   10.45710  131.78530    0.58210    -999.25    -999.25    -999.25    7.58810    -999.25   77.24680   77.24680    7.58810    7.65030    7.65030    -999.25    -999.25    -999.25    -999.25    -999.25    6.52330  -17.27140  -20.74530    6.52330 1546.06840
 2100.00000   11.18850  108.71460    1.31350    -999.25    -999.25    -999.25    9.19840    -999.25   55.28010   55.28010    9.19840    9.01760    9.01760    -999.25    -999.25    -999.25    -999.25    -999.25    9.09600  -19.09260  -21.76950    9.09600 1527.25450
 2150.00000   11.33780  120.65780    1.46280    -999.25    -999.25    -999.25    8.28790    -999.25   54.79120   54.79120    8.28790    8.06290    8.06290    -999.25    -999.25    -999.25    -999.25    -999.25    8.20940  -20.82090  -22.70080    8.20940 1491.46670
 2200.00000   11.36750  132.69990    1.49250    -999.25    -999.25    -999.25    7.53580    -999.25   49.84680   49.84680    7.53580    7.43330    7.43330    -999.25    -999.25    -999.25    -999.25    -999.25    8.16190  -22.36880  -23.45170    8.16190 1535.56210
 2250.00000   11.20340  244.63630    1.32840    -999.25    -999.25    -999.25    4.08770    -999.25   71.99050   71.99050    4.08770    4.17270    4.17270    -999.25    -999.25    -999.25    -999.25    -999.25    4.20160  -14.19230  -14.47820    4.20160 1535.95010
 2300.00000   10.35260  248.02200    0.47760    -999.25    -999.25    -999.25    4.03190    -999.25   66.96760   66.96760    4.03190    3.89830    3.89830    -999.25    -999.25    -999.25    -999.25    -999.25    4.88750  -25.46290  -24.95180    4.88750 1550.76290
 2350.00000    9.69590  116.44830   -0.17910    -999.25    -999.25    -999.25    8.58750    -999.25   67.39600   67.39600    8.58750    8.64660    8.64660    -999.25    -999.25    -999.25    -999.25    -999.25    7.85340  -25.44220  -24.13410    7.85340 1541.61790
 2400.00000    9.60630  211.75670   -0.26870    -999.25    -999.25    -999.25    4.72240    -999.25   72.32010   72.32010    4.72240    4.65130    4.65130    -999.25    -999.25    -999.25    -999.25    -999.25    5.86010  -23.36290  -21.25780    5.86010 1603.84610
 2450.00000    9.45710  132.69460   -0.41790    -999.25    -999.25    -999.25    7.53610    -999.25   39.74550   39.74550    7.53610    7.55300    7.55300    -999.25    -999.25    -999.25    -999.25    -999.25    8.87260  -29.65520  -26.75310    8.87260 1577.99130
 2500.00000    9.84510  157.21050   -0.02990    -999.25    -999.25    -999.25    6.36090    -999.25   64.52080   64.52080    6.36090    6.84460    6.84460    -999.25    -999.25    -999.25    -999.25    -999.25    6.17420  -23.47410  -19.77500    6.17420 1654.36660
 2550.00000   10.56280  367.57950    0.68780    -999.25    -999.25    -999.25    2.72050    -999.25   84.45960   84.45960    2.72050    2.57990    2.57990    -999.25    -999.25    -999.25    -999.25    -999.25    2.68560  -16.58680  -12.61470    2.68560 1644.00290
 2600.00000   10.68220  705.11920    0.80720    -999.25    -999.25    -999.25    1.41820    -999.25   94.81870   94.81870    1.41820    1.54030    1.54030    -999.25    -999.25    -999.25    -999.25    -999.25    1.42680   -9.40070   -5.63940    1.42680 1648.87820
