~Version ---------------------------------------------------
VERS. 2.0 : CWLS log ASCII Standard -VERSION 2.0
WRAP.  NO : ONE LINE PER DEPTH STEP
~Well ------------------------------------------------------
STRT.F                  3900.0 : START DEPTH
STOP.F                  8550.0 : STOP DEPTH
STEP.F                50.00000 : STEP LENGTH
NULL.                  -999.25 : NULL VALUE
COMP.    U. S. OPERATING, INC. : COMPANY
WELL.            LILLY UNIT #1 : WELL
FLD .                 GIDDINGS : FIELD
LOC .                          : LOCATION
CNTY.                 BURLESON : COUNTY
STAT.                    TEXAS : STATE
CTRY. UNITED STATES OF AMERICA : COUNTRY
SRVC.             Schlumberger : SERVICE COMPANY
DATE.              29-Jul-1981 : LOGDATE
API .           42051316200000 : API NUMBER
UWI .           42051316200000 : UNIQUE WELL ID
SLAT.WGS84       30.4283478195 : SURFACE LATITUDE
SLON.WGS84      -96.6755819726 : SURFACE LONGITUDE
~Curve Information -----------------------------------------
DEPT   .F    0   1   0  0 : 1 MEASURED DEPTH
GRN    .GAPI 35 310 01 00 : GAMMA RAY FROM GRN LOG
NEUT   .NAPI 35 330 01 00 : NEUTRON
GRR    .GAPI 07 310 01 00 : GAMMA RAY FROM RESISTIVITY LOG
DPHI_LS.DEC  45 890 10 00 : DENSITY POROSITY LIMESTONE
DCAL   .IN   07 280 01 00 : DIFFERENTIAL CALIPER
ILD    .OHMM 07 120 46 00 : INDUCTION DEEP RESISTIVITY
ILM    .OHMM 07 120 44 00 : INDUCTION MEDIUM RESISTIVITY
SFLU   .OHMM 07 220 01 00 : SHALLOW FOCUSED RESISTIVITY (UNAVERAGED)
SPR    .MV   07 010 01 00 : SPONTANEOUS POTENTIAL FROM RESISTIVITY LOG
DRHO   .G/C3 45 356 01 00 : BULK DENSITY CORRECTION
~Params ----------------------------------------------------
PD  .                     GL : PERMANENT DATUM
EPD .FT                  310 : ELEVATION PERMANENT DATUM
LMF .                     KB : LOG MEASURED FROM
DAPD.FT                   15 : FEET ABOVE PERMANENT DATUM
DMF .                     KB : DRILLING MEASURED FROM
EKB .FT                  325 : KELLY BUSHING
EGL .FT                  310 : GROUND LEVEL
DATE.               07/29/81 : RUN DATE
RUN .                      1 : RUN NUMBER
DD  .FT                 8590 : DEPTH DRILLER
DL  .FT                 8556 : DEPTH LOGGER
BLI .FT                 8553 : BOTTOM LOG INTERVAL
TLI .FT                 3921 : TOP LOG INTERVAL
CS  .IN                8.625 : CASING SIZE
CBD .FT                 3940 : CASING BOTTOM DRILLER
CBL .FT                 3921 : CASING BOTTOM LOGGER
BS  .IN                7.875 : BIT SIZE
BSD .FT                 8590 : BIT SIZE AT DEPTH
DFT .              GEL LIGNO : DRILLING FLUID TYPE
DFD .                    9.5 : DRILLING FLUID DENSITY
DFV .                     45 : DRILLING FLUID VISCOSITY
DFPH.                    9.5 : DRILLING FLUID PH
DFL .                      8 : DRILLING FLUID LOSS
MSS .               FLOWLINE : MUD SAMPLE SOURCE
RMS .OHMM                1.5 : RESISTIVITY MUD SAMPLE
MST .DEGF                 75 : MUD SAMPLE TEMPERATURE
RMF .OHMM                  1 : RESISTIVITY MUD FILTRATE SAMPLE
MFST.DEGF                 75 : MUD FILTRATE SAMPLE TEMPERATURE
MFSS.               MEASURED : MUD FILTRATE SAMPLE SOURCE
RMB .OHMM               0.58 : RESISTIVITY MUD AT BHT
TCS .HRS                   0 : TIME CIRCULATED STOPPED
TLAB.HRS                 615 : TIME LOGGER AT BOTTOM
LUN .                   8262 : LOGGING UNIT NUMBER
LUL .                BRENHAM : LOGGING UNIT LOCATION
ENGI.              RADMACHER : RECORDING ENGINEER
WITN.              CORNELIUS : WITNESSED BY
CLNT.                A2DTECH : CLIENT CODE
ORIG.            1" 5" PRINT : ORIGIN OF DATA
UWI .         42051316200000 : UNIQUE WELL ID
DICO. A2D Technologies, Inc. : DIGITIZING COMPANY
~Other -----------------------------------------------------
~ASCII -----------------------------------------------------
 3900.00000    -999.25    -999.25   42.61220    -999.25    -999.25    -999.25    -999.25    -999.25    -999.25    -999.25
 3950.00000    -999.25    -999.25  109.09730    0.17740    1.90380    6.24040    6.37140    5.80210   -9.60680    0.06070
 4000.00000    -999.25    -999.25   80.92860    0.39590    3.52830    2.17740    2.07610    2.25440   -2.86640    0.02210
 4050.00000    -999.25    -999.25  100.71350    0.43020    1.75630    1.72470    1.77500    2.20140   -3.04210    0.05030
 4100.00000    -999.25    -999.25   69.91740    0.27470    1.27580    6.22380    7.89670    9.09180  -30.08660    0.05990
 4150.00000    -999.25    -999.25   73.96960    0.28090    1.02710    6.33360    7.57520    8.29950  -31.28990    0.07380
 4200.00000    -999.25    -999.25   53.22440    0.28540    1.14140    5.08850    6.37060    7.33120  -39.64470    0.02460
 4250.00000    -999.25    -999.25   76.74860    0.32700    0.42460    5.23680    6.66110    8.24040  -38.26830   -0.00200
 4300.00000    -999.25    -999.25   81.73790    0.28650    0.64570    3.40190    4.15420    4.88190  -26.18990    0.08100
 4350.00000    -999.25    -999.25  103.73770    0.22960    1.13310    2.44950    2.58170    2.47670   -9.08730    0.03450
 4400.00000    -999.25    -999.25   72.13120    0.24930    0.03150    3.95580    4.75550    6.22750  -36.57940    0.02660
 4450.00000    -999.25    -999.25  115.44440    0.16390    0.66760    2.97520    3.09040    3.54110  -12.46580    0.04390
 4500.00000    -999.25    -999.25   92.01170    0.21410    0.34250    3.59400    4.34750    5.74890  -32.15430    0.02310
 4550.00000    -999.25    -999.25  109.48910    0.13330    1.55800    2.54810    2.60190    2.53630   -7.53990    0.05950
 4600.00000    -999.25    -999.25   91.16740    0.19620    0.59420    3.16620    4.00110    6.60180  -37.39310    0.01760
 4650.00000    -999.25    -999.25  103.50160    0.15340    0.78140    2.45120    2.50250    2.67630  -10.20680    0.04000
 4700.00000    -999.25    -999.25  105.21410    0.13480    0.94460    2.54100    2.59740    2.43490   -9.62880    0.03250
 4750.00000    -999.25    -999.25   96.62040    0.12820    0.69470    3.12470    3.18920    3.23100  -12.53070    0.00430
 4800.00000    -999.25    -999.25  104.22190    0.13010    1.26270    2.44360    2.49230    2.54840   -8.29660    0.05680
 4850.00000    -999.25    -999.25  109.45710    0.11780    2.00120    2.25410    2.29840    2.31550   -5.99180    0.04060
 4900.00000    -999.25    -999.25  118.13730    0.12690    3.16940    1.72300    1.77230    1.82090   -7.37270    0.03910
 4950.00000    -999.25    -999.25  113.44420    0.11250    3.41910    1.60930    1.64350    1.73950   -6.07220    0.02370
 5000.00000    -999.25    -999.25  103.91710    0.10510    3.43540    1.80700    1.88140    1.97820   -8.19430    0.01260
 5050.00000    -999.25    -999.25  104.49030    0.11190    3.19960    1.63230    1.66440    1.75050   -7.08700    0.02920
 5100.00000    -999.25    -999.25  105.47070    0.11450    3.29890    1.53340    1.57920    1.67510   -7.03400    0.03240
 5150.00000    -999.25    -999.25  111.39730    0.17560    3.81410    1.40450    1.46410    1.61210   -7.46960    0.08260
 5200.00000    -999.25    -999.25  123.78530    0.09740    3.05050    1.72950    1.79920    1.85660   -8.20180    0.06500
 5250.00000    -999.25    -999.25  115.97570    0.11930    3.62380    1.49260    1.55590    1.68570   -6.19700    0.10040
 5300.00000    -999.25    -999.25  106.64980    0.13270    3.77500    1.25740    1.30620    1.31760   -4.72730    0.06780
 5350.00000    -999.25    -999.25  106.06260    0.19690    4.37560    0.85820    0.89150    0.89510   -3.14570    0.03710
 5400.00000    -999.25    -999.25   90.93810    0.12900    2.51840    1.61080    1.66920    1.76910   -6.67190    0.06560
 5450.00000    -999.25    -999.25  108.11220    0.12030    2.39940    1.34740    1.41440    1.48690   -6.63100    0.05070
 5500.00000    -999.25    -999.25   93.29270    0.21240    2.34920    1.38580    1.33780    1.31180  -16.89910    0.09330
 5550.00000    -999.25    -999.25   98.07440    0.14970    3.96250    1.11850    1.14720    1.21250  -11.21780    0.07440
 5600.00000    -999.25    -999.25   98.39590    0.11740    4.20620    0.98490    1.06210    1.10300   -8.29330    0.04450
 5650.00000    -999.25    -999.25  103.56420    0.10650    3.09980    1.29310    1.38190    1.43000   -6.21180    0.02070
 5700.00000    -999.25    -999.25   93.06150    0.12630    5.55710    1.39290    1.44990    1.47990  -19.87980    0.07060
 5750.00000    -999.25    -999.25   97.62930    0.15110    3.68940    1.17420    1.20190    1.22780  -10.61440    0.03730
 5800.00000    -999.25    -999.25   94.43620    0.14610    3.06680    1.31070    1.37470    1.46440  -11.97560    0.09930
 5850.00000    -999.25    -999.25   92.65720    0.23830    3.68770    1.20680    1.30730    1.45610  -11.99940    0.09510
 5900.00000    -999.25    -999.25   94.04330    0.21900    2.41400    1.26440    1.37020    1.41980   -8.79530    0.10140
 5950.00000    -999.25    -999.25   93.98380    0.13790    2.86380    1.83840    1.89340    1.77840  -11.87750    -999.25
 6000.00000    -999.25    -999.25   99.34770    0.24270    2.52220    1.18600    1.24190    1.25770   -7.31420    0.07220
 6050.00000    -999.25    -999.25   82.20490    0.13810    0.88120    1.85480    1.96480    2.01280   -9.48980    -999.25
 6100.00000    -999.25    -999.25  106.44040    0.15360    1.75880    1.47980    1.59620    1.58570  -10.59440    0.07210
 6150.00000    -999.25    -999.25  109.33990    0.24760    3.17360    1.26630    1.29130    1.24900   -9.02190    0.09820
 6200.00000    -999.25    -999.25  158.79500    0.20150    3.82470    1.22080    1.26480    1.18900   -9.73150    0.06770
 6250.00000    -999.25    -999.25  118.38020    0.16740    3.88860    1.84330    1.93490    1.55000   -9.59390    0.05110
 6300.00000    -999.25    -999.25  111.63900    0.21400    4.58500    1.21480    1.25510    1.30930  -11.35940    0.07880
 6350.00000    -999.25    -999.25  110.01300    0.22280    3.99590    1.03900    1.11450    1.12520   -8.58970    0.02800
 6400.00000    -999.25    -999.25  101.05770    0.08020    1.64660    1.99740    2.07290    2.20810  -12.98110    -999.25
 6450.00000    -999.25    -999.25  142.26320    0.11620    2.72400    1.57900    1.64320    1.75750   -7.37120    0.10300
 6500.00000    -999.25    -999.25  103.11340    0.09950    1.97450    1.75690    1.86490    1.98540  -10.93480    -999.25
 6550.00000    -999.25    -999.25   97.74380    0.13420    3.23370    1.51290    1.62040    1.70710  -11.97620    -999.25
 6600.00000    -999.25  257.22480  113.20840    0.14330    3.11040    1.89500    1.97760    2.04200  -10.77180    -999.25
 6650.00000   46.18330  277.39110   91.84620    0.08950    3.05220    1.72550    1.81660    1.92150  -11.78330    0.07740
 6700.00000   46.40120  207.15380   94.19490    0.11880    5.22870    1.42550    1.51090    1.57600  -14.12110    -999.25
 6750.00000   42.06320  279.18320  100.81660    0.10390    2.87060    1.67070    1.79320    1.86480  -11.48330    0.06540
 6800.00000   54.85680  224.44390   94.63400    0.09840    2.12380    1.63860    1.72200    1.90530  -12.01600    -999.25
 6850.00000   43.12290  447.35440   48.75730    0.09630    1.01470    3.75710    3.80150    4.40600  -14.59880    0.03730
 6900.00000   35.13850  546.41020   42.51990    0.08060    1.20260    3.64920    4.04220    4.95720  -17.06670   -0.01870
 6950.00000   34.44310  598.39300   45.07760    0.07520    1.21150    4.51170    4.77280    5.18240  -14.67930   -0.00270
 7000.00000   46.98410  371.51060   86.00700    0.09270    2.68000    2.26550    2.40060    2.55140  -10.26700    0.05870
 7050.00000   47.14790  349.21730   96.97390    0.17650    2.32010    2.08060    2.21440    2.29180  -10.87890    0.09990
 7100.00000   44.05670  509.63710   88.97410    0.09310    2.17870    2.69590    2.85420    2.84200   -7.95590   -0.00050
 7150.00000   51.66220  335.29350   98.31830    0.11720    2.81560    2.18320    2.31840    2.52290  -11.01790    0.10310
