~Version ---------------------------------------------------
VERS. 2.0 : CWLS log ASCII Standard -VERSION 2.0
WRAP. YES : Multiple lines per depth step
~Well ------------------------------------------------------
STRT.FT                  300.0 : START DEPTH
STOP.FT                24000.0 : STOP DEPTH
STEP.FT               50.00000 : STEP LENGTH
NULL.                  -999.25 : NULL VALUE
COMP.       PLACID OIL COMPANY : COMPANY
WELL.                PEELER #1 : WELL
FLD .                  WILDCAT : FIELD
LOC .                          : LOCATION
CNTY.                MC MULLEN : COUNTY
STAT.                    TEXAS : STATE
CTRY. UNITED STATES OF AMERICA : COUNTRY
SRVC.             Schlumberger : SERVICE COMPANY
DATE.              01-Jan-1984 : LOGDATE
API .           42311317850000 : API NUMBER
UWI .           42311317850000 : UNIQUE WELL ID
SLAT.WGS84       28.5959255047 : SURFACE LATITUDE
SLON.WGS84      -98.4401225914 : SURFACE LONGITUDE
~Curve Information -----------------------------------------
DEPT  .FT    : 
CALDED.IN    : CALIPER FROM DENSITY LOG (ADJ TO RES.)
CALWS .IN    : CALIPER (CALDED)
CILDED.MMHO  : CONDUCTIVITY FROM LOG
CONDWS.MMHO  : CONDUCTIVITY (1000/DRESws)
DCORWS.G/C3  : DENSITY CORRECTION (DRHOED)
DENWS .G/C3  : BULK DENSITY  (FROM DPOws LS)
DPHIED.V/V   : DENSITY POROSITY  (ADJ TO RES.)
DPOWS .V/V   : DENSITY POROSITY (M=2.71 F=1 DPHIED)
DRESWS.OHMM  : DEEP RESISTIVITY (ILDED)
DRHOED.G/C3  : DENSITY CORRECTION (ADJ TO RES.)
DTED  .US/F  : DELTA TIME
DTWS  .US/F  : DELTA TIME  (DTED)
GRWS  .GAPI  : GAMMA RAY (GRRED)
GRRED .GAPI  : GAMMA RAY FROM RESISTIVITY LOG
ILDED .OHMM  : DEEP INDUCTION RESISTIVITY
ILMED .OHMM  : MEDIUM INDUCTION RESISTIVITY
MRESWS.OHMM  : MEDIUM RESISTIVITY (ILMED)
NPHIED.V/V   : NEUTRON POROSITY (ADJ TO RES.)
NPOWS .V/V   : NEUTRON POROSITY LIMESTONE (NPHIED)
RHOBED.G/C3  : BULK DENSITY (ADJ TO RES.)
SFLAED.OHMM  : SPHERICALLY FOCUSED RESISTIVITY
SPWS  .MV    : SPONTANEOUS POTENTIAL BASELINE 0 MV (SPRED)
SPRED .MV    : SPONTANEOUS POTENTIAL FROM RESISTIVITY
SRESWS.OHMM  : SHALLOW RESISTIVITY (SFLAED)
~Params ----------------------------------------------------
PD  .                     GL : PERMANENT DATUM
EPD .F                   336 : ELEVATION PERMANENT DATUM
LMF .                     KB : LOG MEASURED FROM
DMF .                     KB : DRILLING MEASURED FROM
EKB .F                   368 : KELLING BUSHING
EDF .F                   367 : DRILLING FLOOR
EGL .F                   336 : GROUND LEVEL
DATE.               1-1-1984 : RUN DATE
RUN .                      7 : RUN NUMBER
DD  .F                 24031 : DEPTH DRILLER
DL  .F                 24037 : DEPTH LOGGER
BLI .F                 24030 : BOTTOM LOG INTERVAL
TLI .F                 21000 : TOP LOG INTERVAL
CS  .IN                8.625 : CASING SIZE
CBD .F                 19500 : CASING BOTTOM DRILLER
CBL .F                 19500 : CASING BOTTOM LOGGER
BS  .IN                  7.5 : BIT SIZE
BSD .F                 24031 : BIT SIZE AT DEPTH
DFT .               INVERMUL : DRILLING FLUID TYPE
DFV .                     83 : DRILLING FLUID VISCOSITY
TCS .HRS                 800 : TIME CURCULATED STOPPED
TLAB.HRS                 200 : TIME LOGGER AT BOTTOM
LUL .               EDINBURG : LOGGING UNIT LOCATION
ENGI.              NEWMISTER : RECORDING ENGINEER
WITN.                   LONG : WITNESSED BY
CLNT.                A2DTECH : CLIENT CODE
ORIG.            1",5" PRINT : ORIGIN OF DATA
UWI .         42311317850000 : UNIQUE WELL ID
DICO. A2D Technologies, Inc. : DIGITIZING COMPANY
~Other -----------------------------------------------------
~ASCII -----------------------------------------------------
# ...
 16250.00000   13.16600   13.16600   81.98440   91.48540    0.04900    2.77400   -0.03740   -0.03740   10.93070    0.04900    -999.25    -999.25   26.83020   26.83020   10.93070    -999.25    -999.25    0.07500    0.07500    2.75800   12.67140  -28.85430  -20.20220   12.67140
 16300.00000   12.68900   12.68900  104.55250  107.40330    0.00300    2.78080   -0.04140   -0.04140    9.31070    0.00300    -999.25    -999.25   37.92830   37.92830    9.31070    -999.25    -999.25    0.09900    0.09900    2.78300    9.83550  -19.76080  -12.03730    9.83550
 16350.00000   12.69000   12.69000  150.27010  130.03390    0.02700    2.68200    0.01640    0.01640    7.69030    0.02700    -999.25    -999.25   49.70150   49.70150    7.69030    -999.25    -999.25    0.16100    0.16100    2.67600    8.91900   -8.64560   -1.85070    8.91900
 16400.00000   12.21100   12.21100   90.25080   73.06840   -0.00900    2.78580   -0.04430   -0.04430   13.68580   -0.00900    -999.25    -999.25    -999.25   44.54830   13.68580    -999.25    -999.25    0.19900    0.19900    2.78000    -999.25    -999.25    -999.25    -999.25
 16450.00000   12.94200   12.94200   79.08940   89.30560    -999.25    -999.25    -999.25    -999.25   11.19750    -999.25    -999.25    -999.25   94.94000   94.94000   11.19750    -999.25    -999.25    0.13400    0.13400    -999.25   11.50540  -40.42920  -35.49140   11.50540
 16500.00000   11.64900   11.64900    0.00040    0.49610    0.00100    2.72080   -0.00630   -0.00630 2015.55200    0.00100    -999.25    -999.25   90.30370   90.30370 2015.55200    -999.25    -999.25    0.04200    0.04200    2.72500  223.18340  -61.92700  -57.91780  223.18340
 16550.00000   10.78400   10.78400   30.86420   28.57000   -0.00300    2.61530    0.05540    0.05540   35.00170   -0.00300    -999.25    -999.25  180.26210  180.26210   35.00170    -999.25    -999.25    0.01300    0.01300    2.61100   30.66360  -61.43780  -63.51480   30.66360
 16600.00000   11.50900   11.50900   32.16010   27.19130    0.00300    2.72130   -0.00660   -0.00660   36.77640    0.00300    -999.25    -999.25   74.06540   74.06540   36.77640    -999.25    -999.25    0.08700    0.08700    2.73600   20.70580  -54.86690  -63.35930   20.70580
 16650.00000   10.71800   10.71800   35.10800   16.13190    0.01100    2.53400    0.10290    0.10290   61.98890    0.01100    -999.25    -999.25   78.44570   78.44570   61.98890    -999.25    -999.25    0.06000    0.06000    2.54100   92.93010  -55.99420  -70.90200   92.93010
 16700.00000   11.89600   11.89600   38.20090    8.95540   -0.00400    2.70810    0.00110    0.00110  111.66410   -0.00400    -999.25    -999.25  117.01710  117.01710  111.66410    -999.25    -999.25    0.02300    0.02300    2.69900  127.58540  -35.50460  -56.82780  127.58540
 16750.00000   11.00100   11.00100   82.36880   97.87900    0.00300    2.73790   -0.01630   -0.01630   10.21670    0.00300    -999.25    -999.25   88.25940   88.25940   10.21670    -999.25    -999.25    0.09300    0.09300    2.73500   16.11110  -11.38350  -34.97690   16.11110
 16800.00000   11.39900   11.39900  133.48770  119.63010   -0.01000    2.65100    0.03450    0.03450    8.35910   -0.01000    -999.25    -999.25   98.13080   98.13080    8.35910    -999.25    -999.25    0.14900    0.14900    2.64900    7.28390   -9.89410  -32.87710    7.28390
 16850.00000   12.00100   12.00100  168.87910  129.20060    0.01600    2.67840    0.01850    0.01850    7.73990    0.01600    -999.25    -999.25  108.97370  108.97370    7.73990    -999.25    -999.25    0.16100    0.16100    2.69300    8.84220   -9.68810  -32.06070    8.84220
 16900.00000   12.09600   12.09600  227.36630  127.50550   -0.00500    2.66260    0.02770    0.02770    7.84280   -0.00500    -999.25    -999.25  137.03270  137.03270    7.84280    -999.25    -999.25    0.17500    0.17500    2.67100    6.82080   -6.99360  -28.75580    6.82080
 16950.00000   12.43200   12.43200  187.13520  161.50130    0.00200    2.65190    0.03400    0.03400    6.19190    0.00200    -999.25    -999.25  119.27560  119.27560    6.19190    -999.25    -999.25    0.15200    0.15200    2.65700    6.72350   -4.45470  -25.60650    6.72350
 17000.00000   12.38500   12.38500  194.06050  179.44620    0.00100    2.71480   -0.00280   -0.00280    5.57270    0.00100    -999.25    -999.25  127.23930  127.23930    5.57270    -999.25    -999.25    0.14500    0.14500    2.71200    7.03700   -5.02630  -25.56770    7.03700
 17050.00000   12.02500   12.02500  146.21700  169.25920    0.00000    2.69000    0.01170    0.01170    5.90810    0.00000    -999.25    -999.25  138.29560  138.29560    5.90810    -999.25    -999.25    0.13700    0.13700    2.69600    7.91670   -5.48110  -25.41210    7.91670
 17100.00000   12.12900   12.12900  227.36620  222.76180   -0.00500    2.62600    0.04910    0.04910    4.48910   -0.00500    -999.25    -999.25  127.33560  127.33560    4.48910    -999.25    -999.25    0.22900    0.22900    2.63200    5.21600   -3.75870  -23.07930    5.21600
 17150.00000   11.66400   11.66400  204.47530  226.66490    0.01200    2.67990    0.01760    0.01760    4.41180    0.01200    -999.25    -999.25  138.95470  138.95470    4.41180    -999.25    -999.25    0.14800    0.14800    2.68300    6.48530   -3.74700  -22.45720    6.48530
 17200.00000   11.74000   11.74000  149.99490  134.58410   -0.00100    2.68590    0.01410    0.01410    7.43030   -0.00100    -999.25    -999.25  104.82870  104.82870    7.43030    -999.25    -999.25    0.10700    0.10700    2.67800   10.55560   -8.02070  -26.12060   10.55560
 17250.00000   11.96700   11.96700  117.03260   67.08570   -0.02400    2.67410    0.02100    0.02100   14.90630   -0.02400    -999.25    -999.25   97.89400   97.89400   14.90630    -999.25    -999.25    0.05500    0.05500    2.67300   24.82430   -9.08860  -26.57810   24.82430
 17300.00000   12.24300   12.24300  256.58910   80.74610   -0.00700    2.60910    0.05900    0.05900   12.38450   -0.00700    -999.25    -999.25  213.04370  213.04370   12.38450    -999.25    -999.25    0.09600    0.09600    2.60700   14.62960   -7.13330  -24.01240   14.62960
 17350.00000   12.06000   12.06000  497.41600  538.32900    0.03300    2.57350    0.07980    0.07980    1.85760    0.03300    -999.25    -999.25  222.17110  222.17110    1.85760    -999.25    -999.25    0.25200    0.25200    2.57300    2.62340  -28.29810  -44.56680    2.62340
 17400.00000   10.75000   10.75000  166.66670  119.63010    0.01600    2.63300    0.04500    0.04500    8.35910    0.01600    -999.25    -999.25  188.34070  188.34070    8.35910    -999.25    -999.25    0.07000    0.07000    2.63200   11.19350  -18.20420  -33.86250   11.19350
 17450.00000   10.97400   10.97400  140.56850   81.73470   -0.00300    2.61750    0.05410    0.05410   12.23470   -0.00300    -999.25    -999.25  182.30950  182.30950   12.23470    -999.25    -999.25    0.11000    0.11000    2.66300    8.70370  -14.92630  -29.97420    8.70370
 17500.00000   13.73900   13.73900  261.49870  236.36190   -0.00600    2.65050    0.03480    0.03480    4.23080   -0.00600    -999.25    -999.25  203.58410  203.58410    4.23080    -999.25    -999.25    0.25100    0.25100    2.63400    6.27540   -4.40140  -19.28570    6.27540
 17550.00000   14.75300   14.75300   93.79850   89.10670   -0.00400    2.65480    0.03230    0.03230   11.22250   -0.00400    -999.25    -999.25  161.85880  161.85880   11.22250    -999.25    -999.25    0.16500    0.16500    2.65700   17.20160  -19.88480  -35.43510   17.20160
 17600.00000   13.62900   13.62900  229.21000  269.15730    0.00000    2.65440    0.03250    0.03250    3.71530    0.00000    -999.25    -999.25  171.17880  171.17880    3.71530    -999.25    -999.25    0.20500    0.20500    2.65800    4.75310   -9.29440  -25.51080    4.75310
 17650.00000   13.39900   13.39900  177.90700  131.83740   -0.00100    2.64020    0.04080    0.04080    7.58510   -0.00100    -999.25    -999.25  134.54510  134.54510    7.58510    -999.25    -999.25    0.19700    0.19700    2.64400    7.76280  -11.36300  -28.24540    7.76280
