~Version ---------------------------------------------------
VERS. 2.0 : CWLS log ASCII Standard -VERSION 2.0
WRAP. YES : Multiple lines per depth step
~Well ------------------------------------------------------
STRT.FT                   3750.0 : START DEPTH
STOP.FT                   8350.0 : STOP DEPTH
STEP.FT                 50.00000 : STEP LENGTH
NULL.                    -999.25 : NULL VALUE
COMP. CHAMPLIN PETROLEUM COMPANY : COMPANY
WELL.        JOHN W. SPRINGER #1 : WELL
FLD .                   GIDDINGS : FIELD
LOC .                            : LOCATION
CNTY.                   BURLESON : COUNTY
STAT.                      TEXAS : STATE
CTRY.   UNITED STATES OF AMERICA : COUNTRY
SRVC.               Schlumberger : SERVICE COMPANY
DATE.                11-Aug-1980 : LOGDATE
API .             42051308540000 : API NUMBER
UWI .             42051308540000 : UNIQUE WELL ID
SLAT.WGS84         30.3606502248 : SURFACE LATITUDE
SLON.WGS84         -96.747724759 : SURFACE LONGITUDE
~Curve Information -----------------------------------------
DEPT    .FT    : 
CALWS   .IN    : CALIPER [DCALED+8.75]
CONDWS  .MMHO  : CONDUCTIVITY [1000/DRESWS]
DCALED  .IN    : DIFFERENTIAL CALIPER FROM DIL-SFL-CNFD LOG
DCORWS  .G/C3  : DENSITY CORRECTION [DRHOED]
DENWS   .G/C3  : FORMATION BULK DENSITY [CALCULATED FROM DPOWS, M=2.71, F=1.0]
DPHILSED.V/V   : DENSITY POROSITY LIMESTONE [M=2.71, F=1.0] FROM DIL-SFL-CNFD LOG
DPHISSED.V/V   : DENSITY POROSITY SANDSTONE [M=2.65, F=1.0] FROM DIL-SFL-CNFD LOG
DPOWS   .V/V   : DENSITY POROSITY LIMESTONE  [DPHISSED CONVERTED TO LIMESTONE (M=2.71, F=1.0) & SPLICED WITH DPHILSED @ 6503']
DRESWS  .OHMM  : DEEP RESISTIVITY [ILDED]
DRHOED  .G/C3  : BULK DENSITY CORRECTION FROM DIL-SFL-CNFD LOG
GRRED   .GAPI  : GAMMA RAY FROM DIL-SFL-CNFD LOG
GRWS    .GAPI  : GAMMA RAY [GRRED] CSG < 3741'
ILDED   .OHMM  : DEEP INDUCTION RESISTIVITY FROM DIL-SFL-CNFD LOG
ILMED   .OHMM  : MEDIUM INDUCTION RESISTIVITY FROM DIL-SFL-CNFD LOG
MRESWS  .OHMM  : MEDIUM RESISTIVITY [ILMED]
NPHILSED.V/V   : NEUTRON POROSITY LIMESTONE FROM DIL-SFL-CNFD LOG
NPHISSED.V/V   : NEUTRON POROSITY SANDSTONE FROM DIL-SFL-CNFD LOG
NPOWS   .V/V   : NEUTRON POROSITY LIMESTONE [NPHISSED CONVERTED TO LIMESTONE MATRIX & SPLICED WITH NPHILSED @ 6496.5'] CSG < 3741'
SFLUED  .OHMM  : SHALLOW FOCUSED RESISTIVITY (UNAVERAGED) FROM DIL-SFL-CNFD LOG
SPRED   .MV    : SPONTANEOUS POTENTIAL FROM RESISTIVITY LOG FROM DIL-SFL-CNFD LOG
SPWS    .MV    : SPONTANEOUS POTENTIAL [BASELINE 0 MV, SPRED]
SRESWS  .OHMM  : SHALLOW RESISTIVITY [SFLUED]
~Params ----------------------------------------------------
PD  .                     GL : PERMANENT DATUM
EPD .FT                  313 : ELEVATION PERMANENT DATUM
LMF .                     KB : LOG MEASURED FROM
DAPD.FT                   14 : FEET ABOVE PERMANENT DATUM
DMF .                     KB : DRILLING MEASURED FROM
EKB .FT                  327 : KELLY BUSHING
EDF .FT                  326 : DRILLING FLOOR
EGL .FT                  313 : GROUND LEVEL
DATE.               08/11/80 : RUN DATE
RUN .                      1 : RUN NUMBER
DD  .FT                 8396 : DEPTH DRILLER
DL  .FT                 8393 : DEPTH LOGGER
BLI .FT                 8387 : BOTTOM LOG INTERVAL
TLI .FT                 3741 : TOP LOG INTERVAL
CS  .IN                9.625 : CASING SIZE
CBD .FT                 3751 : CASING BOTTOM DRILLER
CBL .FT                 3741 : CASING BOTTOM LOGGER
BS  .IN                 8.75 : BIT SIZE
BSD .FT                 8396 : BIT SIZE AT DEPTH
DFT .                 BEN EX : DRILLING FLUID TYPE
DFD .                    9.7 : DRILLING FLUID DENSITY
DFV .                     41 : DRILLING FLUID VISCOSITY
DFPH.                    8.5 : DRILLING FLUID PH
DFL .                    5.6 : DRILLING FLUID LOSS
MSS .              CIRC TANK : MUD SAMPLE SOURCE
RMS .OHMM               1.94 : RESISTIVITY MUD SAMPLE
MST .DEGF                110 : MUD SAMPLE TEMPERATURE
RMF .OHMM               2.13 : RESISTIVITY MUD FILTRATE SAMPLE
MFST.DEGF                 75 : MUD FILTRATE SAMPLE TEMPERATURE
RMC .OHMM               2.91 : RESISTIVITY MUD CAKE
MCST.DEGF                110 : MUD CAKE SAMPLE TEMPERATURE
MFSS.                      M : MUD FILTRATE SAMPLE SOURCE
MCSS.                      C : MUD CAKE SAMPLE SOURCE
RMB .OHMM               1.03 : RESISTIVITY MUD AT BHT
TCS .HRS                1130 : TIME CIRCULATED STOPPED
TLAB.HRS                1600 : TIME LOGGER AT BOTTOM
LUN .                   8101 : LOGGING UNIT NUMBER
LUL .                BRENHAM : LOGGING UNIT LOCATION
ENGI.                 HARDER : RECORDING ENGINEER
WITN.          SCHELL KRAUHS : WITNESSED BY
CLNT.                A2DTECH : CLIENT CODE
ORIG.            2" 5" PRINT : ORIGIN OF DATA
UWI .         42051308540000 : UNIQUE WELL ID
DICO. A2D Technologies, Inc. : DIGITIZING COMPANY
~Other -----------------------------------------------------
~ASCII -----------------------------------------------------
# ...
 6950.00000   11.47510  373.19000    2.72510    0.09550    2.55780    0.08900    -999.25    0.08900    2.67960    0.09550   99.50500   99.50500    2.67960    2.95060    2.95060    0.16590    -999.25    0.16590    3.03400   -0.66510   -3.96270    3.03400
 7000.00000   10.95680  411.04900    2.20680    0.07790    2.56960    0.08210    -999.25    0.08210    2.43280    0.07790   94.33100   94.33100    2.43280    2.51480    2.51480    0.17910    -999.25    0.17910    2.86900   -0.76190   -3.82940    2.86900
 7050.00000   11.02500  363.12140    2.27500    0.03730    2.60110    0.06370    -999.25    0.06370    2.75390    0.03730   90.30150   90.30150    2.75390    2.90270    2.90270    0.18110    -999.25    0.18110    3.19720    0.15070   -2.68680    3.19720
 7100.00000   11.14050  337.50720    2.39050    0.00720    2.59710    0.06600    -999.25    0.06600    2.96290    0.00720   83.79840   83.79840    2.96290    3.08740    3.08740    0.15920    -999.25    0.15920    3.40000    1.38820   -1.17390    3.40000
 7150.00000   12.46650  482.20660    3.71650    0.09940    2.54940    0.09390    -999.25    0.09390    2.07380    0.09940  103.05600  103.05600    2.07380    2.17840    2.17840    0.22510    -999.25    0.22510    2.46100   -8.95050  -10.87060    2.46100
 7200.00000   13.51870  531.37790    4.76870    0.10030    2.48500    0.13160    -999.25    0.13160    1.88190    0.10030   79.34070   79.34070    1.88190    2.26680    2.26680    0.28930    -999.25    0.28930    2.25180   -8.00920   -9.28730    2.25180
 7250.00000   14.37500  493.53470    5.62500    0.10080    2.53340    0.10330    -999.25    0.10330    2.02620    0.10080   95.42410   95.42410    2.02620    2.20100    2.20100    0.27840    -999.25    0.27840    2.49040   -9.26830   -9.90440    2.49040
 7300.00000   14.42890  472.45580    5.67890    0.09960    2.47590    0.13690    -999.25    0.13690    2.11660    0.09960   91.96480   91.96480    2.11660    2.23050    2.23050    0.27850    -999.25    0.27850    2.56940  -11.23660  -11.23070    2.56940
 7350.00000   14.47420  479.98460    5.72420    0.10070    2.46680    0.14220    -999.25    0.14220    2.08340    0.10070   89.94280   89.94280    2.08340    2.14040    2.14040    0.31350    -999.25    0.31350    2.63060  -12.70250  -12.05460    2.63060
 7400.00000   10.73790  251.25630    1.98790    0.01540    2.60480    0.06150    -999.25    0.06150    3.98000    0.01540   68.03660   68.03660    3.98000    4.08570    4.08570    0.14310    -999.25    0.14310    4.70340   -8.19900   -6.90920    4.70340
 7450.00000   11.77070  116.57860    3.02070    0.01900    2.64300    0.03920    -999.25    0.03920    8.57790    0.01900   29.90640   29.90640    8.57790    8.94850    8.94850    0.04700    -999.25    0.04700   10.19230  -24.69110  -22.75930   10.19230
 7500.00000   11.11500   83.52400    2.36500    0.06610    2.32200    0.22690    -999.25    0.22690   11.97260    0.06610   36.53930   36.53930   11.97260   14.20570   14.20570    0.10680    -999.25    0.10680   10.99440  -22.06120  -19.48740   10.99440
 7550.00000   11.64890  156.86520    2.89890    0.09570    2.48510    0.13150    -999.25    0.13150    6.37490    0.09570   40.46730   40.46730    6.37490    5.69810    5.69810    0.08990    -999.25    0.08990   12.84370  -16.26250  -13.04670   12.84370
 7600.00000   11.37600   93.79100    2.62600   -0.00060    2.63900    0.04150    -999.25    0.04150   10.66200   -0.00060   29.36230   29.36230   10.66200   11.03740   11.03740    0.04760    -999.25    0.04760   13.48680  -14.67410  -10.81630   13.48680
 7650.00000   11.45060  117.98160    2.70060   -0.00180    2.63120    0.04610    -999.25    0.04610    8.47590   -0.00180   33.90970   33.90970    8.47590    8.72540    8.72540    0.05480    -999.25    0.05480    8.88500  -15.58800  -11.08820    8.88500
 7700.00000   11.90890  240.47710    3.15890    0.00200    2.61240    0.05710    -999.25    0.05710    4.15840    0.00200   60.78660   60.78660    4.15840    4.31440    4.31440    0.10010    -999.25    0.10010    4.72240   -7.78110   -2.63930    4.72240
 7750.00000   11.92530  208.42890    3.17530    0.01940    2.59320    0.06830    -999.25    0.06830    4.79780    0.01940   46.45640   46.45640    4.79780    4.93170    4.93170    0.10540    -999.25    0.10540    4.31310  -12.89210   -7.10830    4.31310
 7800.00000   10.94140  176.70030    2.19140    0.01880    2.52720    0.10690    -999.25    0.10690    5.65930    0.01880   53.79770   53.79770    5.65930    6.13200    6.13200    0.10590    -999.25    0.10590    4.61170  -13.49490   -7.12930    4.61170
 7850.00000   10.84940   91.35920    2.09940    0.08130    2.62480    0.04980    -999.25    0.04980   10.94580    0.08130   52.30700   52.30700   10.94580   11.84080   11.84080    0.04280    -999.25    0.04280   12.33680  -17.26210  -10.52810   12.33680
 7900.00000   11.22930   96.55770    2.47930    0.02940    2.60570    0.06100    -999.25    0.06100   10.35650    0.02940   42.31310   42.31310   10.35650   10.70060   10.70060    0.06500    -999.25    0.06500   12.10640  -27.56030  -20.45790   12.10640
 7950.00000   10.95690   68.44060    2.20690    0.01600    2.59000    0.07020    -999.25    0.07020   14.61120    0.01600   45.01770   45.01770   14.61120   15.16170   15.16170    0.05680    -999.25    0.05680   17.36310  -34.04240  -26.57150   17.36310
 8000.00000    9.72830   53.14820    0.97830    0.05030    2.60380    0.06210    -999.25    0.06210   18.81530    0.05030   33.62100   33.62100   18.81530   20.11680   20.11680    0.05680    -999.25    0.05680   21.46330  -22.57770  -14.73840   21.46330
 8050.00000   16.63760  625.15630    7.88760    0.09090    2.42370    0.16740    -999.25    0.16740    1.59960    0.09090   99.37860   99.37860    1.59960    1.68380    1.68380    0.37540    -999.25    0.37540    2.30530  -21.19790  -16.37620    2.30530
 8100.00000   15.18560  458.84190    6.43560    0.09750    2.46920    0.14080    -999.25    0.14080    2.17940    0.09750  103.35660  103.35660    2.17940    2.24480    2.24480    0.37430    -999.25    0.37430    2.67550  -21.48550  -21.84630    2.67550
 8150.00000   10.03200   97.81770    1.28200    0.00530    2.47420    0.13790    -999.25    0.13790   10.22310    0.00530  136.80150  136.80150   10.22310   10.63940   10.63940    0.24820    -999.25    0.24820   14.24810    1.96060   -3.38270   14.24810
 8200.00000   12.92060  269.94200    4.17060    0.09940    2.49520    0.12560    -999.25    0.12560    3.70450    0.09940  117.96330  117.96330    3.70450    3.22290    3.22290    0.39880    -999.25    0.39880    6.20300  -14.91680  -22.58690    6.20300
 8250.00000   10.86160  149.82170    2.11160    0.08690    2.15010    0.32740    -999.25    0.32740    6.67460    0.08690   60.73910   60.73910    6.67460    6.06980    6.06980    0.21580    -999.25    0.21580    5.61180  -11.75250  -21.74930    5.61180
 8300.00000   10.17670   42.92490    1.42670    0.00770    2.73270   -0.01330    -999.25   -0.01330   23.29650    0.00770   47.62090   47.62090   23.29650   25.86250   25.86250    0.04590    -999.25    0.04590   34.83740   -2.22830  -14.55180   34.83740
 8350.00000    9.25470    8.08190    0.50470    0.01320    2.69320    0.00980    -999.25    0.00980  123.73320    0.01320   35.15350   35.15350  123.73320  129.01640  129.01640    -999.25    -999.25    -999.25  141.28920  -22.93490  -36.60790  141.28920
