~Version ---------------------------------------------------
VERS. 2.0 : CWLS log ASCII Standard -VERSION 2.0
WRAP. YES : Multiple lines per depth step
~Well ------------------------------------------------------
STRT.FT                           300.0 : START DEPTH
STOP.FT                          7550.0 : STOP DEPTH
STEP.FT                        50.00000 : STEP LENGTH
NULL.                           -999.25 : NULL VALUE
COMP.         MACHII ROSS PETROLEUM CO. : COMPANY
WELL. TURNEY WINN EXPLORATION CO INC #3 : WELL
FLD .                       LOS CUATROS : FIELD
LOC .                                   : LOCATION
CNTY.                          MAVERICK : COUNTY
STAT.                             TEXAS : STATE
CTRY.          UNITED STATES OF AMERICA : COUNTRY
SRVC.                      Schlumberger : SERVICE COMPANY
DATE.                       20-Oct-1978 : LOGDATE
API .                    42323312460000 : API NUMBER
UWI .                    42323312460000 : UNIQUE WELL ID
SLAT.WGS84                28.8188606342 : SURFACE LATITUDE
SLON.WGS84              -100.5070554984 : SURFACE LONGITUDE
~Curve Information -----------------------------------------
DEPT  .FT    : DEPTH
ASNED .OHMM  : AMPLIFIED SHORT NORMAL 16 IN.
CALDED.IN    : CALIPER FROM DENSITY LOG (ADJ TO RES.)
CALSED.IN    : CALIPER FROM SONIC LOG (ADJ TO RES.)
CALWS .IN    : CALIPER (CALSED/CALDED @ 6098)
CILDED.MMHO  : CONDUCTIVITY FROM LOG
CONDWS.MMHO  : CONDUCTIVITY (1000/DRESWS)
CORRED.G/C3  : DENSITY CORRECTION (ADJ TO RES.)
DCORWS.G/C3  : DENSITY CORRECTION (CORRED)
DENWS .G/C3  : BULK DENSITY  (RHOBED LS)
DPHIED.V/V   : DENSITY POROSITY  (CREATED FROM RHOBED LS)
DPOWS .V/V   : DENSITY POROSITY (M=2.71 F=1 DPHIED)
DRESWS.OHMM  : DEEP RESISTIVITY (IF ILDED<1, THEN 1000/CILDED)
DTED  .US/F  : DELTA TIME  (ADJ TO RES.)
DTWS  .US/F  : DELTA TIME  (DTED)
GRRED .GAPI  : GAMMA RAY FROM RESISTIVITY LOG
GRWS  .GAPI  : GAMMA RAY (GRRED)
ILDED .OHMM  : DEEP INDUCTION RESISTIVITY
LL8ED .OHMM  : LATEROLOG-8 RESISTIVITY
NPHIED.V/V   : NEUTRON POROSITY (ADJ TO RES.)
NPOWS .V/V   : NEUTRON POROSITY LIMESTONE (NPHIED)
RHOBED.G/C3  : BULK DENSITY (ADJ TO RES.)
SPRED .MV    : SPONTANEOUS POTENTIAL FROM RESISTIVITY
SPWS  .MV    : SPONTANEOUS POTENTIAL BASELINE 0 MV (SPRED)
SRESWS.OHMM  : SHALLOW RESISTIVITY (ASNED/LL8ED @ 6093)
~Params ----------------------------------------------------
EKB .F                 902.9 : Kelly bushing
EGL .F                 890.0 : Ground level
EDF .F                 901.9 : Drilling floor
TD  .F                7605.0 : Total depth
CLNT.                A2DTECH : Client Code
PD  .                     GL : Permanent Datum
DD  .F                  7605 : Depth driller
DL  .F                  7600 : Depth logger
BLI .F                  7594 : Bottom log interval
TLI .F                  6825 : Top log interval
CS1 .IN                    7 : Casing size
CBL1.F                  6825 : Casing logger 1
BS1 .IN                6.125 : Bit size
BSD1.F                  7605 : Depth drilled with bit1
DFT .              LIGNOSULF : Type fluid in hole
DFD .                   16.8 : Density
DFPH.                   10.2 : pH
MSS .               FLOWLINE : Source of sample
TLAB.HRS                2130 : Time logger at bottom
ORIG.          1" 2.5" PRINT : Origin of data
UWI .         42323312460000 : Unique Well ID
DICO. A2D TECHNOLOGIES, INC. : Digitizing Company
DATE.            26-JUL-1978 : Date Logged [DD-MMM-YYYY]
SL  .  2400' FWL & 4600' FSL : Surface Location
EPD .F                   890 : Elevation Permanent Datum
LMF .                     KB : Log Measured From
DMF .                     KB : Drilling Measured From
DAPD.F                  12.9 : Feet Above Permanent Datum
CBD1.             7" @ 6830' : Casing driller 1
~Other -----------------------------------------------------
~ASCII -----------------------------------------------------
# ...
 1750.00000    8.51410    -999.25   12.21260   12.21260   67.83540  111.33750    -999.25    -999.25    -999.25    -999.25    -999.25    8.98170   66.67170   66.67170    -999.25    -999.25    8.98170    -999.25    -999.25    -999.25    -999.25  -30.11360   -9.22210    8.51410
 1800.00000   12.28830    -999.25   12.28740   12.28740  178.18990  115.17020    -999.25    -999.25    -999.25    -999.25    -999.25    8.68280   69.02410   69.02410    -999.25    -999.25    8.68280    -999.25    -999.25    -999.25    -999.25  -29.73260   -7.74510   12.28830
 1850.00000   14.36750    -999.25   12.36230   12.36230   76.57660   94.08490    -999.25    -999.25    -999.25    -999.25    -999.25   10.62870   64.44250   64.44250   21.82180   21.82180   10.62870    -999.25    -999.25    -999.25    -999.25  -32.10920   -9.02570   14.36750
 1900.00000   13.97590    -999.25   12.52740   12.52740  101.34560   90.27060    -999.25    -999.25    -999.25    -999.25    -999.25   11.07780   70.90370   70.90370   34.23420   34.23420   11.07780    -999.25    -999.25    -999.25    -999.25  -29.98500   -5.80550   13.97590
 1950.00000   14.07630    -999.25   12.33280   12.33280   88.58860   89.86500    -999.25    -999.25    -999.25    -999.25    -999.25   11.12780   67.78350   67.78350    -999.25    -999.25   11.12780    -999.25    -999.25    -999.25    -999.25  -31.03590   -5.76040   14.07630
 2000.00000   14.45750    -999.25   12.31780   12.31780   85.58560  103.45110    -999.25    -999.25    -999.25    -999.25    -999.25    9.66640   66.74320   66.74320    -999.25    -999.25    9.66640    -999.25    -999.25    -999.25    -999.25  -28.99340   -2.62200   14.45750
 2050.00000   13.46380    -999.25   12.39330   12.39330  100.60060   91.50720    -999.25    -999.25    -999.25    -999.25    -999.25   10.92810   66.59310   66.59310   22.07210   22.07210   10.92810    -999.25    -999.25    -999.25    -999.25  -32.54150   -5.07410   13.46380
 2100.00000   12.08230    -999.25   12.34840   12.34840  129.12910  128.01640    -999.25    -999.25    -999.25    -999.25    -999.25    7.81150   70.16140   70.16140   23.42340   23.42340    7.81150    -999.25    -999.25    -999.25    -999.25  -33.64900   -5.08560   12.08230
 2150.00000   13.70480    -999.25   12.52720   12.52720   99.59960  103.29940    -999.25    -999.25    -999.25    -999.25    -999.25    9.68060   68.74840   68.74840   34.33450   34.33450    9.68060    -999.25    -999.25    -999.25    -999.25  -34.49150   -4.83210   13.70480
 2200.00000   20.38150    -999.25   12.43740   12.43740   51.05100   63.45300    -999.25    -999.25    -999.25    -999.25    -999.25   15.75970   87.99060   87.99060    -999.25    -999.25   15.75970    -999.25    -999.25    -999.25    -999.25  -36.03550   -5.28020   20.38150
 2250.00000   15.57210    -999.25   12.39300   12.39300   81.08170  101.21250    -999.25    -999.25    -999.25    -999.25    -999.25    9.88020   77.21920   77.21920    -999.25    -999.25    9.88020    -999.25    -999.25    -999.25    -999.25  -38.65100   -8.10500   15.57210
 2300.00000   20.00000    -999.25   12.13770   12.13770   59.53030   57.36970    -999.25    -999.25    -999.25    -999.25    -999.25   17.43080   86.36040   86.36040   69.66970   69.66970   17.43080    -999.25    -999.25    -999.25    -999.25  -40.00280  -10.30900   20.00000
 2350.00000   25.30060    -999.25   11.83830   11.83830   55.05480   48.40860    -999.25    -999.25    -999.25    -999.25    -999.25   20.65750   90.44640   90.44640   60.80960   60.80960   20.65750    -999.25    -999.25    -999.25    -999.25  -42.02410  -13.18250   25.30060
 2400.00000   19.87950    -999.25   11.83950   11.83950   54.95590   63.01630    -999.25    -999.25    -999.25    -999.25    -999.25   15.86890   88.88440   88.88440    -999.25    -999.25   15.86890    -999.25    -999.25    -999.25    -999.25  -42.04890  -14.05950   19.87950
 2450.00000   18.16260    -999.25   11.80960   11.80960   64.56640   68.16310    -999.25    -999.25    -999.25    -999.25    -999.25   14.67070   93.63500   93.63500   55.13450   55.13450   14.67070    -999.25    -999.25    -999.25    -999.25  -37.60920  -10.47200   18.16260
 2500.00000   18.30480    -999.25   11.80960   11.80960   61.56160   64.51740    -999.25    -999.25    -999.25    -999.25    -999.25   15.49970   74.29940   74.29940   64.36220   64.36220   15.49970    -999.25    -999.25    -999.25    -999.25  -32.66400   -6.37900   18.30480
 2550.00000   16.66670    -999.25   11.80890   11.80890   77.32790   70.06970    -999.25    -999.25    -999.25    -999.25    -999.25   14.27150   90.63710   90.63710    -999.25    -999.25   14.27150    -999.25    -999.25    -999.25    -999.25  -35.31840   -9.88560   16.66670
 2600.00000   15.28110    -999.25   11.74940   11.74940   89.17200   90.27060    -999.25    -999.25    -999.25    -999.25    -999.25   11.07780  106.91090  106.91090    -999.25    -999.25   11.07780    -999.25    -999.25    -999.25    -999.25  -34.20210   -9.65980   15.28110
 2650.00000   29.51810    -999.25   11.74910   11.74910   43.54350   40.64890    -999.25    -999.25    -999.25    -999.25    -999.25   24.60090   94.83940   94.83940    -999.25    -999.25   24.60090    -999.25    -999.25    -999.25    -999.25  -51.81750  -28.34050   29.51810
 2700.00000   34.63860    -999.25   11.87350   11.87350   51.94620   43.36340    -999.25    -999.25    -999.25    -999.25    -999.25   23.06090   95.53640   95.53640    -999.25    -999.25   23.06090    -999.25    -999.25    -999.25    -999.25  -55.65870  -33.24690   34.63860
 2750.00000   45.98400    -999.25   11.94390   11.94390   33.02450   37.74010    -999.25    -999.25    -999.25    -999.25    -999.25   26.49700   75.32210   75.32210    -999.25    -999.25   26.49700    -999.25    -999.25    -999.25    -999.25  -68.10570  -46.75920   45.98400
 2800.00000   21.26930    -999.25   13.03670   13.03670   64.58820   66.74050    -999.25    -999.25    -999.25    -999.25    -999.25   14.98340   76.71070   76.71070   16.56630   16.56630   14.98340    -999.25    -999.25    -999.25    -999.25  -45.31790  -25.03660   21.26930
 2850.00000   17.89130    -999.25   12.98810   12.98810   73.32330   73.40630    -999.25    -999.25    -999.25    -999.25    -999.25   13.62280   58.39930   58.39930   17.46980   17.46980   13.62280    -999.25    -999.25    -999.25    -999.25  -41.96180  -22.74580   17.89130
 2900.00000   17.10840    -999.25   12.70720   12.70720   81.08110   72.60850    -999.25    -999.25    -999.25    -999.25    -999.25   13.77250   59.66650   59.66650   16.49000   16.49000   13.77250    -999.25    -999.25    -999.25    -999.25  -43.10040  -24.94960   17.10840
 2950.00000    9.21680    -999.25   13.56120   13.56120  239.24010  371.11260    -999.25    -999.25    -999.25    -999.25    -999.25    2.69460  106.98800  106.98800   79.86960   79.86960    2.69460    -999.25    -999.25    -999.25    -999.25  -22.59830   -5.51280    9.21680
 3000.00000    8.35620    -999.25   14.35510   14.35510  906.90690  305.91330    -999.25    -999.25    -999.25    -999.25    -999.25    3.26890  102.88290  102.88290   87.34840   87.34840    3.26890    -999.25    -999.25    -999.25    -999.25  -21.76090   -6.72600    8.35620
 3050.00000    8.22290    -999.25   14.12030   14.12030  495.49550  318.09650    -999.25    -999.25    -999.25    -999.25    -999.25    3.14370  118.27710  118.27710   82.07930   82.07930    3.14370    -999.25    -999.25    -999.25    -999.25  -15.95430   -3.41270    8.22290
 3100.00000    8.87550    -999.25   14.49120   14.49120  376.46160  303.63760    -999.25    -999.25    -999.25    -999.25    -999.25    3.29340  115.55280  115.55280   81.02410   81.02410    3.29340    -999.25    -999.25    -999.25    -999.25  -18.16690   -6.14620    8.87550
 3150.00000    9.47790    -999.25   13.96490   13.96490  316.56660  238.57240    -999.25    -999.25    -999.25    -999.25    -999.25    4.19160  112.09730  112.09730    -999.25    -999.25    4.19160    -999.25    -999.25    -999.25    -999.25  -19.79850   -5.88780    9.47790
