~Version ---------------------------------------------------
VERS. 2.0 : CWLS log ASCII Standard -VERSION 2.0
WRAP.  NO : ONE LINE PER DEPTH STEP
~Well ------------------------------------------------------
STRT.FT                           3250.0 : START DEPTH
STOP.FT                           8450.0 : STOP DEPTH
STEP.FT                         50.00000 : STEP LENGTH
NULL.                            -999.25 : NULL VALUE
COMP. SANTA FE-WINDSOR PRODUCING COMPANY : COMPANY
WELL.                         KENNETH #1 : WELL
FLD .                           GIDDINGS : FIELD
LOC .                                    : LOCATION
CNTY.                                LEE : COUNTY
STAT.                              TEXAS : STATE
CTRY.           UNITED STATES OF AMERICA : COUNTRY
SRVC.                       Schlumberger : SERVICE COMPANY
DATE.                        18-Aug-1982 : LOGDATE
API .                     42287312830000 : API NUMBER
UWI .                     42287312830000 : UNIQUE WELL ID
SLAT.WGS84                 30.0993785135 : SURFACE LATITUDE
SLON.WGS84                -96.9796408359 : SURFACE LONGITUDE
~Curve Information -----------------------------------------
DEPT  .FT    : DEPTH FEET
NEUTED.CU    : NEUTRON FROM NEUTRON LOG [DEPTH ADJ TO RES LOG]
GRWS  .GAPI  : GAMMA RAY [GRRED]
GRRED .GAPI  : GAMMA RAY FROM RESISTIVITY LOG
SPRED .MV    : SPONTANEOUS POTENTIAL FROM RESISTIVITY LOG
ILDED .OHMM  : INDUCTION LOG DEEP RESISTIVITY
SFLUED.OHMM  : SPHERICALLY FOCUSED LOG RESISTIVITY
ILMED .OHMM  : INDUCTION LOG MEDIUM RESISTIVITY
CALRED.IN    : CALIPER FROM RESISTIVITY LOG
DPHIED.V/V   : DENSITY POROSITY [M=2.71 F=1.0] FROM DENSITY LOG
DRHOED.G/C3  : DENSITY CORRECTION FROM DENSITY LOG
SPWS  .MV    : SPONTANEOUS POTENTIAL [BASELINE 0 MV] [SPRED]
GRNED .GAPI  : GAMMA RAY FROM NEUTRON LOG [DEPTH ADJ TO RES LOG]
CALWS .IN    : CALIPER [CALRED]
DCORWS.G/C3  : DENSITY CORRECTION [DRHOED]
DRESWS.OHMM  : DEEP RESISTIVITY [ILDED]
MRESWS.OHMM  : MEDIUM RESISTIVITY [ILMED]
SRESWS.OHMM  : SHALLOW RESISTIVITY [SFLUED]
CONDWS.MMHO  : CONDUCTIVITY [1000/DRESWS]
NEUTWS.CU    : NEUTRON [NEUTED]
DENWS .G/C3  : BULK DENSITY [M=2.71 F=1.0] [CALCULATED FROM DPHIED]
DPOWS .V/V   : DENSITY POROSITY [M=2.71 F=1] [CALCULATED FROM DENWS]
~Params ----------------------------------------------------
PD  .                     GL : PERMANENT DATUM
EPD .FT                  460 : ELEVATION PERMANENT DATUM
LMF .                     KB : LOG MEASURED FROM
DAPD.FT                   15 : FEET ABOVE PERMANENT DATUM
DMF .                     KB : DRILLING MEASURED FROM
EKB .FT                   75 : KELLY BUSHING
EDF .FT                  474 : DRILLING FLOOR
EGL .FT                  460 : GROUND LEVEL
DATE.               08/18/82 : RUN DATE
RUN .                      1 : RUN NUMBER
DD  .FT                 8505 : DEPTH DRILLER
DL  .FT                 8494 : DEPTH LOGGER
BLI .FT                 8488 : BOTTOM LOG INTERVAL
TLI .FT                 3264 : TOP LOG INTERVAL
CS  .IN                9.625 : CASING SIZE
CBD .FT                 3612 : CASING BOTTOM DRILLER
CBL .FT                 3264 : CASING BOTTOM LOGGER
BS  .IN                 8.75 : BIT SIZE
BSD .FT                 8505 : BIT SIZE AT DEPTH
DFT .                LNS GEL : DRILLING FLUID TYPE
DFD .                    9.4 : DRILLING FLUID DENSITY
DFV .                     43 : DRILLING FLUID VISCOSITY
DFPH.                      9 : DRILLING FLUID PH
DFL .                    7.8 : DRILLING FLUID LOSS
MSS .                   TANK : MUD SAMPLE SOURCE
RMS .OHMM               1.21 : RESISTIVITY MUD SAMPLE
MST .DEGF                104 : MUD SAMPLE TEMPERATURE
RMF .OHMM               0.83 : RESISTIVITY MUD FILTRATE SAMPLE
MFST.DEGF                 77 : MUD FILTRATE SAMPLE TEMPERATURE
RMC .OHMM               1.66 : RESISTIVITY MUD CAKE
MCST.DEGF                 77 : MUD CAKE SAMPLE TEMPERATURE
MFSS.               MEASURED : MUD FILTRATE SAMPLE SOURCE
MCSS.             CALCULATED : MUD CAKE SAMPLE SOURCE
RMB .OHMM              0.685 : RESISTIVITY MUD AT BHT
TCS .HRS                 700 : TIME CIRCULATED STOPPED
TLAB.HRS                1330 : TIME LOGGER AT BOTTOM
LUN .                   8096 : LOGGING UNIT NUMBER
LUL .                BRENHAM : LOGGING UNIT LOCATION
ENGI.                   KENT : RECORDING ENGINEER
WITN.                 EBANKS : WITNESSED BY
CLNT.                A2DTECH : CLIENT CODE
ORIG.            2" 5" PRINT : ORIGIN OF DATA
UWI .         42287312830000 : UNIQUE WELL ID
DICO. A2D Technologies, Inc. : DIGITIZING COMPANY
~Other -----------------------------------------------------
~ASCII -----------------------------------------------------
# ...
 4900.00000    -999.25   87.58050   87.58050  -33.80320    2.27030    4.68810    2.61030    -999.25    -999.25    -999.25  -27.60820    -999.25    -999.25    -999.25    2.27030    2.61030    4.68810  440.47040    -999.25    -999.25    -999.25
 4950.00000    -999.25  105.99320  105.99320  -15.17190    2.64560    2.24940    2.70920    -999.25    -999.25    -999.25   -8.98570    -999.25    -999.25    -999.25    2.64560    2.70920    2.24940  377.98610    -999.25    -999.25    -999.25
 5000.00000    -999.25   96.63240   96.63240   -6.79350    2.52010    2.74180    2.52860    -999.25    -999.25    -999.25   -4.45870    -999.25    -999.25    -999.25    2.52010    2.52860    2.74180  396.80960    -999.25    -999.25    -999.25
 5050.00000    -999.25  106.63280  106.63280   -9.96140    2.38960    2.38340    2.43370    -999.25    -999.25    -999.25   -4.33420    -999.25    -999.25    -999.25    2.38960    2.43370    2.38340  418.48010    -999.25    -999.25    -999.25
 5100.00000    -999.25   81.87130   81.87130  -12.87990    3.44950    4.26640    3.14750    -999.25    -999.25    -999.25   -7.71470    -999.25    -999.25    -999.25    3.44950    3.14750    4.26640  289.89710    -999.25    -999.25    -999.25
 5150.00000    -999.25   94.32720   94.32720   -6.92710    2.68630    2.79760    2.58330    -999.25    -999.25    -999.25   -2.22390    -999.25    -999.25    -999.25    2.68630    2.58330    2.79760  372.25920    -999.25    -999.25    -999.25
 5200.00000    -999.25   85.63130   85.63130   -6.66800    2.61380    2.77880    2.58420    -999.25    -999.25    -999.25   -2.42680    -999.25    -999.25    -999.25    2.61380    2.58420    2.77880  382.58470    -999.25    -999.25    -999.25
 5250.00000    -999.25   95.52810   95.52810   -5.89490    2.18890    2.20240    2.12780    -999.25    -999.25    -999.25   -2.11570    -999.25    -999.25    -999.25    2.18890    2.12780    2.20240  456.85050    -999.25    -999.25    -999.25
 5300.00000    -999.25  102.78920  102.78920   -5.88720    1.63600    1.75830    1.58300    -999.25    -999.25    -999.25   -2.57000    -999.25    -999.25    -999.25    1.63600    1.58300    1.75830  611.24690    -999.25    -999.25    -999.25
 5350.00000    -999.25  109.16820  109.16820   -5.29550    1.48100    1.59990    1.46200    -999.25    -999.25    -999.25   -2.44030    -999.25    -999.25    -999.25    1.48100    1.46200    1.59990  675.21950    -999.25    -999.25    -999.25
 5400.00000    -999.25  100.46170  100.46170   -5.31380    1.59610    1.68670    1.57820    -999.25    -999.25    -999.25   -2.25000    -999.25    -999.25    -999.25    1.59610    1.57820    1.68670  626.52720    -999.25    -999.25    -999.25
 5450.00000    -999.25  109.77690  109.77690   -4.27270    1.52420    1.62000    1.49690    -999.25    -999.25    -999.25   -0.42890    -999.25    -999.25    -999.25    1.52420    1.49690    1.62000  656.08190    -999.25    -999.25    -999.25
 5500.00000    -999.25   99.96870   99.96870   -5.17180    1.44880    1.61130    1.43260    -999.25    -999.25    -999.25   -1.22270    -999.25    -999.25    -999.25    1.44880    1.43260    1.61130  690.22640    -999.25    -999.25    -999.25
 5550.00000    -999.25  109.38960  109.38960   -5.15910    1.47580    1.61240    1.45770    -999.25    -999.25    -999.25   -3.36350    -999.25    -999.25    -999.25    1.47580    1.45770    1.61240  677.59860    -999.25    -999.25    -999.25
 5600.00000    -999.25   96.53830   96.53830   -0.90630    1.29900    1.56410    1.28450    -999.25    -999.25    -999.25   -1.26430    -999.25    -999.25    -999.25    1.29900    1.28450    1.56410  769.82290    -999.25    -999.25    -999.25
 5650.00000    -999.25  102.22400  102.22400   -0.85740    1.11760    1.24340    1.10450    -999.25    -999.25    -999.25   -2.67180    -999.25    -999.25    -999.25    1.11760    1.10450    1.24340  894.77450    -999.25    -999.25    -999.25
 5700.00000    -999.25   80.33010   80.33010   -0.14890    1.40230    1.47700    1.43230    -999.25    -999.25    -999.25   -2.66270    -999.25    -999.25    -999.25    1.40230    1.43230    1.47700  713.11420    -999.25    -999.25    -999.25
 5750.00000    -999.25   89.12400   89.12400   -4.29850    1.39980    1.56390    1.40350    -999.25    -999.25    -999.25   -5.56750    -999.25    -999.25    -999.25    1.39980    1.40350    1.56390  714.38780    -999.25    -999.25    -999.25
 5800.00000    -999.25   55.93180   55.93180  -15.68080    1.65930    2.27250    1.74210    -999.25    -999.25    -999.25  -16.04120    -999.25    -999.25    -999.25    1.65930    1.74210    2.27250  602.66380    -999.25    -999.25    -999.25
 5850.00000    -999.25   82.08390   82.08390   -8.52330    1.43660    1.52910    1.45320    -999.25    -999.25    -999.25   -8.88370    -999.25    -999.25    -999.25    1.43660    1.45320    1.52910  696.08800    -999.25    -999.25    -999.25
 5900.00000    -999.25   76.07290   76.07290   -2.97970    2.10610    2.25080    2.13670    -999.25    -999.25    -999.25   -3.34010    -999.25    -999.25    -999.25    2.10610    2.13670    2.25080  474.81120    -999.25    -999.25    -999.25
 5950.00000    -999.25   77.37230   77.37230   -8.29160    1.65860    2.47130    1.70030    -999.25    -999.25    -999.25   -8.65200    -999.25    -999.25    -999.25    1.65860    1.70030    2.47130  602.91820    -999.25    -999.25    -999.25
 6000.00000    -999.25   89.38200   89.38200   -2.69840    1.04510    1.21360    1.07290    -999.25    -999.25    -999.25   -2.86960    -999.25    -999.25    -999.25    1.04510    1.07290    1.21360  956.84630    -999.25    -999.25    -999.25
 6050.00000    -999.25   82.51880   82.51880   -7.26970    1.32930    1.50930    1.35450    -999.25    -999.25    -999.25   -7.06260    -999.25    -999.25    -999.25    1.32930    1.35450    1.50930  752.27560    -999.25    -999.25    -999.25
 6100.00000    -999.25   78.20180   78.20180   -2.67910    1.29030    1.51490    1.30240    -999.25    -999.25    -999.25   -2.09360    -999.25    -999.25    -999.25    1.29030    1.30240    1.51490  775.01350    -999.25    -999.25    -999.25
 6150.00000    -999.25   86.81490   86.81490   -4.37610    1.04180    1.13820    1.06790    -999.25    -999.25    -999.25   -3.41230    -999.25    -999.25    -999.25    1.04180    1.06790    1.13820  959.87710    -999.25    -999.25    -999.25
 6200.00000    -999.25   87.60210   87.60210   -2.83030    1.19790    1.38800    1.20940    -999.25    -999.25    -999.25   -1.48820    -999.25    -999.25    -999.25    1.19790    1.20940    1.38800  834.79420    -999.25    -999.25    -999.25
 6250.00000    -999.25   89.50440   89.50440   -2.43580    0.95690    1.09260    1.00590    -999.25    -999.25    -999.25   -0.71530    -999.25    -999.25    -999.25    0.95690    1.00590    1.09260 1045.04130    -999.25    -999.25    -999.25
 6300.00000    -999.25   68.57540   68.57540  -14.46070    2.46860    3.39000    2.49580    -999.25    -999.25    -999.25  -12.60130    -999.25    -999.25    -999.25    2.46860    2.49580    3.39000  405.08790    -999.25    -999.25    -999.25
 6350.00000    -999.25   78.91450   78.91450  -12.35360    1.99780    2.00100    1.87450    -999.25    -999.25    -999.25  -11.71160    -999.25    -999.25    -999.25    1.99780    1.87450    2.00100  500.55060    -999.25    -999.25    -999.25
 6400.00000    -999.25   83.36360   83.36360   -4.37380    1.39860    1.43410    1.41540    -999.25    -999.25    -999.25   -4.94920    -999.25    -999.25    -999.25    1.39860    1.41540    1.43410  715.00070    -999.25    -999.25    -999.25
 6450.00000    -999.25   93.55040   93.55040   -0.90690    1.12110    1.23320    1.14210    -999.25    -999.25    -999.25   -2.49740    -999.25    -999.25    -999.25    1.12110    1.14210    1.23320  891.98110    -999.25    -999.25    -999.25
 6500.00000    -999.25   99.85910   99.85910   -2.37600    1.06240    1.11100    1.08950    -999.25    -999.25    -999.25   -4.11900    -999.25    -999.25    -999.25    1.06240    1.08950    1.11100  941.26510    -999.25    -999.25    -999.25
