~Version ---------------------------------------------------
VERS. 2.0 : CWLS log ASCII Standard -VERSION 2.0
WRAP. YES : MULTIPLE LINES PER DEPTH STEP
~Well ------------------------------------------------------
STRT.FT                 1000.0 : START DEPTH
STOP.FT                10200.0 : STOP DEPTH
STEP.FT               50.00000 : STEP LENGTH
NULL.                  -999.25 : NULL VALUE
COMP.          TEXAS CRUDE INC : COMPANY
WELL.                KILLAM #1 : WELL
FLD .          STUART CITY, W. : FIELD
LOC .                          : LOCATION
CNTY.                 LA SALLE : COUNTY
STAT.                    TEXAS : STATE
CTRY. UNITED STATES OF AMERICA : COUNTRY
SRVC.             Schlumberger : SERVICE COMPANY
DATE.              15-Jun-1994 : LOGDATE
API .           42283315470000 : API NUMBER
UWI .           42283315470000 : UNIQUE WELL ID
SLAT.WGS84       28.1852380975 : SURFACE LATITUDE
SLON.WGS84      -99.3650729919 : SURFACE LONGITUDE
~Curve Information -----------------------------------------
DEPT    .FT    : DEPTH FEET
CALDED  .IN    : CALIPER FROM DENSITY LOG
CALWS   .IN    : CALIPER [CALDED]
CONDWS  .MMHO  : CONDUCTIVITY [1000/DRESWS]
DCORWS  .G/C3  : DENSITY CORRECTION [DRHOED]
DENWS   .G/C3  : BULK DENSITY [M=2.71 F=1.0] [CALCULATED FROM DPOWS]
DPHILSED.V/V   : DENSITY POROSITY LIMESTONE FROM DENSITY LOG
DPOWS   .V/V   : DENSITY POROSITY [M=2.71 F=1.0] [DPHILSED]
DRESWS  .OHMM  : DEEP RESISTIVITY [IDPHED]
DRHOED  .G/C3  : DENSITY CORRECTION FROM DENSITY LOG
GRDED   .GAPI  : GAMMA RAY FROM DENSITY LOG
GRRED   .GAPI  : GAMMA RAY FROM RESISTIVITY LOG
GRWS    .GAPI  : GAMMA RAY [GRRED]
IDPHED  .OHMM  : INDUCTION DEEP PHASE RESISTIVITY
IMPHED  .OHMM  : INDUCTION MEDIUM PHASE RESISTIVITY
MRESWS  .OHMM  : MEDIUM RESISTIVITY [IMPHED]
NPHILSED.V/V   : NEUTRON POROSITY LIMESTONE FROM DENSITY LOG
NPOWS   .V/V   : NEUTRON POROSITY LIMESTONE [NPHILSED]
RHOBED  .G/C3  : BULK DENSITY FROM DENSITY LOG [NOT USED FOR WSR]
SFLUED  .OHMM  : SPHERICALLY FOCUSED LOG RESISTIVITY
SPRED   .MV    : SPONTANEOUS POTENTIAL FROM RESISTIVITY LOG
SPWS    .MV    : SPONTANEOUS POTENTIAL [BASELINE 0 MV] [SPRED]
SRESWS  .OHMM  : SHALLOW RESISTIVITY [SFLUED]
TENDED  .LBF   : TENSION FROM DENSITY LOG
TENRED  .LBF   : TENSION FROM RESISTIVITY LOG
~Params ----------------------------------------------------
PD  .                     GL : PERMANENT DATUM
EPD .F                 510.4 : ELEVATION PERMANENT DATUM
LMF .                     KB : LOG MEASURED FROM
DAPD.F                    17 : FEET ABOVE PERMANENT DATUM
DMF .                     KB : DRILLING MEASURED FROM
EKB .F                 527.4 : KELLING BUSHING
EDF .F                 256.4 : DRILLING FLOOR
EGL .F                 510.4 : GROUND LEVEL
DATE.               06/15/94 : RUN DATE
RUN .                      1 : RUN NUMBER
DD  .F                 10239 : DEPTH DRILLER
DL  .F                 10220 : DEPTH LOGGER
BLI .F                 10215 : BOTTOM LOG INTERVAL
TLI .F                  1116 : TOP LOG INTERVAL
CS  .IN                9.625 : CASING SIZE
CBD .F                  1120 : CASING BOTTOM DRILLER
CBL .F                  1116 : CASING BOTTOM LOGGER
BS  .IN                 8.75 : BIT SIZE
BSD .F                 10239 : BIT SIZE AT DEPTH
DFT .                    CLS : DRILLING FLUID TYPE
DFD .                   12.2 : DRILLING FLUID DENSITY
DFV .                     48 : DRILLING FLUID VISCOSITY
DFPH.                    4.8 : DRILLING FLUID PH
DFL .                     10 : DRILLING FLUID LOSS
MSS .        CIRCULATING PIT : MUD SAMPLE SOURCE
RMS .OHMM               1.64 : RESISTIVITY MUD SAMPLE
MST .F                    96 : MUD SAMPLE TEMPERATURE
RMF .OHMM               1.51 : RESISTIVITY MUD FILTRATE SAMPLE
MFST.F                    80 : MUD FILTRATE SAMPLE TEMPERATURE
RMC .OHMM               2.46 : RESISTIVITY MUD CAKE
MCST.F                    96 : MUD CAKE SAMPLE TEMPERATURE
MFSS.               MEASURED : MUD FILTRATE SAMPLE SOURCE
MCSS.             CALCULATED : MUD CAKE SAMPLE SOURCE
RMB .OHMM              0.727 : RESISTIVITY MUD AT BHT
TCS .HRS                1100 : TIME CURCULATED STOPPED
TLAB.HRS                1645 : TIME LOGGER AT BOTTOM
LUN .                   2023 : LOGGING UNIT NUMBER
LUL .              LAREDO TX : LOGGING UNIT LOCATION
ENGI.           J T STUBHART : RECORDING ENGINEER
WITN.           DOUG O BRIEN : WITNESSED BY
CLNT.                A2DTECH : CLIENT CODE
ORIG.               5" PRINT : ORIGIN OF DATA
UWI .         42283315470000 : UNIQUE WELL ID
DICO. A2D Technologies, Inc. : DIGITIZING COMPANY
~Other -----------------------------------------------------
~ASCII -----------------------------------------------------
# ...
 3900.00000    -999.25    -999.25  214.07780    -999.25    -999.25    -999.25    -999.25    4.67120    -999.25    -999.25   63.67810   63.67810    4.67120    5.85560    5.85560    -999.25    -999.25    -999.25    8.04540  -48.00700  -41.18530    8.04540    -999.25 1502.99820
 3950.00000    -999.25    -999.25  218.98130    -999.25    -999.25    -999.25    -999.25    4.56660    -999.25    -999.25   59.46890   59.46890    4.56660    5.79930    5.79930    -999.25    -999.25    -999.25    9.26200  -51.41740  -45.14720    9.26200    -999.25 1522.60460
 4000.00000    -999.25    -999.25  270.72390    -999.25    -999.25    -999.25    -999.25    3.69380    -999.25    -999.25   46.78520   46.78520    3.69380    4.70760    4.70760    -999.25    -999.25    -999.25    9.02730  -65.54920  -59.83050    9.02730    -999.25 1542.55030
 4050.00000    -999.25    -999.25  253.29920    -999.25    -999.25    -999.25    -999.25    3.94790    -999.25    -999.25   80.43660   80.43660    3.94790    3.74680    3.74680    -999.25    -999.25    -999.25    3.55510  -11.83370   -6.66640    3.55510    -999.25 1572.86820
 4100.00000    -999.25    -999.25  250.63910    -999.25    -999.25    -999.25    -999.25    3.98980    -999.25    -999.25   58.43440   58.43440    3.98980    5.45560    5.45560    -999.25    -999.25    -999.25   11.85820  -69.22000  -64.60420   11.85820    -999.25 1556.95410
 4150.00000    -999.25    -999.25  280.74910    -999.25    -999.25    -999.25    -999.25    3.56190    -999.25    -999.25   58.44300   58.44300    3.56190    4.87610    4.87610    -999.25    -999.25    -999.25    8.05470  -65.84750  -61.78320    8.05470    -999.25 1588.15110
 4200.00000    -999.25    -999.25  229.35780    -999.25    -999.25    -999.25    -999.25    4.36000    -999.25    -999.25   72.52230   72.52230    4.36000    4.51550    4.51550    -999.25    -999.25    -999.25    4.30650  -21.01340  -17.28130    4.30650    -999.25 1619.03720
 4250.00000    -999.25    -999.25  219.44260    -999.25    -999.25    -999.25    -999.25    4.55700    -999.25    -999.25   69.28900   69.28900    4.55700    4.87370    4.87370    -999.25    -999.25    -999.25    5.33090  -27.37530  -23.68480    5.33090    -999.25 1622.50660
 4300.00000    -999.25    -999.25  237.70470    -999.25    -999.25    -999.25    -999.25    4.20690    -999.25    -999.25   83.58190   83.58190    4.20690    4.13410    4.13410    -999.25    -999.25    -999.25    4.79950   -8.02060   -4.37170    4.79950    -999.25 1606.74390
 4350.00000    -999.25    -999.25  275.58080    -999.25    -999.25    -999.25    -999.25    3.62870    -999.25    -999.25   79.81370   79.81370    3.62870    3.56820    3.56820    -999.25    -999.25    -999.25    3.81850   -6.38020   -2.77290    3.81850    -999.25 1609.03220
 4400.00000    -999.25    -999.25  323.28980    -999.25    -999.25    -999.25    -999.25    3.09320    -999.25    -999.25   89.07670   89.07670    3.09320    2.93360    2.93360    -999.25    -999.25    -999.25    2.92790   -3.68370   -0.11620    2.92790    -999.25 1629.62070
 4450.00000    -999.25    -999.25  294.51610    -999.25    -999.25    -999.25    -999.25    3.39540    -999.25    -999.25   50.24030   50.24030    3.39540    3.48130    3.48130    -999.25    -999.25    -999.25    4.01180  -32.01640  -28.31780    4.01180    -999.25 1666.57200
 4500.00000    -999.25    -999.25  180.74030    -999.25    -999.25    -999.25    -999.25    5.53280    -999.25    -999.25   40.91210   40.91210    5.53280    8.28150    8.28150    -999.25    -999.25    -999.25   11.80540  -54.82760  -50.99800   11.80540    -999.25 1639.08020
 4550.00000    -999.25    -999.25  237.93100    -999.25    -999.25    -999.25    -999.25    4.20290    -999.25    -999.25   45.26180   45.26180    4.20290    5.51470    5.51470    -999.25    -999.25    -999.25    8.06790  -58.29870  -54.33800    8.06790    -999.25 1686.48930
 4600.00000    -999.25    -999.25  219.50040    -999.25    -999.25    -999.25    -999.25    4.55580    -999.25    -999.25   40.11640   40.11640    4.55580    5.89620    5.89620    -999.25    -999.25    -999.25    9.07490  -64.47240  -60.38060    9.07490    -999.25 1736.74330
 4650.00000    -999.25    -999.25  206.18130    -999.25    -999.25    -999.25    -999.25    4.85010    -999.25    -999.25   64.66520   64.66520    4.85010    4.70450    4.70450    -999.25    -999.25    -999.25    4.76780  -14.03640   -9.81360    4.76780    -999.25 1736.89720
 4700.00000    -999.25    -999.25  280.08070    -999.25    -999.25    -999.25    -999.25    3.57040    -999.25    -999.25  100.97810  100.97810    3.57040    3.43780    3.43780    -999.25    -999.25    -999.25    3.78060   -5.46950   -1.27020    3.78060    -999.25 1735.19630
 4750.00000    -999.25    -999.25  281.17530    -999.25    -999.25    -999.25    -999.25    3.55650    -999.25    -999.25   87.03170   87.03170    3.55650    3.54500    3.54500    -999.25    -999.25    -999.25    3.84330   -5.53670   -1.59270    3.84330    -999.25 1745.34900
 4800.00000    -999.25    -999.25  250.57000    -999.25    -999.25    -999.25    -999.25    3.99090    -999.25    -999.25   87.38700   87.38700    3.99090    3.86600    3.86600    -999.25    -999.25    -999.25    4.08490   -6.31290   -2.62420    4.08490    -999.25 1779.62980
 4850.00000    -999.25    -999.25  249.93130    -999.25    -999.25    -999.25    -999.25    4.00110    -999.25    -999.25   88.14890   88.14890    4.00110    3.93320    3.93320    -999.25    -999.25    -999.25    4.23550   -5.89830   -2.46490    4.23550    -999.25 1770.57080
 4900.00000    -999.25    -999.25  291.68980    -999.25    -999.25    -999.25    -999.25    3.42830    -999.25    -999.25   87.87960   87.87960    3.42830    3.35690    3.35690    -999.25    -999.25    -999.25    3.67480   -4.63170   -1.45360    3.67480    -999.25 1771.25450
 4950.00000    -999.25    -999.25  367.90410    -999.25    -999.25    -999.25    -999.25    2.71810    -999.25    -999.25   87.59990   87.59990    2.71810    2.65980    2.65980    -999.25    -999.25    -999.25    2.93710   -4.47160   -1.64040    2.93710    -999.25 1815.21500
 5000.00000    -999.25    -999.25  450.24770    -999.25    -999.25    -999.25    -999.25    2.22100    -999.25    -999.25   91.16990   91.16990    2.22100    2.14500    2.14500    -999.25    -999.25    -999.25    2.34310   -4.18990   -1.86860    2.34310    -999.25 1791.70900
 5050.00000    -999.25    -999.25  390.13730    -999.25    -999.25    -999.25    -999.25    2.56320    -999.25    -999.25   91.50680   91.50680    2.56320    2.48260    2.48260    -999.25    -999.25    -999.25    2.87820   -5.15990   -3.34850    2.87820    -999.25 1799.91670
 5100.00000    -999.25    -999.25  543.21260    -999.25    -999.25    -999.25    -999.25    1.84090    -999.25    -999.25   93.51260   93.51260    1.84090    1.78780    1.78780    -999.25    -999.25    -999.25    1.89230   -2.76600   -1.46450    1.89230    -999.25 1884.39050
 5150.00000    -999.25    -999.25  570.15790    -999.25    -999.25    -999.25    -999.25    1.75390    -999.25    -999.25   87.81850   87.81850    1.75390    1.70460    1.70460    -999.25    -999.25    -999.25    1.82740   -0.92940   -0.13780    1.82740    -999.25 1836.97920
 5200.00000    -999.25    -999.25  487.47200    -999.25    -999.25    -999.25    -999.25    2.05140    -999.25    -999.25   84.13160   84.13160    2.05140    2.00060    2.00060    -999.25    -999.25    -999.25    2.19840   -1.03590   -0.75410    2.19840    -999.25 1877.08580
 5250.00000    -999.25    -999.25  539.49070    -999.25    -999.25    -999.25    -999.25    1.85360    -999.25    -999.25   76.15450   76.15450    1.85360    1.79890    1.79890    -999.25    -999.25    -999.25    1.98910   -0.59580   -0.82390    1.98910    -999.25 1880.70540
 5300.00000    -999.25    -999.25  543.71470    -999.25    -999.25    -999.25    -999.25    1.83920    -999.25    -999.25   76.71310   76.71310    1.83920    1.79300    1.79300    -999.25    -999.25    -999.25    1.97300   -0.53770   -0.91290    1.97300    -999.25 1895.40940
