~Version ---------------------------------------------------
VERS. 2.0 : CWLS log ASCII Standard -VERSION 2.0
WRAP. YES : MULTIPLE LINES PER DEPTH STEP
~Well ------------------------------------------------------
STRT.FT                  1600.0 : START DEPTH
STOP.FT                 11000.0 : STOP DEPTH
STEP.FT                50.00000 : STEP LENGTH
NULL.                   -999.25 : NULL VALUE
COMP.      EP OPERATING COMPANY : COMPANY
WELL. KELLNER ET AL GAS UNIT #3 : WELL
FLD .                   FASHING : FIELD
LOC .                           : LOCATION
CNTY.                  ATASCOSA : COUNTY
STAT.                     TEXAS : STATE
CTRY.  UNITED STATES OF AMERICA : COUNTRY
SRVC.                   Unknown : SERVICE COMPANY
DATE.               22-Oct-1992 : LOGDATE
API .            42013339790000 : API NUMBER
UWI .            42013339790000 : UNIQUE WELL ID
SLAT.WGS84        28.8263667008 : SURFACE LATITUDE
SLON.WGS84       -98.1422347983 : SURFACE LONGITUDE
~Curve Information -----------------------------------------
DEPT    .FT    : DEPTH FEET
CALSED  .IN    : CALIPER FROM SONIC LOG
CALWS   .IN    : CALIPER [DCALRED+BITED]
CONDWS  .MMHO  : CONDUCTIVITY [1000/DRESWS]
DCALRED .IN    : DIFFERENTIAL CALIPER FROM RESISTIVITY LOG
DCORED  .G/C3  : DENSITY CORRECTION FROM DENSITY LOG
DCORWS  .G/C3  : DENSITY CORRECTION [DCORED]
DENWS   .G/C3  : BULK DENSITY [CALCULATED FROM DPOWS]
DPHISSED.V/V   : DENSITY POROSITY [M=2.65 F=1.0] FROM DENSITY LOG
DPHILSED.V/V   : DENSITY POROSITY [M=2.71 F=1.0] FROM DENSITY LOG
DPOWS   .V/V   : DENSITY POROSITY [SPL DPHISSED <9789F> DPHILSED]
DRESWS  .OHMM  : DEEP RESISTIVITY [ILDED]
DTED    .US/F  : DELTA TIME FROM SONIC LOG
DTWS    .US/F  : DELTA TIME [DTED]
GRED    .GAPI  : GAMMA RAY FROM CBL LOG [ADJ TO GRRED]
GRRED   .GAPI  : GAMMA RAY FROM RESISTIVITY LOG
GRSED   .GAPI  : GAMMA RAY FROM SONIC LOG
GRWS    .GAPI  : GAMMA RAY [SPL GRED <2002F> GRRED, CSG ABOVE 2012F & BULK SHIFTED +20GAPI]
ILDED   .OHMM  : INDUCTION LOG DEEP RESISTIVITY
ILMED   .OHMM  : INDUCTION LOG MEDIUM RESISTIVITY
MRESWS  .OHMM  : MEDIUM RESISTIVITY [ILMED]
NPHISSED.V/V   : NEUTRON POROSITY SANDSTONE FROM DENSITY LOG
NPHILSED.V/V   : NEUTRON POROSITY LIMESTONE FROM DENSITY LOG
NPOWS   .V/V   : NEUTRON POROSITY [SPL NPHISSED <9789F> NPHILSED]
PEED    .B/E   : PHOTOELECTRIC FACTOR FROM DENSITY LOG
PEFWS   .B/E   : PHOTOELECTRIC FACTOR [PEED]
RHOBED  .G/C3  : BULK DENSITY FROM DENSITY LOG
SGUARDED.OHMM  : SHORT GUARD RESISTIVITY
SPRED   .MV    : SPONTANEOUS POTENTIAL FROM RESISTIVITY LOG
SPWS    .MV    : SPONTANEOUS POTENTIAL [BASELINE 0 MV] [SPRED]
SRESWS  .OHMM  : SHALLOW RESISTIVITY [SGUARDED]
TENRED  .LBF   : TENSION FROM RESISTIVITY LOG
TENSED  .LBF   : TENSION FROM SONIC LOG
~Params ----------------------------------------------------
PD  .                     GL : PERMANENT DATUM
EPD .F                   486 : ELEVATION PERMANENT DATUM
LMF .                    TKB : LOG MEASURED FROM
DAPD.F                    22 : FEET ABOVE PERMANENT DATUM
DMF .                    TKB : DRILLING MEASURED FROM
EKB .F                   508 : KELLING BUSHING
EDF .F                   507 : DRILLING FLOOR
EGL .F                   486 : GROUND LEVEL
DATE.               10/22/92 : RUN DATE
RUN .                      1 : RUN NUMBER
DD  .F                 11042 : DEPTH DRILLER
DL  .F                 11046 : DEPTH LOGGER
BLI .F                 11044 : BOTTOM LOG INTERVAL
TLI .F                  2012 : TOP LOG INTERVAL
CS  .IN                9.625 : CASING SIZE
CBD .F                  2013 : CASING BOTTOM DRILLER
CBL .F                  2012 : CASING BOTTOM LOGGER
BS  .IN                  8.5 : BIT SIZE
BSD .F                 11042 : BIT SIZE AT DEPTH
DFT .             WATER BASE : DRILLING FLUID TYPE
DFD .                   10.4 : DRILLING FLUID DENSITY
DFV .                     37 : DRILLING FLUID VISCOSITY
DFPH.                   11.5 : DRILLING FLUID PH
DFL .                      7 : DRILLING FLUID LOSS
MSS .             CIRCULATED : MUD SAMPLE SOURCE
RMS .OHMM               1.01 : RESISTIVITY MUD SAMPLE
MST .F                    75 : MUD SAMPLE TEMPERATURE
RMF .OHMM               0.81 : RESISTIVITY MUD FILTRATE SAMPLE
MFST.F                    75 : MUD FILTRATE SAMPLE TEMPERATURE
RMC .OHMM                1.3 : RESISTIVITY MUD CAKE
MCST.F                    75 : MUD CAKE SAMPLE TEMPERATURE
MFSS.                   MEAS : MUD FILTRATE SAMPLE SOURCE
MCSS.                   MEAS : MUD CAKE SAMPLE SOURCE
RMB .OHMM               0.33 : RESISTIVITY MUD AT BHT
TCS .HRS                   8 : TIME CURCULATED STOPPED
TLAB.HRS                1100 : TIME LOGGER AT BOTTOM
LUN .                  51561 : LOGGING UNIT NUMBER
LUL .                  ALICE : LOGGING UNIT LOCATION
ENGI.                MERRELL : RECORDING ENGINEER
CLNT.                A2DTECH : CLIENT CODE
ORIG.            1" 5" PRINT : ORIGIN OF DATA
UWI .         42013339790000 : UNIQUE WELL ID
DICO. A2D Technologies, Inc. : DIGITIZING COMPANY
~Other -----------------------------------------------------
~ASCII -----------------------------------------------------
# ...
 3800.00000    -999.25   12.13420  582.14000    3.63420    0.07440    0.07440    2.45160    0.12020    -999.25    0.12020    1.71780    -999.25    -999.25    -999.25   82.48860    -999.25   82.48860    1.71780    1.60530    1.60530    0.21280    -999.25    0.21280    -999.25    -999.25    -999.25    1.88870  -43.30780    2.10500    1.88870 1902.21510    -999.25
 3850.00000    -999.25   12.21150  721.03250    3.71150    0.05940    0.05940    2.46190    0.11400    -999.25    0.11400    1.38690    -999.25    -999.25    -999.25   86.97570    -999.25   86.97570    1.38690    1.43570    1.43570    0.22100    -999.25    0.22100    -999.25    -999.25    -999.25    1.77990  -41.16740    4.25690    1.77990 1916.74830    -999.25
 3900.00000    -999.25   11.62980  392.55710    3.12980    0.04780    0.04780    2.50040    0.09070    -999.25    0.09070    2.54740    -999.25    -999.25    -999.25   83.59550    -999.25   83.59550    2.54740    2.50010    2.50010    0.20780    -999.25    0.20780    -999.25    -999.25    -999.25    2.60710  -42.56280    2.87300    2.60710 1939.78740    -999.25
 3950.00000    -999.25    7.80320  252.19410   -0.69680    0.11630    0.11630    2.48410    0.10060    -999.25    0.10060    3.96520    -999.25    -999.25    -999.25   79.39680    -999.25   79.39680    3.96520    3.89290    3.89290    0.20870    -999.25    0.20870    -999.25    -999.25    -999.25    4.52050  -48.23950   -2.79220    4.52050 1920.19860    -999.25
 4000.00000    -999.25    9.26320  391.20570    0.76320    0.17860    0.17860    2.45180    0.12010    -999.25    0.12010    2.55620    -999.25    -999.25    -999.25   81.26060    -999.25   81.26060    2.55620    2.38880    2.38880    0.22560    -999.25    0.22560    -999.25    -999.25    -999.25    2.99040  -37.70650    7.75230    2.99040 2014.74270    -999.25
 4050.00000    -999.25    7.22740   41.61050   -1.27260    0.03620    0.03620    2.51100    0.08420    -999.25    0.08420   24.03240    -999.25    -999.25    -999.25   32.77760    -999.25   32.77760   24.03240   18.44130   18.44130    0.11570    -999.25    0.11570    -999.25    -999.25    -999.25   29.89590  -29.49960   15.97070   29.89590 1978.88400    -999.25
 4100.00000    -999.25    7.20500   55.98820   -1.29500    0.04940    0.04940    2.40270    0.14980    -999.25    0.14980   17.86090    -999.25    -999.25    -999.25   42.62940    -999.25   42.62940   17.86090   10.26340   10.26340    0.18540    -999.25    0.18540    -999.25    -999.25    -999.25   11.22030  -31.68230   13.79960   11.22030 2004.79940    -999.25
 4150.00000    -999.25    8.64880  276.05250    0.14880    0.12810    0.12810    2.45880    0.11590    -999.25    0.11590    3.62250    -999.25    -999.25    -999.25   85.27580    -999.25   85.27580    3.62250    3.47750    3.47750    0.19860    -999.25    0.19860    -999.25    -999.25    -999.25    4.24480  -39.64500    5.84840    4.24480 2007.34230    -999.25
 4200.00000    -999.25    6.94070   56.40000   -1.55930    0.05190    0.05190    2.41670    0.14140    -999.25    0.14140   17.73050    -999.25    -999.25    -999.25   47.12720    -999.25   47.12720   17.73050   11.14300   11.14300    0.17200    -999.25    0.17200    -999.25    -999.25    -999.25   11.14550  -24.24520   21.25970   11.14550 2066.63650    -999.25
 4250.00000    -999.25    9.13830  356.39190    0.63830    0.12400    0.12400    2.48730    0.09860    -999.25    0.09860    2.80590    -999.25    -999.25    -999.25   96.08160    -999.25   96.08160    2.80590    2.57790    2.57790    0.23040    -999.25    0.23040    -999.25    -999.25    -999.25    3.49780  -37.65850    7.85790    3.49780 2085.08370    -999.25
 4300.00000    -999.25    7.07580   55.53520   -1.42420    0.03330    0.03330    2.46170    0.11420    -999.25    0.11420   18.00660    -999.25    -999.25    -999.25   30.83460    -999.25   30.83460   18.00660   12.12870   12.12870    0.16520    -999.25    0.16520    -999.25    -999.25    -999.25   13.52280  -37.15560    8.37230   13.52280 2051.25760    -999.25
 4350.00000    -999.25    7.56720   54.77110   -0.93280    -999.25    -999.25    -999.25    -999.25    -999.25    -999.25   18.25780    -999.25    -999.25    -999.25   49.10810    -999.25   49.10810   18.25780    9.92910    9.92910    -999.25    -999.25    -999.25    -999.25    -999.25    -999.25   11.66470  -33.97020   11.56920   11.66470 2081.63450    -999.25
 4400.00000    -999.25    8.21210   41.94400   -0.28790    -999.25    -999.25    -999.25    -999.25    -999.25    -999.25   23.84130    -999.25    -999.25    -999.25   31.28680    -999.25   31.28680   23.84130   13.02120   13.02120    -999.25    -999.25    -999.25    -999.25    -999.25    -999.25   12.92800  -26.17050   19.38040   12.92800 2165.33250    -999.25
 4450.00000    -999.25    8.37620   48.49050   -0.12380    -999.25    -999.25    -999.25    -999.25    -999.25    -999.25   20.62260    -999.25    -999.25    -999.25   53.69460    -999.25   53.69460   20.62260   12.35820   12.35820    -999.25    -999.25    -999.25    -999.25    -999.25    -999.25   12.56940  -29.49890   16.06360   12.56940 2138.69430    -999.25
 4500.00000    -999.25    8.29940   48.59090   -0.20060    -999.25    -999.25    -999.25    -999.25    -999.25    -999.25   20.58000    -999.25    -999.25    -999.25   39.41140    -999.25   39.41140   20.58000   12.31870   12.31870    -999.25    -999.25    -999.25    -999.25    -999.25    -999.25   12.10080  -27.93340   17.64060   12.10080 2187.12350    -999.25
 4550.00000    -999.25    7.29220   57.98780   -1.20780    -999.25    -999.25    -999.25    -999.25    -999.25    -999.25   17.24500    -999.25    -999.25    -999.25   58.75320    -999.25   58.75320   17.24500   11.80530   11.80530    -999.25    -999.25    -999.25    -999.25    -999.25    -999.25   11.56060  -32.42820   13.15730   11.56060 2165.64720    -999.25
 4600.00000    -999.25    7.30240   88.75950   -1.19760    -999.25    -999.25    -999.25    -999.25    -999.25    -999.25   11.26640    -999.25    -999.25    -999.25   67.48090    -999.25   67.48090   11.26640    8.41640    8.41640    -999.25    -999.25    -999.25    -999.25    -999.25    -999.25    8.54570  -42.12690    3.47010    8.54570 2178.54130    -999.25
 4650.00000    -999.25    8.46300  231.18710   -0.03700    -999.25    -999.25    -999.25    -999.25    -999.25    -999.25    4.32550    -999.25    -999.25    -999.25   98.97350    -999.25   98.97350    4.32550    3.95640    3.95640    -999.25    -999.25    -999.25    -999.25    -999.25    -999.25    5.48060  -48.69860   -3.09010    5.48060 2178.12720    -999.25
 4700.00000    -999.25    7.18010   70.10160   -1.31990    -999.25    -999.25    -999.25    -999.25    -999.25    -999.25   14.26500    -999.25    -999.25    -999.25   81.47540    -999.25   81.47540   14.26500   10.03330   10.03330    -999.25    -999.25    -999.25    -999.25    -999.25    -999.25   10.13940  -43.92750    1.69250   10.13940 2238.12620    -999.25
 4750.00000    -999.25    7.66690   69.67620   -0.83310    -999.25    -999.25    -999.25    -999.25    -999.25    -999.25   14.35210    -999.25    -999.25    -999.25   44.11120    -999.25   44.11120   14.35210    8.64990    8.64990    -999.25    -999.25    -999.25    -999.25    -999.25    -999.25    9.19530  -40.82660    4.80490    9.19530 2246.17800    -999.25
 4800.00000    -999.25    7.10030   53.57020   -1.39970    -999.25    -999.25    -999.25    -999.25    -999.25    -999.25   18.66710    -999.25    -999.25    -999.25   88.32110    -999.25   88.32110   18.66710   13.14750   13.14750    -999.25    -999.25    -999.25    -999.25    -999.25    -999.25   16.53360  -44.92940    0.71360   16.53360 2216.66060    -999.25
 4850.00000    -999.25    7.05270   66.99130   -1.44730    -999.25    -999.25    -999.25    -999.25    -999.25    -999.25   14.92730    -999.25    -999.25    -999.25   60.24990    -999.25   60.24990   14.92730   10.20850   10.20850    -999.25    -999.25    -999.25    -999.25    -999.25    -999.25   10.35390  -42.24500    3.40960   10.35390 2386.13960    -999.25
