~Version ---------------------------------------------------
VERS. 2.0 : CWLS log ASCII Standard -VERSION 2.0
WRAP.  NO : ONE LINE PER DEPTH STEP
~Well ------------------------------------------------------
STRT.F                   300.0 : START DEPTH
STOP.F                 24000.0 : STOP DEPTH
STEP.F                50.00000 : STEP LENGTH
NULL.                  -999.25 : NULL VALUE
COMP.       PLACID OIL COMPANY : COMPANY
WELL.                PEELER #1 : WELL
FLD .                  WILDCAT : FIELD
LOC .                          : LOCATION
CNTY.                MC MULLEN : COUNTY
STAT.                    TEXAS : STATE
CTRY. UNITED STATES OF AMERICA : COUNTRY
SRVC.             Schlumberger : SERVICE COMPANY
DATE.              01-Jan-1984 : LOGDATE
API .           42311317850000 : API NUMBER
UWI .           42311317850000 : UNIQUE WELL ID
SLAT.WGS84       28.5959255047 : SURFACE LATITUDE
SLON.WGS84      -98.4401225914 : SURFACE LONGITUDE
~Curve Information -----------------------------------------
DEPT   .F                 : 
DPHI_LS.DEC  45 890 10 00 : DENSITY POROSITY LIMESTONE
CALD   .IN   45 280 60 00 : CALIPER FROM DENSITY LOG
RHOB   .G/C3 45 350 01 00 : BULK DENSITY
NPHI_LS.DEC  42 890 01 00 : NEUTRON POROSITY LIMESTONE
DT     .US/F 60 500 00 00 : DELTA-T (INTERVAL TRANSIT TIME)
GRR    .GAPI 07 310 01 00 : GAMMA RAY FROM RESISTIVITY LOG
NPHI_SS.DEC  42 890 03 00 : NEUTRON POROSITY SANDSTONE
ILM    .OHMM 07 120 44 00 : INDUCTION MEDIUM RESISTIVITY
SFLU   .OHMM 07 220 01 00 : SHALLOW FOCUSED RESISTIVITY (UNAVERAGED)
SPR    .MV   07 010 01 00 : SPONTANEOUS POTENTIAL FROM RESISTIVITY LOG
ILD    .OHMM 07 120 46 00 : INDUCTION DEEP RESISTIVITY
DCALR  .IN   07 280 01 00 : DIFFERENTIAL CALIPER FROM RESISTIVITY LOG
DPHI_SS.DEC  45 890 12 00 : DENSITY POROSITY SANDSTONE
DRHO   .G/C3 45 356 01 00 : BULK DENSITY CORRECTION
~Params ----------------------------------------------------
PD  .                     GL : PERMANENT DATUM
EPD .F                   336 : ELEVATION PERMANENT DATUM
LMF .                     KB : LOG MEASURED FROM
DMF .                     KB : DRILLING MEASURED FROM
EKB .F                   368 : KELLING BUSHING
EDF .F                   367 : DRILLING FLOOR
EGL .F                   336 : GROUND LEVEL
DATE.               1-1-1984 : RUN DATE
RUN .                      7 : RUN NUMBER
DD  .F                 24031 : DEPTH DRILLER
DL  .F                 24037 : DEPTH LOGGER
BLI .F                 24030 : BOTTOM LOG INTERVAL
TLI .F                 21000 : TOP LOG INTERVAL
CS  .IN                8.625 : CASING SIZE
CBD .F                 19500 : CASING BOTTOM DRILLER
CBL .F                 19500 : CASING BOTTOM LOGGER
BS  .IN                  7.5 : BIT SIZE
BSD .F                 24031 : BIT SIZE AT DEPTH
DFT .               INVERMUL : DRILLING FLUID TYPE
DFV .                     83 : DRILLING FLUID VISCOSITY
TCS .HRS                 800 : TIME CURCULATED STOPPED
TLAB.HRS                 200 : TIME LOGGER AT BOTTOM
LUL .               EDINBURG : LOGGING UNIT LOCATION
ENGI.              NEWMISTER : RECORDING ENGINEER
WITN.                   LONG : WITNESSED BY
CLNT.                A2DTECH : CLIENT CODE
ORIG.            1",5" PRINT : ORIGIN OF DATA
UWI .         42311317850000 : UNIQUE WELL ID
DICO. A2D Technologies, Inc. : DIGITIZING COMPANY
~Other -----------------------------------------------------
~ASCII -----------------------------------------------------
# ...
 2750.00000    -999.25    -999.25    -999.25    -999.25    -999.25   75.36110    0.57220    3.57110    3.20400  -28.64930    4.19680    0.34220    0.32680    0.04880
 2800.00000    -999.25    -999.25    -999.25    -999.25    -999.25   38.59580    0.44180    3.57950    3.11800  -27.40120    4.18620    1.15450    0.34100    0.02410
 2850.00000    -999.25    -999.25    -999.25    -999.25    -999.25   34.71230    0.48340    3.38060    2.86120  -25.27470    4.13530    0.63410    0.37400    0.02190
 2900.00000    -999.25    -999.25    -999.25    -999.25    -999.25   41.01750    0.49390    2.77130    2.49600  -29.39610    3.05850    1.75110    0.22920    0.05770
 2950.00000    -999.25    -999.25    -999.25    -999.25    -999.25   45.00420    0.43740    2.50430    2.22160  -37.00390    2.55710    0.59470    0.32860    0.02390
 3000.00000    -999.25    -999.25    -999.25    -999.25    -999.25   40.96840    0.39760    2.74280    2.63700  -40.64480    2.80080    1.19460    0.31440    0.05310
 3050.00000    -999.25    -999.25    -999.25    -999.25    -999.25   42.35570    0.45460    2.49900    2.43040  -40.59160    2.55180    0.32460    0.34370    0.02710
 3100.00000    -999.25    -999.25    -999.25    -999.25    -999.25   53.64450    0.49230    2.07660    1.80230  -35.83220    2.14320    0.40900    0.28880    0.03480
 3150.00000    -999.25    -999.25    -999.25    -999.25    -999.25   88.21300    0.52910    2.37850    2.24700  -30.93590    2.49010    0.74350    0.23160    0.01860
 3200.00000    -999.25    -999.25    -999.25    -999.25    -999.25   52.06110    0.57370    2.32540    2.10840  -34.71210    2.47940    0.61890    0.25860    0.08750
 3250.00000    -999.25    -999.25    -999.25    -999.25    -999.25   55.53450    0.51330    2.58640    2.80890  -34.44220    2.69910    0.71420    0.29000    0.05280
 3300.00000    -999.25    -999.25    -999.25    -999.25    -999.25   42.44220    0.53940    2.27600    2.51360  -29.70150    2.34340    2.05920    0.24530    0.05150
 3350.00000    -999.25    -999.25    -999.25    -999.25    -999.25   45.14670    0.52030    1.58990    1.46380  -29.10900    1.65110    1.34260    0.33240    0.08810
 3400.00000    -999.25    -999.25    -999.25    -999.25    -999.25   44.05870    0.59210    1.93590    2.19430  -28.60310    2.09780    2.11040    0.31490    0.09530
 3450.00000    -999.25    -999.25    -999.25    -999.25    -999.25   42.08600    0.52450    1.80640    1.74500  -26.45790    1.93680    1.43760    0.32850    0.09300
 3500.00000    -999.25    -999.25    -999.25    -999.25    -999.25   46.61460    0.55650    1.56030    1.92750  -25.69260    1.68390    2.56160    0.27030    0.09670
 3550.00000    -999.25    -999.25    -999.25    -999.25    -999.25   44.70990    0.58370    1.88960    2.07900  -24.85480    1.99240    2.38860    0.31100    0.09490
 3600.00000    -999.25    -999.25    -999.25    -999.25    -999.25   40.28450    0.42980    3.99490    3.71100  -25.98800    4.74950    0.84500    0.27120    0.03570
 3650.00000    -999.25    -999.25    -999.25    -999.25    -999.25   26.91430    0.38800    5.36700    4.91260  -13.00590    7.94820    0.59330    0.29730    0.03630
 3700.00000    -999.25    -999.25    -999.25    -999.25    -999.25   41.72580    0.42690    5.25530    5.76840  -18.47090    7.23790    0.81830    0.27550    0.05560
 3750.00000    -999.25    -999.25    -999.25    -999.25    -999.25   31.77930    0.42560    5.59610    6.73820   20.09310   11.33050    1.05580    0.33890    0.03390
 3800.00000    -999.25    -999.25    -999.25    -999.25    -999.25   25.67650    0.43660    6.10510    6.99110    5.52400   11.77420    0.73660    0.32170    0.04270
 3850.00000    -999.25    -999.25    -999.25    -999.25    -999.25   39.35980    0.38150    5.92260    6.10890   -4.74160    9.18380    2.62330    0.24390    0.09750
 3900.00000    -999.25    -999.25    -999.25    -999.25    -999.25   21.41380    0.45470    5.21360    7.16550   19.22370   11.51870    0.62510    0.30920    0.06000
 3950.00000    -999.25    -999.25    -999.25    -999.25    -999.25   17.56440    0.38500    5.29200    6.45990   24.56070   10.84300    1.11660    0.32560    0.03220
 4000.00000    -999.25    -999.25    -999.25    -999.25    -999.25   26.42000    0.50720    5.48720    6.65520   13.41600   11.69410    0.52270    0.33160    0.05080
 4050.00000    -999.25    -999.25    -999.25    -999.25    -999.25   28.69080    0.43810    6.25430    6.81450   16.62920   11.38160    1.07080    0.29400    0.05220
 4100.00000    -999.25    -999.25    -999.25    -999.25    -999.25   24.20270    0.48530    5.78180    6.92380   12.28040   11.86800    0.75670    0.31430    0.02310
 4150.00000    -999.25    -999.25    -999.25    -999.25    -999.25   24.11690    0.42760    5.58160    6.03920   19.35970    9.78700    0.87930    0.30760    0.03590
 4200.00000    -999.25    -999.25    -999.25    -999.25    -999.25   26.23400    0.43970    4.70200    6.34080   22.91290    9.80850    0.92250    0.35310    0.02730
 4250.00000    -999.25    -999.25    -999.25    -999.25    -999.25   38.32690    0.40980    6.11520    5.84220   -6.07090    8.33470    0.77860    0.27540    0.02540
 4300.00000    -999.25    -999.25    -999.25    -999.25    -999.25   24.12630    0.45900    5.21060    6.26210   16.24100    9.71370    0.52200    0.34290    0.02430
 4350.00000    -999.25    -999.25    -999.25    -999.25    -999.25   32.74670    0.47620    4.90500    5.89870   14.20620    9.30200    0.99150    0.33900    0.01900
 4400.00000    -999.25    -999.25    -999.25    -999.25    -999.25   34.45060    0.42810    6.14600    6.41800   -4.91750    8.55080    0.93130    0.26620    0.05510
 4450.00000    -999.25    -999.25    -999.25    -999.25    -999.25   59.74000    0.42550    8.08370    7.72090  -10.50370    9.56590    3.95170    0.19600    0.03090
 4500.00000    -999.25    -999.25    -999.25    -999.25    -999.25   52.75790    0.45220    5.99440    5.46640   -3.42850    8.68250    1.43890    0.22230    0.07570
 4550.00000    -999.25    -999.25    -999.25    -999.25    -999.25   61.64340    0.45110    4.96420    4.76100  -16.57570    5.65170    2.98960    0.19600    0.05500
 4600.00000    -999.25    -999.25    -999.25    -999.25    -999.25   35.01190    0.46530    5.37730    5.23980   -4.73600    7.73830    1.01080    0.26640    0.04080
 4650.00000    -999.25    -999.25    -999.25    -999.25    -999.25   40.49870    0.49870    5.38440    5.93570   -6.94900    8.37870    2.55740    0.25620    0.08500
 4700.00000    -999.25    -999.25    -999.25    -999.25    -999.25   50.33580    0.43280    5.63230    5.87450  -15.75820    7.32260    1.72950    0.11540    0.09760
 4750.00000    -999.25    -999.25    -999.25    -999.25    -999.25   35.97510    0.41360    4.88640    4.73690   -2.88500    7.06230    1.24980    0.28200    0.03060
 4800.00000    -999.25    -999.25    -999.25    -999.25    -999.25   50.68050    0.38540    3.95820    4.11970  -14.60170    4.68260    2.02500    0.21190    0.08650
 4850.00000    -999.25    -999.25    -999.25    -999.25    -999.25   44.74160    0.46860    4.26450    3.75200  -16.29290    4.65040    2.44060    0.24140    0.05410
 4900.00000    -999.25    -999.25    -999.25    -999.25    -999.25   50.92670    0.46060    5.00610    4.75780  -13.78350    6.21430    2.49170    0.26130    0.04020
 4950.00000    -999.25    -999.25    -999.25    -999.25    -999.25   49.23690    0.36060    5.09090    4.71550  -18.00390    4.89210    2.81180    0.15320    0.06820
 5000.00000    -999.25    -999.25    -999.25    -999.25    -999.25   41.91970    0.43970    2.24530    2.71540  -17.24410    2.35850    2.90980    0.24350    0.08450
 5050.00000    -999.25    -999.25    -999.25    -999.25    -999.25   51.45810    0.48670    3.34880    3.25620  -21.66890    3.56400    2.50860    0.21300    0.06230
 5100.00000    -999.25    -999.25    -999.25    -999.25    -999.25   51.02610    0.41660    3.58680    3.10580  -16.45230    3.73150    2.66240    0.20030    0.02980
 5150.00000    -999.25    -999.25    -999.25    -999.25    -999.25   59.26660    0.50690    2.20700    2.08000  -14.83830    2.35830    2.85170    0.21560    0.09950
