~Version ---------------------------------------------------
VERS.      2.0 : CWLS log ASCII Standard -VERSION 2.0
WRAP.      YES : Multiple lines per depth step
CREA. 01/09/13 : LAS Creation Date
~Well ------------------------------------------------------
STRT.FT                    1500.0 : START DEPTH
STOP.FT                    9700.0 : STOP DEPTH
STEP.FT                  50.00000 : STEP LENGTH
NULL.                     -999.25 : NULL VALUE
COMP.        MARATHON OIL COMPANY : COMPANY
WELL.                 NEWELL A #4 : WELL
FLD .                  BEAR GRASS : FIELD
LOC .                             : LOCATION
CNTY.                        LEON : COUNTY
STAT.                       TEXAS : STATE
CTRY.    UNITED STATES OF AMERICA : COUNTRY
SRVC. HALLIBURTON Sperry Drilling : SERVICE COMPANY
DATE.                 24-Apr-2000 : LOGDATE
API .              42289313210000 : API NUMBER
UWI .              42289313210000 : UNIQUE WELL ID
SLAT.WGS84          31.3590171152 : SURFACE LATITUDE
SLON.WGS84         -96.2605957839 : SURFACE LONGITUDE
~Curve Information -----------------------------------------
DEPT    .FT    : DEPTH FEET
CALDED  .IN    : CALIPER FROM HRI-DFL-SD-DSN-GR LOG
CALWS   .IN    : CALIPER [CALDED]
CONDWS  .MMHO  : CONDUCTIVITY [1000/DRESWS]
DCALED  .IN    : DIFFERENTIAL CALIPER FROM HRI-DFL-SD-DSN-GR LOG
DCORED  .G/C3  : DENSITY CORRECTION FROM HRI-DFL-SD-DSN-GR LOG
DCORWS  .G/C3  : DENSITY CORRECTION [DCORED]
DENWS   .G/C3  : FORMATION BULK DENSITY [CALCULATED FROM DPOWS, M=2.71, F=1.0]
DFLED   .OHMM  : DIGITALLY FOCUSED LATEROLOG FROM HRI-DFL-SD-DSN-GR LOG
DPORLSED.V/V   : DENSITY POROSITY LIMESTONE [M=2.71, F=1.0] FROM HRI-DFL-SD-DSN-GR LOG
DPOWS   .V/V   : DENSITY POROSITY LIMESTONE [DPORLSED]
DRESWS  .OHMM  : DEEP RESISTIVITY [HDRSED]
GRRED   .GAPI  : GAMMA RAY FROM HRI-DFL-SD-DSN-GR LOG
GRWS    .GAPI  : GAMMA RAY [GRRED]
HDRSED  .OHMM  : DEEP HIGH RESOLUTION RESISTIVITY FROM HRI-DFL-SD-DSN-GR LOG
HMRSED  .OHMM  : MEDIUM HIGH RESOLUTION RESISTIVITY FROM HRI-DFL-SD-DSN-GR LOG
MRESWS  .OHMM  : MEDIUM RESISTIVITY [HMRSEDS]
NPORLSED.V/V   : NEUTRON POROSITY LIMESTONE FROM HRI-DFL-SD-DSN-GR LOG
NPOWS   .V/V   : NEUTRON POROSITY LIMESTONE [NPORSLSED]
SPRED   .MV    : SPONTANEOUS POTENTIAL FROM HRI-DFL-SD-DSN-GR LOG
SPWS    .MV    : SPONTANEOUS POTENTIAL [BASELINE 0 MV, SPRED]
SRESWS  .OHMM  : SHALLOW RESISTIVITY [DLFED]
TENRED  .LBF   : TENSION FROM HRI-DFL-SD-DSN-GR LOG
~Params ----------------------------------------------------
PD  .                     GL : PERMANENT DATUM
EPD .FT                  508 : ELEVATION PERMANENT DATUM
LMF .                     KB : LOG MEASURED FROM
DAPD.FT                   12 : FEET ABOVE PERMANENT DATUM
DMF .                     KB : DRILLING MEASURED FROM
EKB .FT                  520 : KELLY BUSHING
EDF .FT                  519 : DRILLING FLOOR
EGL .FT                  508 : GROUND LEVEL
DATE.               04/24/00 : RUN DATE
RUN .                      1 : RUN NUMBER
DD  .FT                 9709 : DEPTH DRILLER
DL  .FT                 9701 : DEPTH LOGGER
BLI .FT                 9693 : BOTTOM LOG INTERVAL
TLI .FT                 1523 : TOP LOG INTERVAL
CS  .IN                9.625 : CASING SIZE
CBD .FT                 1525 : CASING BOTTOM DRILLER
CBL .FT                 1523 : CASING BOTTOM LOGGER
BS  .IN                7.875 : BIT SIZE
BSD .FT                 9709 : BIT SIZE AT DEPTH
DFT .              FRESH MUD : DRILLING FLUID TYPE
DFD .                   10.1 : DRILLING FLUID DENSITY
DFV .                     39 : DRILLING FLUID VISCOSITY
DFPH.                    9.6 : DRILLING FLUID PH
DFL .                     15 : DRILLING FLUID LOSS
MSS .               MUD TANK : MUD SAMPLE SOURCE
RMS .OHMM                0.7 : RESISTIVITY MUD SAMPLE
MST .FT                   80 : MUD SAMPLE TEMPERATURE
RMF .OHMM               0.53 : RESISTIVITY MUD FILTRATE SAMPLE
MFST.FT                   79 : MUD FILTRATE SAMPLE TEMPERATURE
RMC .OHMM               0.87 : RESISTIVITY MUD CAKE
MCST.FT                   80 : MUD CAKE SAMPLE TEMPERATURE
MFSS.                   MEAS : MUD FILTRATE SAMPLE SOURCE
MCSS.                   MEAS : MUD CAKE SAMPLE SOURCE
RMB .OHMM              0.257 : RESISTIVITY MUD AT BHT
TCS .HRS                1300 : TIME CURCULATED STOPPED
TLAB.HRS                1245 : TIME LOGGER AT BOTTOM
LUN .                  52562 : LOGGING UNIT NUMBER
LUL .                 KILGOR : LOGGING UNIT LOCATION
ENGI.               J BUTLER : RECORDING ENGINEER
WITN.           PERRY FRANKS : WITNESSED BY
CLNT.                A2DTECH : CLIENT CODE
ORIG.         1" 2" 5" PRINT : ORIGIN OF DATA
UWI .         42289313210000 : UNIQUE WELL ID
DICO. A2D Technologies, Inc. : DIGITIZING COMPANY
~Other -----------------------------------------------------
~ASCII -----------------------------------------------------
# ...
 3100.00000    -999.25    -999.25  847.24220    -999.25    -999.25    -999.25    -999.25    1.12130    -999.25    -999.25    1.18030  105.86790  105.86790    1.18030    1.10900    1.10900    -999.25    -999.25 -115.18020   -2.18630    1.12130 2031.42150
 3150.00000    -999.25    -999.25  790.07660    -999.25    -999.25    -999.25    -999.25    1.23570    -999.25    -999.25    1.26570   99.27900   99.27900    1.26570    1.18360    1.18360    -999.25    -999.25 -116.67730   -3.79720    1.23570 2090.29810
 3200.00000    -999.25    -999.25  798.72200    -999.25    -999.25    -999.25    -999.25    1.28520    -999.25    -999.25    1.25200   99.09910   99.09910    1.25200    1.23730    1.23730    -999.25    -999.25 -116.55280   -3.78640    1.28520 2075.06570
 3250.00000    -999.25    -999.25  464.87840    -999.25    -999.25    -999.25    -999.25    1.01220    -999.25    -999.25    2.15110   98.07850   98.07850    2.15110    2.06910    2.06910    -999.25    -999.25 -116.09900   -3.44630    1.01220 2113.99270
 3300.00000    -999.25    -999.25  829.87550    -999.25    -999.25    -999.25    -999.25    1.22330    -999.25    -999.25    1.20500  108.64010  108.64010    1.20500    1.17490    1.17490    -999.25    -999.25 -115.76880   -3.22990    1.22330 2098.50510
 3350.00000    -999.25    -999.25  812.54570    -999.25    -999.25    -999.25    -999.25    1.25040    -999.25    -999.25    1.23070   99.54630   99.54630    1.23070    1.29300    1.29300    -999.25    -999.25 -117.09070   -4.66550    1.25040 2101.15010
 3400.00000    -999.25    -999.25  872.06770    -999.25    -999.25    -999.25    -999.25    1.16400    -999.25    -999.25    1.14670  100.37870  100.37870    1.14670    1.13240    1.13240    -999.25    -999.25 -117.17060   -4.85910    1.16400 2135.71190
 3450.00000    -999.25    -999.25  987.84950    -999.25    -999.25    -999.25    -999.25    1.02840    -999.25    -999.25    1.01230  109.01190  109.01190    1.01230    0.97460    0.97460    -999.25    -999.25 -116.02750   -3.82980    1.02840 2158.01290
 3500.00000    -999.25    -999.25  758.49510    -999.25    -999.25    -999.25    -999.25    1.34300    -999.25    -999.25    1.31840  112.41930  112.41930    1.31840    1.26770    1.26770    -999.25    -999.25 -115.00580   -2.92180    1.34300 2158.34030
 3550.00000    -999.25    -999.25 1109.01630    -999.25    -999.25    -999.25    -999.25    0.94400    -999.25    -999.25    0.90170   78.56390   78.56390    0.90170    0.88770    0.88770    -999.25    -999.25 -112.72390   -0.62540    0.94400 2199.95070
 3600.00000    -999.25    -999.25  291.06150    -999.25    -999.25    -999.25    -999.25    3.53910    -999.25    -999.25    3.43570   98.53940   98.53940    3.43570    3.62770    3.62770    -999.25    -999.25 -129.41670  -17.27370    3.53910 2238.69780
 3650.00000    -999.25    -999.25  574.11870    -999.25    -999.25    -999.25    -999.25    1.83290    -999.25    -999.25    1.74180  115.33330  115.33330    1.74180    1.79540    1.79540    -999.25    -999.25 -117.76860   -5.58110    1.83290 2245.83300
 3700.00000    -999.25    -999.25  427.78920    -999.25    -999.25    -999.25    -999.25    2.62910    -999.25    -999.25    2.33760  107.96870  107.96870    2.33760    2.43810    2.43810    -999.25    -999.25 -122.25140  -10.01940    2.62910 2293.01540
 3750.00000    -999.25    -999.25  685.68290    -999.25    -999.25    -999.25    -999.25    1.61570    -999.25    -999.25    1.45840   98.55550   98.55550    1.45840    1.48580    1.48580    -999.25    -999.25 -118.25280   -5.97630    1.61570 2300.26370
 3800.00000    -999.25    -999.25  746.21300    -999.25    -999.25    -999.25    -999.25    1.48500    -999.25    -999.25    1.34010  106.41290  106.41290    1.34010    1.37680    1.37680    -999.25    -999.25 -118.72580   -6.40480    1.48500 2299.00810
 3850.00000    -999.25    -999.25  683.99450    -999.25    -999.25    -999.25    -999.25    1.54630    -999.25    -999.25    1.46200   99.95500   99.95500    1.46200    1.48540    1.48540    -999.25    -999.25 -118.06210   -5.69660    1.54630 2341.08060
 3900.00000    -999.25    -999.25  737.24570    -999.25    -999.25    -999.25    -999.25    1.40850    -999.25    -999.25    1.35640  105.79780  105.79780    1.35640    1.37740    1.37740    -999.25    -999.25 -119.04370   -6.63370    1.40850 2321.45730
 3950.00000    -999.25    -999.25  736.26860    -999.25    -999.25    -999.25    -999.25    1.51370    -999.25    -999.25    1.35820  109.08490  109.08490    1.35820    1.37900    1.37900    -999.25    -999.25 -119.52140   -7.06690    1.51370 2344.98540
 4000.00000    -999.25    -999.25  793.52480    -999.25    -999.25    -999.25    -999.25    1.39560    -999.25    -999.25    1.26020  107.14890  107.14890    1.26020    1.28800    1.28800    -999.25    -999.25 -117.56140   -5.06230    1.39560 2359.45090
 4050.00000    -999.25    -999.25  849.54550    -999.25    -999.25    -999.25    -999.25    1.32740    -999.25    -999.25    1.17710   99.19800   99.19800    1.17710    1.19190    1.19190    -999.25    -999.25 -118.77660   -6.23300    1.32740 2357.66990
 4100.00000    -999.25    -999.25  996.90960    -999.25    -999.25    -999.25    -999.25    1.13140    -999.25    -999.25    1.00310   95.40510   95.40510    1.00310    1.02350    1.02350    -999.25    -999.25 -118.15590   -5.56780    1.13140 2380.88330
 4150.00000    -999.25    -999.25 1024.59020    -999.25    -999.25    -999.25    -999.25    1.11050    -999.25    -999.25    0.97600   94.21450   94.21450    0.97600    1.02210    1.02210    -999.25    -999.25 -117.02720   -4.39460    1.11050 2393.24630
 4200.00000    -999.25    -999.25  779.84870    -999.25    -999.25    -999.25    -999.25    1.43800    -999.25    -999.25    1.28230  106.91700  106.91700    1.28230    1.30190    1.30190    -999.25    -999.25 -117.55630   -4.87920    1.43800 2430.23390
 4250.00000    -999.25    -999.25  707.86440    -999.25    -999.25    -999.25    -999.25    1.54890    -999.25    -999.25    1.41270  102.76910  102.76910    1.41270    1.43470    1.43470    -999.25    -999.25 -117.73080   -5.00920    1.54890 2443.23850
 4300.00000    -999.25    -999.25  320.43070    -999.25    -999.25    -999.25    -999.25    3.36240    -999.25    -999.25    3.12080   57.23110   57.23110    3.12080    3.16870    3.16870    -999.25    -999.25 -121.24040   -8.47430    3.36240 2473.67460
 4350.00000    -999.25    -999.25  444.10890    -999.25    -999.25    -999.25    -999.25    2.57260    -999.25    -999.25    2.25170   79.03770   79.03770    2.25170    2.29020    2.29020    -999.25    -999.25 -118.64570   -5.83510    2.57260 2485.07450
 4400.00000    -999.25    -999.25  505.35680    -999.25    -999.25    -999.25    -999.25    2.31350    -999.25    -999.25    1.97880   91.85420   91.85420    1.97880    2.00900    2.00900    -999.25    -999.25 -118.18440   -5.32930    2.31350 2522.31590
 4450.00000    -999.25    -999.25  562.24000    -999.25    -999.25    -999.25    -999.25    2.06960    -999.25    -999.25    1.77860   79.40960   79.40960    1.77860    1.81760    1.81760    -999.25    -999.25 -117.36370   -4.46400    2.06960 2518.69650
 4500.00000    -999.25    -999.25  338.20350    -999.25    -999.25    -999.25    -999.25    3.38650    -999.25    -999.25    2.95680   55.62320   55.62320    2.95680    3.01190    3.01190    -999.25    -999.25 -116.55890   -3.61470    3.38650 2540.39990
 4550.00000    -999.25    -999.25  256.30510    -999.25    -999.25    -999.25    -999.25    4.30230    -999.25    -999.25    3.90160   33.01660   33.01660    3.90160    3.96150    3.96150    -999.25    -999.25 -129.19580  -16.20710    4.30230 2584.90140
 4600.00000    -999.25    -999.25  260.36240    -999.25    -999.25    -999.25    -999.25    4.38500    -999.25    -999.25    3.84080   32.62830   32.62830    3.84080    3.90190    3.90190    -999.25    -999.25 -124.95140  -11.91820    4.38500 2709.76460
 4650.00000    -999.25    -999.25  275.08800    -999.25    -999.25    -999.25    -999.25    3.59010    -999.25    -999.25    3.63520   45.52730   45.52730    3.63520    3.80920    3.80920    -999.25    -999.25 -117.00850   -3.93080    3.59010 2623.81300
