~Version ---------------------------------------------------
VERS. 2.0 : CWLS log ASCII Standard -VERSION 2.0
WRAP.  NO : ONE LINE PER DEPTH STEP
~Well ------------------------------------------------------
STRT.F                   2050.0 : START DEPTH
STOP.F                  10350.0 : STOP DEPTH
STEP.F                 50.00000 : STEP LENGTH
NULL.                   -999.25 : NULL VALUE
COMP. JOHN H YOUNG INCORPORATED : COMPANY
WELL.                 LANELL #1 : WELL
FLD .             WHITE KITCHEN : FIELD
LOC .                           : LOCATION
CNTY.                  LA SALLE : COUNTY
STAT.                     TEXAS : STATE
CTRY.  UNITED STATES OF AMERICA : COUNTRY
SRVC.              Schlumberger : SERVICE COMPANY
DATE.               22-Jan-1993 : LOGDATE
API .            42283315220000 : API NUMBER
UWI .            42283315220000 : UNIQUE WELL ID
SLAT.WGS84        28.3644037948 : SURFACE LATITUDE
SLON.WGS84       -98.9509534343 : SURFACE LONGITUDE
~Curve Information -----------------------------------------
DEPT.F                 : 
GRR .GAPI 06 310 01 00 : GAMMA RAY FROM RES.
SPR .MV   06 010 01 00 : SPONTANEOUS POTENTIAL FROM RES.
DCAL.IN   06 280 30 00 : DIFFERENTIAL CALIPER FROM RES
IDER.OHMM 06 120 46 00 : INDUCTION DEEP ENHANCED RESOLUTION PHASOR RES.
IMER.OHMM 06 120 44 00 : INDUCTION MEDIUM ENHANCED RESOLUTION PHASOR RES
SFLU.OHMM 06 220 01 00 : SPHERICALLY FOCUSED LOG UNAVERAGED RES.
DT  .US/F 60 520 00 00 : INTERVAL TRANSIT TIME
CALD.IN   45 280 60 00 : CALIPER FROM DENSITY LOG
PEF .B/E  45 358 01 00 : PHOTOELECTRIC FACTOR
DRHO.G/C3 45 356 01 00 : DENSITY CORRECTION
RHOB.G/C3 45 350 01 00 : BULK DENSITY
NPHI.DEC  42 890 01 00 : NEUTRON POROSITY LIMESTONE
DPHI.DEC  45 890 10 00 : DENSITY POROSITY LIMESTONE
~Params ----------------------------------------------------
PD  .                     GL : PERMANENT DATUM
EPD .F                   421 : ELEVATION PERMANENT DATUM
LMF .                    RKB : LOG MEASURED FROM
DAPD.F                  19.4 : FEET ABOVE PERMANENT DATUM
DMF .                    RKB : DRILLING MEASURED FROM
EKB .F                 440.4 : KELLING BUSHING
EDF .F                 439.4 : DRILLING FLOOR
EGL .F                   421 : GROUND LEVEL
DATE.            22-JAN-1993 : RUN DATE
RUN .                      1 : RUN NUMBER
DD  .F                 10380 : DEPTH DRILLER
DL  .F                 10388 : DEPTH LOGGER
BLI .F                 10382 : BOTTOM LOG INTERVAL
TLI .F                  2141 : TOP LOG INTERVAL
CS  .IN                9.625 : CASING SIZE
CBD .F                  2135 : CASING BOTTOM DRILLER
CBL .F                  2141 : CASING BOTTOM LOGGER
BS  .IN                 8.75 : BIT SIZE
BSD .F                 10380 : BIT SIZE AT DEPTH
DFT .                POLYMER : DRILLING FLUID TYPE
DFD .                    9.6 : DRILLING FLUID DENSITY
DFV .                     35 : DRILLING FLUID VISCOSITY
DFPH.                    8.8 : DRILLING FLUID PH
DFL .                    7.2 : DRILLING FLUID LOSS
MSS .                 MUDPIT : MUD SAMPLE SOURCE
RMS .OHMM                  4 : RESISTIVITY MUD SAMPLE
MST .F                    75 : MUD SAMPLE TEMPERATURE
RMF .OHMM                3.7 : RESISTIVITY MUD FILTRATE SAMPLE
MFST.F                    75 : MUD FILTRATE SAMPLE TEMPERATURE
RMC .OHMM                  6 : RESISTIVITY MUD CAKE
MCST.F                    75 : MUD CAKE SAMPLE TEMPERATURE
MFSS.                   MEAS : MUD FILTRATE SAMPLE SOURCE
MCSS.                   CALC : MUD CAKE SAMPLE SOURCE
RMB .OHMM              1.417 : RESISTIVITY MUD AT BHT
TCS .HRS                2030 : TIME CURCULATED STOPPED
TLAB.HRS                 100 : TIME LOGGER AT BOTTOM
LUN .                   2024 : LOGGING UNIT NUMBER
LUL .                 LAREDO : LOGGING UNIT LOCATION
ENGI.           BRIAN HOOVER : RECORDING ENGINEER
WITN.       MR. MARK O'KOREN : WITNESSED BY
CLNT.                A2DTECH : CLIENT CODE
ORIG.               5" PRINT : ORIGIN OF DATA
UWI .         42283315220000 : UNIQUE WELL ID
DICO. A2D Technologies, Inc. : DIGITIZING COMPANY
~Other -----------------------------------------------------
~ASCII -----------------------------------------------------
 2050.00000   59.04980    -999.25    -999.25    -999.25    -999.25    -999.25    -999.25    -999.25    -999.25    -999.25    -999.25    -999.25    -999.25
 2100.00000   34.61600    -999.25    -999.25    -999.25    -999.25    -999.25    -999.25    -999.25    -999.25    -999.25    -999.25    -999.25    -999.25
 2150.00000   41.59940  -31.35540    -999.25    6.60430    6.17830   13.15010    -999.25    -999.25    -999.25    -999.25    -999.25    -999.25    -999.25
 2200.00000   71.04070  -34.21690    -999.25   32.02880   28.38080    6.66780    -999.25    -999.25    -999.25    -999.25    -999.25    -999.25    -999.25
 2250.00000   61.68250  -32.90890    -999.25    7.76550    7.82000    8.43940    -999.25    -999.25    -999.25    -999.25    -999.25    -999.25    -999.25
 2300.00000   49.07220  -33.35780    -999.25   18.79150   18.46790   18.79160    -999.25    -999.25    -999.25    -999.25    -999.25    -999.25    -999.25
 2350.00000   88.23530  -21.75320    -999.25    1.67560    1.53430    1.29020    -999.25    -999.25    -999.25    -999.25    -999.25    -999.25    -999.25
 2400.00000   62.62080  -37.91480    -999.25    7.22640    7.40010    6.62170    -999.25    -999.25    -999.25    -999.25    -999.25    -999.25    -999.25
 2450.00000   55.30790  -40.69180    -999.25   16.48540   16.18940   14.80130    -999.25    -999.25    -999.25    -999.25    -999.25    -999.25    -999.25
 2500.00000   54.07240  -39.76580    -999.25   18.79150   18.22700   16.52960    -999.25    -999.25    -999.25    -999.25    -999.25    -999.25    -999.25
 2550.00000   59.93490  -39.33730    -999.25   16.82060   15.49700   14.29080    -999.25    -999.25    -999.25    -999.25    -999.25    -999.25    -999.25
 2600.00000   65.61090  -35.23590    -999.25    8.53300    9.49880    8.50420    -999.25    -999.25    -999.25    -999.25    -999.25    -999.25    -999.25
 2650.00000   63.22030  -38.87650    -999.25   17.69260   18.72570   15.72190    -999.25    -999.25    -999.25    -999.25    -999.25    -999.25    -999.25
 2700.00000   64.02720  -32.02490    -999.25    9.17980    8.92050    8.84510    -999.25    -999.25    -999.25    -999.25    -999.25    -999.25    -999.25
 2750.00000   57.69230  -42.80120    -999.25   14.37040   14.79460   13.52020    -999.25    -999.25    -999.25    -999.25    -999.25    -999.25    -999.25
 2800.00000   55.46660  -32.48370    -999.25    6.92430    6.78690    9.96560    -999.25    -999.25    -999.25    -999.25    -999.25    -999.25    -999.25
 2850.00000   42.76020  -46.04740    -999.25   14.84940   16.07790   13.44710    -999.25    -999.25    -999.25    -999.25    -999.25    -999.25    -999.25
 2900.00000   44.19400  -47.94050    -999.25   15.80440   17.35120   16.85660    -999.25    -999.25    -999.25    -999.25    -999.25    -999.25    -999.25
 2950.00000   41.62900  -36.93690    -999.25   20.39850   20.56290   18.69330    -999.25    -999.25    -999.25    -999.25    -999.25    -999.25    -999.25
 3000.00000   61.53850  -28.97710    -999.25    6.03580    6.05120    5.97780    -999.25    -999.25    -999.25    -999.25    -999.25    -999.25    -999.25
 3050.00000   83.71120  -26.53610    -999.25    7.12700    7.07480    6.85310    -999.25    -999.25    -999.25    -999.25    -999.25    -999.25    -999.25
 3100.00000   78.35170  -25.18070    -999.25    4.84560    4.77220    4.58620    -999.25    -999.25    -999.25    -999.25    -999.25    -999.25    -999.25
 3150.00000   85.00050  -23.67470    -999.25    4.44670    4.10490    3.49470    -999.25    -999.25    -999.25    -999.25    -999.25    -999.25    -999.25
 3200.00000   86.42530  -21.80740    -999.25    6.64540    6.56180    5.81780    -999.25    -999.25    -999.25    -999.25    -999.25    -999.25    -999.25
 3250.00000   72.00900  -20.06090    -999.25    5.40270    5.34900    5.20070    -999.25    -999.25    -999.25    -999.25    -999.25    -999.25    -999.25
 3300.00000   45.41920  -30.30120    -999.25   32.25140   26.58780   24.15300    -999.25    -999.25    -999.25    -999.25    -999.25    -999.25    -999.25
 3350.00000   38.68780  -31.41970    -999.25   27.69390   25.75200   21.23050    -999.25    -999.25    -999.25    -999.25    -999.25    -999.25    -999.25
 3400.00000   33.71040  -34.66860    -999.25   31.59530   28.61020   24.03200    -999.25    -999.25    -999.25    -999.25    -999.25    -999.25    -999.25
 3450.00000   30.65170  -30.30120    -999.25   30.09360   26.17460   22.89370    -999.25    -999.25    -999.25    -999.25    -999.25    -999.25    -999.25
 3500.00000   24.01740  -26.82870    -999.25   30.66020   29.57770   24.83840    -999.25    -999.25    -999.25    -999.25    -999.25    -999.25    -999.25
 3550.00000   36.62530  -27.28100    -999.25   25.55980   24.82070   20.91990    -999.25    -999.25    -999.25    -999.25    -999.25    -999.25    -999.25
 3600.00000   51.77520  -31.96370    -999.25   21.57820   18.27320   16.82480    -999.25    -999.25    -999.25    -999.25    -999.25    -999.25    -999.25
 3650.00000   66.26470  -32.30430    -999.25    8.11770    8.18570    8.96770    -999.25    -999.25    -999.25    -999.25    -999.25    -999.25    -999.25
 3700.00000   45.31720  -32.87010    -999.25   24.11080   20.14080   19.35040    -999.25    -999.25    -999.25    -999.25    -999.25    -999.25    -999.25
 3750.00000   77.62670  -18.66970    -999.25    5.39990    5.09540    5.08670    -999.25    -999.25    -999.25    -999.25    -999.25    -999.25    -999.25
 3800.00000   53.53690  -34.53170    -999.25   22.77530   22.49080   20.56090    -999.25   10.06910    2.31920    0.01950    2.19080    0.27970    0.27930
 3850.00000   58.13090  -37.38640    1.74440   11.19410   11.27600   10.15610    -999.25   10.39950    2.29750    0.03310    2.24460    0.32700    0.24550
 3900.00000   60.23970  -35.58890    4.48140    9.23470    9.14440    8.08420    -999.25   13.05710    2.75510    0.10310    2.11390    0.31710    0.30230
 3950.00000   55.06040  -41.41000    2.55640   13.55680   13.48710   13.68270   91.91620   11.21030    2.58970    0.06620    2.21240    0.29410    0.26350
 4000.00000   72.66920  -32.41690    3.69790    6.61730    6.14170    6.00390   95.20860   12.35140    2.53010    0.06320    2.11040    0.30000    0.30680
 4050.00000   69.10910  -35.43810    2.31080    3.92960    3.76170    3.70080   97.15610   11.16530    2.59030    0.09060    2.31030    0.29860    0.20990
 4100.00000   96.66130  -20.33230    4.42930    2.10840    2.03140    1.99570  105.76330   13.02700    2.41320    0.06660    2.21110    0.32250    0.25950
 4150.00000   95.94720  -26.82860    2.46620    2.98610    3.07920    2.76740   97.19350   11.02240    2.59040    0.09020    2.34790    0.31670    0.17930
 4200.00000   75.67980  -58.46810    0.51360    5.12590    6.09940    7.45170   91.76700    9.24170    2.45480    0.04510    2.28840    0.29730    0.21710
 4250.00000   73.48010  -44.80360    1.65420    3.74240    4.17230    4.58550   90.47500   10.29430    2.74100    0.07330    2.37270    0.28830    0.16490
 4300.00000   85.19640  -34.61850    1.63980    4.21080    3.90750    3.87420   93.86130   10.27070    2.74100    0.01800    2.31240    0.31130    0.21080
 4350.00000   82.98650  -44.35050    1.10510    4.13260    4.41000    4.04890   90.71810    9.81950    2.60540    0.04770    2.32310    0.29730    0.19460
 4400.00000   63.61390  -73.06950    0.33080    6.52420    7.23130   12.37110   84.28190    9.12780    2.66750    0.01570    2.34540    0.25120    0.18150
 4450.00000   70.95820  -41.83930    0.57800    4.62530    5.24050    6.48460   89.07170    9.34460    2.66570    0.05410    2.35010    0.30320    0.18110
 4500.00000   90.18070  -22.14500    1.86470    4.45480    4.45040    4.45230   86.97590   10.52880    2.65060    0.01050    2.50560    0.26760    0.08870
 4550.00000   86.78250  -17.61340    1.66680    2.66870    2.60140    3.29540   96.62550   10.51870    2.51510    0.07070    2.32980    0.29280    0.18150
 4600.00000   83.83650  -29.52230    0.92670    4.50350    4.35420    5.04510   87.87300    9.67050    2.90660    0.01100    2.39740    0.27300    0.15320
