~Version ---------------------------------------------------
VERS. 2.0 : CWLS log ASCII Standard -VERSION 2.0
WRAP. YES : MULTIPLE LINES PER DEPTH STEP
~Well ------------------------------------------------------
STRT.FT                 1150.0 : START DEPTH
STOP.FT                 8650.0 : STOP DEPTH
STEP.FT               50.00000 : STEP LENGTH
NULL.                  -999.25 : NULL VALUE
COMP. FLAG-REDFERN OIL COMPANY : COMPANY
WELL.          WILCO SUPPLY #1 : WELL
FLD .                 GIDDINGS : FIELD
LOC .                          : LOCATION
CNTY.                      LEE : COUNTY
STAT.                    TEXAS : STATE
CTRY. UNITED STATES OF AMERICA : COUNTRY
SRVC.             Schlumberger : SERVICE COMPANY
DATE.              22-Jun-1982 : LOGDATE
API .           42287312020000 : API NUMBER
UWI .           42287312020000 : UNIQUE WELL ID
SLAT.WGS84           30.100566 : SURFACE LATITUDE
SLON.WGS84          -96.965706 : SURFACE LONGITUDE
~Curve Information -----------------------------------------
DEPT    .FT    : DEPTH FEET
CALWS   .IN    : CALIPER [DCALED+BITED]
CONDWS  .MMHO  : CONDUCTIVITY [1000/DRESWS]
DCALED  .IN    : DIFFERENTIAL CALIPER FROM DENSITY LOG
DCORWS  .G/C3  : DENSITY CORRECTION [DRHOED]
DENWS   .G/C3  : BULK DENSITY [M=2.71 F=1.0] [CALCULATED FROM DPOWS]
DPHILSED.V/V   : DENSITY POROSITY [M=2.71 F=1.0] FROM DENSITY LOG
DPHISSED.V/V   : DENSITY POROSITY [M=2.65 F=1.0] FROM DENSITY LOG
DPOLSWS .V/V   : DENSITY POROSITY [M=2.71 F=1.0] [1121 DPOLSCAL 7198 DPHILSED]
DRESWS  .OHMM  : DEEP RESISTIVITY [ILDED]
DRHOED  .G/C3  : DENSITY CORRECTION FROM DENSITY LOG
GRRED   .GAPI  : GAMMA RAY FROM RESISTIVITY LOG
GRWS    .GAPI  : GAMMA RAY [GRRED]
ILDED   .OHMM  : INDUCTION LOG DEEP RESISTIVITY
ILMED   .OHMM  : INDUCTION LOG MEDIUM RESISTIVITY
MRESWS  .OHMM  : MEDIUM RESISTIVITY [ILMED]
NPHILSED.V/V   : NEUTRON POROSITY LIMESTONE FROM DENSITY LOG
NPHISSED.V/V   : NEUTRON POROSITY SANDSTONE FROM DENSITY LOG
NPOLSWS .V/V   : NEUTRON POROSITY LIMESTONE [1121 NPOLSCAL 7198 NPHILSED] [NPHISSED WAS CONVERTED TO NPOLSCAL USING POWERLOG MODULE]
SFLUED  .OHMM  : SPHERICALLY FOCUSED LOG RESISTIVITY
SPRED   .MV    : SPONTANEOUS POTENTIAL FROM RESISTIVITY LOG [SHIFTS ARE REMOVED]
SPWS    .MV    : SPONTANEOUS POTENTIAL [BASELINE 0 MV] [SPRED][POSITIVE VALUES, PL. USE W/ RESERVATIONS]
SRESWS  .OHMM  : SHALLOW RESISTIVITY [SFLUED]
~Params ----------------------------------------------------
PD  .                     GL : PERMANENT DATUM
EPD .FT                  478 : ELEVATION PERMANENT DATUM
LMF .                     KB : LOG MEASURED FROM
DAPD.FT                   17 : FEET ABOVE PERMANENT DATUM
DMF .                     KB : DRILLING MEASURED FROM
EKB .FT                  495 : KELLY BUSHING
EDF .FT                  494 : DRILLING FLOOR
EGL .FT                  478 : GROUND LEVEL
DATE.               06/22/82 : RUN DATE
RUN .                      2 : RUN NUMBER
DD  .FT                 8700 : DEPTH DRILLER
DL  .FT                 8700 : DEPTH LOGGER
BLI .FT                 8694 : BOTTOM LOG INTERVAL
TLI .FT                 7748 : TOP LOG INTERVAL
CS  .IN                    7 : CASING SIZE
CBD .FT                 7749 : CASING BOTTOM DRILLER
CBL .FT                 7748 : CASING BOTTOM LOGGER
BS  .IN                6.125 : BIT SIZE
BSD .FT                 8700 : BIT SIZE AT DEPTH
DFT .         LIGNOSULFONATE : DRILLING FLUID TYPE
DFD .                    9.9 : DRILLING FLUID DENSITY
DFV .                     41 : DRILLING FLUID VISCOSITY
DFPH.                     11 : DRILLING FLUID PH
DFL .                    5.2 : DRILLING FLUID LOSS
MSS .                   TANK : MUD SAMPLE SOURCE
RMS .OHMM               1.05 : RESISTIVITY MUD SAMPLE
MST .DEGF                107 : MUD SAMPLE TEMPERATURE
RMF .OHMM               0.77 : RESISTIVITY MUD FILTRATE SAMPLE
MFST.DEGF                107 : MUD FILTRATE SAMPLE TEMPERATURE
RMC .OHMM               1.54 : RESISTIVITY MUD CAKE
MCST.DEGF                107 : MUD CAKE SAMPLE TEMPERATURE
MFSS.                   MEAS : MUD FILTRATE SAMPLE SOURCE
MCSS.                   CALC : MUD CAKE SAMPLE SOURCE
RMB .OHMM              0.598 : RESISTIVITY MUD AT BHT
TCS .HRS                 700 : TIME CIRCULATED STOPPED
TLAB.HRS                1130 : TIME LOGGER AT BOTTOM
LUN .                   8096 : LOGGING UNIT NUMBER
LUL .                BRENHAM : LOGGING UNIT LOCATION
ENGI.                   HALL : RECORDING ENGINEER
WITN.                 PARKER : WITNESSED BY
CLNT.                A2DTECH : CLIENT CODE
ORIG.            2" 5" PRINT : ORIGIN OF DATA
UWI .         42287312020000 : UNIQUE WELL ID
DICO. A2D Technologies, Inc. : DIGITIZING COMPANY
~Other -----------------------------------------------------
~ASCII -----------------------------------------------------
# ...
 4350.00000    9.18830  492.92650    0.43830    0.01380    1.79560    -999.25    0.51780    0.53470    2.02870    0.01380   69.84250   69.84250    2.02870    2.29930    2.29930    -999.25    0.49640    0.45470    4.07730  -14.97910  -14.44800    4.07730
 4400.00000    8.85380  428.13720    0.10380    0.04810    2.40380    -999.25    0.14920    0.17910    2.33570    0.04810   74.30900   74.30900    2.33570    2.41770    2.41770    -999.25    0.40300    0.36020    3.04540   -9.43140   -8.98610    3.04540
 4450.00000    9.43250   96.17700    0.68250    0.08190    -999.25    -999.25    -999.25    -999.25   10.39750    0.08190   75.83910   75.83910   10.39750    6.96060    6.96060    -999.25    0.59800    0.55630   14.09320  -12.35040  -11.99090   14.09320
 4500.00000   10.31420  587.92410    1.56420    0.08720    2.23110    -999.25    0.25390    0.28010    1.70090    0.08720   83.61330   83.61330    1.70090    1.82170    1.82170    -999.25    0.49620    0.45450    1.51810   -9.70740   -9.43370    1.51810
 4550.00000    8.98170  337.34780    0.23170    0.09280    2.35250    -999.25    0.18030    0.20910    2.96430    0.09280   66.44420   66.44420    2.96430    3.52660    3.52660    -999.25    0.31730    0.27340    5.88290  -24.53310  -24.34510    5.88290
 4600.00000    9.65660  547.79510    0.90660    0.09780    2.21160    -999.25    0.26570    0.29150    1.82550    0.09780   91.65780   91.65780    1.82550    1.92080    1.92080    -999.25    0.42760    0.38530    1.67400   -7.51590   -6.11140    1.67400
 4650.00000    8.99170  433.78300    0.24170    0.05590    2.36260    -999.25    0.17420    0.20320    2.30530    0.05590   86.07120   86.07120    2.30530    2.62160    2.62160    -999.25    0.37060    0.32720    2.75890  -28.78230  -14.93040    2.75890
 4700.00000    8.71140  772.08150   -0.03860    0.04160    2.13670    -999.25    0.31110    0.33530    1.29520    0.04160   49.25340   49.25340    1.29520    1.72130    1.72130    -999.25    0.35400    0.31040    5.94200 -128.61680  -97.77920    5.94200
 4750.00000    8.56890  593.82420   -0.18110    0.03640    2.17810    -999.25    0.28600    0.31110    1.68400    0.03640   68.45010   68.45010    1.68400    2.02900    2.02900    -999.25    0.34530    0.30160    5.84650 -131.24620  -84.46430    5.84650
 4800.00000    8.65370  516.82260   -0.09630    0.07300    2.37000    -999.25    0.16970    0.19880    1.93490    0.07300   80.20820   80.20820    1.93490    2.23190    2.23190    -999.25    0.36890    0.32550    3.73830 -107.06350  -44.33720    3.73830
 4850.00000    9.39150  490.07600    0.64150    0.09130    2.31590    -999.25    0.20250    0.23050    2.04050    0.09130  100.36220  100.36220    2.04050    2.13520    2.13520    -999.25    0.40620    0.36340    1.79680  -86.11450   -8.09330    1.79680
 4900.00000    8.84220  436.43340    0.09220    0.08620    2.36750    -999.25    0.17120    0.20030    2.29130    0.08620  101.72330  101.72330    2.29130    2.55870    2.55870    -999.25    0.35780    0.31430    3.00430 -116.57590  -38.84460    3.00430
 4950.00000    8.68830  650.49110   -0.06170    0.03030    2.21900    -999.25    0.26120    0.28710    1.53730    0.03030   62.42370   62.42370    1.53730    1.97770    1.97770    -999.25    0.31790    0.27400    6.74000 -152.32260  -74.88120    6.74000
 5000.00000    8.56400  495.09850   -0.18600    0.04400    2.36010    -999.25    0.17570    0.20460    2.01980    0.04400   80.52730   80.52730    2.01980    2.43770    2.43770    -999.25    0.35120    0.30760    4.82100 -124.34030  -47.18880    4.82100
 5050.00000    8.70820  502.00800   -0.04180    0.06120    2.39190    -999.25    0.15640    0.18600    1.99200    0.06120   91.70090   91.70090    1.99200    2.32100    2.32100    -999.25    0.34700    0.30330    2.66460 -104.45620  -27.03170    2.66460
 5100.00000    9.18420  351.93920    0.43420    0.08470    2.54370    -999.25    0.06440    0.09720    2.84140    0.08470   85.51300   85.51300    2.84140    3.31320    3.31320    -999.25    0.24320    0.19930    6.81900  -86.35970   -7.14030    6.81900
 5150.00000    9.80740  404.67810    1.05740    0.05560    2.43340    -999.25    0.13130    0.16180    2.47110    0.05560   93.33620   93.33620    2.47110    2.50920    2.50920    -999.25    0.33120    0.28740    2.76370  -82.33370   -3.99300    2.76370
 5200.00000    9.23180  418.35750    0.48180    0.01700    2.34620    -999.25    0.18410    0.21270    2.39030    0.01700   90.91800   90.91800    2.39030    2.68170    2.68170    -999.25    0.32730    0.28350    4.29900  -99.33160  -22.16660    4.29900
 5250.00000    9.40810  411.64120    0.65810    0.07930    2.49420    -999.25    0.09440    0.12620    2.42930    0.07930   94.49020   94.49020    2.42930    2.50890    2.50890    -999.25    0.32250    0.27860    2.73250  -79.29390   -3.30470    2.73250
 5300.00000    9.28240  399.02640    0.53240    0.06790    2.45480    -999.25    0.11830    0.14920    2.50610    0.06790   93.50480   93.50480    2.50610    2.54490    2.54490    -999.25    0.31650    0.27260    2.75120  -78.66680   -3.85340    2.75120
 5350.00000    9.44990  471.07590    0.69990    0.10020    2.48090    -999.25    0.10250    0.13400    2.12280    0.10020   98.99410   98.99410    2.12280    2.16890    2.16890    -999.25    0.33770    0.29390    2.31820  -74.26560   -0.60230    2.31820
 5400.00000    9.73180  466.37440    0.98180    0.09840    2.51650    -999.25    0.08090    0.11310    2.14420    0.09840   94.83660   94.83660    2.14420    2.17750    2.17750    -999.25    0.32890    0.28510    2.36920  -77.72500   -3.95490    2.36920
 5450.00000   11.22840  568.37550    2.47840    0.08290    2.51370    -999.25    0.08260    0.11480    1.75940    0.08290   97.80190   97.80190    1.75940    1.78670    1.78670    -999.25    0.34270    0.29900    1.94880  -78.41520   -4.53840    1.94880
 5500.00000   11.40430  597.15750    2.65430    0.08410    2.53150    -999.25    0.07180    0.10440    1.67460    0.08410  101.39170  101.39170    1.67460    1.70040    1.70040    -999.25    0.33890    0.29520    1.87160  -78.71380   -4.73030    1.87160
 5550.00000   11.49700  661.24440    2.74700    0.05650    2.47130    -999.25    0.10830    0.13960    1.51230    0.05650   96.13990   96.13990    1.51230    1.53460    1.53460    -999.25    0.37080    0.32740    1.73480  -80.21800   -6.12780    1.73480
 5600.00000   11.35380  697.59330    2.60380    0.07920    2.51090    -999.25    0.08430    0.11640    1.43350    0.07920   92.11570   92.11570    1.43350    1.47920    1.47920    -999.25    0.39220    0.34920    1.60940  -77.57760   -3.38060    1.60940
 5650.00000   11.35400  678.56410    2.60400    0.09800    2.49420    -999.25    0.09440    0.12620    1.47370    0.09800  100.50870  100.50870    1.47370    1.52090    1.52090    -999.25    0.34070    0.29700    1.71140  -84.63760   -9.94480    1.71140
 5700.00000   11.70310  802.82590    2.95310    0.08690    2.44820    -999.25    0.12230    0.15310    1.24560    0.08690  111.14730  111.14730    1.24560    1.29780    1.29780    -999.25    0.37980    0.33660    1.48110  -79.31990   -4.08800    1.48110
 5750.00000   10.71250  662.12010    1.96250    0.09960    2.45580    -999.25    0.11770    0.14870    1.51030    0.09960   97.64360   97.64360    1.51030    1.61670    1.61670    -999.25    0.35470    0.31110    1.70080  -87.69520  -11.92420    1.70080
 5800.00000   10.47720  796.11490    1.72720    0.09670    2.45980    -999.25    0.11530    0.14630    1.25610    0.09670   91.69740   91.69740    1.25610    1.30850    1.30850    -999.25    0.32810    0.28430    1.32000  -83.41470   -7.10470    1.32000
 5850.00000   10.47280 1018.12260    1.72280    0.09420    2.44330    -999.25    0.12530    0.15600    0.98220    0.09420   94.87910   94.87910    0.98220    1.02790    1.02790    -999.25    0.40520    0.36240    1.16460  -81.17460   -4.32550    1.16460
 5900.00000    9.73210  438.82750    0.98210    0.01100    2.50150    -999.25    0.09000    0.12190    2.27880    0.01100   70.65080   70.65080    2.27880    2.31760    2.31760    -999.25    0.25440    0.21050    2.34010  -84.89570   -7.50750    2.34010
