~Version ---------------------------------------------------
VERS.      2.0 : CWLS log ASCII Standard -VERSION 2.0
WRAP.      YES : Multiple lines per depth step
CREA. 10/06/20 : LAS Creation Date
~Well ------------------------------------------------------
STRT.FT                 3150.0 : START DEPTH
STOP.FT                18400.0 : STOP DEPTH
STEP.FT               50.00000 : STEP LENGTH
NULL.                  -999.25 : NULL VALUE
COMP. AMOCO PRODUCTION COMPANY : COMPANY
WELL.       MARTIN GAS UNIT #1 : WELL
FLD .                  WILDCAT : FIELD
LOC .                          : LOCATION
CNTY.                     LEON : COUNTY
STAT.                    TEXAS : STATE
CTRY. UNITED STATES OF AMERICA : COUNTRY
SRVC.             Schlumberger : SERVICE COMPANY
DATE.              06-Oct-1998 : LOGDATE
API .           42289312900000 : API NUMBER
UWI .           42289312900000 : UNIQUE WELL ID
SLAT.WGS84       31.2448401024 : SURFACE LATITUDE
SLON.WGS84      -96.2384028977 : SURFACE LONGITUDE
~Curve Information -----------------------------------------
DEPT    .FT    : DEPTH FEET
AT20ED  .OHMM  : 20 INCH ARRAY RESISTIVITY TWO FOOT RESOLUTION FROM AIT LOG
AT30ED  .OHMM  : 30 INCH ARRAY RESISTIVITY TWO FOOT RESOLUTION FROM AIT LOG
AT60ED  .OHMM  : 60 INCH ARRAY RESISTIVITY TWO FOOT RESOLUTION FROM AIT LOG
AT90ED  .OHMM  : 90 INCH ARRAY RESISTIVITY TWO FOOT RESOLUTION FROM AIT LOG
BITSED  .IN    : BIT SIZE FROM RUN HEADERS
CALDED  .IN    : CALIPER FROM DENSITY LOG [DSH. TO GRRED]
CALWS   .IN    : CALIPER [TOP CALDED 14108' (DCALDED+BITSED) TD]
CONDWS  .MMHO  : DEEP CONDUCTIVITY [1000/DRESWS]
DCALDED .IN    : DIFFERENTIAL CALIPER FROM DENSITY LOG [DSH. TO GRRED]
DCORWS  .G/C3  : DENSITY CORRECTION [TOP DRHOED 16650' DRHED TD]
DENWS   .G/C3  : BULK DENSITY [CALC. FROM DPOLSWS]
DPHILSED.V/V   : DENSITY POROSITY (LS) [M=2.71 F=1.00] [DSH. TO GRRED]
DPOLSED .V/V   : DENSITY POROSITY (LS) [M=2.71 F=1.00] [DSH. TO GRRED]
DPOLSWS .V/V   : DENSITY POROSITY (LS) [M=2.71 F=1.00] [TOP DPHILSED 16650' DPOLSED TD]
DRESWS  .OHMM  : DEEP RESISTIVITY [TOP AT90ED 14100' ILDED 16650' IDPHED TD]
DRHED   .G/C3  : DENSITY CORRECTION FROM DENSITY LOG [DSH. TO GRRED]
DRHOED  .G/C3  : DENSITY CORRECTION FROM DENSITY LOG [DSH. TO GRRED]
DTCOED  .US/F  : DELTA TIME COMPRESSIONAL FROM SONIC LOG
DTLFED  .US/F  : DELTA TIME LONG SPACING FAR DETECTOR FROM SONIC LOG
DTLNED  .US/F  : DELTA TIME LONG SPACING NEAR DETECTOR FROM SONIC LOG
DTSMED  .US/F  : DELTA TIME SHEAR WAVE FROM SONIC LOG
DTSWS   .US/F  : DELTA TIME SHEAR [DTSMED]
DTWS    .US/F  : DELTA TIME COMPRESSIONAL [TOP DTCOED 16650' DTLNED TD]
GRDED   .GAPI  : GAMMA RAY FROM DENSITY LOG [DSH. TO GRRED]
GRRED   .GAPI  : GAMMA RAY FROM RESISTIVITY LOG
GRWS    .GAPI  : GAMMA RAY [GRRED][RESCALED GRWS IN CSG )14030-14106' & 16606-16645') FROM 0/90-0/150]
IDPHED  .OHMM  : DEEP INDUCTION PHASE RESISTIVITY
ILDED   .OHMM  : DEEP INDUCTION RESISTIVITY
ILMED   .OHMM  : MEDIUM INDUCTION RESISTIVITY
IMPHED  .OHMM  : MEDIUM INDUCTION PHASE RESISTIVITY
MRESWS  .OHMM  : MEDIUM RESISTIVITY [TOP AT30ED 14100' ILMED 16650' IMPHED TD]
NPHILSED.V/V   : NEUTRON POROSITY (LS) [DSH. TO GRRED]
NPOLSWS .V/V   : NEUTRON POROSITY (LS) [NPHILSED]
PEFED   .B/E   : PHOTOELECTRIC FACTOR FROM DENSITY LOG [DSH. TO GRRED]
PEFWS   .B/E   : PHOTOELECTRIC FACTOR [PEFED]
SFLUED  .OHMM  : SPHERICALLY FOCUSED UNAVERAGED RESISTIVITY
SPWS    .MV    : SPONTANEOUS POTENTIAL [BASELINE 0 MV] [SPRED]
SPRED   .MV    : SPONTANEOUS POTENTIAL FROM RESISTIVITY LOG
SRESWS  .OHMM  : SHALLOW RESISTIVITY [TOP AT20ED 14100' SFLUED TD]
TENDED  .LBF   : TENSION FROM DENSITY LOG [DSH. TO GRRED]
TENRED  .LBF   : TENSION FROM RESISTIVITY LOG
~Params ----------------------------------------------------
PD  .                     GL : PERMANENT DATUM
EPD .FT                389.3 : ELEVATION PERMANENT DATUM
LMF .                     KB : LOG MEASURED FROM
DAPD.FT                 33.7 : MEASUREMENT ABOVE PERMANENT DATUM
DMF .                     KB : DRILLING MEASURED FROM
EKB .FT                  423 : KELLY BUSHING
EDF .FT                  422 : DRILLING FLOOR
EGL .FT                389.3 : GROUND LEVEL
DATE.               10/06/98 : RUN DATE
RUN .                      3 : RUN NUMBER
DD  .FT                18400 : DEPTH DRILLER
DL  .FT                18391 : DEPTH LOGGER
BLI .FT                18381 : BOTTOM LOG INTERVAL
TLI .FT                16646 : TOP LOG INTERVAL
CS  .IN                7.625 : CASING SIZE
CBD .FT                16650 : CASING BOTTOM DRILLER
CBL .FT                16646 : CASING BOTTOM LOGGER
BS  .IN                 6.25 : BIT SIZE
BSD .FT                18400 : BIT SIZE AT DEPTH
DFT .             VERSADRILL : DRILLING FLUID TYPE
DFD .                   17.9 : DRILLING FLUID DENSITY
DFV .                     45 : DRILLING FLUID VISCOSITY
MSS .                MUD PIT : MUD SAMPLE SOURCE
MFSS.                   CALC : MUD FILTRATE SAMPLE SOURCE
MCSS.                   CALC : MUD CAKE SAMPLE SOURCE
TCS .HRS                 830 : TIME CIRCULATED STOPPED
TLAB.HRS                2357 : TIME LOGGER AT BOTTOM
LUN .                   2142 : LOGGING UNIT NUMBER
LUL .                  TYLER : LOGGING UNIT LOCATION
ENGI.                SKRBICH : RECORDING ENGINEER
WITN.       WALKER WYSZYNSKI : WITNESSED BY
CLNT.                A2DTECH : CLIENT CODE
ORIG.         1" 2" 5" PRINT : ORIGIN OF DATA
UWI .         42289312900000 : UNIQUE WELL ID
DICO. A2D Technologies, Inc. : DIGITIZING COMPANY
~Other -----------------------------------------------------
1) RESISTIVITY INVALID 14360-14404', 15400-15475 NULLED (REPEAT LOG N/A). PATCHED FROM REPEAT LOG 15950-15980' & 16590-16645'.
2) GRRED PATCHED FROM REPEAT LOG 15400-15500 & 16550-16606'.
3) SONIC NOT LOGGED 14100-16650' AND ERRATIC ON SOME AREAS ABOVE 6300' WITH SOME GAPS AND SPIKES HENCE PATCHED SOME SMALL AREAS.
4) LDL/CNL STICKING TOOL ENTIRE RUN2 - NULLED PEF INVALID @ 15410-15625' & 15730-15410', PATCHED DENSITY@16025-16040', PATCHED NEUTRON@14295-14320' & PATCHED GRDED@VARIOUS DEPTHS BASED ON GRRED. ANY DOUBTS, PLEASE REFER TO ORIGINAL CURVES IN STANDARD LAS. STICKING TOOL MAY SLIGHTLY AFFECT LOG QUALITY ON OTHER AREAS, PLEASE USE WITH CAUTIONS.
~ASCII -----------------------------------------------------
# ...
 16650.00000    -999.25    -999.25    -999.25    -999.25    6.25000    -999.25    6.94280  273.89760    0.69280    -999.25    -999.25    -999.25    -999.25    -999.25    3.65100    -999.25    -999.25    -999.25   95.39440   91.69230    -999.25    -999.25   91.69230  121.09530  114.57210  114.57210    3.65100    -999.25    -999.25    2.67210    2.67210    0.20210    0.20210    -999.25    -999.25    -999.25    -999.25    -999.25    -999.25 4106.97460 4271.29980
 16700.00000    -999.25    -999.25    -999.25    -999.25    6.25000    -999.25    7.31260  244.78610    1.06260   -0.01360    2.61300    -999.25    0.05670    0.05670    4.08520   -0.01360    -999.25    -999.25   96.42970   96.22250    -999.25    -999.25   96.22250  120.74550  121.88200  121.88200    4.08520    -999.25    -999.25    4.22590    4.22590    0.20100    0.20100    -999.25    -999.25    -999.25    -999.25    -999.25    -999.25 4150.78130 4199.00490
 16750.00000    -999.25    -999.25    -999.25    -999.25    6.25000    -999.25    7.20280  118.63380    0.95280   -0.01460    2.54860    -999.25    0.09440    0.09440    8.42930   -0.01460    -999.25    -999.25   94.70450   93.44640    -999.25    -999.25   93.44640  117.89690  112.43450  112.43450    8.42930    -999.25    -999.25    8.59580    8.59580    0.16610    0.16610    -999.25    -999.25    -999.25    -999.25    -999.25    -999.25 4068.10100 4213.36570
 16800.00000    -999.25    -999.25    -999.25    -999.25    6.25000    -999.25    7.10780  142.06160    0.85780   -0.01470    2.53130    -999.25    0.10450    0.10450    7.03920   -0.01470    -999.25    -999.25   90.08360   90.32740    -999.25    -999.25   90.32740  118.84830  105.35140  105.35140    7.03920    -999.25    -999.25    6.33170    6.33170    0.15320    0.15320    -999.25    -999.25    -999.25    -999.25    -999.25    -999.25 4069.52970 4228.05320
 16850.00000    -999.25    -999.25    -999.25    -999.25    6.25000    -999.25    6.84190  103.24820    0.59190   -0.01710    2.54670    -999.25    0.09550    0.09550    9.68540   -0.01710    -999.25    -999.25   87.40040   87.17740    -999.25    -999.25   87.17740  102.74900  103.18530  103.18530    9.68540    -999.25    -999.25    9.79650    9.79650    0.13970    0.13970    -999.25    -999.25    -999.25    -999.25    -999.25    -999.25 4163.06300 4243.21140
 16900.00000    -999.25    -999.25    -999.25    -999.25    6.25000    -999.25    6.87870  133.83120    0.62870   -0.01310    2.57590    -999.25    0.07840    0.07840    7.47210   -0.01310    -999.25    -999.25   86.72130   89.55040    -999.25    -999.25   89.55040  111.50610  105.01820  105.01820    7.47210    -999.25    -999.25    7.72590    7.72590    0.15410    0.15410    -999.25    -999.25    -999.25    -999.25    -999.25    -999.25 4176.84030 4261.01900
 16950.00000    -999.25    -999.25    -999.25    -999.25    6.25000    -999.25    6.87380  115.99990    0.62380   -0.01940    2.58980    -999.25    0.07030    0.07030    8.62070   -0.01940    -999.25    -999.25   79.24000   79.84530    -999.25    -999.25   79.84530  103.03030  105.88660  105.88660    8.62070    -999.25    -999.25    6.02710    6.02710    0.11090    0.11090    -999.25    -999.25    -999.25    -999.25    -999.25    -999.25 4130.18020 4263.34230
 17000.00000    -999.25    -999.25    -999.25    -999.25    6.25000    -999.25    6.79710   44.80070    0.54710   -0.00790    2.69430    -999.25    0.00920    0.00920   22.32110   -0.00790    -999.25    -999.25   64.14980   64.67670    -999.25    -999.25   64.67670   62.12630   59.55840   59.55840   22.32110    -999.25    -999.25   28.22340   28.22340    0.06010    0.06010    -999.25    -999.25    -999.25    -999.25    -999.25    -999.25 4135.98660 4302.40190
 17050.00000    -999.25    -999.25    -999.25    -999.25    6.25000    -999.25    6.89090   25.04660    0.64090   -0.01680    2.71150    -999.25   -0.00090   -0.00090   39.92550   -0.01680    -999.25    -999.25   58.32800   58.79040    -999.25    -999.25   58.79040   49.34440   44.71730   44.71730   39.92550    -999.25    -999.25   34.96040   34.96040    0.02670    0.02670    -999.25    -999.25    -999.25    -999.25    -999.25    -999.25 4149.21780 4302.12210
 17100.00000    -999.25    -999.25    -999.25    -999.25    6.25000    -999.25    6.79530   13.93690    0.54530   -0.01320    2.72320    -999.25   -0.00770   -0.00770   71.75190   -0.01320    -999.25    -999.25   53.39930   53.80190    -999.25    -999.25   53.80190   27.86340   30.92160   30.92160   71.75190    -999.25    -999.25   73.55670   73.55670    0.01470    0.01470    -999.25    -999.25    -999.25    -999.25    -999.25    -999.25 4175.70360 4311.05710
 17150.00000    -999.25    -999.25    -999.25    -999.25    6.25000    -999.25    7.03010    8.82300    0.78010   -0.01510    2.72730    -999.25   -0.01010   -0.01010  113.33950   -0.01510    -999.25    -999.25   51.18100   51.70690    -999.25    -999.25   51.70690   30.49700   25.71450   25.71450  113.33950    -999.25    -999.25   90.06970   90.06970    0.00650    0.00650    -999.25    -999.25    -999.25    -999.25    -999.25    -999.25 4175.79000 4323.19430
 17200.00000    -999.25    -999.25    -999.25    -999.25    6.25000    -999.25    7.01890    1.36580    0.76890   -0.01320    2.66910    -999.25    0.02390    0.02390  732.15340   -0.01320    -999.25    -999.25   52.29360   53.00540    -999.25    -999.25   53.00540   12.82090   12.24440   12.24440  732.15340    -999.25    -999.25  459.43170  459.43170    0.00960    0.00960    -999.25    -999.25    -999.25    -999.25    -999.25    -999.25 4177.81050 4323.28910
 17250.00000    -999.25    -999.25    -999.25    -999.25    6.25000    -999.25    6.90030   13.49870    0.65030   -0.01520    2.71510    -999.25   -0.00300   -0.00300   74.08100   -0.01520    -999.25    -999.25   51.75560   52.14800    -999.25    -999.25   52.14800   24.11050   24.34150   24.34150   74.08100    -999.25    -999.25   67.83350   67.83350    0.00770    0.00770    -999.25    -999.25    -999.25    -999.25    -999.25    -999.25 4208.96920 4352.53130
 17300.00000    -999.25    -999.25    -999.25    -999.25    6.25000    -999.25    6.81880   21.53470    0.56880   -0.01190    2.73030    -999.25   -0.01190   -0.01190   46.43660   -0.01190    -999.25    -999.25   52.55990   53.31140    -999.25    -999.25   53.31140   27.24600   26.01010   26.01010   46.43660    -999.25    -999.25   49.42930   49.42930    0.00990    0.00990    -999.25    -999.25    -999.25    -999.25    -999.25    -999.25 4227.17290 4351.72610
 17350.00000    -999.25    -999.25    -999.25    -999.25    6.25000    -999.25    6.75990   12.39440    0.50990   -0.01380    2.72280    -999.25   -0.00750   -0.00750   80.68130   -0.01380    -999.25    -999.25   51.98930   52.38100    -999.25    -999.25   52.38100   23.30620   23.85040   23.85040   80.68130    -999.25    -999.25   85.64800   85.64800    0.00760    0.00760    -999.25    -999.25    -999.25    -999.25    -999.25    -999.25 4229.77150 4393.29930
 17400.00000    -999.25    -999.25    -999.25    -999.25    6.25000    -999.25    6.78510    2.09580    0.53510   -0.01020    2.72610    -999.25   -0.00940   -0.00940  477.15080   -0.01020    -999.25    -999.25   50.28810   50.68030    -999.25    -999.25   50.68030   22.16160   17.41450   17.41450  477.15080    -999.25    -999.25  342.42520  342.42520    0.00380    0.00380    -999.25    -999.25    -999.25    -999.25    -999.25    -999.25 4232.10500 4365.92580
 17450.00000    -999.25    -999.25    -999.25    -999.25    6.25000    -999.25    6.74580    2.96820    0.49580   -0.06060    2.61480    -999.25    0.05570    0.05570  336.90160   -0.06060    -999.25    -999.25   55.01490   55.91000    -999.25    -999.25   55.91000    8.52670    7.37380    7.37380  336.90160    -999.25    -999.25  707.48370  707.48370    0.03180    0.03180    -999.25    -999.25    -999.25    -999.25    -999.25    -999.25 4221.96340 4419.62940
 17500.00000    -999.25    -999.25    -999.25    -999.25    6.25000    -999.25    6.76440    3.99030    0.51440   -0.11730    2.69380    -999.25    0.00950    0.00950  250.60570   -0.11730    -999.25    -999.25   50.19550   50.59100    -999.25    -999.25   50.59100   14.63150   13.88500   13.88500  250.60570    -999.25    -999.25 1127.00630 1127.00630    0.00750    0.00750    -999.25    -999.25    -999.25    -999.25    -999.25    -999.25 4238.51270 4339.63720
