~Version ---------------------------------------------------
VERS.      2.0 : CWLS log ASCII Standard -VERSION 2.0
WRAP.      YES : Multiple lines per depth step
CREA. 01/09/13 : LAS Creation Date
~Well ------------------------------------------------------
STRT.FT                    1500.0 : START DEPTH
STOP.FT                    9700.0 : STOP DEPTH
STEP.FT                  50.00000 : STEP LENGTH
NULL.                     -999.25 : NULL VALUE
COMP.        MARATHON OIL COMPANY : COMPANY
WELL.                 NEWELL A #4 : WELL
FLD .                  BEAR GRASS : FIELD
LOC .                             : LOCATION
CNTY.                        LEON : COUNTY
STAT.                       TEXAS : STATE
CTRY.    UNITED STATES OF AMERICA : COUNTRY
SRVC. HALLIBURTON Sperry Drilling : SERVICE COMPANY
DATE.                 24-Apr-2000 : LOGDATE
API .              42289313210000 : API NUMBER
UWI .              42289313210000 : UNIQUE WELL ID
SLAT.WGS84          31.3590171152 : SURFACE LATITUDE
SLON.WGS84         -96.2605957839 : SURFACE LONGITUDE
~Curve Information -----------------------------------------
DEPT    .FT    : DEPTH FEET
CALDED  .IN    : CALIPER FROM HRI-DFL-SD-DSN-GR LOG
CALWS   .IN    : CALIPER [CALDED]
CONDWS  .MMHO  : CONDUCTIVITY [1000/DRESWS]
DCALED  .IN    : DIFFERENTIAL CALIPER FROM HRI-DFL-SD-DSN-GR LOG
DCORED  .G/C3  : DENSITY CORRECTION FROM HRI-DFL-SD-DSN-GR LOG
DCORWS  .G/C3  : DENSITY CORRECTION [DCORED]
DENWS   .G/C3  : FORMATION BULK DENSITY [CALCULATED FROM DPOWS, M=2.71, F=1.0]
DFLED   .OHMM  : DIGITALLY FOCUSED LATEROLOG FROM HRI-DFL-SD-DSN-GR LOG
DPORLSED.V/V   : DENSITY POROSITY LIMESTONE [M=2.71, F=1.0] FROM HRI-DFL-SD-DSN-GR LOG
DPOWS   .V/V   : DENSITY POROSITY LIMESTONE [DPORLSED]
DRESWS  .OHMM  : DEEP RESISTIVITY [HDRSED]
GRRED   .GAPI  : GAMMA RAY FROM HRI-DFL-SD-DSN-GR LOG
GRWS    .GAPI  : GAMMA RAY [GRRED]
HDRSED  .OHMM  : DEEP HIGH RESOLUTION RESISTIVITY FROM HRI-DFL-SD-DSN-GR LOG
HMRSED  .OHMM  : MEDIUM HIGH RESOLUTION RESISTIVITY FROM HRI-DFL-SD-DSN-GR LOG
MRESWS  .OHMM  : MEDIUM RESISTIVITY [HMRSEDS]
NPORLSED.V/V   : NEUTRON POROSITY LIMESTONE FROM HRI-DFL-SD-DSN-GR LOG
NPOWS   .V/V   : NEUTRON POROSITY LIMESTONE [NPORSLSED]
SPRED   .MV    : SPONTANEOUS POTENTIAL FROM HRI-DFL-SD-DSN-GR LOG
SPWS    .MV    : SPONTANEOUS POTENTIAL [BASELINE 0 MV, SPRED]
SRESWS  .OHMM  : SHALLOW RESISTIVITY [DLFED]
TENRED  .LBF   : TENSION FROM HRI-DFL-SD-DSN-GR LOG
~Params ----------------------------------------------------
PD  .                     GL : PERMANENT DATUM
EPD .FT                  508 : ELEVATION PERMANENT DATUM
LMF .                     KB : LOG MEASURED FROM
DAPD.FT                   12 : FEET ABOVE PERMANENT DATUM
DMF .                     KB : DRILLING MEASURED FROM
EKB .FT                  520 : KELLY BUSHING
EDF .FT                  519 : DRILLING FLOOR
EGL .FT                  508 : GROUND LEVEL
DATE.               04/24/00 : RUN DATE
RUN .                      1 : RUN NUMBER
DD  .FT                 9709 : DEPTH DRILLER
DL  .FT                 9701 : DEPTH LOGGER
BLI .FT                 9693 : BOTTOM LOG INTERVAL
TLI .FT                 1523 : TOP LOG INTERVAL
CS  .IN                9.625 : CASING SIZE
CBD .FT                 1525 : CASING BOTTOM DRILLER
CBL .FT                 1523 : CASING BOTTOM LOGGER
BS  .IN                7.875 : BIT SIZE
BSD .FT                 9709 : BIT SIZE AT DEPTH
DFT .              FRESH MUD : DRILLING FLUID TYPE
DFD .                   10.1 : DRILLING FLUID DENSITY
DFV .                     39 : DRILLING FLUID VISCOSITY
DFPH.                    9.6 : DRILLING FLUID PH
DFL .                     15 : DRILLING FLUID LOSS
MSS .               MUD TANK : MUD SAMPLE SOURCE
RMS .OHMM                0.7 : RESISTIVITY MUD SAMPLE
MST .FT                   80 : MUD SAMPLE TEMPERATURE
RMF .OHMM               0.53 : RESISTIVITY MUD FILTRATE SAMPLE
MFST.FT                   79 : MUD FILTRATE SAMPLE TEMPERATURE
RMC .OHMM               0.87 : RESISTIVITY MUD CAKE
MCST.FT                   80 : MUD CAKE SAMPLE TEMPERATURE
MFSS.                   MEAS : MUD FILTRATE SAMPLE SOURCE
MCSS.                   MEAS : MUD CAKE SAMPLE SOURCE
RMB .OHMM              0.257 : RESISTIVITY MUD AT BHT
TCS .HRS                1300 : TIME CURCULATED STOPPED
TLAB.HRS                1245 : TIME LOGGER AT BOTTOM
LUN .                  52562 : LOGGING UNIT NUMBER
LUL .                 KILGOR : LOGGING UNIT LOCATION
ENGI.               J BUTLER : RECORDING ENGINEER
WITN.           PERRY FRANKS : WITNESSED BY
CLNT.                A2DTECH : CLIENT CODE
ORIG.         1" 2" 5" PRINT : ORIGIN OF DATA
UWI .         42289313210000 : UNIQUE WELL ID
DICO. A2D Technologies, Inc. : DIGITIZING COMPANY
~Other -----------------------------------------------------
~ASCII -----------------------------------------------------
# ...
 7900.00000   10.63080   10.63080  130.00350    2.80450    0.00200    0.00200    2.80440   41.98920   -0.05520   -0.05520    7.69210   40.53900   40.53900    7.69210   11.04450   11.04450    0.02280    0.02280 -120.91440  -14.39990   41.98920 3813.94630
 7950.00000    9.29780    9.29780   56.05730    1.48630    0.00590    0.00590    2.57230   70.34420    0.08050    0.08050   17.83890   29.11680   29.11680   17.83890   23.19460   23.19460    0.07060    0.07060 -222.46320 -116.60840   70.34420 3828.54860
 8000.00000   10.16250   10.16250  120.27330    2.26960   -0.00380   -0.00380    2.66450   11.75500    0.02660    0.02660    8.31440   47.51350   47.51350    8.31440   10.41390   10.41390    0.04890    0.04890 -115.80940  -10.61430   11.75500 3825.68800
 8050.00000   10.30820   10.30820   80.36520    2.47920   -0.00980   -0.00980    2.66380   18.27020    0.02700    0.02700   12.44320   45.70230   45.70230   12.44320   13.00080   13.00080    0.05160    0.05160 -116.64410  -12.10870   18.27020 3847.18600
 8100.00000   10.69700   10.69700  204.71250    2.78880    0.00420    0.00420    2.66670    6.81450    0.02530    0.02530    4.88490   64.21420   64.21420    4.88490    5.42230    5.42230    0.10880    0.10880 -113.70140   -9.82570    6.81450 3865.52560
 8150.00000    9.82810    9.82810   42.92200    2.05070    0.02150    0.02150    2.59440   43.45410    0.06760    0.06760   23.29810   35.50590   35.50590   23.29810   24.95660   24.95660    0.04240    0.04240 -144.43610  -41.00240   43.45410 3841.65620
 8200.00000    9.38410    9.38410   58.95640    1.47330    0.00650    0.00650    2.65050   67.09870    0.03480    0.03480   16.96170   27.46160   27.46160   16.96170   22.51130   22.51130    0.04750    0.04750 -218.36230 -114.92860   67.09870 3956.28980
 8250.00000   10.72130   10.72130  202.88500    2.78320   -0.02070   -0.02070    2.63130   25.40840    0.04600    0.04600    4.92890   32.10050   32.10050    4.92890    6.90550    6.90550    0.07960    0.07960 -240.90020 -137.46650   25.40840 3935.82300
 8300.00000    9.71560    9.71560   37.44060    1.88550   -0.00240   -0.00240    2.66590   44.93960    0.02580    0.02580   26.70900   18.98560   18.98560   26.70900   29.14270   29.14270    0.01610    0.01610 -210.20330 -106.76960   44.93960 3886.46460
 8350.00000    9.88120    9.88120   21.78130    2.12850   -0.01080   -0.01080    2.67990  121.59400    0.01760    0.01760   45.91090   37.01300   37.01300   45.91090   51.14000   51.14000    0.02590    0.02590 -112.26890   -8.83520  121.59400 4019.86300
 8400.00000    9.77120    9.77120   46.12270    1.97390    0.00950    0.00950    2.69240   35.67580    0.01030    0.01030   21.68130   45.95760   45.95760   21.68130   22.27570   22.27570    0.03520    0.03520 -111.90400   -9.93470   35.67580 4023.17970
 8450.00000    9.76780    9.76780   49.44690    2.00160    0.01950    0.01950    2.69310   43.93760    0.00990    0.00990   20.22370   61.80110   61.80110   20.22370   22.81310   22.81310    0.04170    0.04170 -109.97980   -9.67450   43.93760 4024.40840
 8500.00000   10.48810   10.48810  138.15970    2.63530    0.00130    0.00130    2.69850    9.60540    0.00670    0.00670    7.23800   66.94280   66.94280    7.23800    7.79210    7.79210    0.10890    0.10890 -103.65010   -5.00890    9.60540 4014.20950
 8550.00000    9.92270    9.92270   82.07010    2.04000    0.07270    0.07270    2.67840   18.66710    0.01850    0.01850   12.18470   57.21010   57.21010   12.18470   12.80340   12.80340    0.08280    0.08280 -103.87850   -6.90130   18.66710 4018.58250
 8600.00000   11.10510   11.10510  198.84270    3.31910    0.10020    0.10020    2.52020    9.88330    0.11100    0.11100    5.02910   67.24610   67.24610    5.02910    5.48570    5.48570    0.18290    0.18290 -103.86390   -8.55080    9.88330 4089.88550
 8650.00000   11.85900   11.85900  208.50710    4.05730    0.19920    0.19920    2.36490    6.27100    0.20180    0.20180    4.79600  112.90230  112.90230    4.79600    5.23610    5.23610    0.25300    0.25300 -104.01430  -10.36530    6.27100 4108.22900
 8700.00000   11.11140   11.11140  307.36130    3.26350    0.19800    0.19800    2.53220    4.49130    0.10400    0.10400    3.25350  115.04390  115.04390    3.25350    3.47640    3.47640    0.32950    0.32950 -102.96450  -10.97950    4.49130 4105.42140
 8750.00000    9.65120    9.65120   52.89890    1.78500   -0.00240   -0.00240    2.68490   26.48100    0.01470    0.01470   18.90400   49.38400   49.38400   18.90400   20.70660   20.70660    0.06370    0.06370  -91.09230    0.28600   26.48100 4154.77640
 8800.00000   10.53700   10.53700  189.56990    2.81250    0.11630    0.11630    2.52280    7.85190    0.10950    0.10950    5.27510   81.80540   81.80540    5.27510    5.62410    5.62410    0.20620    0.20620 -101.67750   -9.25190    7.85190 4147.54690
 8850.00000   10.24330   10.24330  243.50450    2.45910    0.09660    0.09660    2.60910    6.09810    0.05900    0.05900    4.10670  124.73680  124.73680    4.10670    4.17400    4.17400    0.26570    0.26570 -106.11700  -12.64410    6.09810 4154.84860
 8900.00000    9.95700    9.95700   14.32440    2.13020    0.01660    0.01660    2.70560  131.17050    0.00260    0.00260   69.81110   52.65710   52.65710   69.81110   77.14650   77.14650    0.00580    0.00580 -137.60370  -43.08350  131.17050 4205.99220
 8950.00000   10.55480   10.55480   12.86070    2.70370    0.05540    0.05540    2.67600  136.59010    0.01990    0.01990   77.75610   47.52350   47.52350   77.75610   80.35690   80.35690    0.00160    0.00160 -159.54380  -63.97630  136.59010 4210.25000
 9000.00000   10.31870   10.31870   12.39340    2.53720    0.16450    0.16450    2.71170  160.53530   -0.00100   -0.00100   80.68830   40.22040   40.22040   80.68830   86.11280   86.11280    0.01080    0.01080 -139.14320  -42.52840  160.53530 4178.51030
 9050.00000    9.87930    9.87930  188.71490    2.02760   -0.02360   -0.02360    2.68910    7.08980    0.01220    0.01220    5.29900   62.45700   62.45700    5.29900    5.77440    5.77440    0.07410    0.07410 -148.80170  -51.13960    7.08980 4214.87840
 9100.00000    9.80670    9.80670   92.42140    2.00480    0.00720    0.00720    2.69560   28.92380    0.00840    0.00840   10.82000   41.29720   41.29720   10.82000   13.21730   13.21730    0.04980    0.04980 -144.65090  -45.94150   28.92380 4209.23970
 9150.00000    9.30670    9.30670   82.07490    1.53420    0.01310    0.01310    2.63720   19.18920    0.04260    0.04260   12.18400   72.55770   72.55770   12.18400   14.28480   14.28480    0.03250    0.03250 -135.27980  -35.52310   19.18920 4206.69380
 9200.00000    9.82870    9.82870  104.26330    2.01370   -0.00530   -0.00530    2.70790   14.24720    0.00120    0.00120    9.59110   64.04380   64.04380    9.59110   10.12450   10.12450    0.08550    0.08550 -104.67770   -3.87370   14.24720 4252.98630
 9250.00000    9.62460    9.62460   27.75800    1.79840    0.00560    0.00560    2.66180   96.73040    0.02820    0.02820   36.02560   45.40630   45.40630   36.02560   45.70600   45.70600    0.01540    0.01540 -112.34570  -10.46510   96.73040 4249.49950
 9300.00000    9.89600    9.89600  333.12240    2.12060    0.02190    0.02190    2.62890    3.44780    0.04740    0.04740    3.00190   75.37140   75.37140    3.00190    3.13840    3.13840    0.15130    0.15130 -139.57440  -36.55520    3.44780 4248.60940
 9350.00000    9.52310    9.52310   53.37860    1.68160   -0.00670   -0.00670    2.71150   28.13800   -0.00090   -0.00090   18.73410   52.88120   52.88120   18.73410   20.07590   20.07590    0.03770    0.03770 -115.31950  -11.16160   28.13800 4262.33200
 9400.00000    9.47470    9.47470  272.62070    1.69820    0.00950    0.00950    2.60740    4.33640    0.06000    0.06000    3.66810   92.97430   92.97430    3.66810    3.85600    3.85600    0.10260    0.10260 -132.98750  -27.69100    4.33640 4414.76220
 9450.00000    9.23170    9.23170  305.03610    1.39370   -0.00410   -0.00410    2.63440    4.74220    0.04420    0.04420    3.27830  113.34740  113.34740    3.27830    3.34320    3.34320    0.11290    0.11290 -117.04920  -10.52750    4.74220 4318.01510
