~Version ---------------------------------------------------
VERS. 2.0 : CWLS log ASCII Standard -VERSION 2.0
WRAP. YES : MULTIPLE LINES PER DEPTH STEP
~Well ------------------------------------------------------
STRT.FT                   950.0 : START DEPTH
STOP.FT                  8250.0 : STOP DEPTH
STEP.FT                50.00000 : STEP LENGTH
NULL.                   -999.25 : NULL VALUE
COMP. PRAIRIE PRODUCING COMPANY : COMPANY
WELL.       SPETTEL BENDELE  #1 : WELL
FLD .                        WC : FIELD
LOC .                           : LOCATION
CNTY.                      FRIO : COUNTY
STAT.                     TEXAS : STATE
CTRY.  UNITED STATES OF AMERICA : COUNTRY
SRVC.              Schlumberger : SERVICE COMPANY
DATE.               05-Sep-1976 : LOGDATE
API .            42163306230000 : API NUMBER
UWI .            42163306230000 : UNIQUE WELL ID
SLAT.WGS84        28.6473106988 : SURFACE LATITUDE
SLON.WGS84       -98.9591866936 : SURFACE LONGITUDE
~Curve Information -----------------------------------------
DEPT    .FT    : DEPTH FEET
CALDED  .IN    : CALIPER FROM DENSITY LOG [DEP ADJ TO SPRED]
CALWS   .IN    : CALIPER [CALDED]
CONDWS  .MMHO  : CONDUCTIVITY [1000/DRESWS]
CORRED  .G/C3  : DENSITY CORRECTION FROM DENSITY LOG [DEP ADJ TO SPRED]
DCORWS  .G/C3  : DENSITY CORRECTION [CORRED]
DENWS   .G/C3  : BULK DENSITY [M=2.71 F=1.0] [RHOBED]
DPHILSED.V/V   : DENSITY POROSITY [M=2.71 F=1.0] FROM DENSITY LOG [DEP ADJ TO SPRED]
DPHISSED.V/V   : DENSITY POROSITY [M=2.65 F=1.0, MIGHT BE 2.68 MIDDLE SECTION] FROM DENSITY LOG [DEP ADJ TO SPRED]
DPOLSWS .V/V   : DENSITY POROSITY [M=2.71 F=1.0] [CAL FR DENWS]
DRESWS  .OHMM  : DEEP RESISTIVITY [ILDED]
GRDED   .GAPI  : GAMMA RAY FROM DENSITY LOG [DEP ADJ TO SPRED]
GRWS    .GAPI  : GAMMA RAY [GRDED]
ILDED   .OHMM  : INDUCTION LOG DEEP RESISTIVITY
ILMED   .OHMM  : INDUCTION LOG MEDIUM RESISTIVITY
LL8ED   .OHMM  : 8 INCH LATEROLOG RESISTIVITY
MRESWS  .OHMM  : MEDIUM RESISTIVITY [ILMED]
NPHILSED.V/V   : NEUTRON POROSITY LIMESTONE FROM DENSITY LOG [DEP ADJ TO SPRED]
NPHISSED.V/V   : NEUTRON POROSITY SANDSTONE FROM DENSITY LOG [DEP ADJ TO SPRED]
NPOLSWS .V/V   : NEUTRON POROSITY LIMESTONE [901 NPOLSCAL 7482 NPHILSED][NPHISSED IS CONVERTED TO NPOLSCAL USING POWERLOG MODULE]
RHOBED  .G/C3  : BULK DENSITY FROM DENSITY LOG [DEP ADJ TO SPRED/DPHIED]
SPRED   .MV    : SPONTANEOUS POTENTIAL FROM RESISTIVITY LOG
SPWS    .MV    : SPONTANEOUS POTENTIAL [BASELINE 0 MV] [SPRED]
SRESWS  .OHMM  : SHALLOW RESISTIVITY [LL8ED]
~Params ----------------------------------------------------
PD  .                     GL : PERMANENT DATUM
EPD .FT                446.5 : ELEVATION PERMANENT DATUM
LMF .                     KB : LOG MEASURED FROM
DAPD.FT                 13.2 : FEET ABOVE PERMANENT DATUM
DMF .                     KB : DRILLING MEASURED FROM
EKB .FT                459.7 : KELLY BUSHING
EDF .FT                458.7 : DRILLING FLOOR
EGL .FT                446.5 : GROUND LEVEL
DATE.               09/05/76 : RUN DATE
RUN .                      1 : RUN NUMBER
DD  .FT                 8269 : DEPTH DRILLER
DL  .FT                 8262 : DEPTH LOGGER
BLI .FT                 8261 : BOTTOM LOG INTERVAL
TLI .FT                  935 : TOP LOG INTERVAL
CS  .IN                9.625 : CASING SIZE
CBD .FT                  925 : CASING BOTTOM DRILLER
CBL .FT                  935 : CASING BOTTOM LOGGER
BS  .IN                  8.5 : BIT SIZE
BSD .FT                 8269 : BIT SIZE AT DEPTH
DFT .              SPER TANN : DRILLING FLUID TYPE
DFD .                   10.2 : DRILLING FLUID DENSITY
DFV .                     43 : DRILLING FLUID VISCOSITY
DFPH.                     10 : DRILLING FLUID PH
DFL .                    5.8 : DRILLING FLUID LOSS
MSS .               FLOWLINE : MUD SAMPLE SOURCE
RMS .OHMM               1.52 : RESISTIVITY MUD SAMPLE
MST .FT                   94 : MUD SAMPLE TEMPERATURE
RMF .OHMM               1.39 : RESISTIVITY MUD FILTRATE SAMPLE
MFST.FT                   78 : MUD FILTRATE SAMPLE TEMPERATURE
RMC .OHMM               1.43 : RESISTIVITY MUD CAKE
MCST.FT                   94 : MUD CAKE SAMPLE TEMPERATURE
MFSS.                   MEAS : MUD FILTRATE SAMPLE SOURCE
MCSS.                  CHART : MUD CAKE SAMPLE SOURCE
RMB .OHMM                0.8 : RESISTIVITY MUD AT BHT
TCS .HRS                2200 : TIME CURCULATED STOPPED
TLAB.HRS                 930 : TIME LOGGER AT BOTTOM
LUN .                   7799 : LOGGING UNIT NUMBER
LUL .                  PLEAS : LOGGING UNIT LOCATION
ENGI.               BREVETTI : RECORDING ENGINEER
WITN.               MR SMITH : WITNESSED BY
CLNT.                A2DTECH : CLIENT CODE
ORIG.           5" 25" PRINT : ORIGIN OF DATA
UWI .         42163306230000 : UNIQUE WELL ID
DICO. A2D Technologies, Inc. : DIGITIZING COMPANY
~Other -----------------------------------------------------
~ASCII -----------------------------------------------------
  950.00000    9.46210    9.46210  113.71520    0.05000    0.05000    2.20480    -999.25    0.27200    0.29540    8.79390   62.65220   62.65220    8.79390    7.65310    8.16430    7.65310    -999.25    0.23100    0.18720    2.20480  -38.40680   -6.85120    8.16430
 1000.00000   10.57780   10.57780   82.00490    0.05010    0.05010    2.10700    -999.25    0.33050    0.35260   12.19440   56.26310   56.26310   12.19440   11.70740   10.71270   11.70740    -999.25    0.21900    0.17530    2.10700  -42.53980  -11.62010   10.71270
 1050.00000   10.96360   10.96360  214.90130    0.05120    0.05120    2.32510    -999.25    0.20140    0.22510    4.65330   63.59340   63.59340    4.65330    5.03280    5.34870    5.03280    -999.25    0.23740    0.19360    2.32510  -34.33140   -4.61240    5.34870
 1100.00000   11.18850   11.18850   97.20910    0.07320    0.07320    2.16580    -999.25    0.29220    0.31820   10.28710   59.62990   59.62990   10.28710    8.83150    8.59850    8.83150    -999.25    0.26580    0.22180    2.16580  -41.04710  -11.81830    8.59850
 1150.00000   11.30730   11.30730   70.83860    0.07630    0.07630    2.07930    -999.25    0.34660    0.36880   14.11660   52.01900   52.01900   14.11660   12.75170   11.55980   12.75170    -999.25    0.31650    0.27260    2.07930  -38.48550   -9.74690   11.55980
 1200.00000   12.20060   12.20060  278.24930    0.09230    0.09230    2.25270    -999.25    0.24090    0.26740    3.59390   69.98350   69.98350    3.59390    3.25770    5.05030    3.25770    -999.25    0.34280    0.29910    2.25270  -39.48480  -11.23640    5.05030
 1250.00000    8.87970    8.87970   98.00850    0.05240    0.05240    2.11650    -999.25    0.32470    0.34710   10.20320   52.12600   52.12600   10.20320    9.20080    8.25230    9.20080    -999.25    0.37730    0.33400    2.11650  -39.47330  -11.71510    8.25230
 1300.00000    9.29810    9.29810  113.83820    0.07450    0.07450    2.15780    -999.25    0.30220    0.32290    8.78440   61.66480   61.66480    8.78440    8.47970    9.81940    8.47970    -999.25    0.35600    0.31240    2.15780  -40.04660  -12.77860    9.81940
 1350.00000   10.21550   10.21550  132.20520    0.15530    0.15530    2.26900    -999.25    0.23680    0.25790    7.56400   61.82170   61.82170    7.56400    7.12310    8.19190    7.12310    -999.25    0.35060    0.30700    2.26900  -42.61000  -15.83220    8.19190
 1400.00000   11.28250   11.28250  443.73450    0.17280    0.17280    2.06170    -999.25    0.35670    0.37910    2.25360   70.96520   70.96520    2.25360    1.88500    2.36690    1.88500    -999.25    0.42600    0.38370    2.06170  -37.40190  -11.11430    2.36690
 1450.00000    9.56860    9.56860   44.01250    0.06330    0.06330    2.15510    -999.25    0.30610    0.32450   22.72080   45.00930   45.00930   22.72080   16.23320   15.17810   16.23320    -999.25    0.33890    0.29520    2.15510  -29.36060   -3.56320   15.17810
 1500.00000    8.85170    8.85170  316.27550    0.09660    0.09660    2.00940    -999.25    0.44290    0.40970    3.16180   68.11130   68.11130    3.16180    2.79840    3.23390    2.79840    -999.25    0.35840    0.31490    2.00940  -36.45330  -11.10010    3.23390
 1550.00000    9.30540    9.30540   44.12030    0.04460    0.04460    2.10600    -999.25    0.33000    0.35320   22.66530   45.19320   45.19320   22.66530   16.66040   14.64620   16.66040    -999.25    0.32570    0.28180    2.10600  -31.23050   -6.31950   14.64620
 1600.00000    8.86880    8.86880   48.63950    0.04550    0.04550    2.18120    -999.25    0.28520    0.30920   20.55940   64.79520   64.79520   20.55940   16.58310   14.88800   16.58310    -999.25    0.32970    0.28590    2.18120  -32.69970   -8.23100   14.88800
 1650.00000    8.66780    8.66780   45.58700    0.11130    0.11130    2.25530    -999.25    0.24570    0.26590   21.93610   63.45480   63.45480   21.93610   17.59160   15.28940   17.59160    -999.25    0.37310    0.32980    2.25530  -35.26570  -11.23920   15.28940
 1700.00000    8.63220    8.63220   37.72870    0.06820    0.06820    2.16760    -999.25    0.29520    0.31720   26.50500   42.36630   42.36630   26.50500   21.15690   18.99620   21.15690    -999.25    0.35130    0.30770    2.16760  -30.13530   -6.55110   18.99620
 1750.00000   10.12880   10.12880  276.38820    0.15330    0.15330    2.11930    -999.25    0.32000    0.34540    3.61810   74.46550   74.46550    3.61810    3.20970    3.84580    3.20970    -999.25    0.35970    0.31620    2.11930  -32.51900   -9.37700    3.84580
 1800.00000   10.55890   10.55890  431.31340    0.11980    0.11980    2.12390    -999.25    0.32120    0.34270    2.31850   73.72030   73.72030    2.31850    2.03340    2.65930    2.03340    -999.25    0.55200    0.51030    2.12390  -31.75650   -9.05670    2.65930
 1850.00000    9.02940    9.02940  162.78690    0.08520    0.08520    2.27140    -999.25    0.23080    0.25650    6.14300   70.78510   70.78510    6.14300    4.84070    4.68840    4.84070    -999.25    0.48110    0.43940    2.27140  -30.03810   -7.78060    4.68840
 1900.00000    8.96740    8.96740   38.90080    0.05000    0.05000    2.19480    -999.25    0.27830    0.30130   25.70640   51.10620   51.10620   25.70640   18.58740   17.43370   18.58740    -999.25    0.42150    0.37910    2.19480  -29.46240   -7.64710   17.43370
 1950.00000   11.23900   11.23900   41.58420    0.15990    0.15990    2.14480    -999.25    0.30600    0.33050   24.04760   42.47050   42.47050   24.04760   16.87790   15.97430   16.87790    -999.25    0.36360    0.32010    2.14480  -28.33360   -6.96000   15.97430
 2000.00000   12.63480   12.63480  202.37590    0.12870    0.12870    2.26610    -999.25    0.24320    0.25960    4.94130   66.67870   66.67870    4.94130    4.58510    5.63300    4.58510    -999.25    0.46930    0.42760    2.26610  -22.32600   -1.38500    5.63300
 2050.00000   10.93660   10.93660   89.92400    0.11360    0.11360    2.16560    -999.25    0.29450    0.31840   11.12050   59.42130   59.42130   11.12050    9.44370   11.50270    9.44370    -999.25    0.41340    0.37080    2.16560  -31.44530  -10.93690   11.50270
 2100.00000    9.21530    9.21530   74.03900    0.07870    0.07870    2.17900    -999.25    0.27760    0.31050   13.50640   63.15680   63.15680   13.50640    9.22920    8.18620    9.22920    -999.25    0.42600    0.38370    2.17900  -29.93050   -9.85470    8.18620
 2150.00000    9.37350    9.37350   22.31680    0.08620    0.08620    2.18520    -999.25    0.28160    0.30690   44.80930   39.76510   39.76510   44.80930   30.37250   25.17050   30.37250    -999.25    0.37790    0.33460    2.18520  -31.24980  -11.60660   25.17050
 2200.00000    9.56010    9.56010   41.47730    0.15330    0.15330    2.14790    -999.25    0.30250    0.32870   24.10960   37.38850   37.38850   24.10960   15.61100   12.70810   15.61100    -999.25    0.38100    0.33780    2.14790  -25.30920   -6.09860   12.70810
 2250.00000    9.99380    9.99380   19.16000    0.08290    0.08290    2.18580    -999.25    0.28260    0.30650   52.19220   25.40190   25.40190   52.19220   28.79670   26.27960   28.79670    -999.25    0.35200    0.30840    2.18580  -30.28200  -12.25160   26.27960
 2300.00000    9.87070    9.87070   19.98060    0.13030    0.13030    2.13470    -999.25    0.31590    0.33640   50.04860   31.10230   31.10230   50.04860   27.93460   24.36960   27.93460    -999.25    0.36270    0.31920    2.13470  -28.41390  -11.78700   24.36960
 2350.00000    9.79650    9.79650   20.07940    0.12870    0.12870    2.14100    -999.25    0.31450    0.33270   49.80220   30.07670   30.07670   49.80220   30.33810   23.79790   30.33810    -999.25    0.37200    0.32860    2.14100  -31.27100  -16.04760   23.79790
 2400.00000    9.88660    9.88660   21.32960    0.15780    0.15780    2.14220    -999.25    0.31120    0.33200   46.88320   37.20950   37.20950   46.88320   29.37100   26.30690   29.37100    -999.25    0.36870    0.32530    2.14220  -28.87060  -15.05070   26.30690
 2450.00000   11.03370   11.03370  143.68230    0.09370    0.09370    2.29250    -999.25    0.22230    0.24420    6.95980   75.24120   75.24120    6.95980    6.27050    7.20650    6.27050    -999.25    0.35670    0.31310    2.29250  -21.29410   -8.87770    7.20650
