~Version ---------------------------------------------------
VERS. 2.0 : CWLS log ASCII Standard -VERSION 2.0
WRAP.  NO : ONE LINE PER DEPTH STEP
~Well ------------------------------------------------------
STRT.F                       1050.0 : START DEPTH
STOP.F                       7300.0 : STOP DEPTH
STEP.F                     50.00000 : STEP LENGTH
NULL.                       -999.25 : NULL VALUE
COMP. LA JOLLA OIL & MINERALS, INC. : COMPANY
WELL.        A. C. COPELAND UNIT #1 : WELL
FLD .               MARCELINA CREEK : FIELD
LOC .                               : LOCATION
CNTY.                        WILSON : COUNTY
STAT.                         TEXAS : STATE
CTRY.      UNITED STATES OF AMERICA : COUNTRY
SRVC.                  Schlumberger : SERVICE COMPANY
DATE.                   04-Sep-1981 : LOGDATE
API .                42493309720000 : API NUMBER
UWI .                42493309720000 : UNIQUE WELL ID
SLAT.WGS84            29.0553577447 : SURFACE LATITUDE
SLON.WGS84             -98.11338478 : SURFACE LONGITUDE
~Curve Information -----------------------------------------
DEPT.F                 : 
SPR .MV   07 010 01 00 : SPONTANEOUS POTENTIAL FROM RES. LOG
CALD.IN   45 280 60 00 : CALIPER FROM DENSITY LOG
DCAL.IN   45 280 60 00 : DIFFERENTIAL CALIPER
DPHI.DEC  45 890 12 00 : DENSITY POROSITY SANDSTONE
DRHO.G/C3 45 356 01 00 : DENSITY CORRECTION
RHOB.G/C3 45 350 01 00 : BULK DENSITY
GRD .GAPI 45 310 01 00 : GAMMA RAY FROM DENSITY LOG
ILD .OHMM 07 120 46 00 : INDUCTION LOG DEEP
SFLU.OHMM 07 220 01 00 : SPHERICALLY FOCUSED LOG UNAVERAGED RESISTIVITY
ILM .OHMM 07 120 44 00 : INDUCTION LOG MEDIUM
~Params ----------------------------------------------------
PD  .                     GL : PERMANENT DATUM
EPD .F                   374 : ELEVATION PERMANENT DATUM
LMF .                     KB : LOG MEASURED FROM
DAPD.F                  19.5 : FEET ABOVE PERMANENT DATUM
DMF .                     KB : DRILLING MEASURED FROM
EKB .F                 393.5 : KELLING BUSHING
EDF .F                 392.5 : DRILLING FLOOR
EGL .F                   374 : GROUND LEVEL
DATE.               09/04/81 : RUN DATE
RUN .                      1 : RUN NUMBER
DD  .F                  7335 : DEPTH DRILLER
DL  .F                  7328 : DEPTH LOGGER
BLI .F                  7322 : BOTTOM LOG INTERVAL
TLI .F                  1049 : TOP LOG INTERVAL
CS  .IN                8.625 : CASING SIZE
CBD .F                  1034 : CASING BOTTOM DRILLER
CBL .F                  1049 : CASING BOTTOM LOGGER
BS  .IN                7.875 : BIT SIZE
BSD .F                  7335 : BIT SIZE AT DEPTH
DFT .         LIGNOSULFONATE : DRILLING FLUID TYPE
DFD .                    9.3 : DRILLING FLUID DENSITY
DFV .                     43 : DRILLING FLUID VISCOSITY
DFPH.                     10 : DRILLING FLUID PH
DFL .                    6.8 : DRILLING FLUID LOSS
MSS .                MUD PIT : MUD SAMPLE SOURCE
RMS .OHMM              0.564 : RESISTIVITY MUD SAMPLE
MST .F                   116 : MUD SAMPLE TEMPERATURE
RMF .OHMM               0.75 : RESISTIVITY MUD FILTRATE SAMPLE
MFST.F                    75 : MUD FILTRATE SAMPLE TEMPERATURE
RMC .OHMM                0.8 : RESISTIVITY MUD CAKE
MCST.F                    75 : MUD CAKE SAMPLE TEMPERATURE
MFSS.                  CHART : MUD FILTRATE SAMPLE SOURCE
MCSS.                  CHART : MUD CAKE SAMPLE SOURCE
RMB .OHMM              0.374 : RESISTIVITY MUD AT BHT
TCS .HRS                1200 : TIME CURCULATED STOPPED
TLAB.HRS                1700 : TIME LOGGER AT BOTTOM
LUN .                   8258 : LOGGING UNIT NUMBER
LUL .             PLEASANTON : LOGGING UNIT LOCATION
ENGI.               COMSTOCK : RECORDING ENGINEER
WITN.              ROBERTSON : WITNESSED BY
CLNT.                A2DTECH : CLIENT CODE
ORIG.               5" PRINT : ORIGIN OF DATA
UWI .         42493309720000 : UNIQUE WELL ID
DICO. A2D Technologies, Inc. : DIGITIZING COMPANY
~Other -----------------------------------------------------
~ASCII -----------------------------------------------------
# ...
 4350.00000    6.60470    -999.25    0.01330    0.26210    -999.25    -999.25   56.76880    9.37140    6.30610    6.43580
 4400.00000   -6.75910    -999.25    0.50010    0.20310    -999.25    -999.25   90.10410    6.32220    5.90020    6.02250
 4450.00000   -5.70700    -999.25    0.35190    0.22800    -999.25    -999.25   67.23530    5.64920    7.19410    5.50550
 4500.00000   -6.73020    -999.25    1.25780    0.16870    -999.25    -999.25  100.49440    1.68370    1.67640    1.65760
 4550.00000   -7.81510    -999.25    1.94340    0.11200    -999.25    -999.25  105.54130    2.34300    2.58820    2.34970
 4600.00000   -9.76130    -999.25    0.85050    0.14050    -999.25    -999.25   99.01920    3.04260    3.36090    3.01910
 4650.00000   -9.02800    -999.25    1.44200    0.12010    -999.25    -999.25  101.87230    2.34330    2.32050    2.36530
 4700.00000   -9.14130    -999.25    0.97750    0.10970    -999.25    -999.25   95.30470    2.70050    2.77360    2.70820
 4750.00000   -8.55650    -999.25    -999.25    -999.25    -999.25    -999.25   97.51250    2.93870    3.10530    3.02610
 4800.00000   -6.49870    -999.25    -999.25    -999.25    -999.25    -999.25   93.99860    2.25510    2.98120    2.27060
 4850.00000   -5.89890    -999.25    -999.25    -999.25    -999.25    -999.25   94.71470    2.00900    2.29530    2.01170
 4900.00000   -6.54310    -999.25    -999.25    -999.25    -999.25    -999.25   90.98910    2.05950    2.37930    2.10470
 4950.00000  -10.29230    -999.25    -999.25    -999.25    -999.25    -999.25   94.92850    1.54710    1.65860    1.58390
 5000.00000   -9.56040    -999.25    -999.25    -999.25    -999.25    -999.25   98.01040    1.47190    1.61910    1.52470
 5050.00000   -8.96430    -999.25    -999.25    -999.25    -999.25    -999.25   96.06410    1.23160    1.38480    1.27430
 5100.00000  -10.75110    -999.25    -999.25    -999.25    -999.25    -999.25  100.58620    1.16670    1.28850    1.20400
 5150.00000   -9.90020    -999.25    -999.25    -999.25    -999.25    -999.25  102.73180    1.13690    1.18470    1.14960
 5200.00000   -8.55000    -999.25    -999.25    -999.25    -999.25    -999.25  101.52920    1.11980    1.26200    1.17850
 5250.00000   -6.28280    -999.25    3.48670    0.14640    -999.25    -999.25  101.27940    1.17200    1.20950    1.16810
 5300.00000   -5.43450    -999.25    1.37650    0.11580    -999.25    -999.25   81.20580    1.98650    2.16540    2.05590
 5350.00000   -6.32920    -999.25    1.06150    0.11810    -999.25    -999.25   72.30180    2.62760    2.86630    2.56900
 5400.00000   -6.58100    -999.25    2.51900    0.06950    -999.25    -999.25   79.24760    1.53450    1.75080    1.69570
 5450.00000   -7.54900    -999.25    2.03160    0.11440    -999.25    -999.25   78.39250    1.59610    1.69640    1.58660
 5500.00000   -6.46110    -999.25    2.10160    0.19980    -999.25    -999.25   72.85080    1.78420    1.97040    1.84880
 5550.00000   -6.40150    -999.25    -999.25    -999.25    -999.25    -999.25   79.14490    1.62340    1.93100    1.74860
 5600.00000   -6.29270    -999.25    -999.25    -999.25    -999.25    -999.25   76.10280    1.52310    1.69350    1.56740
 5650.00000   -6.35730    -999.25    -999.25    -999.25    -999.25    -999.25   84.50550    1.07570    1.25500    1.12530
 5700.00000   -1.61750    -999.25    -999.25    -999.25    -999.25    -999.25   83.23910    0.88780    1.02950    0.96440
 5750.00000   -1.58140    -999.25    -999.25    -999.25    -999.25    -999.25   73.09600    1.32380    1.35570    1.36850
 5800.00000   -0.04030    -999.25    -999.25    -999.25    -999.25    -999.25   75.74950    1.65590    1.80850    1.72350
 5850.00000   -1.55730    -999.25    -999.25    -999.25    -999.25    -999.25   73.94990    1.87670    2.09500    2.02350
 5900.00000   -2.72560    -999.25    -999.25    -999.25    -999.25    -999.25   70.06650    2.33340    3.03550    2.44460
 5950.00000   -1.74630    -999.25    -999.25    -999.25    -999.25    -999.25   64.67970    3.18490    3.61060    3.29220
 6000.00000   -1.34890    -999.25    -999.25    -999.25    -999.25    -999.25   80.14460    1.67120    2.09700    1.78270
 6050.00000   -3.41960    -999.25    -999.25    -999.25    -999.25    -999.25   94.02880    1.49970    2.00450    1.67220
 6100.00000   -0.52600    -999.25    -999.25    -999.25    -999.25    -999.25   94.84820    2.24360    2.51870    2.37540
 6150.00000   -1.76080    -999.25    -999.25    -999.25    -999.25    -999.25   83.97100    2.08340    2.29250    2.17980
 6200.00000   -0.36920    -999.25    -999.25    -999.25    -999.25    -999.25   76.61220    1.88760    1.97030    1.93490
 6250.00000   -0.36110    -999.25    -999.25    -999.25    -999.25    -999.25   93.29770    1.37850    1.50820    1.41510
 6300.00000  -27.15920    -999.25    -999.25    -999.25    -999.25    -999.25   94.15420    1.71950    1.89630    1.82000
 6350.00000    2.12010    -999.25    1.13860    0.09410    -999.25    -999.25  109.41820    1.42840    1.53230    1.49510
 6400.00000    2.63440    -999.25    0.45890    0.06430    -999.25    -999.25   95.74020    2.05240    2.35790    2.21940
 6450.00000    3.42200    -999.25    1.06030    0.11150    -999.25    -999.25  108.62350    1.30080    1.54780    1.37340
 6500.00000    3.66840    -999.25    0.93830    0.09090    -999.25    -999.25   99.02690    1.56190    1.70410    1.66530
 6550.00000    5.07220    -999.25    0.61730    0.05850    -999.25    -999.25   91.61880    1.78320    2.08190    1.88230
 6600.00000    4.97140    -999.25    0.65730    0.09100    -999.25    -999.25  100.35710    1.74770    2.11110    1.84430
 6650.00000    4.16970    -999.25    0.57890    0.07660    -999.25    -999.25   88.89790    2.41640    2.76350    2.51730
 6700.00000    6.03160    8.41040    0.48200    0.09450    0.08810    2.49910  100.41730    1.57870    1.84820    1.68580
 6750.00000    9.37630    8.26590    0.45790    0.05970    0.02580    2.53590   96.00930    2.19370    2.61230    2.32590
 6800.00000   10.55800    8.22000    0.49610    0.04570    0.01820    2.58340   77.63030    2.83320    3.11380    3.03550
 6850.00000   13.05730    8.11930    0.30810    0.06000    0.01630    2.60900   72.59900    3.06550    3.72310    3.20150
 6900.00000   14.14100    8.15730    0.38640    0.06380    0.03120    2.61030   81.35260    2.29500    2.87740    2.51530
 6950.00000    9.89100    8.08360    0.35190    0.05500    0.00640    2.60820   49.95400    5.07210    6.27960    5.26540
 7000.00000   11.91960    8.09520    0.29250    0.05600    0.01780    2.61670   55.34070    4.65680    5.16810    4.82520
 7050.00000    6.22300    8.01030    0.24670    0.03830    0.00570    2.64940   33.15440   17.94800   29.89540   15.81860
 7100.00000   12.27660    8.02740    0.31200    0.03550   -0.00440    2.64260   39.40860    5.65870   18.49410    6.71720
 7150.00000    4.29800    7.96460    0.29280    0.05200   -0.00180    2.62240   27.58880   14.34710   19.49600   14.94070
 7200.00000   19.87180    8.04120    0.22930    0.11300    0.00300    2.51900  102.88870    9.63150   14.85890    9.14110
 7250.00000    3.46120    7.95450    0.14980    0.09220    0.00000    2.50890  149.99540   22.30320   23.81130   18.75470
 7300.00000  -15.68040    7.63480   -0.19310    0.00980    0.02420    2.69340   25.32280   59.50590   35.53780   41.00910
