~Version ---------------------------------------------------
VERS. 2.0 : CWLS log ASCII Standard -VERSION 2.0
WRAP.  NO : ONE LINE PER DEPTH STEP
~Well ------------------------------------------------------
STRT.F                   300.0 : START DEPTH
STOP.F                 13200.0 : STOP DEPTH
STEP.F                50.00000 : STEP LENGTH
NULL.                  -999.25 : NULL VALUE
COMP.              TEXACO INC. : COMPANY
WELL.     M. D. BURNS TRUST #1 : WELL
FLD .                  WILDCAT : FIELD
LOC .                          : LOCATION
CNTY.                 LA SALLE : COUNTY
STAT.                    TEXAS : STATE
CTRY. UNITED STATES OF AMERICA : COUNTRY
SRVC.                  Unknown : SERVICE COMPANY
DATE.              05-Aug-1984 : LOGDATE
API .           42283310960000 : API NUMBER
UWI .           42283310960000 : UNIQUE WELL ID
SLAT.WGS84       28.6375495728 : SURFACE LATITUDE
SLON.WGS84      -99.1304898901 : SURFACE LONGITUDE
~Curve Information -----------------------------------------
DEPT.F                 : 
SP  .MV   07 010 01 00 : SPONTANEOUS POTENTIAL
SFL .OHMM 07 220 01 00 : SPHERICAL FOCUSED RESISTIVITY
ILD .OHMM 07 120 46 00 : DEEP INDUCTION RESISTIVITY
ILM .OHMM 07 120 44 00 : 
GR  .GAPI 07 310 01 00 : GAMMA RAY
CALI.IN   07 280 01 00 : CALIPER
DCAL.IN   07 280 30 00 : DIFFERENTIAL CALIPER
DT  .US/F 60 520 00 00 : NO SPACING
NEUT.NAPI 40 330 01 00 : 
~Params ----------------------------------------------------
EKB .F                  536.0 : KELLY BUSHING
EGL .F                    506 : ELEVATION GROUND LEVEL
EDF .F                    535 : ELEVATION DERRICK FLOOR
EPD .F                    506 : ELEVATION PERMANENT DATUM
TD  .F                13219.0 : TOTAL DEPTH
DATE.             15-NOV-1984 : DATE LOGGED
CLNT.                 A2DTECH : CLIENT CODE
SL  . 1780' FSWL & 1500' FNWL : SURFACE LOCATION
PD  .                      GL : PERMANENT DATUM
LMF .                      KB : LOG MEASURED FROM
DMF .                      KB : DRILLING MEASURED FROM
DAPD.F                     30 : FEET ABOVE PERMANENT DATUM
DD  .F                  13219 : DEPTH DRILLER
DL  .F                  13218 : DEPTH LOGGER
BLI .F                  13212 : BOTTOM LOG INTERVAL
TLI .F                  11650 : TOP LOG INTERVAL
CS1 .IN                 7.625 : CASING SIZE
CBD1.         7.625" @ 11049' : CASING DRILLER 1
CBL1.F                  11049 : CASING LOGGER 1
BS1 .IN                   6.5 : BIT SIZE
BSD1.F                  13219 : DEPTH DRILLED WITH BIT1
DFT .          LIGNOSULFONATE : TYPE FLUID IN HOLE
DFD .                    10.5 : DENSITY
DFV .                      49 : VISCOSITY
DFPH.                    11.5 : PH
DFL .                       9 : FLUID LOSS
MSS .              CIRC. TANK : SOURCE OF SAMPLE
RMS .OHMM                0.98 : RM
RMF .OHMM                0.92 : RMF
RMC .OHMM                1.64 : RMC
MFSS.                    MEAS : SOURCE RMF.
MCSS.                    CALC : SOURCE RMC.
RMB .OHMM                0.33 : RM. AT BHT
BHT .F                    264 : BHT.
TCS .HRS                  530 : TIME CIRC. STOPPED
TLAB.                    1600 : TIME LOGGER AT BOTTOM
LUN .                    8268 : LOGGING UNIT NUMBER
LUL .                  LAREDO : LOGGING UNIT LOCATION
ENGI.                JAY KING : RECORDED BY
WITN.      MIKATAVAGE/ FARREL : WITNESSED BY
ORIG.                5" PRINT : ORIGIN OF DATA
UWI .          42283310960000 : UNIQUE WELL ID
DICO.  A2D TECHNOLOGIES, INC. : DIGITIZING COMPANY
~Other -----------------------------------------------------
~ASCII -----------------------------------------------------
# ...
 3950.00000    4.62200    2.54900    2.57200    2.52600    -999.25    -999.25   -3.12300    -999.25    -999.25
 4000.00000    5.22000    3.44100    3.42700    3.41300   75.46900    -999.25    -999.25   90.62500    -999.25
 4050.00000    4.81700    1.73200    1.78000    1.73200   72.24200    -999.25    -999.25  104.82100    -999.25
 4100.00000    4.86400    1.87800    2.14900    1.91200   81.52400    -999.25    -999.25  104.30100    -999.25
 4150.00000    4.82200    4.62800    2.70400    3.26400   63.22100    -999.25    -999.25   80.26900    -999.25
 4200.00000    5.51700    1.75100    1.64400    1.66000   72.83000    -999.25    -999.25  101.66000    -999.25
 4250.00000    4.73200    1.77000    2.03700    1.92900   68.66100    -999.25    -999.25   99.70700    -999.25
 4300.00000    5.33900    2.22700    1.72500    1.76400   61.47100    -999.25    -999.25   90.59800    -999.25
 4350.00000    4.62300    1.69900    1.89500    1.79600   58.13600    -999.25    -999.25   98.47200    -999.25
 4400.00000    6.03900    1.97600    2.11800    2.14400   60.51500    -999.25    -999.25   94.89900    -999.25
 4450.00000    5.29300    1.14600    1.13000    1.13600   67.16400    -999.25    -999.25  116.69900    -999.25
 4500.00000    3.94400    3.20400    3.17800    3.16100   70.60800    -999.25    -999.25   85.49800    -999.25
 4550.00000    2.03300    1.49800    1.61600    1.48700   60.49300    -999.25    -999.25  109.32900    -999.25
 4600.00000    4.04400    1.81200    1.84500    1.83000   63.94200    -999.25    -999.25  104.83400    -999.25
 4650.00000    2.23900    2.57200    2.69900    2.60400   62.26700    -999.25    -999.25   95.30200    -999.25
 4700.00000    1.46800    5.56500    5.97900    5.97900   49.12600    -999.25    -999.25   78.02400    -999.25
 4750.00000    1.93300    5.22600    5.25000    5.29800   52.40600    -999.25    -999.25   78.41800    -999.25
 4800.00000    2.64800    3.39900    3.58500    3.48900   52.83700    -999.25    -999.25   87.10800    -999.25
 4850.00000    3.14900    1.44800    1.53500    1.50200   64.96100    -999.25    -999.25  108.40300    -999.25
 4900.00000    2.78500    1.87800    1.88100    1.86100   60.53500    -999.25    -999.25  101.45300    -999.25
 4950.00000    0.34600    3.16100    3.33300    3.38000   52.15900    -999.25    -999.25   89.32900    -999.25
 5000.00000    4.04300    2.06400    2.09200    2.07300   60.50700    -999.25    -999.25   97.74300    -999.25
 5050.00000    1.99100    2.60800    2.49900    2.60900   60.69700    -999.25    -999.25   96.75200    -999.25
 5100.00000    3.44600    2.27900    2.26800    2.31500   61.29900    -999.25    -999.25   96.68800    -999.25
 5150.00000    2.02300    2.42300    2.38500    2.41500   56.95600    -999.25    -999.25   94.23800    -999.25
 5200.00000    2.79300    2.20900    2.19500    2.19800   59.03100    -999.25    -999.25   99.19500    -999.25
 5250.00000    1.95200    2.54900    2.73800    2.69200   58.70500    -999.25    -999.25   91.63900    -999.25
 5300.00000    1.70600    2.56200    2.80300    2.64200   57.39800    -999.25    -999.25   93.26200    -999.25
 5350.00000    1.74900    2.28800    2.41500    2.43700   54.29300    -999.25    -999.25   95.94200    -999.25
 5400.00000    3.06500    2.47800    2.52600    2.52600   51.99600    -999.25    -999.25   93.54700    -999.25
 5450.00000    2.87600    2.76300    2.91600    2.76300   59.27200    -999.25    -999.25   89.82700    -999.25
 5500.00000    5.78400    5.64700    5.51500    5.46600   48.71300    -999.25    -999.25   77.13700    -999.25
 5550.00000    5.04900    1.65600    2.19600    2.13000   85.50500    -999.25    -999.25   99.99800    -999.25
 5600.00000    4.60600    2.24800    2.57600    2.61300   81.21600    -999.25    -999.25   86.12500    -999.25
 5650.00000  -19.18000    6.90300    2.67800    3.21900   43.90500    -999.25    -999.25   82.12900    -999.25
 5700.00000  -27.36100    4.64800    2.76300    3.61700   50.91600    -999.25    -999.25   82.13900    -999.25
 5750.00000   -9.56000    2.20800    2.45900    2.45900   51.74600    -999.25    -999.25   78.74300    -999.25
 5800.00000    1.35800    2.51300    2.73800    2.71400   70.74700    -999.25    -999.25   87.80600    -999.25
 5850.00000  -13.55300    2.32200    2.56000    2.51400   56.62900    -999.25    -999.25   86.04700    -999.25
 5900.00000   -3.08200    2.51200    2.78100    2.81300   66.56500    -999.25    -999.25   86.08300    -999.25
 5950.00000    6.42400    2.19900    2.41500    2.43700   62.52900    -999.25    -999.25   88.18400    -999.25
 6000.00000    7.59400    2.73800    2.83800    2.76300   66.21000    -999.25    -999.25   87.38300    -999.25
 6050.00000    6.87200    2.13000    2.11100    2.15400   57.97400    -999.25    -999.25   92.86100    -999.25
 6100.00000    7.34600    2.16800    2.57200    2.57200   72.02500    -999.25    -999.25   90.52700    -999.25
 6150.00000    8.22200    2.37100    2.50300    2.50200   66.67900    -999.25    -999.25   90.34000    -999.25
 6200.00000    4.46700    1.71700    1.69800    1.68600   66.85300    -999.25    -999.25   96.51700    -999.25
 6250.00000    5.50900    2.73900    2.95200    2.91200   71.27100    -999.25    -999.25   85.38100    -999.25
 6300.00000    6.19200    2.61800    2.71400    2.69700   59.21000    -999.25    -999.25   85.25400    -999.25
 6350.00000    7.35400    2.44100    2.61800    2.57200   60.35900    -999.25    -999.25   88.07000    -999.25
 6400.00000    9.11000    3.30600    3.65000    3.61700   63.50800    -999.25    -999.25   81.51200    -999.25
 6450.00000    9.55200    3.28300    3.59500    3.59500   61.65200    -999.25    -999.25   80.37100    -999.25
 6500.00000    7.56600    2.64200    3.07700    3.07700   60.23500    -999.25    -999.25   82.58000    -999.25
 6550.00000    7.43000    2.19100    2.45900    2.44500   61.54300    -999.25    -999.25   88.43800    -999.25
 6600.00000   10.48400    2.19100    2.40000    2.28800   67.88000    -999.25    -999.25   91.69300    -999.25
 6650.00000   10.27800    2.41900    2.69000    2.58800   53.83000    -999.25    -999.25   87.01200    -999.25
 6700.00000    9.44000    3.01300    3.39700    3.23500   51.20200    -999.25    -999.25   82.64700    -999.25
 6750.00000    6.96800    2.26000    2.47000    2.29700   51.40600    -999.25    -999.25   88.71900    -999.25
 6800.00000   10.42400    3.27700    3.59800    3.48900   56.62200    -999.25    -999.25   80.61000    -999.25
 6850.00000   12.62500   19.62770   19.27890    -999.25   53.91900    -999.25    -999.25   74.91500    -999.25
 6900.00000   12.83300    3.36330    3.63460    3.60010   50.13900    -999.25    -999.25   83.01100    -999.25
 6950.00000   13.28400    4.34820    4.91250    4.79720   41.03600    -999.25    -999.25   76.42600    -999.25
 7000.00000   13.81300    5.32370    5.84970    5.84970   39.37400    -999.25    -999.25   71.59000    -999.25
 7050.00000   11.52300    8.11650    9.25270    9.07780   34.42600    -999.25    -999.25   67.76200    -999.25
 7100.00000   11.33100    8.16150    8.43620    8.40270   32.95900    -999.25    -999.25   67.93400    -999.25
 7150.00000   14.01700    7.45000    8.29640    8.00360   41.61600    -999.25    -999.25   68.82800    -999.25
 7200.00000   14.84900    5.56660    6.76830    6.22600   40.50100    -999.25    -999.25   71.86400    -999.25
 7250.00000    6.07000   14.33730   12.42700   12.37120   28.64700    -999.25    -999.25   63.93500    -999.25
 7300.00000    3.28700    6.57300   10.97620   11.86130   29.36200    -999.25    -999.25   62.97500    -999.25
 7350.00000   -2.05700    7.72520   16.41790   20.87010   20.32900    -999.25    -999.25   64.15800    -999.25
 7400.00000   -3.34700   13.28120   15.14330   13.65360   21.07400    -999.25    -999.25   61.09200    -999.25
 7450.00000    4.68000   26.89380   23.72060   25.48490   46.31800    -999.25    -999.25   69.26900    -999.25
 7500.00000    4.43800   13.96450   17.61700   16.64910   33.64600    -999.25    -999.25   63.41000    -999.25
 7550.00000    9.11900   20.50430   20.63830   20.91900   35.36400    -999.25    -999.25   64.20800    -999.25
