~Version ---------------------------------------------------
VERS.      2.0 : CWLS log ASCII Standard -VERSION 2.0
WRAP.      YES : Multiple lines per depth step
CREA. 02/15/13 : LAS Creation Date
~Well ------------------------------------------------------
STRT.FT                 1550.0 : START DEPTH
STOP.FT                 9650.0 : STOP DEPTH
STEP.FT               50.00000 : STEP LENGTH
NULL.                  -999.25 : NULL VALUE
COMP.     MARATHON OIL COMPANY : COMPANY
WELL.              NEWELL #A-2 : WELL
FLD .               BEAR GRASS : FIELD
LOC .                          : LOCATION
CNTY.                     LEON : COUNTY
STAT.                    TEXAS : STATE
CTRY. UNITED STATES OF AMERICA : COUNTRY
SRVC.                   Reeves : SERVICE COMPANY
DATE.              02-Nov-1999 : LOGDATE
API .           42289313060000 : API NUMBER
UWI .           42289313060000 : UNIQUE WELL ID
SLAT.WGS84       31.3636770246 : SURFACE LATITUDE
SLON.WGS84      -96.2532956557 : SURFACE LONGITUDE
~Curve Information -----------------------------------------
DEPT    .FT    : DEPTH FEET
CALWS   .IN    : CALIPER [DCALED+BITS]
CONDWS  .MMHO  : CONDUCTIVITY [1000/DRESWS]
DCALED  .IN    : DIFFERENTIAL CALIPER FROM AIT LOG
DCORWS  .G/C3  : DENSITY CORRECTION [DRHOED]
DENWS   .G/C3  : FORMATION BULK DENSITY [CALC FROM DPOWS, M=2.71, F=1.0]
DPHILSED.V/V   : DENSITY POROSITY LIME[M=2.71, F=1.0] FROM DENSITY LOG
DPOWS   .V/V   : DENSITY POROSITY LIME[DPHIED]
DRESWS  .OHMM  : DEEP RESISTIVITY [ILDED]
DRHOED  .G/C3  : DENSITY CORRECTION FROM DENSITY LOG
GRRED   .GAPI  : GAMMA RAY FROM AIT LOG
GRWS    .GAPI  : GAMMA RAY [GRRED]
ILDED   .OHMM  : DEEP INDUCTION RESISTIVITY FROM AIT LOG
ILMED   .OHMM  : MEDIUM  INDUCTION RESISTIVITY FROM AIT LOG
MRESWS  .OHMM  : MEDIUM RESISTIVITY [ILMED]
NPHILSED.V/V   : NEUTRON POROSITY LIME FROM DENSITY LOG
NPOWS   .V/V   : NEUTRON POROSITY LIME  [NPHIED]
PEFED   .B/E   : PHOTOELECTRIC FACTOR FROM DENSITY LOG
PEFWS   .B/E   : PHOTOELECTRIC FACTOR [PEFED]
SFLED   .OHMM  : SHALLOW FOCUSED RESISTIVITY FROM AIT LOG
SPRED   .MV    : SPONTANEOUS POTENTIAL FROM AIT LOG
SPWS    .MV    : SPONTANEOUS POTENTIAL [SPRED]
SRESWS  .OHMM  : SHALLOW RESISTIVITY [SFLED]
~Params ----------------------------------------------------
PD  .                     GL : PERMANENT DATUM
EPD .FT                  525 : ELEVATION PERMANENT DATUM
LMF .                     KB : LOG MEASURED FROM
DAPD.FT                   17 : FEET ABOVE PERMANENT DATUM
DMF .                     KB : DRILLING MEASURED FROM
EKB .FT                  542 : KELLY BUSHING
EDF .FT                  540 : DRILLING FLOOR
EGL .FT                  525 : GROUND LEVEL
DATE.               11/02/99 : RUN DATE
RUN .                      1 : RUN NUMBER
DD  .FT                 9700 : DEPTH DRILLER
DL  .FT                 9705 : DEPTH LOGGER
BLI .FT                 9704 : BOTTOM LOG INTERVAL
TLI .FT                 1514 : TOP LOG INTERVAL
CS  .IN                8.625 : CASING SIZE
CBD .FT                 1515 : CASING BOTTOM DRILLER
CBL .FT                 1514 : CASING BOTTOM LOGGER
BS  .IN                7.875 : BIT SIZE
BSD .FT                 9700 : BIT SIZE AT DEPTH
DFT .                   DISP : DRILLING FLUID TYPE
DFD .                   10.1 : DRILLING FLUID DENSITY
DFV .                     50 : DRILLING FLUID VISCOSITY
DFPH.                    9.1 : DRILLING FLUID PH
DFL .                     10 : DRILLING FLUID LOSS
MSS .               FLOWLINE : MUD SAMPLE SOURCE
RMS .OHMM               1.22 : RESISTIVITY MUD SAMPLE
MST .DEGF                 80 : MUD SAMPLE TEMPERATURE
RMF .OHMM               0.91 : RESISTIVITY MUD FILTRATE SAMPLE
MFST.DEGF                 80 : MUD FILTRATE SAMPLE TEMPERATURE
RMC .OHMM               1.51 : RESISTIVITY MUD CAKE
MCST.DEGF                 80 : MUD CAKE SAMPLE TEMPERATURE
MFSS.                   MEAS : MUD FILTRATE SAMPLE SOURCE
MCSS.                   MEAS : MUD CAKE SAMPLE SOURCE
RMB .OHMM               0.45 : RESISTIVITY MUD AT BHT
TCS .HRS                   6 : TIME CIRCULATED STOPPED
LUN .                  V1049 : LOGGING UNIT NUMBER
LUL .                   KLCR : LOGGING UNIT LOCATION
ENGI.                 LEESON : RECORDING ENGINEER
WITN.                LAMBERT : WITNESSED BY
CLNT.                A2DTECH : CLIENT CODE
ORIG.         1" 2" 5" PRINT : ORIGIN OF DATA
UWI .         42289313060000 : UNIQUE WELL ID
DICO. A2D Technologies, Inc. : DIGITIZING COMPANY
~Other -----------------------------------------------------
TOOL RUN IN COMBINATION:ARRAY INDUCTION/RSFE/PHOTO-DENSITY/NEUTRON/GR LOG
~ASCII -----------------------------------------------------
# ...
 6350.00000    -999.25  634.51780    -999.25    -999.25    -999.25    -999.25    -999.25    1.57600    -999.25   61.33100   61.33100    1.57600    1.68100    1.68100    -999.25    -999.25    -999.25    -999.25    2.97100  -35.76000   -7.18670    2.97100
 6400.00000    -999.25   72.75900    -999.25    -999.25    -999.25    -999.25    -999.25   13.74400    -999.25   26.10600   26.10600   13.74400   13.59100   13.59100    -999.25    -999.25    -999.25    -999.25   14.73200  -66.41600  -38.39050   14.73200
 6450.00000    -999.25  238.15190    -999.25    -999.25    -999.25    -999.25    -999.25    4.19900    -999.25   52.34900   52.34900    4.19900    3.86600    3.86600    -999.25    -999.25    -999.25    -999.25    4.21400  -34.46000   -5.85130    4.21400
 6500.00000    -999.25   50.29930    -999.25    -999.25    -999.25    -999.25    -999.25   19.88100    -999.25   40.22500   40.22500   19.88100   18.89900   18.89900    -999.25    -999.25    -999.25    -999.25   18.82000  -39.66800  -11.58900   18.82000
 6550.00000    -999.25  122.08520    -999.25    -999.25    -999.25    -999.25    -999.25    8.19100    -999.25   36.24700   36.24700    8.19100    8.81400    8.81400    -999.25    -999.25    -999.25    -999.25   11.92300  -33.01300   -5.53350   11.92300
 6600.00000    -999.25  229.62110    -999.25    -999.25    -999.25    -999.25    -999.25    4.35500    -999.25   51.39100   51.39100    4.35500    4.77100    4.77100    -999.25    -999.25    -999.25    -999.25    4.93400  -27.62600   -0.93450    4.93400
 6650.00000    -999.25  346.62050    -999.25    -999.25    -999.25    -999.25    -999.25    2.88500    -999.25   85.61300   85.61300    2.88500    2.89900    2.89900    -999.25    -999.25    -999.25    -999.25    3.22400  -28.66600   -2.76250    3.22400
 6700.00000    -999.25   50.96060    -999.25    -999.25    -999.25    -999.25    -999.25   19.62300    -999.25   37.35100   37.35100   19.62300   22.06900   22.06900    -999.25    -999.25    -999.25    -999.25   28.78600  -42.49700  -17.38150   28.78600
 6750.00000    -999.25   55.71960    -999.25    -999.25    -999.25    -999.25    -999.25   17.94700    -999.25   30.47700   30.47700   17.94700   17.72700   17.72700    -999.25    -999.25    -999.25    -999.25   30.05900  -41.17200  -18.18500   30.05900
 6800.00000    -999.25  390.47250    -999.25    -999.25    -999.25    -999.25    -999.25    2.56100    -999.25   43.33800   43.33800    2.56100    2.51400    2.51400    -999.25    -999.25    -999.25    -999.25    3.91600  -30.03900   -7.82090    3.91600
 6850.00000    -999.25  695.89420    -999.25    -999.25    -999.25    -999.25    -999.25    1.43700    -999.25   47.10800   47.10800    1.43700    1.28900    1.28900    -999.25    -999.25    -999.25    -999.25    2.73000  -30.36200   -4.79640    2.73000
 6900.00000    -999.25  356.37920    -999.25    -999.25    -999.25    -999.25    -999.25    2.80600    -999.25   39.18900   39.18900    2.80600    2.93800    2.93800    -999.25    -999.25    -999.25    -999.25    7.82500  -25.30300   -2.35220    7.82500
 6950.00000    -999.25  168.12370    -999.25    -999.25    -999.25    -999.25    -999.25    5.94800    -999.25   34.34300   34.34300    5.94800    6.26600    6.26600    -999.25    -999.25    -999.25    -999.25    8.19200  -24.09200   -0.58730    8.19200
 7000.00000    -999.25  439.75370    -999.25    -999.25    -999.25    -999.25    -999.25    2.27400    -999.25   41.20500   41.20500    2.27400    2.25900    2.25900    -999.25    -999.25    -999.25    -999.25    3.01200  -27.57100   -3.44780    3.01200
 7050.00000    -999.25   80.50880    -999.25    -999.25    -999.25    -999.25    -999.25   12.42100    -999.25   29.09600   29.09600   12.42100   12.86900   12.86900    -999.25    -999.25    -999.25    -999.25   11.30100  -28.82800   -4.08620   11.30100
 7100.00000    -999.25  127.79550    -999.25    -999.25    -999.25    -999.25    -999.25    7.82500    -999.25   33.31200   33.31200    7.82500    8.23400    8.23400    -999.25    -999.25    -999.25    -999.25    8.26700  -27.94100   -3.43920    8.26700
 7150.00000    -999.25  218.19770    -999.25    -999.25    -999.25    -999.25    -999.25    4.58300    -999.25   30.61100   30.61100    4.58300    4.72900    4.72900    -999.25    -999.25    -999.25    -999.25    6.33900  -30.72500   -6.58030    6.33900
 7200.00000    -999.25   77.66390    -999.25    -999.25    -999.25    -999.25    -999.25   12.87600    -999.25   30.76700   30.76700   12.87600   14.78900   14.78900    -999.25    -999.25    -999.25    -999.25   34.61300  -30.84000   -7.05240   34.61300
 7250.00000    -999.25  309.50170    -999.25    -999.25    -999.25    -999.25    -999.25    3.23100    -999.25   43.05800   43.05800    3.23100    3.24300    3.24300    -999.25    -999.25    -999.25    -999.25   12.14300  -32.00500   -8.57450   12.14300
 7300.00000    -999.25  140.64700    -999.25    -999.25    -999.25    -999.25    -999.25    7.11000    -999.25   59.04400   59.04400    7.11000    7.65800    7.65800    -999.25    -999.25    -999.25    -999.25    7.81300  -31.04400   -7.97050    7.81300
 7350.00000    -999.25  149.07570    -999.25    -999.25    -999.25    -999.25    -999.25    6.70800    -999.25   45.72900   45.72900    6.70800    7.23000    7.23000    -999.25    -999.25    -999.25    -999.25   11.18300  -22.05900   -0.84660   11.18300
 7400.00000    -999.25   48.77340    -999.25    -999.25    -999.25    -999.25    -999.25   20.50300    -999.25   36.39800   36.39800   20.50300   22.36100   22.36100    -999.25    -999.25    -999.25    -999.25   55.51000  -28.93300   -9.12010   55.51000
 7450.00000    -999.25  173.04030    -999.25    -999.25    -999.25    -999.25    -999.25    5.77900    -999.25   62.22100   62.22100    5.77900    5.04200    5.04200    -999.25    -999.25    -999.25    -999.25   35.36100  -26.15800   -7.60100   35.36100
 7500.00000    -999.25  517.59830    -999.25    -999.25    -999.25    -999.25    -999.25    1.93200    -999.25   64.92700   64.92700    1.93200    1.79200    1.79200    -999.25    -999.25    -999.25    -999.25    2.21200  -31.12800   -6.10940    2.21200
 7550.00000    -999.25  209.95170    -999.25    -999.25    -999.25    -999.25    -999.25    4.76300    -999.25   49.87700   49.87700    4.76300    5.13400    5.13400    -999.25    -999.25    -999.25    -999.25    5.14000  -28.31200   -3.87800    5.14000
 7600.00000    -999.25  132.64360    -999.25    -999.25    -999.25    -999.25    -999.25    7.53900    -999.25   48.97400   48.97400    7.53900    7.33800    7.33800    -999.25    -999.25    -999.25    -999.25   18.00100  -25.66100   -2.57580   18.00100
 7650.00000    -999.25   39.22800    -999.25    -999.25    -999.25    -999.25    -999.25   25.49200    -999.25   22.87700   22.87700   25.49200   21.52300   21.52300    -999.25    -999.25    -999.25    -999.25   75.80400  -32.57700  -10.49470   75.80400
 7700.00000    -999.25  211.46120    -999.25    -999.25    -999.25    -999.25    -999.25    4.72900    -999.25   60.29800   60.29800    4.72900    4.60100    4.60100    0.13200    0.13200    -999.25    -999.25    5.27800  -35.52300  -12.14510    5.27800
 7750.00000   10.19400   90.58790    2.31400    0.02400    2.67070    0.02300    0.02300   11.03900    0.02400   37.92200   37.92200   11.03900   12.53500   12.53500    0.03300    0.03300    5.05000    5.05000   12.25500  -26.42100   -2.69730   12.25500
 7800.00000   10.59100   82.10180    2.71100    0.01700    2.68610    0.01400    0.01400   12.18000    0.01700   39.87900   39.87900   12.18000   13.06600   13.06600    0.04200    0.04200    4.62800    4.62800   20.22100  -26.27900   -2.76750   20.22100
 7850.00000    9.91000   82.69930    2.03000    0.00600    2.66380    0.02700    0.02700   12.09200    0.00600   31.71700   31.71700   12.09200   12.06400   12.06400    0.04100    0.04100    4.59900    4.59900   15.84300  -29.12700   -5.82760   15.84300
 7900.00000   11.35200   99.56190    3.47200    0.03900    2.51510    0.11400    0.11400   10.04400    0.03900   43.56600   43.56600   10.04400   10.09500   10.09500    0.08900    0.08900    4.19000    4.19000   19.72300  -26.53600   -3.44870   19.72300
