~Version ---------------------------------------------------
VERS. 2.0 : CWLS log ASCII Standard -VERSION 2.0
WRAP.  NO : ONE LINE PER DEPTH STEP
~Well ------------------------------------------------------
STRT.F                       300.0 : START DEPTH
STOP.F                     14150.0 : STOP DEPTH
STEP.F                    50.00000 : STEP LENGTH
NULL.                      -999.25 : NULL VALUE
COMP. HOWELL DRILLING INCORPORATED : COMPANY
WELL.           CARSON GAS UNIT #1 : WELL
FLD .                      WILDCAT : FIELD
LOC .                              : LOCATION
CNTY.                       LAVACA : COUNTY
STAT.                        TEXAS : STATE
CTRY.     UNITED STATES OF AMERICA : COUNTRY
SRVC.                 Schlumberger : SERVICE COMPANY
DATE.                  12-Nov-1978 : LOGDATE
API .               42285313350000 : API NUMBER
UWI .               42285313350000 : UNIQUE WELL ID
SLAT.WGS84           29.5916068374 : SURFACE LATITUDE
SLON.WGS84          -96.8551872622 : SURFACE LONGITUDE
~Curve Information -----------------------------------------
DEPT.F                 : 
DPHI.DEC  45 890 10 00 : DENSITY POROSITY
NPHI.DEC  42 890 01 00 : NEUTRON POROSITY
RHOB.G/C3 45 350 01 00 : BULK DENSITY
CALD.IN   45 280 60 00 : CALIPER FROM DENSITY LOG
CORR.G/C3 45 356 01 00 : DENSITY CORRECTION
GRD .GAPI 45 310 01 00 : GAMMA RAY FROM DENSITY LOG
ASFL.OHMM 06 221 01 00 : AMPLIFIED SPHERICALLY FOCUSED LOG
CILD.MMHO 06 110 46 00 : INDUCTION DEEP CONDUCTIVITY
SPR .MV   06 010 01 00 : SPONTANEOUS POTENTIAL FROM RESISTIVITY LOG
RILD.OHMM 06 120 46 00 : RAW DEEP INDUCTION RESISTIVITY
~Params ----------------------------------------------------
PD  .                          GL : PERMANENT DATUM
EPD .FT                     308.4 : ELEVATION PERMANENT DATUM
LMF .                          KB : LOG MEASURED FROM
DAPD.FT                        17 : FEET ABOVE PERMANENT DATUM
DMF .                          KB : DRILLING MEASURED FROM
EKB .FT                     325.4 : KELLY BUSHING
EDF .FT                     324.5 : DRILLING FLOOR
EGL .FT                     308.4 : GROUND LEVEL
DATE.                    11/12/78 : RUN DATE
RUN .                           2 : RUN NUMBER
DD  .FT                     14209 : DEPTH DRILLER
DL  .FT                     14205 : DEPTH LOGGER
BLI .FT                     14198 : BOTTOM LOG INTERVAL
TLI .FT                      3902 : TOP LOG INTERVAL
CS  .IN                     10.75 : CASING SIZE
CBD .FT                      3905 : CASING BOTTOM DRILLER
CBL .FT                      3902 : CASING BOTTOM LOGGER
BS  .IN                     9.875 : BIT SIZE
BSD .FT                     14209 : BIT SIZE AT DEPTH
DFT .                         GYP : DRILLING FLUID TYPE
DFD .                        10.6 : DRILLING FLUID DENSITY
DFV .                          44 : DRILLING FLUID VISCOSITY
DFPH.                         8.5 : DRILLING FLUID PH
DFL .                         8.8 : DRILLING FLUID LOSS
MSS .                    CIRC PIT : MUD SAMPLE SOURCE
RMS .OHMM                    1.19 : RESISTIVITY MUD SAMPLE
MST .DEGF                      90 : MUD SAMPLE TEMPERATURE
RMF .OHMM                    0.96 : RESISTIVITY MUD FILTRATE SAMPLE
MFST.DEGF                      77 : MUD FILTRATE SAMPLE TEMPERATURE
RMC .OHMM                    1.79 : RESISTIVITY MUD CAKE
MCST.DEGF                      90 : MUD CAKE SAMPLE TEMPERATURE
MFSS.                           M : MUD FILTRATE SAMPLE SOURCE
MCSS.                           C : MUD CAKE SAMPLE SOURCE
RMB .OHMM                    0.37 : RESISTIVITY MUD AT BHT
TCS .HRS                      130 : TIME CIRCULATED STOPPED
TLAB.HRS                     1430 : TIME LOGGER AT BOTTOM
LUN .                        8013 : LOGGING UNIT NUMBER
LUL .                        VICT : LOGGING UNIT LOCATION
ENGI.            HENDERICK FISLER : RECORDING ENGINEER
WITN. RYAN HOWELL WILLIAMS GARCIA : WITNESSED BY
CLNT.                     A2DTECH : CLIENT CODE
ORIG.                    1" PRINT : ORIGIN OF DATA
UWI .              42285313350000 : UNIQUE WELL ID
DICO.      A2D Technologies, Inc. : DIGITIZING COMPANY
~Other -----------------------------------------------------
~ASCII -----------------------------------------------------
# ...
 3600.00000    -999.25    -999.25    -999.25    -999.25    -999.25    -999.25    2.10460  542.16870  -36.11940    1.83460
 3650.00000    -999.25    -999.25    -999.25    -999.25    -999.25    -999.25    2.77230  504.94780  -42.73610    1.80700
 3700.00000    -999.25    -999.25    -999.25    -999.25    -999.25    -999.25    1.63830  674.19640  -39.50250    1.48370
 3750.00000    -999.25    -999.25    -999.25    -999.25    -999.25    -999.25    1.57450  744.19550  -36.71640    1.14290
 3800.00000    -999.25    -999.25    -999.25    -999.25    -999.25    -999.25    1.52890  719.87950  -34.67200    1.41360
 3850.00000    -999.25    -999.25    -999.25    -999.25    -999.25    -999.25   18.23130  254.96680  -52.33820    3.74440
 3900.00000    -999.25    -999.25    -999.25    -999.25    -999.25    -999.25    1.07720  727.40970  -50.44780    1.47370
 3950.00000    -999.25    -999.25    -999.25    -999.25    -999.25    -999.25    1.10770 1291.41350  -50.94530    0.97740
 4000.00000    -999.25    -999.25    -999.25    -999.25    -999.25    -999.25    1.02240 1200.32570  -38.20900    0.96970
 4050.00000    -999.25    -999.25    -999.25    -999.25    -999.25    -999.25    0.90580 1417.81410  -46.94020    0.67670
 4100.00000    -999.25    -999.25    -999.25    -999.25    -999.25    -999.25    0.80120 1367.46980  -47.31340    0.69170
 4150.00000    -999.25    -999.25    -999.25    -999.25    -999.25    -999.25    0.88790 1433.32360  -38.88060    0.68420
 4200.00000    -999.25    -999.25    -999.25    -999.25    -999.25    -999.25    0.92080 1289.15660  -45.67160    0.93230
 4250.00000    -999.25    -999.25    -999.25    -999.25    -999.25    -999.25    1.07580 1091.01810  -49.92540    0.99250
 4300.00000    -999.25    -999.25    -999.25    -999.25    -999.25    -999.25    1.24070 1013.55420  -51.04480    1.10280
 4350.00000    -999.25    -999.25    -999.25    -999.25    -999.25    -999.25    1.12260  955.89580  -48.28360    1.06270
 4400.00000    -999.25    -999.25    -999.25    -999.25    -999.25    -999.25    1.08840 1143.58590  -43.78060    1.19690
 4450.00000    -999.25    -999.25    -999.25    -999.25    -999.25    -999.25    1.21380  980.92910  -46.01980    1.15790
 4500.00000    -999.25    -999.25    -999.25    -999.25    -999.25    -999.25    1.28350  785.13720  -44.77610    1.46360
 4550.00000    -999.25    -999.25    -999.25    -999.25    -999.25    -999.25    1.34130  861.44580  -50.39800    1.31580
 4600.00000    -999.25    -999.25    -999.25    -999.25    -999.25    -999.25    1.12130  852.41710  -41.87780    1.15810
 4650.00000    -999.25    -999.25    -999.25    -999.25    -999.25    -999.25    1.12050  900.10040  -49.50250    0.88470
 4700.00000    -999.25    -999.25    -999.25    -999.25    -999.25    -999.25    1.22270 1026.10440  -44.77600    1.08770
 4750.00000    -999.25    -999.25    -999.25    -999.25    -999.25    -999.25    1.44050  747.49910  -70.59860    1.45110
 4800.00000    -999.25    -999.25    -999.25    -999.25    -999.25    -999.25    0.71750 1825.30290  -42.38980    0.72860
 4850.00000    -999.25    -999.25    -999.25    -999.25    -999.25    -999.25    1.15250  846.38760  -40.57210    1.20300
 4900.00000    -999.25    -999.25    -999.25    -999.25    -999.25    -999.25    1.20180  880.51280  -53.88060    1.15790
 4950.00000    -999.25    -999.25    -999.25    -999.25    -999.25    -999.25    1.17190  885.54220  -47.58710    1.24060
 5000.00000    -999.25    -999.25    -999.25    -999.25    -999.25    -999.25    1.38710  815.26020  -48.85570    1.26320
 5050.00000    -999.25    -999.25    -999.25    -999.25    -999.25    -999.25    1.96210  562.24950  -50.37310    1.95490
 5100.00000    -999.25    -999.25    -999.25    -999.25    -999.25    -999.25    1.89940  564.75900  -50.69650    1.85460
 5150.00000    -999.25    -999.25    -999.25    -999.25    -999.25    -999.25    1.91230  578.74600  -52.31340    1.70680
 5200.00000    -999.25    -999.25    -999.25    -999.25    -999.25    -999.25    1.48570  870.48190  -49.69290    1.22970
 5250.00000    -999.25    -999.25    -999.25    -999.25    -999.25    -999.25    1.14700  794.43530  -46.66690    1.13030
 5300.00000    -999.25    -999.25    -999.25    -999.25    -999.25    -999.25    1.11810 1341.90760  -46.56670    0.92730
 5350.00000    -999.25    -999.25    -999.25    -999.25    -999.25    -999.25    1.07530 1109.18680  -45.29850    1.03010
 5400.00000    -999.25    -999.25    -999.25    -999.25    -999.25    -999.25    0.87300 1239.96140  -43.88240    0.75950
 5450.00000    -999.25    -999.25    -999.25    -999.25    -999.25    -999.25    0.88490 1457.07840  -37.63730    0.87470
 5500.00000    0.25130    0.46770    2.21240   14.18600    0.04460   72.09300    1.07120 1142.06990  -34.17870    0.91730
 5550.00000    0.28750    0.46540    2.19850   13.48830    0.04230   79.99870    1.19980 1057.48190  -46.94020    1.11280
 5600.00000    0.16970    0.42880    2.40230   12.34110    0.09460   80.23180    2.24810  521.07700  -48.18770    1.95910
 5650.00000    0.16970    0.31060    2.39970    9.93920    0.03120   62.79150    5.18390  404.90710  -86.89060    2.31580
 5700.00000    0.15780    0.34060    2.41900   10.58910    0.05660   86.27750    2.33180  500.50240  -55.27350    1.81450
 5750.00000    0.26620    0.29880    2.21840    9.53490    0.01890   37.90700    2.18040 1349.40630 -104.77660    0.70430
 5800.00000    0.11960    0.27700    2.45520   10.35660    0.07820   80.23260    4.35280  423.70150  -59.60200    2.43610
 5850.00000    0.21090    0.31040    2.31170    9.82940    0.05350   90.69750    3.89540  592.94800 -100.37320    1.60150
 5900.00000    0.22810    0.27290    2.27620    9.78280    0.01730   62.79090    2.09870 1359.48120 -100.59700    1.39850
 5950.00000    0.19200    0.33060    2.33720    9.92240    0.04040   83.72170    3.77060  605.45940 -100.96880    2.48120
 6000.00000    0.14700    0.27100    2.38810    9.79840    0.05120   73.02330    2.68600  921.68680 -110.17210    1.47370
 6050.00000    0.26200    0.29650    2.23460    9.56590    0.00810   57.44170    3.67710  777.82130  -99.99730    2.32830
 6100.00000    0.15500    0.31880    2.40590    9.55040    0.06550   85.81450    3.45590  506.53280  -78.90540    1.86970
 6150.00000    0.14940    0.28770    2.42670   10.46500    0.03510   88.60460    3.39210  448.04220  -62.26330    1.93230
 6200.00000    0.19660    0.33740    2.36110   10.35660    0.05660   83.25580    3.37220  541.16130  -62.38810    1.92480
 6250.00000    0.09970    0.29650    2.51080   10.32560    0.04200   95.34730    2.34980  492.97110  -54.13160    2.18800
 6300.00000    0.23550    0.33920    2.26850   10.44970    0.05510   96.51160    1.78710  596.49290  -41.11860    1.58810
 6350.00000    0.16140    0.28120    2.40050    9.87590    0.03360   87.90620    6.47160  518.29660 -100.59880    1.95110
 6400.00000    0.21890    0.38970    2.29550   11.30220    0.06300   93.25580    1.68760  688.71520  -45.50900    1.50270
 6450.00000    0.14510    0.31640    2.44390   10.21710    0.08690   94.41780    3.05670  398.49620  -52.09580    2.24550
 6500.00000    0.07140    0.27850    2.56170   11.27140    0.10280   88.83630    3.76330  423.05680  -78.14370    2.24550
 6550.00000    0.18180    0.28920    2.40660   10.80610    0.02270   88.37210    3.96420  329.82500  -75.44910    2.81440
 6600.00000    0.18080    0.35720    2.37190   11.78290    0.07050   94.18530    2.05170  512.28160  -52.69460    2.00600
 6650.00000    0.14880    0.31170    2.42820   11.16280    0.03270   91.16150    2.18540  517.05510  -54.94000    2.00100
 6700.00000    0.23930    0.35770    2.24850   12.44960    0.05820   92.09230    2.42750  448.94890  -54.19160    2.15570
 6750.00000    0.13220    0.25110    2.46530    9.96690    0.02040  101.25580    3.75780  450.33990  -64.67110    2.04340
 6800.00000    0.10660    0.29330    2.49540    9.89150    0.02350   96.51160    3.02540  432.43240  -55.48860    2.24550
 6850.00000    0.11310    0.20660    2.50150    9.34880    0.06900   49.76740    6.84900  493.13430  -92.81440    1.91870
