~Version ---------------------------------------------------
VERS. 2.0 : CWLS log ASCII Standard -VERSION 2.0
WRAP. YES : Multiple lines per depth step
~Well ------------------------------------------------------
STRT.FT                    300.0 : START DEPTH
STOP.FT                  19600.0 : STOP DEPTH
STEP.FT                 50.00000 : STEP LENGTH
NULL.                    -999.25 : NULL VALUE
COMP. CITIES SERVICE OIL COMPANY : COMPANY
WELL.          PEELER RANCH A #1 : WELL
FLD .                    WILDCAT : FIELD
LOC .                            : LOCATION
CNTY.                   ATASCOSA : COUNTY
STAT.                      TEXAS : STATE
CTRY.   UNITED STATES OF AMERICA : COUNTRY
SRVC.               Schlumberger : SERVICE COMPANY
DATE.                12-Feb-1972 : LOGDATE
API .             42013301410000 : API NUMBER
UWI .             42013301410000 : UNIQUE WELL ID
SLAT.WGS84         28.6903618688 : SURFACE LATITUDE
SLON.WGS84        -98.4697337546 : SURFACE LONGITUDE
~Curve Information -----------------------------------------
DEPT  .FT    : DEPTH
ALL8ED.OHMM  : LATEROLOG-8 RESISTIVITY AMPLIFIED
ASNED .OHMM  : AMPLIFIED SHORT NORMAL 16 IN.
CALWS .IN    : CALIPER (CALSED)
CALSED.IN    : CALIPER FROM SONIC LOG (ADJ TO RES.)
CILDED.MMHO  : CONDUCTIVITY FROM LOG
CONDWS.MMHO  : CONDUCTIVITY (1000/DRESws)
DCORWS.G/C3  : DENSITY CORRECTION (DRHOED)
DENWS .G/C3  : BULK DENSITY  (RHOBED LS)
DPOWS .V/V   : DENSITY POROSITY (M=2.71 F=1 FROM DENws)
DRESWS.OHMM  : DEEP RESISTIVITY (IF ILDED<1, THEN 1000/CILDED)
DRHOED.G/C3  : DENSITY CORRECTION (ADJ TO RES.)
DTED  .US/F  : DELTA TIME  (ADJ TO RES.)
DTWS  .US/F  : DELTA TIME  (DTED)
GRDED .GAPI  : GAMMA RAY FROM DENSITY LOG (ADJ TO RES.)
GRWS  .GAPI  : GAMMA RAY (GRSED/GRDED @ 8498)
GRSED .GAPI  : GAMMA RAY FROM SONIC LOG (ADJ TO RES.)
ILDED .OHMM  : DEEP INDUCTION RESISTIVITY
NEUTED.CU    : NEUTRON FROM GAMMA RAY NEUTRON LOG (ADJ TO RES.)
NEUTWS.CU    : NEUTRON FROM GAMMA RAY NEUTRON LOG (NEUTED)
NPOWS .V/V   : NEUTRON POROSITY LIMESTONE (SNPED)
RHOBED.G/C3  : BULK DENSITY (ADJ TO RES.)
SNPED .V/V   : SIDEWALL NEUTRON POROSITY (ADJ TO RES.)
SPWS  .MV    : SPONTANEOUS POTENTIAL BASELINE 0 MV (SPRED)
SPRED .MMHO  : SPONTANEOUS POTENTIAL FROM RESISTIVITY
SRESWS.OHMM  : SHALLOW RESISTIVITY (ASNED/ALL8ED @ 12329)
~Params ----------------------------------------------------
PD  .                     GL : PERMANENT DATUM
EPD .F                   297 : ELEVATION PERMANENT DATUM
LMF .                     KB : LOG MEASURED FROM
DAPD.F                  30.5 : FEET ABOVE PERMANENT DATUM
DMF .                     KB : DRILLING MEASURED FROM
EKB .F                 327.5 : KELLING BUSHING
EDF .F                 326.5 : DRILLING FLOOR
EGL .F                   297 : GROUND LEVEL
DATE.             02-12-1972 : RUN DATE
RUN .                      9 : RUN NUMBER
DD  .F                 19629 : DEPTH DRILLER
DL  .F                 19635 : DEPTH LOGGER
BLI .F                 19628 : BOTTOM LOG INTERVAL
TLI .F                 19127 : TOP LOG INTERVAL
BS  .IN                  4.4 : BIT SIZE
BSD .F                 19629 : BIT SIZE AT DEPTH
DFT .       INVERMUL 43% OIL : DRILLING FLUID TYPE
DFD .                   19.1 : DRILLING FLUID DENSITY
DFV .                     88 : DRILLING FLUID VISCOSITY
TCS .HRS                  12 : TIME CURCULATED STOPPED
LUN .                   7504 : LOGGING UNIT NUMBER
LUL .                  PLEAS : LOGGING UNIT LOCATION
ENGI.               CLEMENTS : RECORDING ENGINEER
WITN.         GRIGSBY THOMAS : WITNESSED BY
CLNT.                A2DTECH : CLIENT CODE
ORIG.            2" 5" PRINT : ORIGIN OF DATA
UWI .         42013301410000 : UNIQUE WELL ID
DICO. A2D Technologies, Inc. : DIGITIZING COMPANY
~Other -----------------------------------------------------
~ASCII -----------------------------------------------------
# ...
 11500.00000    -999.25   11.59450   13.68000   13.68000   94.38580   99.84030    0.00380    2.68630    0.01390   10.01600    0.00380   51.21300   51.21300   16.50200   16.50200    -999.25   10.01600    -999.25    -999.25   -0.00050    2.68630   -0.00050  -29.42110 -113.80110   11.59450
 11550.00000    -999.25   19.10730   13.87900   13.87900   55.77690   53.33530   -0.00620    2.68180    0.01650   18.74930   -0.00620   51.23300   51.23300   11.89400   11.89400    -999.25   18.74930    -999.25    -999.25   -0.01340    2.68180   -0.01340  -18.62730 -106.33160   19.10730
 11600.00000    -999.25   40.03600   13.14400   13.14400   17.92830   17.92830    0.03850    2.70850    0.00090   55.77770    0.03850   55.32800   55.32800   27.48900   27.48900    -999.25    -999.25    -999.25    -999.25    0.02150    2.70850    0.02150   -6.41050  -97.43900   40.03600
 11650.00000    -999.25   23.56280   14.14900   14.14900    9.96020   15.15350    0.01940    2.66420    0.02680   65.99150    0.01940   50.63600   50.63600   14.14100   14.14100    -999.25   65.99150    -999.25    -999.25    0.00560    2.66420    0.00560  -19.27690 -107.65240   23.56280
 11700.00000    -999.25   23.36430   14.75600   14.75600   11.57070   13.32410   -0.02450    2.16140    0.32080   75.05180   -0.02450   50.11900   50.11900   14.81300   14.81300    -999.25   75.05180    -999.25    -999.25    0.45790    2.16140    0.45790  -23.89030 -108.71950   23.36430
 11750.00000    -999.25   27.13880   14.79800   14.79800   20.28030   20.28030    0.08050    2.43010    0.16370   49.30890    0.08050   52.18700   52.18700   14.98200   14.98200    -999.25    -999.25    -999.25    -999.25    0.21370    2.43010    0.21370  -29.72310 -111.00610   27.13880
 11800.00000    -999.25   27.61080   14.76200   14.76200   17.16960   17.16960    0.03970    2.63020    0.04670   58.24250    0.03970   51.15700   51.15700   12.08500   12.08500    -999.25    -999.25    -999.25    -999.25    0.16180    2.63020    0.16180  -29.55550 -107.29230   27.61080
 11850.00000    -999.25   40.61920   14.53500   14.53500    1.69320    1.69320    0.06110    2.61490    0.05560  590.59770    0.06110   51.78900   51.78900   19.71100   19.71100    -999.25    -999.25    -999.25    -999.25   -0.00650    2.61490   -0.00650  -20.65710  -94.84760   40.61920
 11900.00000    -999.25   28.16820   14.64800   14.64800   10.00000   20.83200    0.02800    2.60570    0.06100   48.00300    0.02800   52.36800   52.36800   13.59600   13.59600    -999.25   48.00300    -999.25    -999.25    0.05520    2.60570    0.05520  -24.05080  -94.69510   28.16820
 11950.00000    -999.25   26.56600   14.75500   14.75500    9.36250   10.05920    0.03800    2.58250    0.07460   99.41100    0.03800   50.35800   50.35800   16.15200   16.15200    -999.25   99.41100    -999.25    -999.25    0.06300    2.58250    0.06300  -27.44460  -94.54270   26.56600
 12000.00000    -999.25   27.38450   14.67600   14.67600   10.00000    1.99240    0.07820    2.55500    0.09060  501.90700    0.07820   52.09900   52.09900   12.27100   12.27100    -999.25  501.90700    -999.25    -999.25    0.06850    2.55500    0.06850  -27.78970  -91.34150   27.38450
 12050.00000    -999.25   24.82980   13.65600   13.65600   11.55380   21.25470    0.08380    2.57470    0.07910   47.04850    0.08380   51.51100   51.51100   15.46900   15.46900    -999.25   47.04850    -999.25    -999.25   -0.01130    2.57470   -0.01130  -34.68950  -94.69510   24.82980
 12100.00000    -999.25   23.57570   13.84400   13.84400   57.81350   52.05970    0.01890    2.56560    0.08440   19.20870    0.01890   53.71800   53.71800   19.99700   19.99700    -999.25   19.20870    -999.25    -999.25    0.17980    2.56560    0.17980  -31.22350  -87.68290   23.57570
 12150.00000    -999.25   37.18280   14.63900   14.63900   57.08900   34.62360    0.00020    2.08780    0.36390   28.88200    0.00020   47.40100   47.40100   21.24100   21.24100    -999.25   28.88200    -999.25    -999.25    0.25220    2.08780    0.25220  -23.38770  -76.30080   37.18280
 12200.00000    -999.25   35.53750   13.20300   13.20300   20.83670   12.38460    0.03880    2.23500    0.27780   80.74520    0.03880   52.22700   52.22700   21.20200   21.20200    -999.25   80.74520    -999.25    -999.25    0.01750    2.23500    0.01750   -8.52600  -57.89290   35.53750
 12250.00000    -999.25   32.56480   13.84300   13.84300   27.49000   23.68410    0.02160    2.73670   -0.01560   42.22250    0.02160   56.72000   56.72000   40.95900   40.95900    -999.25   42.22250    -999.25    -999.25    0.03040    2.73670    0.03040   -0.25990  -39.20730   32.56480
 12300.00000    -999.25   15.82570   14.47900   14.47900   17.13150   48.60390   -0.05340    1.83350    0.51260   20.57450   -0.05340   79.90100   79.90100   37.85100   37.85100    -999.25   20.57450    -999.25    -999.25    0.45090    1.83350    0.45090  -21.69850  -39.31030   15.82570
 12350.00000    5.82030    -999.25   14.68200   14.68200  139.00560  102.63570   -0.02860    1.99310    0.41920    9.74320   -0.02860   79.14500   79.14500   41.27500   41.27500    -999.25    9.74320    -999.25    -999.25    0.45650    1.99310    0.45650  -10.24550  -12.50030    5.82030
 12400.00000    6.90930    -999.25   13.97400   13.97400   65.98290   99.07560    0.05240    2.41900    0.17020   10.09330    0.05240   71.78540   71.78540   55.51100   55.51100    -999.25   10.09330    -999.25    -999.25    0.22310    2.41900    0.22310   -9.43480  -13.10980    6.90930
 12450.00000   22.18300    -999.25   13.91700   13.91700   10.75700   15.85080    0.03110    2.59850    0.06520   63.08820    0.03110   66.77900   66.77900   49.13400   49.13400    -999.25   63.08820    -999.25    -999.25    0.10790    2.59850    0.10790   -9.31020  -14.40550   22.18300
 12500.00000   11.85750    -999.25   14.07800   14.07800   71.31470   71.31470    0.07430    2.42990    0.16380   14.02240    0.07430   73.24400   73.24400   58.10800   58.10800    -999.25    -999.25    -999.25    -999.25    0.21860    2.42990    0.21860   -7.96610  -14.48170   11.85750
 12550.00000    8.21970    -999.25   13.91500   13.91500   56.15940   56.15940    0.03490    2.33920    0.21680   17.80650    0.03490   62.30530   62.30530   28.83200   28.83200    -999.25    -999.25    -999.25    -999.25    0.29780    2.33920    0.29780   -8.75620  -16.69210    8.21970
 12600.00000    7.12630    -999.25   13.58300   13.58300   53.52570   53.52570    0.04570    2.68550    0.01430   18.68260    0.04570   58.28090   58.28090   57.34000   57.34000    -999.25    -999.25    -999.25    -999.25    0.10490    2.68550    0.10490   -3.94920  -13.30530    7.12630
 12650.00000    9.67500    -999.25   13.97800   13.97800   82.07170   53.32340    -999.25    -999.25    -999.25   18.75350    -999.25   65.95220   65.95220   39.76100   39.76100    -999.25   18.75350    -999.25    -999.25    0.25490    -999.25    0.25490   -3.85770  -14.63410    9.67500
 12700.00000   14.31950    -999.25   13.96600   13.96600   38.59960   47.11430    0.00860    2.74490   -0.02040   21.22500    0.00860   57.09100   57.09100   26.99100   26.99100    -999.25   21.22500    -999.25    -999.25   -0.02890    2.74490   -0.02890  -14.29580  -26.01590   14.31950
 12750.00000    8.10120    -999.25   14.02200   14.02200   52.03540   36.10240    0.01770    2.63190    0.04570   27.69900    0.01770   54.21500   54.21500   22.37900   22.37900    -999.25   27.69900    -999.25    -999.25    0.00060    2.63190    0.00060  -38.79330  -50.60980    8.10120
 12800.00000    6.22800    -999.25   13.91000   13.91000   70.41630   59.62920   -0.02220    2.40550    0.17810   16.77030   -0.02220   50.83500   50.83500   20.37400   20.37400    -999.25   16.77030    -999.25    -999.25    0.12710    2.40550    0.12710  -42.77400  -54.68690    6.22800
 12850.00000   18.47270    -999.25   13.86400   13.86400   23.64670   14.68400   -0.01600    2.73030   -0.01190   68.10150   -0.01600   49.04600   49.04600   22.92500   22.92500    -999.25   68.10150    -999.25    -999.25   -0.02340    2.73030   -0.02340  -38.87950  -50.88890   18.47270
