~Version ---------------------------------------------------
VERS.      2.0 : CWLS log ASCII Standard -VERSION 2.0
WRAP.      YES : Multiple lines per depth step
CREA. 06/26/18 : LAS Creation Date
~Well ------------------------------------------------------
STRT.FT                 1950.0 : START DEPTH
STOP.FT                10950.0 : STOP DEPTH
STEP.FT               50.00000 : STEP LENGTH
NULL.                  -999.25 : NULL VALUE
COMP.            DIRNETT, INC. : COMPANY
WELL.     ESCHENBURG POLLOK #1 : WELL
FLD .                  FASHING : FIELD
LOC .                          : LOCATION
CNTY.                 ATASCOSA : COUNTY
STAT.                    TEXAS : STATE
CTRY. UNITED STATES OF AMERICA : COUNTRY
SRVC.             Schlumberger : SERVICE COMPANY
DATE.              23-Aug-1996 : LOGDATE
API .           42013340590000 : API NUMBER
UWI .           42013340590000 : UNIQUE WELL ID
SLAT.WGS84       28.7834983741 : SURFACE LATITUDE
SLON.WGS84      -98.2167863068 : SURFACE LONGITUDE
~Curve Information -----------------------------------------
DEPT    .FT    : DEPTH FEET
CALWS   .IN    : CALIPER [DCALED+BIT]
CONDWS  .MMHO  : DEEP CONDUCTIVITY [1000/DRESWS]
DCALED  .IN    : DIFFERENTIAL CALIPER FROM PHI/LDT/CNL LOG
DCORWS  .G/C3  : DENSITY CORRECTION [DRHOED]
DENWS   .G/C3  : BULK DENSITY [CALC. TOP DPHISSED 9493.5' DPHILSED]
DPHILSED.V/V   : DENSITY POROSITY (LS) [M=2.71 F=1.0] FROM PHI/LDT/CNL LOG
DPHISSED.V/V   : DENSITY POROSITY (SS) [M=2.65 F=1.0] FROM PHI/LDT/CNL LOG
DPOLSWS .V/V   : DENSITY POROSITY LIMESTONE [M=2.71 F=1.0] [CALC. FROM DENWS]
DRESWS  .OHMM  : DEEP RESISTIVITY [IDPHED]
DRHOED  .G/C3  : DENSITY CORRECTION FROM DENSITY LOG
GRRED   .GAPI  : GAMMA RAY FROM RESISTIVITY LOG
GRWS    .GAPI  : GAMMA RAY [GRRED]
IDPHED  .OHMM  : INDUCTION DEEP PHASE RESISTIVITY
IMPHED  .OHMM  : INDUCTION MEDIUM PHASE RESISTIVITY
MRESWS  .OHMM  : MEDIUM RESISTIVITY [IMPHED]
NPHILSED.V/V   : NEUTRON POROSITY LIMESTONE FROM PHI/LDT/CNL LOG
NPHISSED.V/V   : NEUTRON POROSITY SANDSTONE FROM PHI/LDT/CNL LOG
NPOLSWS .V/V   : NEUTRON POROSITY LIMESTONE [TOP CONVERSE NPHISSED TO LIME FROM POWER LOG 9494' NPHILSED]
SFLUED  .OHMM  : SPHERICALLY FOCUSED LOG RESISTIVITY
SPRED   .MV    : SPONTANEOUS POTENTIAL FROM PHI/LDT/CNL LOG
SPWS    .MV    : SPONTANEOUS POTENTIAL [BASELINE 0 MV] [SPRED]
SRESWS  .OHMM  : SHALLOW RESISTIVITY [SFLUED]
~Params ----------------------------------------------------
PD  .                     GL : PERMANENT DATUM
EPD .FT                411.5 : ELEVATION PERMANENT DATUM
LMF .                     KB : LOG MEASURED FROM
DAPD.FT                 19.5 : FEET ABOVE PERMANENT DATUM
DMF .                     KB : DRILLING MEASURED FROM
EKB .FT                  431 : KELLY BUSHING
EDF .FT                  430 : DRILLING FLOOR
EGL .FT                411.5 : GROUND LEVEL
DATE.               08/23/96 : RUN DATE
RUN .                      1 : RUN NUMBER
DD  .FT                11000 : DEPTH DRILLER
DL  .FT                10988 : DEPTH LOGGER
BLI .FT                10970 : BOTTOM LOG INTERVAL
TLI .FT                 2006 : TOP LOG INTERVAL
CS  .IN                8.625 : CASING SIZE
CBD .FT                 2016 : CASING BOTTOM DRILLER
CBL .FT                 2008 : CASING BOTTOM LOGGER
BS  .IN                7.875 : BIT SIZE
BSD .FT                11000 : BIT SIZE AT DEPTH
DFT .                    LIG : DRILLING FLUID TYPE
DFD .                   10.2 : DRILLING FLUID DENSITY
DFV .                     48 : DRILLING FLUID VISCOSITY
DFPH.                   11.3 : DRILLING FLUID PH
DFL .                    5.8 : DRILLING FLUID LOSS
MSS .               MUD TANK : MUD SAMPLE SOURCE
RMS .OHMM               1.83 : RESISTIVITY MUD SAMPLE
MST .FT                   75 : MUD SAMPLE TEMPERATURE
RMF .OHMM               1.48 : RESISTIVITY MUD FILTRATE SAMPLE
MFST.FT                   75 : MUD FILTRATE SAMPLE TEMPERATURE
RMC .OHMM               2.45 : RESISTIVITY MUD CAKE
MCST.FT                   75 : MUD CAKE SAMPLE TEMPERATURE
MFSS.                   MEAS : MUD FILTRATE SAMPLE SOURCE
MCSS.                   CALC : MUD CAKE SAMPLE SOURCE
RMB .OHMM              0.473 : RESISTIVITY MUD AT BHT
TCS .HRS                1200 : TIME CURCULATED STOPPED
TLAB.HRS                2000 : TIME LOGGER AT BOTTOM
LUN .                   2017 : LOGGING UNIT NUMBER
LUL .               VICTORIA : LOGGING UNIT LOCATION
ENGI.            JOHN GAMBLE : RECORDING ENGINEER
WITN.  J FISHER J JOHNSON JR : WITNESSED BY
CLNT.                A2DTECH : CLIENT CODE
ORIG.               5" PRINT : ORIGIN OF DATA
UWI .         42013340590000 : UNIQUE WELL ID
DICO. A2D Technologies, Inc. : DIGITIZING COMPANY
~Other -----------------------------------------------------
REMOVED ALL RESISTIVITY FROM 3804' - 3814' DUE TO INVALID DATA.
~ASCII -----------------------------------------------------
 1950.00000    -999.25    -999.25    -999.25    -999.25    -999.25    -999.25    -999.25    -999.25    -999.25    -999.25   66.34180   66.34180    -999.25    -999.25    -999.25    -999.25    -999.25    -999.25    -999.25    -999.25    -999.25    -999.25
 2000.00000    -999.25    -999.25    -999.25    -999.25    -999.25    -999.25    -999.25    -999.25    -999.25    -999.25   57.66500   57.66500    -999.25    -999.25    -999.25    -999.25    -999.25    -999.25    -999.25    -999.25    -999.25    -999.25
 2050.00000    2.73290  610.27710   -5.14210    -999.25    -999.25    -999.25    -999.25    -999.25    1.63860    -999.25   69.49030   69.49030    1.63860    1.52750    1.52750    -999.25    -999.25    -999.25    1.55090    3.33370   -4.91380    1.55090
 2100.00000    2.73300  294.79390   -5.14200    -999.25    -999.25    -999.25    -999.25    -999.25    3.39220    -999.25   44.97790   44.97790    3.39220    4.88510    4.88510    -999.25    -999.25    -999.25    6.13200  -36.22950  -43.76970    6.13200
 2150.00000   13.16650  493.19390    5.29150    -999.25    -999.25    -999.25    -999.25    -999.25    2.02760    -999.25   71.06450   71.06450    2.02760    2.10380    2.10380    -999.25    -999.25    -999.25    2.18690  -14.18400  -21.01700    2.18690
 2200.00000   14.78080  535.56130    6.90580    -999.25    -999.25    -999.25    -999.25    -999.25    1.86720    -999.25   75.55980   75.55980    1.86720    1.84040    1.84040    -999.25    -999.25    -999.25    1.88680   -1.24980   -7.37560    1.88680
 2250.00000   13.46150  825.83200    5.58650    -999.25    -999.25    -999.25    -999.25    -999.25    1.21090    -999.25   81.67360   81.67360    1.21090    1.08940    1.08940    -999.25    -999.25    -999.25    1.02670    0.33930   -5.07930    1.02670
 2300.00000   12.12010  936.94370    4.24510    -999.25    -999.25    -999.25    -999.25    -999.25    1.06730    -999.25   82.72060   82.72060    1.06730    1.01970    1.01970    -999.25    -999.25    -999.25    1.07210    0.55070   -4.16060    1.07210
 2350.00000   11.61190  686.43600    3.73690    -999.25    -999.25    -999.25    -999.25    -999.25    1.45680    -999.25   63.44400   63.44400    1.45680    1.74310    1.74310    -999.25    -999.25    -999.25    2.58020  -12.26970  -16.27380    2.58020
 2400.00000   11.43250  331.53200    3.55750    -999.25    -999.25    -999.25    -999.25    -999.25    3.01630    -999.25   47.22790   47.22790    3.01630    3.67310    3.67310    -999.25    -999.25    -999.25    4.20900  -28.77060  -32.06750    4.20900
 2450.00000   11.40050  393.09720    3.52550    -999.25    -999.25    -999.25    -999.25    -999.25    2.54390    -999.25   46.88860   46.88860    2.54390    2.66860    2.66860    -999.25    -999.25    -999.25    3.68720  -25.19680  -27.78640    3.68720
 2500.00000   10.56570  340.34440    2.69070    -999.25    -999.25    -999.25    -999.25    -999.25    2.93820    -999.25   76.42670   76.42670    2.93820    3.10120    3.10120    -999.25    -999.25    -999.25    3.07330  -26.29730  -28.17970    3.07330
 2550.00000   11.96290  502.05840    4.08790    -999.25    -999.25    -999.25    -999.25    -999.25    1.99180    -999.25   73.76310   73.76310    1.99180    2.06990    2.06990    -999.25    -999.25    -999.25    2.07000  -13.19140  -14.36660    2.07000
 2600.00000   10.71520  330.57850    2.84020    -999.25    -999.25    -999.25    -999.25    -999.25    3.02500    -999.25   67.09970   67.09970    3.02500    3.89570    3.89570    -999.25    -999.25    -999.25    4.51380  -36.41790  -36.88580    4.51380
 2650.00000   11.78200  486.90230    3.90700    -999.25    -999.25    -999.25    -999.25    -999.25    2.05380    -999.25   89.50520   89.50520    2.05380    2.02760    2.02760    -999.25    -999.25    -999.25    2.18790  -17.22380  -16.98450    2.18790
 2700.00000   10.34790  379.80930    2.47290    -999.25    -999.25    -999.25    -999.25    -999.25    2.63290    -999.25   75.45080   75.45080    2.63290    3.03950    3.03950    -999.25    -999.25    -999.25    3.83580  -31.46940  -30.52290    3.83580
 2750.00000   10.50580  349.73590    2.63080    -999.25    -999.25    -999.25    -999.25    -999.25    2.85930    -999.25  186.87910  186.87910    2.85930    4.00430    4.00430    -999.25    -999.25    -999.25    5.88420  -47.83390  -46.18010    5.88420
 2800.00000   10.25260  464.08020    2.37760    -999.25    -999.25    -999.25    -999.25    -999.25    2.15480    -999.25   96.02610   96.02610    2.15480    2.55240    2.55240    -999.25    -999.25    -999.25    3.68720  -28.52060  -26.15960    3.68720
 2850.00000   12.00060  513.61070    4.12560    -999.25    -999.25    -999.25    -999.25    -999.25    1.94700    -999.25   75.66460   75.66460    1.94700    1.97000    1.97000    -999.25    -999.25    -999.25    1.93780  -14.96610  -11.89790    1.93780
 2900.00000   10.11740  428.02720    2.24240    -999.25    -999.25    -999.25    -999.25    -999.25    2.33630    -999.25   57.27150   57.27150    2.33630    2.44540    2.44540    -999.25    -999.25    -999.25    2.97660  -34.63560  -30.86010    2.97660
 2950.00000   11.77270  866.55110    3.89770    -999.25    -999.25    -999.25    -999.25    -999.25    1.15400    -999.25   90.62970   90.62970    1.15400    1.14740    1.14740    -999.25    -999.25    -999.25    1.29710   -7.88920   -3.40650    1.29710
 3000.00000   10.05740  466.78800    2.18240    -999.25    -999.25    -999.25    -999.25    -999.25    2.14230    -999.25   89.05330   89.05330    2.14230    2.29470    2.29470    -999.25    -999.25    -999.25    2.42430  -28.48880  -24.10200    2.42430
 3050.00000   11.04390  593.75370    3.16890    -999.25    -999.25    -999.25    -999.25    -999.25    1.68420    -999.25   88.38260   88.38260    1.68420    1.67480    1.67480    -999.25    -999.25    -999.25    1.44790  -17.73530  -13.82220    1.44790
 3100.00000   10.26690  475.33040    2.39190    -999.25    -999.25    -999.25    -999.25    -999.25    2.10380    -999.25   69.49080   69.49080    2.10380    2.05070    2.05070    -999.25    -999.25    -999.25    3.89570  -23.48890  -20.04960    3.89570
 3150.00000   12.06040  476.89450    4.18540    -999.25    -999.25    -999.25    -999.25    -999.25    2.09690    -999.25   84.33280   84.33280    2.09690    2.06880    2.06880    -999.25    -999.25    -999.25    1.66520  -11.58500   -8.61950    1.66520
 3200.00000   11.51480  426.89430    3.63980    -999.25    -999.25    -999.25    -999.25    -999.25    2.34250    -999.25   89.95560   89.95560    2.34250    2.29470    2.29470    -999.25    -999.25    -999.25    2.68780  -21.25280  -18.76110    2.68780
 3250.00000   10.89540  352.14990    3.02040    -999.25    -999.25    -999.25    -999.25    -999.25    2.83970    -999.25   81.63850   81.63850    2.83970    2.85680    2.85680    -999.25    -999.25    -999.25    3.06750  -21.81580  -19.79780    3.06750
 3300.00000   11.75360  830.01330    3.87860    -999.25    -999.25    -999.25    -999.25    -999.25    1.20480    -999.25   84.10790   84.10790    1.20480    1.18950    1.18950    -999.25    -999.25    -999.25    1.16200   -6.94680   -5.40260    1.16200
 3350.00000    8.50280  803.40640    0.62780    -999.25    -999.25    -999.25    -999.25    -999.25    1.24470    -999.25   87.93100   87.93100    1.24470    1.24470    1.24470    -999.25    -999.25    -999.25    1.43800   -5.84740   -4.77700    1.43800
 3400.00000   11.03390  432.78800    3.15890    -999.25    -999.25    -999.25    -999.25    -999.25    2.31060    -999.25   74.55070   74.55070    2.31060    2.10600    2.10600    -999.25    -999.25    -999.25    2.02770  -10.21950   -9.62290    2.02770
 3450.00000   11.13360  600.06000    3.25860    -999.25    -999.25    -999.25    -999.25    -999.25    1.66650    -999.25   82.41020   82.41020    1.66650    1.63240    1.63240    -999.25    -999.25    -999.25    2.34260   -5.24950   -5.12660    2.34260
 3500.00000   10.38620  698.17780    2.51120    0.00710    2.13360    -999.25    0.31300    0.33710    1.43230    0.00710   86.45210   86.45210    1.43230    1.37440    1.37440    -999.25    0.50300    0.46330    1.29700   -4.88400   -5.23490    1.29700
