~Version ---------------------------------------------------
VERS. 2.0 : CWLS log ASCII Standard -VERSION 2.0
WRAP.  NO : ONE LINE PER DEPTH STEP
~Well ------------------------------------------------------
STRT.F                  3350.0 : START DEPTH
STOP.F                  7950.0 : STOP DEPTH
STEP.F                50.00000 : STEP LENGTH
NULL.                  -999.25 : NULL VALUE
COMP. AMOCO PRODUCTION COMPANY : COMPANY
WELL.      VINCE COURT UNIT #1 : WELL
FLD .              KURTEN-BUDA : FIELD
LOC .                          : LOCATION
CNTY.                   BRAZOS : COUNTY
STAT.                    TEXAS : STATE
CTRY. UNITED STATES OF AMERICA : COUNTRY
SRVC.                          : SERVICE COMPANY
DATE.                          : LOGDATE
API .           42041311980000 : API NUMBER
UWI .           42041311980000 : UNIQUE WELL ID
SLAT.WGS84       30.6431592207 : SURFACE LATITUDE
SLON.WGS84      -96.5350556976 : SURFACE LONGITUDE
~Curve Information -----------------------------------------
DEPT.F                 : 
TEND.LBS  45 635 01 00 : TENSION FROM DENSITY LOG
CALD.IN   45 280 60 00 : CALIPER FROM DENSITY LOG
CORR.G/C3 45 356 01 00 : DENSITY CORRECTION
RHOB.G/C3 45 350 01 00 : BULK DENSITY
GRD .GAPI 45 310 01 00 : GAMMA RAY FROM DENSITY LOG
NPOR.DEC  42 890 01 00 : ALPHA PROCESSED NEUTRON POROSITY
TENR.LBS  07 635 01 00 : TENSION FROM RESISTIVITY
SPR .MV   07 010 01 00 : SPONTANEOUS POTENTIAL
ILM .OHMM 07 120 44 00 : INDUCTION LOG MEDIUM RESISTIVITY
ILD .OHMM 07 120 46 00 : DEEP INDUCTION RESISTIVITY
SGRD.OHMM 07 220 05 00 : SHALLOW SHORT GUARD RESISTIVITY
~Params ----------------------------------------------------
EKB .F                 256.6 : KELLY BUSHING
EGL .F                 241.1 : ELEVATION GROUND LEVEL
EDF .F                 255.6 : ELEVATION DERRICK FLOOR
EPD .F                 241.1 : ELEVATION PERMANENT DATUM
TD  .F                7937.0 : TOTAL DEPTH
DATE.            30-OCT-1984 : DATE LOGGED
CLNT.                A2DTECH : CLIENT CODE
SL  . 660' FNEL & 5270' FNWL : SURFACE LOCATION
PD  .                     GL : PERMANENT DATUM
LMF .                    TKB : LOG MEASURED FROM
DMF .                    TKB : DRILLING MEASURED FROM
DAPD.F                  14.5 : FEET ABOVE PERMANENT DATUM
DD  .F                  7937 : DEPTH DRILLER
DL  .F                  7954 : DEPTH LOGGER
BLI .F                  7952 : BOTTOM LOG INTERVAL
TLI .F                  3384 : TOP LOG INTERVAL
CS1 .IN                8.625 : CASING SIZE
CBD1.         8.625" @ 3360' : CASING DRILLER 1
CBL1.F                  3384 : CASING LOGGER 1
BS1 .IN                7.875 : BIT SIZE
BSD1.F                  7937 : DEPTH DRILLED WITH BIT1
DFT .            POLYMER MUD : TYPE FLUID IN HOLE
DFD .                    9.4 : DENSITY
DFV .                     42 : VISCOSITY
DFPH.                    9.2 : PH
DFL .                    6.2 : FLUID LOSS
MSS .               FLOWLINE : SOURCE OF SAMPLE
RMS .OHMM               3.94 : RM
RMF .OHMM               4.18 : RMF
RMC .OHMM               3.33 : RMC
MFSS.                   MEAS : SOURCE RMF.
MCSS.                   MEAS : SOURCE RMC.
RMB .OHMM               1.54 : RM. AT BHT
BHT .F                   210 : BHT.
TCS .HRS                   3 : TIME CIRC. STOPPED
TLAB.HRS                 155 : TIME LOGGER AT BOTTOM
LUN .                   2909 : LOGGING UNIT NUMBER
LUL .                  BRYAN : LOGGING UNIT LOCATION
ENGI.                 MCENCY : RECORDED BY
WITN.               SEPAOLIS : WITNESSED BY
ORIG.               5" PRINT : ORIGIN OF DATA
UWI .         42041311980000 : UNIQUE WELL ID
DICO. A2D TECHNOLOGIES, INC. : DIGITIZING COMPANY
~Other -----------------------------------------------------
~ASCII -----------------------------------------------------
# ...
 6400.00000 1796.18990    8.93900    0.20300    2.47500  101.40700    0.28100 1578.59400 -124.36300    1.90700    1.73200    1.95000
 6450.00000 1778.62600    9.25000    0.10900    2.34900  124.28100    0.28200 1575.81800 -123.67700    2.24800    2.10200    2.40700
 6500.00000 1775.65410    9.92000    0.11900    2.43600  102.54900    0.27800 1570.86210 -122.62200    1.84700    1.65500    1.86800
 6550.00000 1784.97900    9.70700    0.14300    2.41300  106.40600    0.28700 1570.94300 -123.21300    1.67800    1.53500    1.73400
 6600.00000 1769.98800    9.84600    0.13500    2.47800  101.79800    0.28600 1580.77290 -123.61100    1.65800    1.51500    1.68500
 6650.00000 1825.99000    9.27500    0.14000    2.47500   92.26800    0.29000 1580.77290 -122.77600    1.88100    1.73200    1.92900
 6700.00000 1807.89000    8.94700    0.15900    2.47600  103.53600    0.29800 1650.14900 -122.56800    1.78500    1.65000    1.84600
 6750.00000 1775.65410    8.40500    0.18200    2.48400  102.29900    0.28000 1657.07300 -122.11200    1.95600    1.79700    2.03900
 6800.00000 1845.53500    8.34800    0.16100    2.44100  102.12200    0.29300 1667.99000 -122.96400    1.77800    1.62800    1.83800
 6850.00000 1916.49900    8.81700    0.14500    2.49200   99.43200    0.28700 1660.05900 -123.21400    1.66400    1.51100    1.74500
 6900.00000 1846.07600    8.65000    0.14700    2.45200  109.29500    0.29200 1662.93700 -121.23000    1.73600    1.61700    1.87800
 6950.00000 1869.49800    8.92800    0.13400    2.49000   97.17000    0.29300 1661.25810 -121.80400    1.60600    1.46600    1.69000
 7000.00000 1846.07600    8.89100    0.13600    2.49100  103.26800    0.29300 1666.23800 -121.99700    1.55800    1.44000    1.68400
 7050.00000 1846.07600    8.67000    0.14000    2.49300   89.30300    0.25400 1680.78300 -120.04000    1.75400    1.61600    1.89800
 7100.00000 1921.54900    8.06400    0.05600    2.57500   79.73700    0.23200 1721.91300 -115.19200    2.33700    2.19500    2.56400
 7150.00000 1852.03600    8.65800    0.11100    2.45500  116.48600    0.21500 1737.10400 -120.36300    2.02300    1.89800    2.33500
 7200.00000 1965.36000    8.18400    0.07600    2.18400   52.23200    0.09800 1734.01700 -124.16300    6.39700    5.77900    6.50800
 7250.00000 1964.13000    8.27400    0.12300    2.01400   23.44500    0.11300 1756.15910 -144.95500   38.23800   33.95900   40.62400
 7300.00000    -999.25    -999.25    -999.25    -999.25    -999.25    0.11800 1763.05900 -157.42300   12.25700   10.08600   15.07100
 7350.00000 1844.22090   13.56600    0.16800    2.42600  112.87600    0.25300 1755.67100 -125.91100    1.35800    1.26400    1.53300
 7400.00000 1871.72000   13.36400    0.16700    2.40900  114.24600    0.25000 1754.34400 -126.38900    1.61000    1.47700    1.74800
 7450.00000 1884.42200   10.09400    0.07700    2.48500   92.48900    0.25900 1755.20700 -114.62200    2.39500    2.19600    2.96800
 7500.00000 1950.06300    8.60500    0.05900    2.50100  117.36100    0.25900 1756.14600 -111.31400    3.82700    3.49800    5.87700
 7550.00000 1928.72900    8.19200    0.09000    2.49100  103.63800    0.27300 1779.34090 -110.09300    4.59100    4.01200    7.06500
 7600.00000 1954.77400    8.70400    0.13700    2.18000  130.38600    0.27300 1812.55300 -121.49700    3.90300    3.38800    7.29200
 7650.00000 1946.86690   14.33900    0.12200    2.00600   89.75400    0.32300 1802.10800 -131.85500    2.38800    2.61200    3.56300
 7700.00000 1964.82400    9.81100    0.03000    2.67400   38.60900    0.08800 1790.28800 -117.97300    6.75000    6.10500    7.00500
 7750.00000 1958.08500    8.79800    0.08500    2.63600   20.00700    0.02600 1785.56010 -130.46500   24.18800   23.15200   23.57200
 7800.00000 1980.66600    8.53900    0.05000    2.67600   27.95000    0.03200 1850.55700 -138.71400   23.35700   23.31600   23.03600
 7850.00000 2024.48500    7.86000    0.01600    2.63100   18.11300    0.02700 1848.81100 -140.81500   36.90600   39.91100   33.95900
 7900.00000 2055.27590    7.32700    0.04500    2.70500   19.88900    0.01800 1863.75500 -147.94800   61.46700   59.85000   61.46700
 7950.00000 2035.17600    6.75600    0.13600    2.72100    -999.25    -999.25 1851.73600 -108.53300   14.97800   13.08700   19.41600
