~Version ---------------------------------------------------
VERS. 2.0 : CWLS log ASCII Standard -VERSION 2.0
WRAP. YES : MULTIPLE LINES PER DEPTH STEP
~Well ------------------------------------------------------
STRT.FT                   950.0 : START DEPTH
STOP.FT                  8250.0 : STOP DEPTH
STEP.FT                50.00000 : STEP LENGTH
NULL.                   -999.25 : NULL VALUE
COMP. PRAIRIE PRODUCING COMPANY : COMPANY
WELL.       SPETTEL BENDELE  #1 : WELL
FLD .                        WC : FIELD
LOC .                           : LOCATION
CNTY.                      FRIO : COUNTY
STAT.                     TEXAS : STATE
CTRY.  UNITED STATES OF AMERICA : COUNTRY
SRVC.              Schlumberger : SERVICE COMPANY
DATE.               05-Sep-1976 : LOGDATE
API .            42163306230000 : API NUMBER
UWI .            42163306230000 : UNIQUE WELL ID
SLAT.WGS84        28.6473106988 : SURFACE LATITUDE
SLON.WGS84       -98.9591866936 : SURFACE LONGITUDE
~Curve Information -----------------------------------------
DEPT    .FT    : DEPTH FEET
CALDED  .IN    : CALIPER FROM DENSITY LOG [DEP ADJ TO SPRED]
CALWS   .IN    : CALIPER [CALDED]
CONDWS  .MMHO  : CONDUCTIVITY [1000/DRESWS]
CORRED  .G/C3  : DENSITY CORRECTION FROM DENSITY LOG [DEP ADJ TO SPRED]
DCORWS  .G/C3  : DENSITY CORRECTION [CORRED]
DENWS   .G/C3  : BULK DENSITY [M=2.71 F=1.0] [RHOBED]
DPHILSED.V/V   : DENSITY POROSITY [M=2.71 F=1.0] FROM DENSITY LOG [DEP ADJ TO SPRED]
DPHISSED.V/V   : DENSITY POROSITY [M=2.65 F=1.0, MIGHT BE 2.68 MIDDLE SECTION] FROM DENSITY LOG [DEP ADJ TO SPRED]
DPOLSWS .V/V   : DENSITY POROSITY [M=2.71 F=1.0] [CAL FR DENWS]
DRESWS  .OHMM  : DEEP RESISTIVITY [ILDED]
GRDED   .GAPI  : GAMMA RAY FROM DENSITY LOG [DEP ADJ TO SPRED]
GRWS    .GAPI  : GAMMA RAY [GRDED]
ILDED   .OHMM  : INDUCTION LOG DEEP RESISTIVITY
ILMED   .OHMM  : INDUCTION LOG MEDIUM RESISTIVITY
LL8ED   .OHMM  : 8 INCH LATEROLOG RESISTIVITY
MRESWS  .OHMM  : MEDIUM RESISTIVITY [ILMED]
NPHILSED.V/V   : NEUTRON POROSITY LIMESTONE FROM DENSITY LOG [DEP ADJ TO SPRED]
NPHISSED.V/V   : NEUTRON POROSITY SANDSTONE FROM DENSITY LOG [DEP ADJ TO SPRED]
NPOLSWS .V/V   : NEUTRON POROSITY LIMESTONE [901 NPOLSCAL 7482 NPHILSED][NPHISSED IS CONVERTED TO NPOLSCAL USING POWERLOG MODULE]
RHOBED  .G/C3  : BULK DENSITY FROM DENSITY LOG [DEP ADJ TO SPRED/DPHIED]
SPRED   .MV    : SPONTANEOUS POTENTIAL FROM RESISTIVITY LOG
SPWS    .MV    : SPONTANEOUS POTENTIAL [BASELINE 0 MV] [SPRED]
SRESWS  .OHMM  : SHALLOW RESISTIVITY [LL8ED]
~Params ----------------------------------------------------
PD  .                     GL : PERMANENT DATUM
EPD .FT                446.5 : ELEVATION PERMANENT DATUM
LMF .                     KB : LOG MEASURED FROM
DAPD.FT                 13.2 : FEET ABOVE PERMANENT DATUM
DMF .                     KB : DRILLING MEASURED FROM
EKB .FT                459.7 : KELLY BUSHING
EDF .FT                458.7 : DRILLING FLOOR
EGL .FT                446.5 : GROUND LEVEL
DATE.               09/05/76 : RUN DATE
RUN .                      1 : RUN NUMBER
DD  .FT                 8269 : DEPTH DRILLER
DL  .FT                 8262 : DEPTH LOGGER
BLI .FT                 8261 : BOTTOM LOG INTERVAL
TLI .FT                  935 : TOP LOG INTERVAL
CS  .IN                9.625 : CASING SIZE
CBD .FT                  925 : CASING BOTTOM DRILLER
CBL .FT                  935 : CASING BOTTOM LOGGER
BS  .IN                  8.5 : BIT SIZE
BSD .FT                 8269 : BIT SIZE AT DEPTH
DFT .              SPER TANN : DRILLING FLUID TYPE
DFD .                   10.2 : DRILLING FLUID DENSITY
DFV .                     43 : DRILLING FLUID VISCOSITY
DFPH.                     10 : DRILLING FLUID PH
DFL .                    5.8 : DRILLING FLUID LOSS
MSS .               FLOWLINE : MUD SAMPLE SOURCE
RMS .OHMM               1.52 : RESISTIVITY MUD SAMPLE
MST .FT                   94 : MUD SAMPLE TEMPERATURE
RMF .OHMM               1.39 : RESISTIVITY MUD FILTRATE SAMPLE
MFST.FT                   78 : MUD FILTRATE SAMPLE TEMPERATURE
RMC .OHMM               1.43 : RESISTIVITY MUD CAKE
MCST.FT                   94 : MUD CAKE SAMPLE TEMPERATURE
MFSS.                   MEAS : MUD FILTRATE SAMPLE SOURCE
MCSS.                  CHART : MUD CAKE SAMPLE SOURCE
RMB .OHMM                0.8 : RESISTIVITY MUD AT BHT
TCS .HRS                2200 : TIME CURCULATED STOPPED
TLAB.HRS                 930 : TIME LOGGER AT BOTTOM
LUN .                   7799 : LOGGING UNIT NUMBER
LUL .                  PLEAS : LOGGING UNIT LOCATION
ENGI.               BREVETTI : RECORDING ENGINEER
WITN.               MR SMITH : WITNESSED BY
CLNT.                A2DTECH : CLIENT CODE
ORIG.           5" 25" PRINT : ORIGIN OF DATA
UWI .         42163306230000 : UNIQUE WELL ID
DICO. A2D Technologies, Inc. : DIGITIZING COMPANY
~Other -----------------------------------------------------
~ASCII -----------------------------------------------------
# ...
 5600.00000    -999.25    -999.25  443.63600    -999.25    -999.25    -999.25    -999.25    -999.25    -999.25    2.25410    -999.25    -999.25    2.25410    2.12050    2.57600    2.12050    -999.25    -999.25    -999.25    -999.25  -25.73380   -7.00150    2.57600
 5650.00000    -999.25    -999.25  543.03560    -999.25    -999.25    -999.25    -999.25    -999.25    -999.25    1.84150    -999.25    -999.25    1.84150    1.68940    2.32420    1.68940    -999.25    -999.25    -999.25    -999.25  -23.98660   -4.96880    2.32420
 5700.00000    -999.25    -999.25  433.36950    -999.25    -999.25    -999.25    -999.25    -999.25    -999.25    2.30750    -999.25    -999.25    2.30750    2.21950    2.98150    2.21950    -999.25    -999.25    -999.25    -999.25  -25.05840   -5.75500    2.98150
 5750.00000    -999.25    -999.25  496.13020    -999.25    -999.25    -999.25    -999.25    -999.25    -999.25    2.01560    -999.25    -999.25    2.01560    1.87890    2.43650    1.87890    -999.25    -999.25    -999.25    -999.25  -27.64510   -8.05620    2.43650
 5800.00000    -999.25    -999.25  457.16370    -999.25    -999.25    -999.25    -999.25    -999.25    -999.25    2.18740    -999.25    -999.25    2.18740    2.06620    2.71190    2.06620    -999.25    -999.25    -999.25    -999.25  -27.22830   -7.35390    2.71190
 5850.00000    -999.25    -999.25  444.70140    -999.25    -999.25    -999.25    -999.25    -999.25    -999.25    2.24870    -999.25    -999.25    2.24870    2.13180    2.79780    2.13180    -999.25    -999.25    -999.25    -999.25  -26.09330   -6.20250    2.79780
 5900.00000    9.12460    9.12460  225.84070    0.04280    0.04280    2.59360    -999.25    0.06430    0.06810    4.42790   63.99140   63.99140    4.42790    4.14970    5.41260    4.14970    -999.25    0.23390    0.19010    2.59360  -22.21720   -2.52150    5.41260
 5950.00000   10.33830   10.33830  537.98150    0.21770    0.21770    2.35290    -999.25    0.21410    0.20880    1.85880   86.97790   86.97790    1.85880    1.76260    1.97140    1.76260    -999.25    0.42900    0.38680    2.35290  -24.35150   -4.85090    1.97140
 6000.00000    8.46790    8.46790  553.46470    0.06790    0.06790    2.32390    -999.25    0.22210    0.22580    1.80680   60.69880   60.69880    1.80680    2.21690    5.55800    2.21690    -999.25    0.28650    0.24250    2.32390  -63.94250  -44.63700    5.55800
 6050.00000    9.47250    9.47250  402.72240    0.03470    0.03470    2.44450    -999.25    0.15550    0.15530    2.48310   81.38770   81.38770    2.48310    2.60820    3.03950    2.60820    -999.25    0.28260    0.23860    2.44450  -29.66710  -10.55660    3.03950
 6100.00000    9.49870    9.49870  459.32660    0.02050    0.02050    2.40010    -999.25    0.17780    0.18120    2.17710   73.19230   73.19230    2.17710    2.33360    2.52100    2.33360    -999.25    0.29740    0.25340    2.40010  -35.30110  -16.38570    2.52100
 6150.00000    9.47430    9.47430  352.03830    0.04880    0.04880    2.48620    -999.25    0.13380    0.13090    2.84060   85.75540   85.75540    2.84060    2.97880    3.56050    2.97880    -999.25    0.27030    0.22630    2.48620  -24.01220   -5.29190    3.56050
 6200.00000    9.36460    9.36460  473.35030    0.09720    0.09720    2.45700    -999.25    0.15720    0.14800    2.11260   80.82270   80.82270    2.11260    2.17750    2.73200    2.17750    -999.25    0.30690    0.26290    2.45700  -27.46760   -8.94240    2.73200
 6250.00000   10.00240   10.00240  398.15260    0.10760    0.10760    -999.25    -999.25    -999.25    -999.25    2.51160   58.73900   58.73900    2.51160    2.66230    3.81810    2.66230    -999.25    -999.25    -999.25    -999.25  -20.95840   -2.62820    3.81810
 6300.00000    -999.25    -999.25  517.62510    -999.25    -999.25    -999.25    -999.25    -999.25    -999.25    1.93190    -999.25    -999.25    1.93190    2.02720    2.54320    2.02720    -999.25    -999.25    -999.25    -999.25  -20.56320   -2.42810    2.54320
 6350.00000    -999.25    -999.25  679.62480    -999.25    -999.25    -999.25    -999.25    -999.25    -999.25    1.47140    -999.25    -999.25    1.47140    1.55100    1.98070    1.55100    -999.25    -999.25    -999.25    -999.25  -19.99380   -2.05380    1.98070
 6400.00000    -999.25    -999.25  820.47920    -999.25    -999.25    -999.25    -999.25    -999.25    -999.25    1.21880    -999.25    -999.25    1.21880    1.25670    1.74650    1.25670    -999.25    -999.25    -999.25    -999.25  -20.75280   -3.00790    1.74650
 6450.00000    -999.25    -999.25  394.25960    -999.25    -999.25    -999.25    -999.25    -999.25    -999.25    2.53640    -999.25    -999.25    2.53640    2.66110    3.77210    2.66110    -999.25    -999.25    -999.25    -999.25  -20.34670   -2.79680    3.77210
 6500.00000    -999.25    -999.25  544.01040    -999.25    -999.25    -999.25    -999.25    -999.25    -999.25    1.83820    -999.25    -999.25    1.83820    1.98730    2.02950    1.98730    -999.25    -999.25    -999.25    -999.25  -19.41740   -2.06260    2.02950
 6550.00000    -999.25    -999.25  527.00920    -999.25    -999.25    -999.25    -999.25    -999.25    -999.25    1.89750    -999.25    -999.25    1.89750    2.09370    1.91390    2.09370    -999.25    -999.25    -999.25    -999.25  -18.38170   -1.24300    1.91390
 6600.00000    -999.25    -999.25  373.70610    -999.25    -999.25    -999.25    -999.25    -999.25    -999.25    2.67590    -999.25    -999.25    2.67590    2.75930    3.34810    2.75930    -999.25    -999.25    -999.25    -999.25  -21.38980   -4.46970    3.34810
 6650.00000    -999.25    -999.25  360.76340    -999.25    -999.25    -999.25    -999.25    -999.25    -999.25    2.77190    -999.25    -999.25    2.77190    2.91200    3.30980    2.91200    -999.25    -999.25    -999.25    -999.25  -22.50660   -5.80520    3.30980
 6700.00000    -999.25    -999.25  383.24460    -999.25    -999.25    -999.25    -999.25    -999.25    -999.25    2.60930    -999.25    -999.25    2.60930    2.75480    2.98680    2.75480    -999.25    -999.25    -999.25    -999.25  -19.56320   -3.08050    2.98680
 6750.00000    -999.25    -999.25  465.28940    -999.25    -999.25    -999.25    -999.25    -999.25    -999.25    2.14920    -999.25    -999.25    2.14920    2.23520    2.66580    2.23520    -999.25    -999.25    -999.25    -999.25  -20.74660   -4.48260    2.66580
 6800.00000    -999.25    -999.25  357.82020    -999.25    -999.25    -999.25    -999.25    -999.25    -999.25    2.79470    -999.25    -999.25    2.79470    2.97900    3.43640    2.97900    -999.25    -999.25    -999.25    -999.25  -19.78580   -3.74040    3.43640
 6850.00000    -999.25    -999.25  406.30590    -999.25    -999.25    -999.25    -999.25    -999.25    -999.25    2.46120    -999.25    -999.25    2.46120    2.54800    3.07900    2.54800    -999.25    -999.25    -999.25    -999.25  -19.23520   -3.40850    3.07900
 6900.00000    -999.25    -999.25  560.85250    -999.25    -999.25    -999.25    -999.25    -999.25    -999.25    1.78300    -999.25    -999.25    1.78300    1.62280    2.05040    1.62280    -999.25    -999.25    -999.25    -999.25  -18.66300   -3.05500    2.05040
 6950.00000    -999.25    -999.25  406.86800    -999.25    -999.25    -999.25    -999.25    -999.25    -999.25    2.45780    -999.25    -999.25    2.45780    2.63680    2.74600    2.63680    -999.25    -999.25    -999.25    -999.25  -22.19420   -6.28190    2.74600
 7000.00000    -999.25    -999.25  408.33000    -999.25    -999.25    -999.25    -999.25    -999.25    -999.25    2.44900    -999.25    -999.25    2.44900    2.59040    2.86710    2.59040    -999.25    -999.25    -999.25    -999.25  -20.64010   -4.25840    2.86710
 7050.00000    -999.25    -999.25  362.21390    -999.25    -999.25    -999.25    -999.25    -999.25    -999.25    2.76080    -999.25    -999.25    2.76080    2.90060    3.57040    2.90060    -999.25    -999.25    -999.25    -999.25  -22.68160   -5.83050    3.57040
 7100.00000    -999.25    -999.25  301.33190    -999.25    -999.25    -999.25    -999.25    -999.25    -999.25    3.31860    -999.25    -999.25    3.31860    3.51490    3.92750    3.51490    -999.25    -999.25    -999.25    -999.25  -28.39580  -11.07520    3.92750
