~Version ---------------------------------------------------
VERS. 2.0 : CWLS log ASCII Standard -VERSION 2.0
WRAP. YES : Multiple lines per depth step
~Well ------------------------------------------------------
STRT.ft                   4000.0 : START DEPTH
STOP.ft                   7650.0 : STOP DEPTH
STEP.ft                 50.00000 : STEP LENGTH
NULL.                    -999.25 : NULL VALUE
COMP. CHAMPLIN PETROLEUM COMPANY : COMPANY
WELL.          DOROTHY FRENCH #1 : WELL
FLD .                   GIDDINGS : FIELD
LOC .                            : LOCATION
CNTY.                   BURLESON : COUNTY
STAT.                      TEXAS : STATE
CTRY.   UNITED STATES OF AMERICA : COUNTRY
SRVC.               Schlumberger : SERVICE COMPANY
DATE.                12-Jul-1980 : LOGDATE
API .             42051307360000 : API NUMBER
UWI .             42051307360000 : UNIQUE WELL ID
SLAT.WGS84         30.5639824886 : SURFACE LATITUDE
SLON.WGS84        -96.6621011132 : SURFACE LONGITUDE
~Curve Information -----------------------------------------
DEPT    .ft    : Depth Curve
CALDED  .IN    : CALIPER FROM CNFD LOG [ADJ. TO GRRED]
CALWS   .IN    : CALIPER [CALDED]
CONDWS  .MMHO  : CONDUCTIVITY [1000/DRESWS]
DCORWS  .G/C3  : DENSITY CORRECTION [DRHOED]
DENWS   .G/C3  : FORMATION BULK DENSITY [RHOBED]
DPHILSED.V/V   : DENSITY POROSITY LIMESTONE [M=2.71, F=1.0] FROM CNFD LOG [ADJ. TO GRRED]
DPOWS   .V/V   : DENSITY POROSITY LIMESTONE [CALCULATED FROM DENWS]
DRESWS  .OHMM  : DEEP RESISTIVITY [ILDED]
DRHOED  .G/C3  : BULK DENSITY CORRECTION FROM CNFD LOG [ADJ. TO GRRED]
DTED    .US/F  : DELTA-T FROM DI-SFL-SONIC LOG [ADJ. TO GRRED]
DTWS    .US/F  : COMPRESSIONAL SONIC [DTED]
GRDED   .GAPI  : GAMMA RAY FROM CNFD LOG [ADJ. TO GRRED]
GRRED   .GAPI  : GAMMA RAY FROM DISFL-SONIC LOG
GRWS    .GAPI  : GAMMA RAY [GRRED SPL. TO GRDED @7646.5' ]
ILDED   .OHMM  : DEEP INDUCTION RESISTIVITY FROM DISFL-SONIC LOG
ILMED   .OHMM  : MEDIUM INDUCTION RESISTIVITY FROM DISFL-SONIC LOG
MRESWS  .OHMM  : MEDIUM RESISTIVITY [ILMED]
NPHILSED.V/V   : NEUTRON POROSITY LIMESTONE FROM CNFD LOG [ADJ. TO GRRED]
NPOWS   .V/V   : NEUTRON POROSITY LIMESTONE [NPHILSED]
RHOBED  .G/C3  : BULK DENSITY FROM CNFD LOG [ADJ. TO GRRED]
SFLUED  .OHMM  : SHALLOW FOCUSED RESISTIVITY FROM DISFL-SONIC LOG
SPHILSED.V/V   : SONIC POROSITY LIMESTONE [DTM=50 ,DTF=189] FROM FDC-BCS LOG [ADJ. TO GRRED]
SPOWS   .V/V   : SONIC POROSITY LIMESTONE [SPHILSED]
SPRED   .MV    : SPONTANEOUS POTENTIAL FROM DISFL-SONIC LOG
SPWS    .MV    : SPONTANEOUS POTENTIAL [BASELINE  0 MV, SPRED]
SRESWS  .OHMM  : SHALLOW RESISTIVITY [SFLUED]
~Params ----------------------------------------------------
PD  .                     GL : PERMANENT DATUM
EPD .FT                  406 : ELEVATION PERMANENT DATUM
LMF .                     KB : LOG MEASURED FROM
DAPD.FT                   18 : FEET ABOVE PERMANENT DATUM
DMF .                     KB : DRILLING MEASURED FROM
EKB .FT                  424 : KELLY BUSHING
EDF .FT                  423 : DRILLING FLOOR
EGL .FT                  406 : GROUND LEVEL
DATE.               07/12/80 : RUN DATE
RUN .                      1 : RUN NUMBER
DD  .FT                 7700 : DEPTH DRILLER
DL  .FT                 7682 : DEPTH LOGGER
BLI .FT                 7675 : BOTTOM LOG INTERVAL
TLI .FT                 3989 : TOP LOG INTERVAL
CS  .IN                9.625 : CASING SIZE
CBD .FT                 3990 : CASING BOTTOM DRILLER
CBL .FT                 3989 : CASING BOTTOM LOGGER
BS  .IN                 8.75 : BIT SIZE
BSD .FT                 7700 : BIT SIZE AT DEPTH
DFT .             BEN EX GEL : DRILLING FLUID TYPE
DFD .                    9.5 : DRILLING FLUID DENSITY
DFV .                     51 : DRILLING FLUID VISCOSITY
DFPH.                    9.5 : DRILLING FLUID PH
DFL .                      7 : DRILLING FLUID LOSS
MSS .               FLOWLINE : MUD SAMPLE SOURCE
RMS .OHMM                2.1 : RESISTIVITY MUD SAMPLE
MST .DEGF                 80 : MUD SAMPLE TEMPERATURE
RMF .OHMM               1.96 : RESISTIVITY MUD FILTRATE SAMPLE
MFST.DEGF                 75 : MUD FILTRATE SAMPLE TEMPERATURE
RMC .OHMM               3.15 : RESISTIVITY MUD CAKE
MCST.DEGF                 80 : MUD CAKE SAMPLE TEMPERATURE
MFSS.                      M : MUD FILTRATE SAMPLE SOURCE
MCSS.                      C : MUD CAKE SAMPLE SOURCE
RMB .OHMM               0.91 : RESISTIVITY MUD AT BHT
TCS .HRS                1730 : TIME CIRCULATED STOPPED
TLAB.HRS                2230 : TIME LOGGER AT BOTTOM
LUN .                   8096 : LOGGING UNIT NUMBER
LUL .                BRENHAM : LOGGING UNIT LOCATION
ENGI.               HENDRICK : RECORDING ENGINEER
WITN.                 SCHELL : WITNESSED BY
CLNT.                A2DTECH : CLIENT CODE
ORIG.          1" 2.5" PRINT : ORIGIN OF DATA
UWI .         42051307360000 : UNIQUE WELL ID
DICO. A2D Technologies, Inc. : DIGITIZING COMPANY
~Other -----------------------------------------------------
~ASCII -----------------------------------------------------
# ...
 5350.00000    -999.25    -999.25  869.56520    -999.25    -999.25    -999.25    -999.25    1.15000    -999.25  113.17400  113.17400    -999.25   89.40340   89.40340    1.15000    1.17680    1.17680    -999.25    -999.25    -999.25    0.92790    -999.25    -999.25   -7.11770   -3.39420    0.92790
 5400.00000    -999.25    -999.25  837.10030    -999.25    -999.25    -999.25    -999.25    1.19460    -999.25  105.50670  105.50670    -999.25  128.08280  128.08280    1.19460    1.30100    1.30100    -999.25    -999.25    -999.25    1.12660    -999.25    -999.25   -4.46590   -0.74240    1.12660
 5450.00000    -999.25    -999.25  524.08150    -999.25    -999.25    -999.25    -999.25    1.90810    -999.25   91.15070   91.15070    -999.25   87.15920   87.15920    1.90810    1.99470    1.99470    -999.25    -999.25    -999.25    1.72210    -999.25    -999.25   -7.10260   -3.37910    1.72210
 5500.00000    -999.25    -999.25  548.21560    -999.25    -999.25    -999.25    -999.25    1.82410    -999.25   93.77020   93.77020    -999.25   98.35180   98.35180    1.82410    1.90640    1.90640    -999.25    -999.25    -999.25    1.64470    -999.25    -999.25   -7.42760   -3.70410    1.64470
 5550.00000    -999.25    -999.25  805.28270    -999.25    -999.25    -999.25    -999.25    1.24180    -999.25  101.10930  101.10930    -999.25   89.59710   89.59710    1.24180    1.29910    1.29910    -999.25    -999.25    -999.25    1.15040    -999.25    -999.25   -4.00840   -0.28490    1.15040
 5600.00000    -999.25    -999.25  596.87240    -999.25    -999.25    -999.25    -999.25    1.67540    -999.25   95.57470   95.57470    -999.25   99.92610   99.92610    1.67540    1.75720    1.75720    -999.25    -999.25    -999.25    1.57260    -999.25    -999.25   -6.68970   -2.96620    1.57260
 5650.00000    -999.25    -999.25  694.54090    -999.25    -999.25    -999.25    -999.25    1.43980    -999.25   99.38920   99.38920    -999.25   79.51660   79.51660    1.43980    1.50450    1.50450    -999.25    -999.25    -999.25    1.33460    -999.25    -999.25   -6.75480   -3.03130    1.33460
 5700.00000    -999.25    -999.25  625.82140    -999.25    -999.25    -999.25    -999.25    1.59790    -999.25   95.66300   95.66300    -999.25   84.15000   84.15000    1.59790    1.66900    1.66900    -999.25    -999.25    -999.25    1.53140    -999.25    -999.25   -9.17410   -5.45060    1.53140
 5750.00000    -999.25    -999.25  826.92470    -999.25    -999.25    -999.25    -999.25    1.20930    -999.25  105.23940  105.23940    -999.25   88.50220   88.50220    1.20930    1.26300    1.26300    -999.25    -999.25    -999.25    1.16440    -999.25    -999.25  -10.39190   -6.66840    1.16440
 5800.00000    -999.25    -999.25  683.71390    -999.25    -999.25    -999.25    -999.25    1.46260    -999.25   99.33940   99.33940    -999.25   81.37850   81.37850    1.46260    1.54340    1.54340    -999.25    -999.25    -999.25    1.36670    -999.25    -999.25   -8.77910   -5.05560    1.36670
 5850.00000   15.73160   15.73160  896.37860    0.11630    2.38820    0.18380    0.18820    1.11560    0.11630  104.16260  104.16260   93.41510   76.62860   76.62860    1.11560    1.16650    1.16650    0.31140    0.31140    2.38820    1.23070    -999.25    -999.25   -8.79570   -5.07220    1.23070
 5900.00000   11.30780   11.30780  633.35230    0.10630    2.46410    0.14160    0.14380    1.57890    0.10630   93.98350   93.98350   84.90060   57.34890   57.34890    1.57890    1.79800    1.79800    0.26220    0.26220    2.46410    1.62080    -999.25    -999.25   -7.79350   -4.07000    1.62080
 5950.00000   10.57140   10.57140  370.23320    0.00780    2.56530    0.08060    0.08460    2.70100    0.00780   81.78820   81.78820   55.34110   42.36850   42.36850    2.70100    2.96220    2.96220    0.16490    0.16490    2.56530    2.75690    -999.25    -999.25   -7.21990   -3.49640    2.75690
 6000.00000   10.99340   10.99340  274.58190    0.00800    2.57760    0.07160    0.07740    3.64190    0.00800   78.16490   78.16490   47.03130   47.48480   47.48480    3.64190    3.81960    3.81960    0.12950    0.12950    2.57760    3.49020    -999.25    -999.25  -11.49490   -6.22760    3.49020
 6050.00000   10.40000   10.40000  270.78990    0.01320    2.57240    0.07690    0.08050    3.69290    0.01320   77.69440   77.69440   47.02420   46.81990   46.81990    3.69290    3.85560    3.85560    0.12660    0.12660    2.57240    3.25500    -999.25    -999.25  -13.93990   -8.78890    3.25500
 6100.00000   10.47480   10.47480  263.28950    0.00130    2.56130    0.08520    0.08700    3.79810    0.00130   78.59620   78.59620   59.91720   48.55070   48.55070    3.79810    3.96680    3.96680    0.13330    0.13330    2.56130    3.47800    -999.25    -999.25   -9.90640   -5.39170    3.47800
 6150.00000   10.80380   10.80380  412.84780    0.09960    2.52070    0.10500    0.11070    2.42220    0.09960   82.84790   82.84790   90.28260   73.87300   73.87300    2.42220    2.67930    2.67930    0.18660    0.18660    2.52070    2.35880    -999.25    -999.25   -8.28660   -4.40820    2.35880
 6200.00000    -999.25    -999.25  347.72930    -999.25    -999.25    -999.25    -999.25    2.87580    -999.25   81.85730   81.85730    -999.25   85.11690   85.11690    2.87580    3.00660    3.00660    -999.25    -999.25    -999.25    2.78720    -999.25    -999.25   -5.64420   -2.40220    2.78720
 6250.00000    -999.25    -999.25  386.99690    -999.25    -999.25    -999.25    -999.25    2.58400    -999.25   83.77530   83.77530    -999.25   87.34490   87.34490    2.58400    2.70300    2.70300    -999.25    -999.25    -999.25    2.49130    -999.25    -999.25   -4.82070   -2.05590    2.49130
 6300.00000    -999.25    -999.25  484.73100    -999.25    -999.25    -999.25    -999.25    2.06300    -999.25   92.18680   92.18680    -999.25   86.30780   86.30780    2.06300    2.16930    2.16930    -999.25    -999.25    -999.25    1.92700    -999.25    -999.25   -4.46390   -1.69910    1.92700
 6350.00000    -999.25    -999.25  582.17380    -999.25    -999.25    -999.25    -999.25    1.71770    -999.25   91.67840   91.67840    -999.25   92.78070   92.78070    1.71770    1.80140    1.80140    -999.25    -999.25    -999.25    1.90040    -999.25    -999.25   -4.23940   -1.47460    1.90040
 6400.00000    -999.25    -999.25  623.51910    -999.25    -999.25    -999.25    -999.25    1.60380    -999.25   94.80510   94.80510    -999.25   94.73630   94.73630    1.60380    1.69390    1.69390    -999.25    -999.25    -999.25    1.84670    -999.25    -999.25   -7.94560   -5.18080    1.84670
 6450.00000    -999.25    -999.25  588.72010    -999.25    -999.25    -999.25    -999.25    1.69860    -999.25   94.50770   94.50770    -999.25   96.11080   96.11080    1.69860    1.77350    1.77350    -999.25    -999.25    -999.25    1.88230    -999.25    -999.25   -7.21940   -4.45460    1.88230
 6500.00000    -999.25    -999.25  583.94160    -999.25    -999.25    -999.25    -999.25    1.71250    -999.25   92.77260   92.77260    -999.25   99.25910   99.25910    1.71250    1.79000    1.79000    -999.25    -999.25    -999.25    2.02480    -999.25    -999.25   -5.67030   -2.85050    2.02480
 6550.00000    -999.25    -999.25  670.19640    -999.25    -999.25    -999.25    -999.25    1.49210    -999.25   95.17500   95.17500    -999.25   95.75650   95.75650    1.49210    1.55690    1.55690    -999.25    -999.25    -999.25    1.63680    -999.25    -999.25   -8.88100   -4.68670    1.63680
 6600.00000    -999.25    -999.25  668.49390    -999.25    -999.25    -999.25    -999.25    1.49590    -999.25   96.77860   96.77860    -999.25   97.75320   97.75320    1.49590    1.56120    1.56120    -999.25    -999.25    -999.25    1.64800    -999.25    -999.25   -9.87410   -4.30520    1.64800
 6650.00000    -999.25    -999.25  626.91990    -999.25    -999.25    -999.25    -999.25    1.59510    -999.25   95.17180   95.17180    -999.25   95.50570   95.50570    1.59510    1.66410    1.66410    -999.25    -999.25    -999.25    1.75820    -999.25    -999.25  -10.61970   -3.70960    1.75820
