~Version ---------------------------------------------------
VERS. 2.0 : CWLS log ASCII Standard -VERSION 2.0
WRAP. YES : MULTIPLE LINES PER DEPTH STEP
~Well ------------------------------------------------------
STRT.FT                  300.0 : START DEPTH
STOP.FT                 4800.0 : STOP DEPTH
STEP.FT               50.00000 : STEP LENGTH
NULL.                  -999.25 : NULL VALUE
COMP.    TESORO PETROLEUM CORP : COMPANY
WELL. CLARE JANE HENDERSHOT #1 : WELL
FLD .                       WC : FIELD
LOC .                          : LOCATION
CNTY.                 GONZALES : COUNTY
STAT.                    TEXAS : STATE
CTRY. UNITED STATES OF AMERICA : COUNTRY
SRVC.             Schlumberger : SERVICE COMPANY
DATE.              17-Dec-1976 : LOGDATE
API .           42177302180000 : API NUMBER
UWI .           42177302180000 : UNIQUE WELL ID
SLAT.WGS84       29.5620734756 : SURFACE LATITUDE
SLON.WGS84      -97.5832237409 : SURFACE LONGITUDE
~Curve Information -----------------------------------------
DEPT    .FT    : DEPTH FEET
CAL1ED  .IN    : CALIPER 1 FROM FRACTURE IDENTIFICATION LOG
CAL2ED  .IN    : CALIPER 2 FROM FRACTURE IDENTIFICATION LOG
CALWS   .IN    : CALIPER [CAL1ED]
CONDWS  .MMHO  : CONDUCTIVITY [1000/DRESWS]
CORRED  .G/C3  : DENSITY CORRECTION FROM DENSITY LOG, DEPTH ADJUSTED WITH [SPRED]
DCORWS  .G/C3  : DENSITY CORRECTION [CORRED]
DENWS   .G/C3  : BULK DENSITY [CALCULATED FROM DPOWS][M=2.65 F=1.0]<3400>[M=2.71 F=1.0]
DPHILSED.V/V   : DENSITY POROSITY [M=2.71F=1.0] FROM DENSITY LOG,DEPTH ADJUSTED WITH [SPRED]
DPHISSED.V/V   : DENSITY POROSITY [M=2.65 F=1.0] FROM DENSITY LOG, DEPTH ADJUSTED WITH [SPRED]
DPOWS   .V/V   : DENSITY POROSITY [DPHISSED]<3400>{DPHILSED]
DRESWS  .OHMM  : DEEP RESISTIVITY [ILDED]
GRDED   .GAPI  : GAMMA RAY FROM DENSITY LOG, DEPTH ADJUSTED WITH [SPRED]
GRWS    .GAPI  : GAMMA RAY [GRDED]
ILDED   .OHMM  : INDUCTION LOG DEEP RESISTIVITY
ILMED   .OHMM  : INDUCTION LOG MEDIUM RESISTIVITY
LL8ED   .OHMM  : 8 INCH LATEROLOG RESISTIVITY
MRESWS  .OHMM  : MEDIUM RESISTIVITY [ILMED]
NPHILSED.V/V   : NEUTRON POROSITY LIMESTONE FROM DENSITY LOG
NPHISSED.V/V   : NEUTRON POROSITY SANDSTONE FROM DENSITY LOG
NPOWS   .V/V   : NEUTRON POROSITY SANDSTONE [NPHISSED]<3400>[NPHOLSED]
RHOBED  .G/C3  : BULK DENSITY FROM DENSITY LOG, DEPTH ADJUSTED WITH [SPRED]
SPRED   .MV    : SPONTANEOUS POTENTIAL FROM RESISTIVITY LOG
SPWS    .MV    : SPONTANEOUS POTENTIAL [BASELINE 0 MV] [SPRED]
SRESWS  .OHMM  : SHALLOW RESISTIVITY [LL8ED]
~Params ----------------------------------------------------
PD  .                     GL : PERMANENT DATUM
EPD .FT                367.2 : ELEVATION PERMANENT DATUM
LMF .                     KB : LOG MEASURED FROM
DAPD.FT                 10.5 : FEET ABOVE PERMANENT DATUM
DMF .                     KB : DRILLING MEASURED FROM
EKB .FT                377.7 : KELLY BUSHING
EDF .FT                376.7 : DRILLING FLOOR
EGL .FT                367.2 : GROUND LEVEL
DATE.               12/17/76 : RUN DATE
RUN .                      1 : RUN NUMBER
DD  .FT                 4832 : DEPTH DRILLER
DL  .FT                 4832 : DEPTH LOGGER
BLI .FT                 4828 : BOTTOM LOG INTERVAL
TLI .FT                  514 : TOP LOG INTERVAL
CS  .IN                8.625 : CASING SIZE
CBD .FT                  510 : CASING BOTTOM DRILLER
CBL .FT                  514 : CASING BOTTOM LOGGER
BS  .IN                7.875 : BIT SIZE
BSD .FT                 4832 : BIT SIZE AT DEPTH
DFT .         LIGNOSULFONATE : DRILLING FLUID TYPE
DFD .                    9.7 : DRILLING FLUID DENSITY
DFV .                     37 : DRILLING FLUID VISCOSITY
DFPH.                      9 : DRILLING FLUID PH
DFL .                      7 : DRILLING FLUID LOSS
MSS .               FLOWLINE : MUD SAMPLE SOURCE
RMS .OHMM               1.08 : RESISTIVITY MUD SAMPLE
MST .DEGF                 84 : MUD SAMPLE TEMPERATURE
RMF .OHMM               0.81 : RESISTIVITY MUD FILTRATE SAMPLE
MFST.DEGF                 75 : MUD FILTRATE SAMPLE TEMPERATURE
RMC .OHMM               1.23 : RESISTIVITY MUD CAKE
MCST.DEGF                 84 : MUD CAKE SAMPLE TEMPERATURE
MFSS.                   MEAS : MUD FILTRATE SAMPLE SOURCE
MCSS.                  CHART : MUD CAKE SAMPLE SOURCE
RMB .OHMM               0.67 : RESISTIVITY MUD AT BHT
TCS .HRS                 100 : TIME CIRCULATED STOPPED
TLAB.HRS                 400 : TIME LOGGER AT BOTTOM
LUN .                   7694 : LOGGING UNIT NUMBER
LUL .                  PLEAS : LOGGING UNIT LOCATION
ENGI.                 CARVER : RECORDING ENGINEER
WITN.              VORMELKER : WITNESSED BY
CLNT.                A2DTECH : CLIENT CODE
ORIG.            2" 5" PRINT : ORIGIN OF DATA
UWI .         42177302180000 : UNIQUE WELL ID
DICO. A2D Technologies, Inc. : DIGITIZING COMPANY
~Other -----------------------------------------------------
~ASCII -----------------------------------------------------
# ...
 3200.00000    -999.25    -999.25    -999.25  573.26300    0.11870    0.11870    2.27860    -999.25    0.22510    0.22510    1.74440   67.45990   67.45990    1.74440    2.04280    2.60450    2.04280    -999.25    0.42480    0.42480    2.28170  -38.56110   -9.00040    2.60450
 3250.00000    -999.25    -999.25    -999.25  632.23110    0.08270    0.08270    2.31060    -999.25    0.20570    0.20570    1.58170   75.66210   75.66210    1.58170    1.67360    2.13980    1.67360    -999.25    0.43510    0.43510    2.31460  -33.16130   -3.64280    2.13980
 3300.00000    -999.25    -999.25    -999.25  580.92250    0.09770    0.09770    2.16940    -999.25    0.29130    0.29130    1.72140   62.52060   62.52060    1.72140    1.96120    3.30680    1.96120    -999.25    0.34210    0.34210    2.17980  -40.21930  -10.74300    3.30680
 3350.00000    -999.25    -999.25    -999.25  818.66550    0.04850    0.04850    2.29410    -999.25    0.21570    0.21570    1.22150   88.15520   88.15520    1.22150    1.25950    1.71230    1.25950    -999.25    0.46790    0.46790    2.29660  -29.69110   -0.25700    1.71230
 3400.00000    -999.25    -999.25    -999.25  894.93460    0.03470    0.03470    2.16160    -999.25    0.32070    0.32070    1.11740   54.63770    -999.25    1.11740    1.16460    1.63060    1.16460    -999.25    -999.25    -999.25    2.13650  -28.87060    0.76770    1.63060
 3450.00000    -999.25    -999.25    -999.25  699.64320    -999.25    -999.25    -999.25    -999.25    -999.25    -999.25    1.42930    -999.25    -999.25    1.42930    1.48570    1.90600    1.48570    -999.25    -999.25    -999.25    -999.25  -33.49340   -3.61400    1.90600
 3500.00000    -999.25    -999.25    -999.25  643.83210    -999.25    -999.25    -999.25    -999.25    -999.25    -999.25    1.55320    -999.25    -999.25    1.55320    1.61940    2.22630    1.61940    -999.25    -999.25    -999.25    -999.25  -34.81730   -5.41470    2.22630
 3550.00000    -999.25    -999.25    -999.25  645.20290    -999.25    -999.25    -999.25    -999.25    -999.25    -999.25    1.54990    -999.25    -999.25    1.54990    1.60680    1.97800    1.60680    -999.25    -999.25    -999.25    -999.25  -34.10770   -5.89980    1.97800
 3600.00000    -999.25    -999.25    -999.25  730.99410    -999.25    -999.25    -999.25    -999.25    -999.25    -999.25    1.36800    -999.25    -999.25    1.36800    1.45620    1.86560    1.45620    -999.25    -999.25    -999.25    -999.25  -34.19040   -7.17730    1.86560
 3650.00000    -999.25    -999.25    -999.25  800.25600    -999.25    -999.25    -999.25    -999.25    -999.25    -999.25    1.24960    -999.25    -999.25    1.24960    1.30880    1.82120    1.30880    -999.25    -999.25    -999.25    -999.25  -32.26760   -6.44920    1.82120
 3700.00000    -999.25    -999.25    -999.25  453.24750    -999.25    -999.25    -999.25    -999.25    -999.25    -999.25    2.20630    -999.25    -999.25    2.20630    2.33020    3.03090    2.33020    -999.25    -999.25    -999.25    -999.25  -24.84740   -0.22370    3.03090
 3750.00000    -999.25    -999.25    -999.25  541.50650    -999.25    -999.25    -999.25    -999.25    -999.25    -999.25    1.84670    -999.25    -999.25    1.84670    2.02060    2.56330    2.02060    -999.25    -999.25    -999.25    -999.25  -24.86100   -1.43210    2.56330
 3800.00000    -999.25    -999.25    -999.25  880.74680    -999.25    -999.25    -999.25    -999.25    -999.25    -999.25    1.13540    -999.25    -999.25    1.13540    1.18370    1.55720    1.18370    -999.25    -999.25    -999.25    -999.25  -23.79620   -1.56200    1.55720
 3850.00000    -999.25    -999.25    -999.25 1076.65810    -999.25    -999.25    -999.25    -999.25    -999.25    -999.25    0.92880    -999.25    -999.25    0.92880    0.99640    1.31400    0.99640    -999.25    -999.25    -999.25    -999.25  -22.31470   -1.27530    1.31400
 3900.00000    -999.25    -999.25    -999.25 1009.79500    -999.25    -999.25    -999.25    -999.25    -999.25    -999.25    0.99030    -999.25    -999.25    0.99030    1.02970    1.36750    1.02970    -999.25    -999.25    -999.25    -999.25  -21.52430   -1.56390    1.36750
 3950.00000    -999.25    -999.25    -999.25  873.43880    -999.25    -999.25    -999.25    -999.25    -999.25    -999.25    1.14490    -999.25    -999.25    1.14490    1.19770    1.62740    1.19770    -999.25    -999.25    -999.25    -999.25  -24.53240   -4.87630    1.62740
 4000.00000    -999.25    -999.25    -999.25  934.49210    -999.25    -999.25    -999.25    -999.25    -999.25    -999.25    1.07010    -999.25    -999.25    1.07010    1.12300    1.51030    1.12300    -999.25    -999.25    -999.25    -999.25  -22.77480   -3.42300    1.51030
 4050.00000    -999.25    -999.25    -999.25  863.85620    -999.25    -999.25    -999.25    -999.25    -999.25    -999.25    1.15760    -999.25    -999.25    1.15760    1.23230    1.55360    1.23230    -999.25    -999.25    -999.25    -999.25  -22.65580   -3.60830    1.55360
 4100.00000    -999.25    -999.25    -999.25  911.16170    -999.25    -999.25    -999.25    -999.25    -999.25    -999.25    1.09750    -999.25    -999.25    1.09750    1.19890    1.59200    1.19890    -999.25    -999.25    -999.25    -999.25  -20.57500   -1.83180    1.59200
 4150.00000    -999.25    -999.25    -999.25  857.19180    -999.25    -999.25    -999.25    -999.25    -999.25    -999.25    1.16660    -999.25    -999.25    1.16660    1.22470    1.63830    1.22470    -999.25    -999.25    -999.25    -999.25  -24.67290   -6.23400    1.63830
 4200.00000    8.89440    7.78890    8.89440  729.82040    -999.25    -999.25    -999.25    -999.25    -999.25    -999.25    1.37020    -999.25    -999.25    1.37020    1.59140    2.03140    1.59140    -999.25    -999.25    -999.25    -999.25  -21.06800   -2.93340    2.03140
 4250.00000    8.96470    7.83880    8.96470  686.01220    0.08080    0.08080    2.42650    0.16580    -999.25    0.16580    1.45770   84.88420   84.88420    1.45770    1.62650    2.15860    1.62650    0.32200    -999.25    0.32200    2.44700  -19.71220   -1.88190    2.15860
 4300.00000   10.05970    8.02710   10.05970  841.75090    0.07440    0.07440    2.38510    0.19000    -999.25    0.19000    1.18800   89.86830   89.86830    1.18800    1.26700    1.74380    1.26700    0.34770    -999.25    0.34770    2.38780  -19.21840   -1.69240    1.74380
 4350.00000   10.00420    8.05720   10.00420  853.60650    0.11430    0.11430    2.39230    0.18580    -999.25    0.18580    1.17150   94.67460   94.67460    1.17150    1.22750    1.68480    1.22750    0.34250    -999.25    0.34250    2.40050  -21.43120   -3.61830    1.68480
 4400.00000    8.51660    7.74870    8.51660  851.28120    0.11410    0.11410    2.40630    0.17760    -999.25    0.17760    1.17470   82.91390   82.91390    1.17470    1.27710    2.26740    1.27710    0.31450    -999.25    0.31450    2.39750  -31.58640  -13.20830    2.26740
 4450.00000    7.66980    7.48790    7.66980  627.58880    0.00800    0.00800    2.47400    0.13800    -999.25    0.13800    1.59340   69.73840   69.73840    1.59340    1.67120    2.19090    1.67120    0.25320    -999.25    0.25320    2.47690  -40.44610  -21.50280    2.19090
 4500.00000    7.77710    7.61870    7.77710  282.07150   -0.00700   -0.00700    2.54340    0.09740    -999.25    0.09740    3.54520   30.02270   30.02270    3.54520    3.82920    4.74540    3.82920    0.13300    -999.25    0.13300    2.53710  -41.52080  -22.01230    4.74540
 4550.00000    7.57650    7.39100    7.57650  223.80880    0.01200    0.01200    2.59830    0.06530    -999.25    0.06530    4.46810   40.43450   40.43450    4.46810    5.08820    5.70340    5.08820    0.12320    -999.25    0.12320    2.61240  -35.35480  -15.28100    5.70340
 4600.00000    7.51220    7.38180    7.51220  266.97280    0.00840    0.00840    2.56760    0.08330    -999.25    0.08330    3.74570   37.35070   37.35070    3.74570    4.71400    5.83200    4.71400    0.09460    -999.25    0.09460    2.56970  -46.63050  -25.99150    5.83200
