~Version ---------------------------------------------------
VERS.      2.0 : CWLS log ASCII Standard -VERSION 2.0
WRAP.      YES : Multiple lines per depth step
CREA. 10/16/20 : LAS Creation Date
~Well ------------------------------------------------------
STRT.FT                   3800.0 : START DEPTH
STOP.FT                   8250.0 : STOP DEPTH
STEP.FT                 50.00000 : STEP LENGTH
NULL.                    -999.25 : NULL VALUE
COMP. CHAMPLIN PETROLEUM COMPANY : COMPANY
WELL.        EMAGENE R. PITTS #1 : WELL
FLD .                   GIDDINGS : FIELD
LOC .                            : LOCATION
CNTY.                   BURLESON : COUNTY
STAT.                      TEXAS : STATE
CTRY.   UNITED STATES OF AMERICA : COUNTRY
SRVC.               Schlumberger : SERVICE COMPANY
DATE.                03-Jul-1980 : LOGDATE
API .             42051307530000 : API NUMBER
UWI .             42051307530000 : UNIQUE WELL ID
SLAT.WGS84         30.4281479846 : SURFACE LATITUDE
SLON.WGS84        -96.7120434342 : SURFACE LONGITUDE
~Curve Information -----------------------------------------
DEPT    .FT    : DEPTH FEET
BITSED  .IN    : BIT SIZE
CALDED  .IN    : CALIPER FROM FDC-CNL LOG [DSH. TO GRRED]
CALSED  .IN    : CALIPER FROM CDL-SONIC LOG [DSH. TO GRRED]
CALWS   .IN    : CALIPER [CALDED]
CONDWS  .MMHO  : CONDUCTIVITY [1000/DRESWS]
DCORWS  .G/C3  : DENSITY CORRECTION [DRHOED]
DENWS   .G/C3  : FORMATION BULK DENSITY [RHOBED]
DPHIED  .V/V   : DENSITY POROSITY FROM CDL-SONIC LOG [DSH. TO GRRED]
DPHISSED.V/V   : DENSITY POROSITY SANDSTONE [M=2.65,F=1.0] FROM FDC-CNL LOG [DSH. TO GRRED]
DPOSSWS .V/V   : DENSITY POROSITY SANDSTONE [CALC. FROM DENWS M=2.65,F=1.0]
DRESWS  .OHMM  : DEEP RESISTIVITY [ILDED]
DRHOED  .G/C3  : DENSITY CORRECTION FROM FDC-CNL LOG [DSH. TO GRRED]
DTED    .US/F  : DELTA TIME FROM DIL-SFL-SONIC LOG
DTWS    .US/F  : COMPRESSIONAL SONIC [DTED]
GRDED   .GAPI  : GAMMA RAY FROM FDC-CNL LOG [DSH. TO GRRED]
GRED    .GAPI  : GAMMA RAY FROM SGR LOG [DSH. TO GRRED]
GRRED   .GAPI  : GAMMA RAY FROM DIL-SFL-SONIC LOG
GRSED   .GAPI  : GAMMA RAY FROM CDL-SONIC LOG [DSH. TO GRRED]
GRWS    .GAPI  : GAMMA RAY [TOP GRRED 8226' GRDED TD]
ILDED   .OHMM  : DEEP INDUCTION RESISTIVITY FROM DIL-SFL-SONIC LOG
ILMED   .OHMM  : MEDIUM INDUCTION RESISTIVITY FROM DIL-SFL-SONIC LOG
MRESWS  .OHMM  : MEDIUM RESISTIVITY [ILMED]
NPHISSED.V/V   : NEUTRON POROSITY SANDSTONE FROM FDC-CNL LOG [DSH. TO GRRED]
NPOSSWS .V/V   : NEUTRON POROSITY SANDSTONE [NPHILSED]
POTAED  .PCT   : POTASSIUM CONCENTRATION FROM SGR LOG [DSH. TO GRRED]
RHOBED  .G/C3  : BULK DENSITY FROM FDC-CNL LOG [DSH. TO GRRED]
SFLUED  .OHMM  : SPHERICALLY FOCUSED LOG RESISTIVITY FROM DIL-SFL-SONIC LOG
SPHIED  .V/V   : SONIC POROSITY FROM CDL-SONIC LOG [DSH. TO GRRED]
SPOLSWS .V/V   : SONIC POROSITY LIMESTONE [CALC. FROM DTWS DTM=56,DTF=189,Cp=1.0 (WYLLIE)]
SPRED   .MV    : SPONTANEOUS POTENTIAL FROM DIL-SFL-SONIC LOG
SPWS    .MV    : SPONTANEOUS POTENTIAL [BASELINE 0MV,SPRED]
SRESWS  .OHMM  : SHALLOW RESISTIVITY [SFLED]
THORED  .PPM   : THORIUM CONCENTRATION FROM SGR LOG [DSH. TO GRRED]
URANED  .PPM   : URANIUM CONCENTRATION FROM SGR LOG [DSH. TO GRRED]
~Params ----------------------------------------------------
PD  .                     GL : PERMANENT DATUM
EPD .FT                  345 : ELEVATION PERMANENT DATUM
LMF .                     KB : LOG MEASURED FROM
DAPD.FT                   16 : FEET ABOVE PERMANENT DATUM
DMF .                     KB : DRILLING MEASURED FROM
EKB .FT                  361 : KELLY BUSHING
EDF .FT                  360 : DRILLING FLOOR
EGL .FT                  345 : GROUND LEVEL
DATE.               07/03/80 : RUN DATE
RUN .                      1 : RUN NUMBER
DD  .FT                 8300 : DEPTH DRILLER
DL  .FT                 8283 : DEPTH LOGGER
BLI .FT                 8276 : BOTTOM LOG INTERVAL
TLI .FT                 3807 : TOP LOG INTERVAL
CS  .IN                9.625 : CASING SIZE
CBD .FT                 3810 : CASING BOTTOM DRILLER
CBL .FT                 3807 : CASING BOTTOM LOGGER
BS  .IN                 8.75 : BIT SIZE
BSD .FT                 8300 : BIT SIZE AT DEPTH
DFT .                   BENX : DRILLING FLUID TYPE
DFD .                    9.3 : DRILLING FLUID DENSITY
DFV .                     48 : DRILLING FLUID VISCOSITY
DFPH.                    9.5 : DRILLING FLUID PH
DFL .                      6 : DRILLING FLUID LOSS
MSS .               MUD TANK : MUD SAMPLE SOURCE
RMS .OHMM               1.69 : RESISTIVITY MUD SAMPLE
MST .DEGF                 85 : MUD SAMPLE TEMPERATURE
RMF .OHMM               1.26 : RESISTIVITY MUD FILTRATE SAMPLE
MFST.DEGF                 85 : MUD FILTRATE SAMPLE TEMPERATURE
RMC .OHMM               2.53 : RESISTIVITY MUD CAKE
MCST.DEGF                 85 : MUD CAKE SAMPLE TEMPERATURE
MFSS.                   CALC : MUD FILTRATE SAMPLE SOURCE
MCSS.                   CALC : MUD CAKE SAMPLE SOURCE
RMB .OHMM              0.736 : RESISTIVITY MUD AT BHT
TCS .HRS                 700 : TIME CIRCULATED STOPPED
TLAB.HRS                1100 : TIME LOGGER AT BOTTOM
LUN .                        : LOGGING UNIT NUMBER
LUL .                BRENHAM : LOGGING UNIT LOCATION
ENGI.              ALEXANDER : RECORDING ENGINEER
WITN.                 SCHELL : WITNESSED BY
CLNT.                A2DTECH : CLIENT CODE
ORIG.          1" 2.5" PRINT : ORIGIN OF DATA
UWI .         42051307530000 : UNIQUE WELL ID
DICO. A2D Technologies, Inc. : DIGITIZING COMPANY
OS  .                        : OTHER SERVICES
PWI .                        : PRIMARY WELL IDENTIFIER
R1  .                        : REMARKS 1
R2  .                        : REMARKS 2
LSRV.                        : LOG MNEMONIC
~Other -----------------------------------------------------
DIL-SFL-SONIC-FDC-CNL-CDL TOOL RUN.
~ASCII -----------------------------------------------------
# ...
 5900.00000    8.75000    9.06330    -999.25    9.06330  664.49600    0.08050    2.45230    -999.25    0.12120    0.11980    1.50490    0.08050   88.07570   88.07570   91.31790    -999.25   93.16360    -999.25   93.16360    1.50490    1.59770    1.59770    0.33200    0.33200    -999.25    2.45230    1.69450    -999.25    0.24120   -3.82900   -7.46610    1.69450    -999.25    -999.25
 5950.00000    8.75000    9.15630    -999.25    9.15630  883.15820    0.06910    2.22300    -999.25    0.25960    0.25880    1.13230    0.06910  103.05090  103.05090  102.50430    -999.25  102.30280    -999.25  102.30280    1.13230    1.20210    1.20210    0.34090    0.34090    -999.25    2.22300    1.24130    -999.25    0.35380   -1.82200   -5.45910    1.24130    -999.25    -999.25
 6000.00000    8.75000   10.06290    -999.25   10.06290  674.39980    0.05720    2.37640    -999.25    0.16560    0.16580    1.48280    0.05720   95.29120   95.29120  103.12910    -999.25   94.64580    -999.25   94.64580    1.48280    1.57450    1.57450    0.32700    0.32700    -999.25    2.37640    1.58880    -999.25    0.29540   -0.54150   -4.17860    1.58880    -999.25    -999.25
 6050.00000    8.75000   10.30390    -999.25   10.30390  786.59640    0.07660    2.36760    -999.25    0.17240    0.17120    1.27130    0.07660   98.11290   98.11290  101.26640    -999.25  106.98230    -999.25  106.98230    1.27130    1.35010    1.35010    0.34590    0.34590    -999.25    2.36760    1.51020    -999.25    0.31660   -1.99420   -5.63130    1.51020    -999.25    -999.25
 6100.00000    8.75000   10.32860    -999.25   10.32860  605.18030    0.01180    2.38160    -999.25    0.16510    0.16270    1.65240    0.01180   90.19530   90.19530   99.22820    -999.25   99.89750    -999.25   99.89750    1.65240    1.72810    1.72810    0.29020    0.29020    -999.25    2.38160    1.91610    -999.25    0.25710   -0.69880   -4.33590    1.91610    -999.25    -999.25
 6150.00000    8.75000   11.17180    -999.25   11.17180  967.30510    0.03850    2.39250    -999.25    0.15550    0.15610    1.03380    0.03850  106.22360  106.22360  111.77720    -999.25  120.87270    -999.25  120.87270    1.03380    1.09760    1.09760    0.34320    0.34320    -999.25    2.39250    1.17930    -999.25    0.37760    0.08340   -3.55370    1.17930    -999.25    -999.25
 6200.00000    8.75000   10.34410    -999.25   10.34410  523.14940    0.02980    2.50130    -999.25    0.08860    0.09010    1.91150    0.02980   87.44490   87.44490   90.22070    -999.25   98.66530    -999.25   98.66530    1.91150    2.02980    2.02980    0.24920    0.24920    -999.25    2.50130    2.13140    -999.25    0.23640   -0.96690   -4.60400    2.13140    -999.25    -999.25
 6250.00000    8.75000   10.15720    -999.25   10.15720  507.61420    0.02190    2.50080    -999.25    0.09240    0.09040    1.97000    0.02190   88.02460   88.02460   88.53320    -999.25  100.44840    -999.25  100.44840    1.97000    2.09320    2.09320    0.23820    0.23820    -999.25    2.50080    2.15550    -999.25    0.24080   -0.26780   -3.90490    2.15550    -999.25    -999.25
 6300.00000    8.75000   10.22500    -999.25   10.22500  451.58960    0.00940    2.52900    -999.25    0.07300    0.07330    2.21440    0.00940   86.07230   86.07230   87.76000    -999.25   88.57960    -999.25   88.57960    2.21440    2.35100    2.35100    0.21300    0.21300    -999.25    2.52900    2.29290    -999.25    0.22610    2.14330   -1.49380    2.29290    -999.25    -999.25
 6350.00000    8.75000   10.26660    -999.25   10.26660  511.22130    0.03600    2.49410    -999.25    0.09370    0.09450    1.95610    0.03600   88.45700   88.45700   88.20920    -999.25   96.34610    -999.25   96.34610    1.95610    2.07560    2.07560    0.23630    0.23630    -999.25    2.49410    2.27920    -999.25    0.24400    0.55420   -3.08290    2.27920    -999.25    -999.25
 6400.00000    8.75000   10.47180    -999.25   10.47180  519.48050   -0.00860    2.48470    -999.25    0.10110    0.10020    1.92500   -0.00860   90.38300   90.38300   99.01610    -999.25   98.44300    -999.25   98.44300    1.92500    2.05610    2.05610    0.23790    0.23790    -999.25    2.48470    2.13950    -999.25    0.25850   -0.46980   -4.10690    2.13950    -999.25    -999.25
 6450.00000    8.75000   10.17770    -999.25   10.17770  533.19110    0.03600    2.47770    -999.25    0.10640    0.10440    1.87550    0.03600   90.72970   90.72970   84.58640    -999.25   91.73530    -999.25   91.73530    1.87550    1.99110    1.99110    0.27550    0.27550    -999.25    2.47770    2.20900    -999.25    0.26110   -2.56650   -6.06130    2.20900    -999.25    -999.25
 6500.00000    8.75000   10.32460    -999.25   10.32460  653.89390    0.10550    2.46980    -999.25    0.10920    0.10920    1.52930    0.10550   96.55320   96.55320  102.30210    -999.25  107.27840    -999.25  107.27840    1.52930    1.62470    1.62470    0.29620    0.29620    -999.25    2.46980    1.72590    -999.25    0.30490   -7.35950  -10.10540    1.72590    -999.25    -999.25
 6550.00000    8.75000   10.66760    -999.25   10.66760  529.26860    0.01130    2.48990    -999.25    0.09650    0.09700    1.88940    0.01130   91.54320   91.54320   80.90730    -999.25   75.71930    -999.25   75.71930    1.88940    2.00610    2.00610    0.22680    0.22680    -999.25    2.48990    2.27960    -999.25    0.26720   -6.78510   -8.78200    2.27960    -999.25    -999.25
 6600.00000    8.75000    9.55420    -999.25    9.55420  231.02690    0.06920    2.62210    -999.25    0.01650    0.01690    4.32850    0.06920   71.20010   71.20010   43.21970    -999.25   46.74830    -999.25   46.74830    4.32850    4.59550    4.59550    0.10950    0.10950    -999.25    2.62210    4.37770    -999.25    0.11430   -5.27860   -6.52660    4.37770    -999.25    -999.25
 6650.00000    8.75000    9.30210    -999.25    9.30210  191.87970   -0.00700    2.60170    -999.25    0.03030    0.02930    5.21160   -0.00700   69.32650   69.32650   41.24880    -999.25   42.91090    -999.25   42.91090    5.21160    5.49600    5.49600    0.09820    0.09820    -999.25    2.60170    6.24160    -999.25    0.10020  -10.96390  -11.46290    6.24160    -999.25    -999.25
 6700.00000    8.75000   10.05830    -999.25   10.05830  356.13800    0.01220    2.61230    -999.25    0.02180    0.02280    2.80790    0.01220   84.12750   84.12750   72.68560    -999.25   81.03590    -999.25   81.03590    2.80790    2.99490    2.99490    0.17890    0.17890    -999.25    2.61230    2.59920    -999.25    0.21150   -2.85250   -2.91580    2.59920    -999.25    -999.25
 6750.00000    8.75000   11.15300    -999.25   11.15300  542.32880    0.07830    2.50250    -999.25    0.09290    0.08940    1.84390    0.07830   90.90560   90.90560   92.95980    -999.25   98.05170    -999.25   98.05170    1.84390    1.95770    1.95770    0.25350    0.25350    -999.25    2.50250    2.11330    -999.25    0.26240   -7.16090   -7.63550    2.11330    -999.25    -999.25
 6800.00000    8.75000    9.89950    -999.25    9.89950  301.00540    0.00110    2.55710    -999.25    0.05740    0.05630    3.32220    0.00110   78.13510   78.13510   73.65280    -999.25   72.33950    -999.25   72.33950    3.32220    3.46570    3.46570    0.14580    0.14580    -999.25    2.55710    4.40960    -999.25    0.16640   -4.31840   -5.20420    4.40960    -999.25    -999.25
 6850.00000    8.75000   10.12890    -999.25   10.12890  430.12600    0.02510    2.52120    -999.25    0.07770    0.07810    2.32490    0.02510   85.59730   85.59730   81.70060    -999.25   87.52900    -999.25   87.52900    2.32490    2.46960    2.46960    0.20250    0.20250    -999.25    2.52120    2.72060    -999.25    0.22250   -2.62980   -3.92690    2.72060    -999.25    -999.25
 6900.00000    8.75000    9.75210    -999.25    9.75210  345.86520    0.00130    2.56790    -999.25    0.05030    0.04980    2.89130    0.00130   81.58900   81.58900   75.25600    -999.25   81.75220    -999.25   81.75220    2.89130    3.06980    3.06980    0.17750    0.17750    -999.25    2.56790    3.32780    -999.25    0.19240    0.51940   -1.18890    3.32780    -999.25    -999.25
