~Version ---------------------------------------------------
VERS. 2.0 : CWLS log ASCII Standard -VERSION 2.0
WRAP. YES : MULTIPLE LINES PER DEPTH STEP
~Well ------------------------------------------------------
STRT.FT                  300.0 : START DEPTH
STOP.FT                18600.0 : STOP DEPTH
STEP.FT               50.00000 : STEP LENGTH
NULL.                  -999.25 : NULL VALUE
COMP.        SHELL OIL COMPANY : COMPANY
WELL. PAWELEK BEN A ET AL A #1 : WELL
FLD .    PERSON AREA (WILDCAT) : FIELD
LOC .                          : LOCATION
CNTY.                   KARNES : COUNTY
STAT.                    TEXAS : STATE
CTRY. UNITED STATES OF AMERICA : COUNTRY
SRVC.             Schlumberger : SERVICE COMPANY
DATE.              22-May-1978 : LOGDATE
API .           42255305980000 : API NUMBER
UWI .           42255305980000 : UNIQUE WELL ID
SLAT.WGS84       29.0241796548 : SURFACE LATITUDE
SLON.WGS84      -97.8796797249 : SURFACE LONGITUDE
~Curve Information -----------------------------------------
DEPT    .FT    : DEPTH FEET
CALDED  .IN    : CALIPER FROM DENSITY LOG [DEP ADJ TO GRSED]
CALMED  .IN    : CALIPER FROM MICROLOG [DEP ADJ TO SFLED]
CALSED  .IN    : CALIPER FROM SONIC LOG
CALWS   .IN    : CALIPER [10 CALDED 4845.5 CALMED 4849 CALDED 17451 CALSED 17577 CALDED]
CONDWS  .MMHO  : CONDUCTIVITY [1000/DRESWS]
DCORWS  .G/C3  : DENSITY CORRECTION [DRHOED]
DENWS   .G/C3  : BULK DENSITY [M=2.71 F=1.0] [RHOBED]
DPHILSED.V/V   : DENSITY POROSITY [M=2.71 F=1.0] FROM DENSITY LOG [DEP ADJ TO GRSED/RHOBED]
DPHISSED.V/V   : DENSITY POROSITY [M=2.65 F=1.0] FROM DENSITY LOG [DEP ADJ TO GRSED/RHOBED]
DPOLSWS .V/V   : DENSITY POROSITY [M=2.71 F=1.0] [CAL FR DENWS]
DRESWS  .OHMM  : DEEP RESISTIVITY [ILDED]
DRHOED  .G/C3  : DENSITY CORRECTION FROM DENSITY LOG [DEP ADJ TO GRSED]
DTED    .US/F  : DELTA TIME FROM SONIC LOG
DTWS    .US/F  : DELTA TIME [DTED]
GRDED   .GAPI  : GAMMA RAY FROM DENSITY LOG
GRRED   .GAPI  : GAMMA RAY FROM RESISTIVITY LOG [DEP ADJ TO GRSED]
GRSED   .GAPI  : GAMMA RAY FROM SONIC LOG
GRWS    .GAPI  : GAMMA RAY [70 GRDED 4800.5 GRDEDNRM [0-100 TO 0-140]4844.5 GRSED 4853.5 GRDED 12903.5 GRSED 12939.5 GRDED 12962 GRSED 17526 GRDED 17550 GRRED 18607 GRDED]
ILDED   .OHMM  : INDUCTION LOG DEEP RESISTIVITY
ILMED   .OHMM  : INDUCTION LOG MEDIUM RESISTIVITY
MRESWS  .OHMM  : MEDIUM RESISTIVITY [ILMED]
NPHILSED.V/V   : NEUTRON POROSITY LISTONE FROM DENSITY LOG [DEP ADJ TO GRSED/RHOBED]
NPHISSED.V/V   : NEUTRON POROSITY SANDSTONE FROM DENSITY LOG [DEP ADJ TO GRSED/RHOBED]
NPOLSWS .V/V   : NEUTRON POROSITY LIMESTONE [10 NPOLSCAL 9446 NPHILSED] [NPHISSED IS CONVERTED TO NPOLSCAL USING POWERLOG MODULE]
PROXED  .OHMM  : PROXIMITY RESISTIVITY FROM MICROLOG [DEP ADJ TO SFLED]
RHOBED  .G/C3  : BULK DENSITY FROM DENSITY LOG [DEP ADJ TO GRSED]
SFLED   .OHMM  : SPHERICALLY FOCUSED LOG RESISTIVITY
SPRED   .MV    : SPONTANEOUS POTENTIAL FROM RESISTIVITY LOG [SHIFTS ARE REMOVED]
SPWS    .MV    : SPONTANEOUS POTENTIAL [BASELINE 0 MV] [SPRED][PL. USE W/ RESERVATIONS]
SRESWS  .OHMM  : SHALLOW RESISTIVITY [SFLED]
TENDED  .LBF   : TENSION FROM DENSITY LOG [DEP ADJ TO GRSED]
~Params ----------------------------------------------------
PD  .                     GL : PERMANENT DATUM
EPD .FT                  335 : ELEVATION PERMANENT DATUM
LMF .                     KB : LOG MEASURED FROM
DAPD.FT                   28 : FEET ABOVE PERMANENT DATUM
DMF .                     KB : DRILLING MEASURED FROM
EKB .FT                  363 : KELLY BUSHING
EDF .FT                  362 : DRILLING FLOOR
EGL .FT                  335 : GROUND LEVEL
DATE.               05/22/78 : RUN DATE
RUN .                      4 : RUN NUMBER
DD  .FT                18626 : DEPTH DRILLER
DL  .FT                18642 : DEPTH LOGGER
BLI .FT                18637 : BOTTOM LOG INTERVAL
TLI .FT                17550 : TOP LOG INTERVAL
CS  .IN                    7 : CASING SIZE
CBD .FT                17544 : CASING BOTTOM DRILLER
CBL .FT                17550 : CASING BOTTOM LOGGER
BS  .IN                    6 : BIT SIZE
BSD .FT                18626 : BIT SIZE AT DEPTH
DFT .               INVERMUL : DRILLING FLUID TYPE
DFD .                   17.6 : DRILLING FLUID DENSITY
DFV .                     70 : DRILLING FLUID VISCOSITY
DFL .                      2 : DRILLING FLUID LOSS
LUN .                   7799 : LOGGING UNIT NUMBER
LUL .                  PLEAS : LOGGING UNIT LOCATION
ENGI.             TURBEVILLE : RECORDING ENGINEER
WITN.                JARRELL : WITNESSED BY
CLNT.                A2DTECH : CLIENT CODE
ORIG.            2" 5" PRINT : ORIGIN OF DATA
UWI .         42255305980000 : UNIQUE WELL ID
DICO. A2D Technologies, Inc. : DIGITIZING COMPANY
~Other -----------------------------------------------------
~ASCII -----------------------------------------------------
# ...
 14100.00000   12.18670   14.78730   14.03110   12.18670  647.37490    0.07180    2.75030   -0.01620    -999.25   -0.02360    1.54470    0.07180   62.37200   62.37200   26.77380    -999.25   29.29940   29.29940    1.54470    1.71900    1.71900    0.10110    -999.25    0.10110    0.52790    2.75030    2.74250  -71.06840  -55.48350    2.74250 9671.50290
 14150.00000   11.47890   12.36060   11.82700   11.47890  146.62970    0.03820    2.82460   -0.06870    -999.25   -0.06700    6.81990    0.03820   53.22550   53.22550   26.45510    -999.25   28.22260   28.22260    6.81990    6.37000    6.37000    0.04380    -999.25    0.04380    4.74320    2.82460   13.03370  -65.32350  -49.68840   13.03370 9660.57520
 14200.00000   11.25960   12.06930   10.79030   11.25960   47.50260    0.01380    2.73580   -0.03110    -999.25   -0.01510   21.05150    0.01380   51.78160   51.78160   30.40110    -999.25   32.93150   32.93150   21.05150   10.95480   10.95480    0.11600    -999.25    0.11600    8.92950    2.73580   20.24260  -61.59570  -45.91040   20.24260 9627.47750
 14250.00000   10.86050   11.83810   10.75660   10.86050  153.38600    0.02370    2.82980   -0.06370    -999.25   -0.07010    6.51950    0.02370   54.02920   54.02920   42.97470    -999.25   47.86780   47.86780    6.51950    5.46920    5.46920    0.08430    -999.25    0.08430    8.12780    2.82980   11.06370  -51.31810  -35.58270   11.06370 9587.60250
 14300.00000   10.90540   11.85870   10.83670   10.90540   23.65410    0.03030    2.81580   -0.04060    -999.25   -0.06190   42.27600    0.03030   51.51370   51.51370   28.31070    -999.25   26.89020   26.89020   42.27600   13.34790   13.34790    0.06190    -999.25    0.06190    6.37290    2.81580   31.03130  -55.00660  -39.22100   31.03130 9601.06840
 14350.00000   10.91980   12.05660   10.61690   10.91980   21.83230    0.06290    2.86450   -0.08690    -999.25   -0.09040   45.80380    0.06290   50.73300   50.73300   33.49300    -999.25   37.36150   37.36150   45.80380   24.43560   24.43560    0.04250    -999.25    0.04250    8.62500    2.86450   31.40340  -53.98470  -38.14900   31.40340 9591.70900
 14400.00000   11.08740   12.21790   10.76920   11.08740    5.73790    0.02850    2.84670   -0.05600    -999.25   -0.07990  174.27970    0.02850   49.98230   49.98230   29.44980    -999.25   31.64860   31.64860  174.27970   91.82910   91.82910    0.03110    -999.25    0.03110   11.07320    2.84670   69.95080  -54.12750  -38.24160   69.95080 9554.53220
 14450.00000   11.37850    -999.25   10.92720   11.37850    9.45430    0.03750    2.87770   -0.08370    -999.25   -0.09810  105.77190    0.03750   48.80160   48.80160   28.04840    -999.25   32.91970   32.91970  105.77190   39.16330   39.16330    0.02740    -999.25    0.02740    -999.25    2.87770  121.24550  -53.57740  -37.64140  121.24550 9563.90230
 14500.00000   10.98680    -999.25   10.73580   10.98680   12.97210    0.02440    2.89070   -0.09050    -999.25   -0.10570   77.08860    0.02440   49.68640   49.68640   32.17630    -999.25   36.73780   36.73780   77.08860   18.82680   18.82680    0.02830    -999.25    0.02830    -999.25    2.89070   41.14770  -42.91690  -26.93070   41.14770 9535.18260
 14550.00000   11.07180    -999.25   10.45660   11.07180   76.68360    0.08020    2.91790   -0.10200    -999.25   -0.12160   13.04060    0.08020   53.73100   53.73100   39.23800    -999.25   39.69260   39.69260   13.04060    8.96530    8.96530    0.03190    -999.25    0.03190    -999.25    2.91790   11.73350  -53.47720  -37.44090   11.73350 9505.15330
 14600.00000   10.91450    -999.25   10.69350   10.91450    6.99530    0.06850    2.86990   -0.09760    -999.25   -0.09350  142.95360    0.06850   48.67670   48.67670   31.88950    -999.25   34.02410   34.02410  142.95360   84.41050   84.41050    0.03110    -999.25    0.03110    -999.25    2.86990  114.09230  -50.18310  -34.09660  114.09230 9504.63870
 14650.00000   11.69410    -999.25   10.80700   11.69410    0.67110    0.03710    2.88720   -0.08570    -999.25   -0.10360 1490.18910    0.03710   49.84970   49.84970   34.35950    -999.25   41.55810   41.55810 1490.18910   27.57990   27.57990    0.02140    -999.25    0.02140    -999.25    2.88720  160.17010  -52.34800  -36.21140  160.17010 9507.97170
 14700.00000   11.47990    -999.25   11.09310   11.47990    7.01120    0.04250    2.91570   -0.10000    -999.25   -0.12030  142.62860    0.04250   56.44100   56.44100   29.53540    -999.25   32.05550   32.05550  142.62860   35.16000   35.16000    0.01090    -999.25    0.01090    -999.25    2.91570  131.95810  -49.62080  -33.43400  131.95810 9835.74510
 14750.00000   11.00790    -999.25   10.54210   11.00790    5.99900    0.03660    2.85700   -0.06750    -999.25   -0.08600  166.69540    0.03660   48.53680   48.53680   36.88380    -999.25   38.75190   38.75190  166.69540   60.53090   60.53090    0.02310    -999.25    0.02310    -999.25    2.85700  193.41590  -47.70780  -31.47090  193.41590 9939.71880
 14800.00000   10.39830    -999.25   10.93180   10.39830    0.65140    0.02800    2.87750   -0.08370    -999.25   -0.09800 1535.24510    0.02800   47.38440   47.38440   31.45260    -999.25   33.41540   33.41540 1535.24510   16.00990   16.00990    0.01280    -999.25    0.01280    -999.25    2.87750  266.64700  -46.37140  -30.08430  266.64700 9871.51660
 14850.00000   11.19420    -999.25   11.04910   11.19420    0.62140    0.02650    2.83110   -0.06420    -999.25   -0.07080 1609.23070    0.02650   46.84460   46.84460   25.29220    -999.25   26.48620   26.48620 1609.23070   29.18030   29.18030    0.03370    -999.25    0.03370    -999.25    2.83110  260.21570  -45.96910  -29.63190  260.21570 9831.38280
 14900.00000   11.47660    -999.25   11.36340   11.47660    6.48350    0.03550    2.87720   -0.07950    -999.25   -0.09780  154.23770    0.03550   48.13650   48.13650   32.72550    -999.25   33.36690   33.36690  154.23770   32.03470   32.03470    0.02260    -999.25    0.02260    -999.25    2.87720  415.29820  -46.25980  -29.87240  415.29820 9861.65230
 14950.00000   11.50120    -999.25   10.97830   11.50120    1.64480    0.05250    2.88740   -0.09670    -999.25   -0.10370  607.98700    0.05250   47.10130   47.10130   37.98860    -999.25   45.47920   45.47920  607.98700   53.15700   53.15700    0.01940    -999.25    0.01940    -999.25    2.88740  945.20670  -42.25580  -25.81830  945.20670 9850.74800
 15000.00000   11.94980    -999.25   11.14810   11.94980    5.08460    0.04860    2.88040   -0.11190    -999.25   -0.09960  196.67130    0.04860   47.65710   47.65710   36.09880    -999.25   40.02200   40.02200  196.67130   20.75470   20.75470    0.02070    -999.25    0.02070    -999.25    2.88040  569.07700  -39.73410  -23.24640  569.07700 9791.52730
 15050.00000   11.31280    -999.25   10.96750   11.31280   53.48540    0.03010    2.81280   -0.04620    -999.25   -0.06010   18.69670    0.03010   53.23130   53.23130   39.98400    -999.25   39.38760   39.38760   18.69670    9.76510    9.76510    0.00330    -999.25    0.00330    -999.25    2.81280   36.65550  -40.99090  -24.45310   36.65550 9803.55760
 15100.00000   12.47510    -999.25   12.13130   12.47510    4.12090    0.03300    2.81740   -0.05560    -999.25   -0.06280  242.66820    0.03300   50.84360   50.84360   34.04510    -999.25   37.66750   37.66750  242.66820   25.76870   25.76870    0.00390    -999.25    0.00390    -999.25    2.81740 1674.56860  -33.63470  -17.04670 1674.56860 9760.94240
 15150.00000   12.64410    -999.25   12.14150   12.64410   22.06370    0.02320    2.82130   -0.04860    -999.25   -0.06510   45.32340    0.02320   52.47120   52.47120   36.91210    -999.25   43.70000   43.70000   45.32340   15.27600   15.27600    0.01030    -999.25    0.01030    -999.25    2.82130 1426.70390  -26.79830  -10.16020 1426.70390 9784.61520
 15200.00000   12.92590    -999.25   12.37680   12.92590    8.54380    0.04750    2.81990   -0.05980    -999.25   -0.06430  117.04430    0.04750   51.47440   51.47440   42.08950    -999.25   45.03040   45.03040  117.04430   22.34370   22.34370    0.02580    -999.25    0.02580    -999.25    2.81990 1698.16170  -27.67510  -10.98680 1698.16170 9730.69240
