~Version ---------------------------------------------------
VERS. 2.0 : CWLS log ASCII Standard -VERSION 2.0
WRAP.  NO : ONE LINE PER DEPTH STEP
~Well ------------------------------------------------------
STRT.F                     800.0 : START DEPTH
STOP.F                    6500.0 : STOP DEPTH
STEP.F                  50.00000 : STEP LENGTH
NULL.                    -999.25 : NULL VALUE
COMP. TEXLARK EXPLORATION CO INC : COMPANY
WELL.  ALBERT & EDDIE CASARES #1 : WELL
FLD .            MARCELINA CREEK : FIELD
LOC .                            : LOCATION
CNTY.                     WILSON : COUNTY
STAT.                      TEXAS : STATE
CTRY.   UNITED STATES OF AMERICA : COUNTRY
SRVC.                      Welex : SERVICE COMPANY
DATE.                24-Oct-1984 : LOGDATE
API .             42493316260000 : API NUMBER
UWI .             42493316260000 : UNIQUE WELL ID
SLAT.WGS84         29.0785568479 : SURFACE LATITUDE
SLON.WGS84        -98.1383953956 : SURFACE LONGITUDE
~Curve Information -----------------------------------------
DEPT.F                 : 
GRR .GAPI 07 310 01 00 : GAMMA RAY FROM RESISTIVITY LOG
CALR.IN   07 280 01 00 : CALIPER FROM RESISTIVITY LOG
CILD.MMHO 07 110 46 00 : INDUCTION DEEP CONDUCTIVITY
ILD .OHMM 07 120 46 00 : INDUCTION DEEP RESISTIVITY
SPR .MV   07 010 01 00 : SPONTANEOUS POTENTIAL FROM RESISTIVITY LOG
ASGU.OHMM 07 220 05 00 : GUARD RESISITIVITY
~Params ----------------------------------------------------
PD  .                     GL : PERMANENT DATUM
EPD .FT                388.3 : ELEVATION PERMANENT DATUM
LMF .                    TKB : LOG MEASURED FROM
DAPD.FT                 12.8 : FEET ABOVE PERMANENT DATUM
DMF .                    TKB : DRILLING MEASURED FROM
EKB .FT                401.1 : KELLY BUSHING
EDF .FT                400.1 : DRILLING FLOOR
EGL .FT                388.1 : GROUND LEVEL
DATE.               10/24/84 : RUN DATE
RUN .                      1 : RUN NUMBER
DD  .FT                 6523 : DEPTH DRILLER
DL  .FT                 6526 : DEPTH LOGGER
BLI .FT                 6524 : BOTTOM LOG INTERVAL
TLI .FT                  760 : TOP LOG INTERVAL
CS  .IN                8.625 : CASING SIZE
CBD .FT                  770 : CASING BOTTOM DRILLER
CBL .FT                  784 : CASING BOTTOM LOGGER
BS  .IN                7.875 : BIT SIZE
BSD .FT                 6523 : BIT SIZE AT DEPTH
DFT .     LIGNOSULFONATE MUD : DRILLING FLUID TYPE
DFD .                    9.1 : DRILLING FLUID DENSITY
MSS .                    PIT : MUD SAMPLE SOURCE
RMS .OHMM                3.3 : RESISTIVITY MUD SAMPLE
MST .DEGF                 75 : MUD SAMPLE TEMPERATURE
RMF .OHMM                3.9 : RESISTIVITY MUD FILTRATE SAMPLE
MFST.DEGF                 75 : MUD FILTRATE SAMPLE TEMPERATURE
RMC .OHMM                2.1 : RESISTIVITY MUD CAKE
MCST.DEGF                 75 : MUD CAKE SAMPLE TEMPERATURE
MFSS.                   MEAS : MUD FILTRATE SAMPLE SOURCE
MCSS.                   MEAS : MUD CAKE SAMPLE SOURCE
RMB .OHMM               1.46 : RESISTIVITY MUD AT BHT
TLAB.HRS                 430 : TIME LOGGER AT BOTTOM
LUN .                   1122 : LOGGING UNIT NUMBER
LUL .               VICTORIA : LOGGING UNIT LOCATION
ENGI.         SOLARI SAMPSON : RECORDING ENGINEER
WITN.               RICKAWAT : WITNESSED BY
CLNT.                A2DTECH : CLIENT CODE
ORIG.               1" PRINT : ORIGIN OF DATA
UWI .         42493316260000 : UNIQUE WELL ID
DICO. A2D Technologies, Inc. : DIGITIZING COMPANY
~Other -----------------------------------------------------
~ASCII -----------------------------------------------------
  800.00000   22.39550   12.74940  124.80790    8.38510  -69.24460    8.29950
  850.00000   28.51670   15.41810  157.27400    6.79230  -58.42790    7.55920
  900.00000   41.98260   15.28560  297.48240    3.28950  -58.82950    4.43850
  950.00000   38.18230   14.85400  149.62200    6.68350  -70.35970    8.58200
 1000.00000   27.09240   13.48660  179.10720    5.58330  -76.51350    7.34080
 1050.00000   35.38450   12.80380  352.92380    2.83360  -67.66410    3.40980
 1100.00000   25.73590   11.47170  154.74110    6.63650  -80.21530    9.40270
 1150.00000   39.14360   10.97650  310.36950    3.08210  -63.17100    3.80360
 1200.00000   38.41000   12.95580  500.88750    2.02310  -57.51840    3.63950
 1250.00000   38.16740   14.07650  520.34650    1.92180  -55.40140    2.83820
 1300.00000   38.89850   15.75070  358.41830    2.79010  -55.50260    3.52810
 1350.00000   31.81470   15.35510  171.26870    5.84250  -61.72030   10.04650
 1400.00000   34.37050   13.93250   84.63620   12.20210  -58.77550   14.72950
 1450.00000   24.55960   12.96020   91.78270   11.01680  -56.73760   12.24720
 1500.00000   10.75860   14.80660   65.37530   15.67650  -56.06990   16.53820
 1550.00000   34.40540   14.94340  101.69750    8.79710  -52.85720   10.68680
 1600.00000   11.13010   14.91430   61.03730   16.48400  -55.41300   17.42190
 1650.00000   20.78320   14.48660   61.50060   16.22970  -55.16010   18.39500
 1700.00000   18.36630   14.70360   52.97840   19.80010  -54.35690   18.37570
 1750.00000   24.71830   15.65920   51.33060   18.92590  -52.57440   17.28990
 1800.00000   15.35460   15.64570   41.90590   22.60230  -53.26450   19.74200
 1850.00000   16.29500   14.73210   25.57790   49.64590  -51.70980   72.74080
 1900.00000   12.85630   15.71830   37.02000   28.27700  -51.29460   21.04920
 1950.00000   28.88790   11.79460   44.11330   25.07760  -53.55980   21.16910
 2000.00000   34.96790   10.58650   42.46050   25.14970  -55.48480   26.38240
 2050.00000   33.73760   11.54250   45.79990   21.83410  -53.83560   21.98370
 2100.00000   56.67950   11.34170  199.92140    5.00210  -44.27940    9.40450
 2150.00000   38.35860   10.56180  107.85430   10.33730  -52.00750    9.48880
 2200.00000   34.93030   10.43770   54.37560   18.64850  -53.04510   39.61000
 2250.00000   41.61200   10.24030  215.82050    5.31570  -52.70130    8.10140
 2300.00000   33.41450   13.29980  223.41220    4.72360  -55.92130    5.07420
 2350.00000   34.01280   11.53260  158.71110    6.65560  -62.34760    7.99940
 2400.00000   50.04470   10.51400  338.64700    2.95300  -53.90930    5.51740
 2450.00000   58.55830   11.92080  188.49090    6.21850  -60.17280    7.69110
 2500.00000   43.48400    9.90410  230.59360    4.50340  -50.09270    7.30820
 2550.00000   45.17980   10.13300  364.00540    2.72540  -50.02570    4.03580
 2600.00000   41.17180    9.80860  425.79320    2.34860  -52.13560    3.80890
 2650.00000   47.35930    8.88330  440.97760    2.09900  -50.75870    2.60960
 2700.00000   54.39360    8.21950  404.63620    2.47140  -49.49540    2.73200
 2750.00000   40.43620    7.70640  188.62350    5.51980  -62.66070    9.07660
 2800.00000   56.18270    8.00610  273.33170    3.65860  -50.64940    5.79530
 2850.00000   43.47300    8.46470  169.45540    5.72280  -61.87200    9.00960
 2900.00000   31.01190    8.69140  129.72050    7.54520  -66.70210   12.00850
 2950.00000   66.93610    8.14290  403.91150    2.28520  -48.28680    3.52360
 3000.00000   33.07620    8.70500  218.64850    5.03880  -58.62380    8.45610
 3050.00000   41.67690   10.27020  706.91070    1.41460  -46.26510    1.78230
 3100.00000   31.83580    8.99420  145.72510    6.77410  -63.46560   10.92960
 3150.00000   44.50320    8.47820  163.53120    6.18010  -60.24900   10.43760
 3200.00000   27.37450    8.24160  160.75760    4.98030  -65.62490   12.77000
 3250.00000   54.10950    9.30930  477.68160    2.09340  -46.41030    3.11100
 3300.00000   32.08420    7.53120  247.04040    6.67360  -62.37050   10.06650
 3350.00000   21.44920    8.13440  136.43780    7.32940  -72.13680    9.23140
 3400.00000   21.99270    8.11510  136.42940    7.37430  -68.85900   10.92180
 3450.00000   49.72920    9.03160  428.09160    2.33600  -54.05150    7.26660
 3500.00000   36.89410    7.76550  170.78900    6.56700  -65.50330   11.03550
 3550.00000   22.46710    7.82870  144.82190    6.90500  -70.77550   11.57410
 3600.00000   30.93650    7.85700  127.03830    7.73890  -73.99380   13.62220
 3650.00000   27.56270    7.93410  139.02730    7.28320  -72.19810   11.51000
 3700.00000   25.37040    8.03610  158.85960    6.29490  -66.57680   10.10230
 3750.00000   51.52450    8.38000  473.60550    2.11150  -53.29750    3.94080
 3800.00000   50.31950    8.13520  431.96600    2.31500  -53.21940    3.66080
 3850.00000   50.27970    9.68550  634.92400    1.62640  -51.34070    3.69630
 3900.00000   51.62280    8.86950  705.49090    1.53240  -51.46390    2.44970
 3950.00000   51.39590    8.65800  623.52070    1.60380  -60.99440    2.44040
 4000.00000   41.16050    9.15900  329.23890    2.83970  -72.13600    8.51610
 4050.00000   43.64150   10.13920  424.76230    2.43590  -63.41280    3.67200
 4100.00000   50.93350    9.03980  553.40390    1.98260  -62.87830    2.28370
 4150.00000   45.45640    9.67630  535.67760    1.86680  -61.81740    2.36840
 4200.00000   49.83910    9.78870  647.88470    1.54350  -62.28060    2.06110
 4250.00000   48.29230    8.77620  701.05920    1.42640  -61.04640    1.81470
 4300.00000   45.87180   10.06360  758.17520    1.31900  -61.70330    1.79990
 4350.00000   47.81940   10.28000  720.09310    1.38870  -61.43940    1.75810
 4400.00000   40.39860   10.12040  844.72890    1.18380  -62.42100    1.45940
 4450.00000   42.44420    8.81440  918.66730    1.08850  -62.64090    1.48250
 4500.00000   49.30540    8.85130  882.00510    1.13380  -62.37010    1.54070
 4550.00000   44.55620    9.35330 1039.03960    0.96280  -60.63650    1.24120
 4600.00000   38.30650    8.57310  640.82330    1.56050  -63.55740    1.76190
 4650.00000   43.63260    8.76280  726.16720    1.37710  -64.20400    1.99130
 4700.00000   40.68520    8.75060  569.86930    1.75480  -59.35290    2.42670
 4750.00000   43.64380    9.87990  619.76690    1.76140  -61.99970    2.23050
 4800.00000   34.72390    8.69310  609.67420    1.64020  -60.55340    2.36750
 4850.00000   37.73020    8.35510  670.25870    1.49200  -61.02020    1.84720
 4900.00000   38.36700   10.31970  924.57700    1.08160  -62.28970    1.47630
 4950.00000   44.48150   11.24460 1026.38150    0.97430  -58.60330    1.32990
 5000.00000   49.12570    9.84050  833.48380    1.19980  -60.34240    1.63440
 5050.00000   41.11670    8.82660  594.68320    1.68000  -57.00350    3.26910
 5100.00000   45.67910    9.04880  692.68630    1.44370  -56.12630    1.68900
 5150.00000   45.29730   10.66280  611.67940    1.63480  -58.24480    1.85360
 5200.00000   44.68560    8.40160  437.38400    2.28630  -47.77260    2.88040
 5250.00000   44.95630   10.47830  688.64840    1.46560  -52.41510    2.04870
 5300.00000   62.76220    8.73280  662.30260    1.64280  -47.17240    1.34280
 5350.00000   46.39690    8.74190  661.99150    1.57540  -46.85260    2.17260
 5400.00000   41.39740    8.99910  704.03990    1.42040  -44.93340    1.71700
 5450.00000   39.75940    9.30200  751.27910    1.33110  -46.66480    1.72890
 5500.00000   44.46920   10.69310  783.19260    1.29080  -47.33530    1.58960
 5550.00000   45.17060   11.44730  975.68010    1.02490  -45.72450    1.46130
 5600.00000   39.11060    9.92650  736.40010    1.40400  -44.91600    1.71050
 5650.00000   47.84340   11.88770 1083.29720    0.92310  -42.63990    1.19190
 5700.00000   40.39370   11.75540  769.19040    1.30010  -41.59930    1.66700
 5750.00000   36.89430   12.30180  755.59470    1.32350  -41.04510    1.63770
 5800.00000   36.79040   12.61500  806.28520    1.24030  -42.57120    1.90030
 5850.00000   30.86660   12.00720  618.00600    1.68460  -39.37330    1.89000
 5900.00000   28.42660   13.62140  680.31450    1.46990  -40.02610    1.76960
