~Version ---------------------------------------------------
VERS. 2.0 : CWLS log ASCII Standard -VERSION 2.0
WRAP.  NO : ONE LINE PER DEPTH STEP
~Well ------------------------------------------------------
STRT.F                  1550.0 : START DEPTH
STOP.F                  9700.0 : STOP DEPTH
STEP.F                50.00000 : STEP LENGTH
NULL.                  -999.25 : NULL VALUE
COMP.     MARATHON OIL COMPANY : COMPANY
WELL.              NEWELL #A-2 : WELL
FLD .               BEAR GRASS : FIELD
LOC .                          : LOCATION
CNTY.                     LEON : COUNTY
STAT.                    TEXAS : STATE
CTRY. UNITED STATES OF AMERICA : COUNTRY
SRVC.                   Reeves : SERVICE COMPANY
DATE.              02-Nov-1999 : LOGDATE
API .           42289313060000 : API NUMBER
UWI .           42289313060000 : UNIQUE WELL ID
SLAT.WGS84       31.3636770246 : SURFACE LATITUDE
SLON.WGS84      -96.2532956557 : SURFACE LONGITUDE
~Curve Information -----------------------------------------
DEPT   .F    0   1   0  0 : 1 MEASURED DEPTH
GRR    .GAPI 06 310 01 00 : GAMMA RAY FROM RESISTIVITY LOG
SPR    .MV   06 010 01 00 : SPONTANEOUS POTENTIAL FROM RESISTIVITY LOG
TENR   .LB   06 635 00 00 : TENSION FROM RESISTIVITY LOG
DCALR  .IN   06 280 01 00 : DIFFERENTIAL CALIPER FROM RESISTIVITY LOG
SFE    .OHMM 06 220 06 00 : SHALLOW FOCUSSED ELECTRIC RESISTIVITY
ILM    .OHMM 06 120 44 00 : INDUCTION MEDIUM RESISTIVITY
ILD    .OHMM 06 120 46 00 : INDUCTION DEEP RESISTIVITY
NPHI_LS.DEC  42 890 01 00 : NEUTRON POROSITY LIMESTONE
DCOR   .G/C3 45 356 01 00 : DENSITY CORRECTION
DPHI_LS.DEC  45 890 10 00 : DENSITY POROSITY LIMESTONE
PE     .B/E  45 358 01 00 : PHOTO ELECTRIC CROSS SECTION
CALXD  .IN   45 280 13 00 : CALIPER FROM X AXIS OF X-Y CALIPER(S) FROM DENSITY LOG
~Params ----------------------------------------------------
PD  .                     GL : PERMANENT DATUM
EPD .FT                  525 : ELEVATION PERMANENT DATUM
LMF .                     KB : LOG MEASURED FROM
DAPD.FT                   17 : FEET ABOVE PERMANENT DATUM
DMF .                     KB : DRILLING MEASURED FROM
EKB .FT                  542 : KELLY BUSHING
EDF .FT                  540 : DRILLING FLOOR
EGL .FT                  525 : GROUND LEVEL
DATE.               11/02/99 : RUN DATE
RUN .                      1 : RUN NUMBER
DD  .FT                 9700 : DEPTH DRILLER
DL  .FT                 9705 : DEPTH LOGGER
BLI .FT                 9704 : BOTTOM LOG INTERVAL
TLI .FT                 1514 : TOP LOG INTERVAL
CS  .IN                8.625 : CASING SIZE
CBD .FT                 1515 : CASING BOTTOM DRILLER
CBL .FT                 1514 : CASING BOTTOM LOGGER
BS  .IN                7.875 : BIT SIZE
BSD .FT                 9700 : BIT SIZE AT DEPTH
DFT .                   DISP : DRILLING FLUID TYPE
DFD .                   10.1 : DRILLING FLUID DENSITY
DFV .                     50 : DRILLING FLUID VISCOSITY
DFPH.                    9.1 : DRILLING FLUID PH
DFL .                     10 : DRILLING FLUID LOSS
MSS .               FLOWLINE : MUD SAMPLE SOURCE
RMS .OHMM               1.22 : RESISTIVITY MUD SAMPLE
MST .DEGF                 80 : MUD SAMPLE TEMPERATURE
RMF .OHMM               0.91 : RESISTIVITY MUD FILTRATE SAMPLE
MFST.DEGF                 80 : MUD FILTRATE SAMPLE TEMPERATURE
RMC .OHMM               1.51 : RESISTIVITY MUD CAKE
MCST.DEGF                 80 : MUD CAKE SAMPLE TEMPERATURE
MFSS.                   MEAS : MUD FILTRATE SAMPLE SOURCE
MCSS.                   MEAS : MUD CAKE SAMPLE SOURCE
RMB .OHMM               0.45 : RESISTIVITY MUD AT BHT
TCS .HRS                   6 : TIME CIRCULATED STOPPED
LUN .                  V1049 : LOGGING UNIT NUMBER
LUL .                   KLCR : LOGGING UNIT LOCATION
ENGI.                 LEESON : RECORDING ENGINEER
WITN.                LAMBERT : WITNESSED BY
CLNT.                A2DTECH : CLIENT CODE
ORIG.         1" 2" 5" PRINT : ORIGIN OF DATA
UWI .         42289313060000 : UNIQUE WELL ID
DICO. A2D Technologies, Inc. : DIGITIZING COMPANY
~Other -----------------------------------------------------
~ASCII -----------------------------------------------------
# ...
 4350.00000   77.10080  -42.69640 1922.19320    -999.25    2.05990    1.81280    1.89290    -999.25    -999.25    -999.25    -999.25    -999.25
 4400.00000   68.11040  -41.94820 1956.23880    -999.25    2.58360    2.10510    2.11990    -999.25    -999.25    -999.25    -999.25    -999.25
 4450.00000   85.85890  -40.61480 1972.40970    -999.25    1.91810    1.55310    1.57920    -999.25    -999.25    -999.25    -999.25    -999.25
 4500.00000   60.64440  -41.00020 1977.39470    -999.25    2.43100    2.00660    2.07700    -999.25    -999.25    -999.25    -999.25    -999.25
 4550.00000   48.88750  -41.24750 2011.42040    -999.25    3.02860    2.48980    2.56000    -999.25    -999.25    -999.25    -999.25    -999.25
 4600.00000   31.24010  -50.51320 2023.42530    -999.25    3.81350    3.31290    3.44220    -999.25    -999.25    -999.25    -999.25    -999.25
 4650.00000   37.04820  -49.35430 2055.28440    -999.25    3.55050    3.13110    3.35390    -999.25    -999.25    -999.25    -999.25    -999.25
 4700.00000   35.23050  -39.99920 2066.51440    -999.25    3.44490    2.98660    3.18950    -999.25    -999.25    -999.25    -999.25    -999.25
 4750.00000   46.53700  -41.61540 2088.61450    -999.25    3.07180    2.65530    2.80250    -999.25    -999.25    -999.25    -999.25    -999.25
 4800.00000   41.11440  -40.49630 2091.91940    -999.25    3.79300    4.47920    4.70860    -999.25    -999.25    -999.25    -999.25    -999.25
 4850.00000   27.13660  -62.36390 2098.81710    -999.25    4.66330    3.41380    3.30220    -999.25    -999.25    -999.25    -999.25    -999.25
 4900.00000   21.89600  -71.19260 2107.80660    -999.25    8.55220    3.59490    3.53070    -999.25    -999.25    -999.25    -999.25    -999.25
 4950.00000   91.15030  -37.89500 2107.82540    -999.25    1.54290    0.93330    0.98850    -999.25    -999.25    -999.25    -999.25    -999.25
 5000.00000   78.77690  -44.64840 2094.78030    -999.25    2.41110    2.06170    2.13340    -999.25    -999.25    -999.25    -999.25    -999.25
 5050.00000   81.03820  -44.17520 2104.47850    -999.25    2.25650    1.88420    1.95780    -999.25    -999.25    -999.25    -999.25    -999.25
 5100.00000  103.22600  -39.74570 2142.80570    -999.25    1.63840    1.13120    1.19730    -999.25    -999.25    -999.25    -999.25    -999.25
 5150.00000   77.63760  -40.07150 2188.63720    -999.25    1.73410    1.26920    1.29490    -999.25    -999.25    -999.25    -999.25    -999.25
 5200.00000   89.88190  -41.23670 2184.76780    -999.25    1.70900    1.19990    1.26210    -999.25    -999.25    -999.25    -999.25    -999.25
 5250.00000   87.17310  -38.48230 2193.55350    -999.25    1.95490    1.50780    1.54910    -999.25    -999.25    -999.25    -999.25    -999.25
 5300.00000   90.24710  -38.22370 2242.78390    -999.25    2.87110    2.09460    2.13810    -999.25    -999.25    -999.25    -999.25    -999.25
 5350.00000   91.13510  -39.11360 2285.05590    -999.25    2.90430    2.25870    2.33610    -999.25    -999.25    -999.25    -999.25    -999.25
 5400.00000   77.60240  -40.91060 2227.00150    -999.25    1.88560    1.41250    1.49480    -999.25    -999.25    -999.25    -999.25    -999.25
 5450.00000   71.81590  -45.62580 2328.86080    -999.25    2.00740    1.53550    1.61560    -999.25    -999.25    -999.25    -999.25    -999.25
 5500.00000   79.00500  -37.50050 2284.81100    -999.25    1.58340    1.03340    1.13950    -999.25    -999.25    -999.25    -999.25    -999.25
 5550.00000   68.88320  -37.17650 2272.26250    -999.25    1.72210    1.20130    1.29040    -999.25    -999.25    -999.25    -999.25    -999.25
 5600.00000   65.16370  -38.39190 2301.10180    -999.25    2.38530    1.75850    1.80640    -999.25    -999.25    -999.25    -999.25    -999.25
 5650.00000   64.05580  -36.94590 2308.10600    -999.25    1.58790    0.99350    1.02010    -999.25    -999.25    -999.25    -999.25    -999.25
 5700.00000   70.78120  -37.54650 2370.97530    -999.25    2.21240    1.91450    1.96870    -999.25    -999.25    -999.25    -999.25    -999.25
 5750.00000   29.08110  -44.37800 2388.97660    -999.25    8.89150    9.50660   10.16180    -999.25    -999.25    -999.25    -999.25    -999.25
 5800.00000   33.68540  -34.89270 2432.97410    -999.25    5.46560    5.91770    6.20600    -999.25    -999.25    -999.25    -999.25    -999.25
 5850.00000   51.09960  -37.50740 2376.31980    -999.25    5.18430    4.36870    4.23470    -999.25    -999.25    -999.25    -999.25    -999.25
 5900.00000   23.82190  -43.43690 2449.14140    -999.25   14.03310   13.78630   13.99040    -999.25    -999.25    -999.25    -999.25    -999.25
 5950.00000   21.61770  -57.23140 2432.68040    -999.25   13.48510   14.40770   14.93800    -999.25    -999.25    -999.25    -999.25    -999.25
 6000.00000   17.13950  -56.31530 2444.79420    -999.25   18.10120   15.45570   16.51070    -999.25    -999.25    -999.25    -999.25    -999.25
 6050.00000   21.52660  -51.18710 2464.56080    -999.25   18.85130   15.04330   15.63050    -999.25    -999.25    -999.25    -999.25    -999.25
 6100.00000   15.41600  -49.90950 2473.79760    -999.25   34.80490   14.46070   14.14500    -999.25    -999.25    -999.25    -999.25    -999.25
 6150.00000   16.89130  -56.32500 2495.17040    -999.25   18.99600   13.49780   14.61060    -999.25    -999.25    -999.25    -999.25    -999.25
 6200.00000   31.66190  -35.21520 2532.71920    -999.25    5.83720    5.51150    5.79910    -999.25    -999.25    -999.25    -999.25    -999.25
 6250.00000   23.71990  -37.47200 2536.20750    -999.25   12.52820    9.52760    9.87270    -999.25    -999.25    -999.25    -999.25    -999.25
 6300.00000   17.05370  -52.80100 2555.47090    -999.25   25.31700   23.83910   24.73440    -999.25    -999.25    -999.25    -999.25    -999.25
 6350.00000   61.22890  -36.34760 2565.73440    -999.25    2.71140    1.51290    1.68350    -999.25    -999.25    -999.25    -999.25    -999.25
 6400.00000   26.93200  -66.68030 2558.22750    -999.25   14.85850   13.48620   13.84110    -999.25    -999.25    -999.25    -999.25    -999.25
 6450.00000   51.72330  -34.27940 2588.96190    -999.25    4.07470    3.79790    4.26600    -999.25    -999.25    -999.25    -999.25    -999.25
 6500.00000   40.05810  -40.48390 2590.41720    -999.25   19.57350   18.39420   19.10270    -999.25    -999.25    -999.25    -999.25    -999.25
 6550.00000   37.11430  -33.89160 2620.02730    -999.25   11.36210    8.39680    8.08520    -999.25    -999.25    -999.25    -999.25    -999.25
 6600.00000   50.49240  -41.57170 2721.69430    -999.25    4.77470    4.67500    4.44640    -999.25    -999.25    -999.25    -999.25    -999.25
 6650.00000   84.26300  -43.72820 2790.64750    -999.25    3.21610    2.98090    2.84100    -999.25    -999.25    -999.25    -999.25    -999.25
 6700.00000   36.81210  -57.13390 2760.27440    -999.25   28.25910   22.29700   20.24410    -999.25    -999.25    -999.25    -999.25    -999.25
 6750.00000   30.75930  -55.43440 2845.33030    -999.25   29.86350   17.36110   18.03860    -999.25    -999.25    -999.25    -999.25    -999.25
 6800.00000   43.06200  -44.76870 2887.54270    -999.25    3.87770    2.49090    2.55800    -999.25    -999.25    -999.25    -999.25    -999.25
 6850.00000   47.83270  -45.13420 2901.00200    -999.25    2.56150    1.27310    1.44870    -999.25    -999.25    -999.25    -999.25    -999.25
 6900.00000   37.80880  -40.67070 2848.74460    -999.25    7.39270    2.96670    2.96130    -999.25    -999.25    -999.25    -999.25    -999.25
 6950.00000   35.40980  -39.10430 2893.75170    -999.25    7.76630    6.14030    5.83970    -999.25    -999.25    -999.25    -999.25    -999.25
 7000.00000   41.39600  -42.44530 2927.32100    -999.25    3.02640    2.17190    2.28860    -999.25    -999.25    -999.25    -999.25    -999.25
 7050.00000   28.62720  -43.67690 2873.02980    -999.25   11.45830   11.90600   12.54300    -999.25    -999.25    -999.25    -999.25    -999.25
 7100.00000   32.58150  -42.71280 2833.26540    -999.25    9.11230    7.53980    7.81460    -999.25    -999.25    -999.25    -999.25    -999.25
