~Version ---------------------------------------------------
VERS. 2.0 : CWLS log ASCII Standard -VERSION 2.0
WRAP.  NO : ONE LINE PER DEPTH STEP
~Well ------------------------------------------------------
STRT.F                  3700.0 : START DEPTH
STOP.F                  7800.0 : STOP DEPTH
STEP.F                50.00000 : STEP LENGTH
NULL.                  -999.25 : NULL VALUE
COMP.   ADOBE OIL AND GAS CORP : COMPANY
WELL.             WOLZ UNIT #1 : WELL
FLD .                 GIDDINGS : FIELD
LOC .                          : LOCATION
CNTY.                 BURLESON : COUNTY
STAT.                    TEXAS : STATE
CTRY. UNITED STATES OF AMERICA : COUNTRY
SRVC.             Schlumberger : SERVICE COMPANY
DATE.              06-Nov-1980 : LOGDATE
API .           42051309640000 : API NUMBER
UWI .           42051309640000 : UNIQUE WELL ID
SLAT.WGS84       30.4367779065 : SURFACE LATITUDE
SLON.WGS84      -96.7839259691 : SURFACE LONGITUDE
~Curve Information -----------------------------------------
DEPT.F                 : 
DT  .US/F 60 520 00 00 : DELTA-T (INTERVAL TRANSIT TIME)
SPR .MV   07 010 01 00 : SPONTANEOUS POTENTIAL FROM RESISTIVITY
NPHI.DEC  42 890 03 00 : NEUTRON POROSITY
DPHI.DEC  45 890 12 00 : DENSITY POROSITY
GRD .GAPI 45 310 01 00 : GAMMA RAY FROM DENSITY LOG
DRHO.G/C3 45 356 01 00 : BULK DENSITY CORRECTION
CALD.IN   45 280 60 00 : CALIPER FROM DENSITY LOG
RHOB.G/C3 45 350 01 00 : BULK DENSITY
ILD .OHMM 07 120 46 00 : INDUCTION DEEP RESISTIVITY
ILM .OHMM 07 120 44 00 : INDUCTION MEDIUM RESISTIVITY
SFLU.OHMM 07 220 01 00 : SFL RESISTIVITY (UNAVERAGED)
~Params ----------------------------------------------------
PD  .                     GL : PERMANENT DATUM
EPD .FT                  382 : ELEVATION PERMANENT DATUM
LMF .                     KB : LOG MEASURED FROM
DAPD.FT                 15.6 : FEET ABOVE PERMANENT DATUM
DMF .                     KB : DRILLING MEASURED FROM
EKB .FT                397.6 : KELLY BUSHING
EDF .FT                396.6 : DRILLING FLOOR
EGL .FT                  382 : GROUND LEVEL
DATE.               11/06/80 : RUN DATE
RUN .                      1 : RUN NUMBER
DD  .FT                 7820 : DEPTH DRILLER
DL  .FT                 7814 : DEPTH LOGGER
BLI .FT                 7808 : BOTTOM LOG INTERVAL
TLI .FT                 3697 : TOP LOG INTERVAL
CS  .IN                8.625 : CASING SIZE
CBD .FT                 3700 : CASING BOTTOM DRILLER
CBL .FT                 3697 : CASING BOTTOM LOGGER
BS  .IN                7.875 : BIT SIZE
BSD .FT                 7820 : BIT SIZE AT DEPTH
DFT .                    LNS : DRILLING FLUID TYPE
DFD .                    9.6 : DRILLING FLUID DENSITY
DFV .                     44 : DRILLING FLUID VISCOSITY
DFPH.                      9 : DRILLING FLUID PH
DFL .                    6.2 : DRILLING FLUID LOSS
MSS .                   TANK : MUD SAMPLE SOURCE
RMS .OHMM               1.42 : RESISTIVITY MUD SAMPLE
MST .DEGF                 92 : MUD SAMPLE TEMPERATURE
RMF .OHMM                1.1 : RESISTIVITY MUD FILTRATE SAMPLE
MFST.DEGF                 92 : MUD FILTRATE SAMPLE TEMPERATURE
RMC .OHMM                2.2 : RESISTIVITY MUD CAKE
MCST.DEGF                 92 : MUD CAKE SAMPLE TEMPERATURE
MFSS.                      M : MUD FILTRATE SAMPLE SOURCE
MCSS.                      C : MUD CAKE SAMPLE SOURCE
RMB .OHMM               0.73 : RESISTIVITY MUD AT BHT
TCS .HRS                1400 : TIME CIRCULATED STOPPED
TLAB.HRS                1900 : TIME LOGGER AT BOTTOM
LUN .                   8096 : LOGGING UNIT NUMBER
LUL .                BRENHAM : LOGGING UNIT LOCATION
ENGI.                  WYATT : RECORDING ENGINEER
WITN.               LUBINSKI : WITNESSED BY
CLNT.                A2DTECH : CLIENT CODE
ORIG.          1" 2.5" PRINT : ORIGIN OF DATA
UWI .         42051309640000 : UNIQUE WELL ID
DICO. A2D Technologies, Inc. : DIGITIZING COMPANY
~Other -----------------------------------------------------
~ASCII -----------------------------------------------------
 3700.00000  116.60300   -0.71300    0.32590    0.22170   84.88210    0.07510   10.03590    2.28560   13.61190  648.33580    3.32290
 3750.00000  102.16050  -19.35820    0.32020    0.24410   72.13240    0.09250   15.44100    2.25650    5.65270    5.97600    7.52630
 3800.00000   78.03750   -8.19850    0.20220    0.11320   76.19170    0.04640   13.12790    2.49900    4.53090    4.98340    6.46820
 3850.00000   98.54940   -2.57160    0.31950    0.26880   79.69820    0.16700   13.22790    2.06050    2.80450    2.90150    2.89990
 3900.00000   98.58690  -35.01810    0.30230    0.25270   71.84180    0.05030    9.83160    2.23970    3.64400    4.25170    5.59900
 3950.00000  101.02370   -2.06290    0.31000    0.21160   88.22420    0.15260   11.92680    2.31070    2.23110    2.30880    2.41020
 4000.00000   99.49180   -3.66300    0.27970    0.15730   87.52430    0.07860    9.85000    2.39800    2.74430    2.92400    3.15200
 4050.00000   96.15340   -7.50660    -999.25    -999.25    -999.25    -999.25    -999.25    -999.25    3.54000    3.67090    3.98720
 4100.00000   85.75890   -2.75400    -999.25    -999.25    -999.25    -999.25    -999.25    -999.25    3.08550    3.20600    3.47450
 4150.00000   99.65500   -2.26900    -999.25    -999.25    -999.25    -999.25    -999.25    -999.25    2.07420    2.15310    2.26430
 4200.00000   99.15000   -2.74680    -999.25    -999.25    -999.25    -999.25    -999.25    -999.25    2.13880    2.21260    2.27090
 4250.00000   99.85300   -1.75110    -999.25    -999.25    -999.25    -999.25    -999.25    -999.25    1.75680    1.81810    2.10370
 4300.00000  106.42260   -2.36010    -999.25    -999.25    -999.25    -999.25    -999.25    -999.25    1.62040    1.67880    1.86500
 4350.00000  105.87200   -2.68160    -999.25    -999.25    -999.25    -999.25    -999.25    -999.25    1.52140    1.57410    1.79660
 4400.00000  104.11150   -4.11030    -999.25    -999.25    -999.25    -999.25    -999.25    -999.25    1.56480    1.61910    1.80680
 4450.00000   98.73990   -2.29940    -999.25    -999.25    -999.25    -999.25    -999.25    -999.25    1.72650    1.78690    1.99360
 4500.00000  100.16370   -2.53320    -999.25    -999.25    -999.25    -999.25    -999.25    -999.25    1.63050    1.68680    1.90770
 4550.00000  102.29910   -1.06340    -999.25    -999.25    -999.25    -999.25    -999.25    -999.25    1.45760    1.50790    1.66660
 4600.00000  113.29980   -1.83870    -999.25    -999.25    -999.25    -999.25    -999.25    -999.25    0.92140    0.96670    1.12910
 4650.00000  113.00560   -7.02060    -999.25    -999.25    -999.25    -999.25    -999.25    -999.25    1.21530    1.26810    1.30690
 4700.00000   86.85590  -14.37990    -999.25    -999.25    -999.25    -999.25    -999.25    -999.25    1.61440    1.88550    5.55300
 4750.00000  113.62820   -4.00090    0.41820    0.37380   77.16680    0.17730   12.79070    2.02980    1.06900    1.10790    1.37610
 4800.00000   91.29660   -3.70920    0.23200    0.10090   72.04520    0.06070    8.64040    2.48400    2.24280    2.32430    2.16590
 4850.00000   90.50120   -4.45320    0.23180    0.12990   71.37460    0.08380    9.00070    2.44360    2.24350    2.29940    2.51190
 4900.00000   92.16580   -6.25120    0.26830    0.10810   74.86350    0.16930    8.67900    2.47750    2.07380    2.14700    2.60370
 4950.00000   88.78160  -30.52210    0.24030    0.23890   42.62220    0.04120    8.02230    2.26500    1.97060    2.70250    4.74880
 5000.00000  109.42560  -12.13880    0.40740    0.47490   68.55910    0.16170   12.61760    1.86940    1.09780    1.13640    1.47360
 5050.00000  108.83910   -4.84160    0.38510    0.21960   81.42410    0.20160   11.76420    2.29360    1.06960    1.11930    1.42900
 5100.00000  109.30360   -7.79330    0.35050    0.20940   81.35290    0.18620   11.51670    2.31010    1.08430    1.14910    1.45020
 5150.00000  113.61590  -11.37700    0.41070    0.45130   73.79220    0.15720   12.38310    1.93050    1.01060    1.05890    1.44240
 5200.00000   83.26470   -5.68410    0.19500    0.04890   76.30990    0.03810    8.88760    2.57650    3.29690    3.49310    3.89620
 5250.00000   97.88920   -7.03870    0.32410    0.19530   91.18660    0.13930   11.09640    2.31970    1.38630    1.44290    1.36930
 5300.00000  101.96130   -4.11110    0.03560    0.20280    -999.25    0.09110   11.49650    2.32520    1.02360    1.10740    1.26480
 5350.00000   91.78390   -5.20890    -999.25    -999.25    -999.25    -999.25    -999.25    -999.25    1.83330    1.89780    2.02010
 5400.00000   89.97660   -9.36370    -999.25    -999.25    -999.25    -999.25    -999.25    -999.25    1.57310    1.63950    2.21800
 5450.00000   94.96580   -6.52140    -999.25    -999.25    -999.25    -999.25    -999.25    -999.25    1.56840    1.65960    1.85130
 5500.00000  107.21570   -1.97100    -999.25    -999.25    -999.25    -999.25    -999.25    -999.25    0.91880    0.98630    1.21620
 5550.00000  107.06620   -5.43850    -999.25    -999.25    -999.25    -999.25    -999.25    -999.25    0.99000    1.03190    1.42070
 5600.00000  107.79070   -3.54150    -999.25    -999.25    -999.25    -999.25    -999.25    -999.25    1.04370    1.10680    1.44540
 5650.00000   93.74320   -1.97400    -999.25    -999.25    -999.25    -999.25    -999.25    -999.25    1.47680    1.58970    2.47440
 5700.00000   90.89800   -1.50700    -999.25    -999.25    -999.25    -999.25    -999.25    -999.25    1.88380    1.94920    2.69330
 5750.00000   94.24100   -1.78270    -999.25    -999.25    -999.25    -999.25    -999.25    -999.25    1.66020    1.72310    2.43400
 5800.00000   98.99590   -2.61360    -999.25    -999.25    -999.25    -999.25    -999.25    -999.25    1.41670    1.49810    2.23150
 5850.00000  102.46460   -4.72250    -999.25    -999.25    -999.25    -999.25    -999.25    -999.25    1.26320    1.33250    2.37830
 5900.00000  103.92410   -5.70640    -999.25    -999.25    -999.25    -999.25    -999.25    -999.25    1.21000    1.29520    2.33560
 5950.00000  102.73350   -4.30900    -999.25    -999.25    -999.25    -999.25    -999.25    -999.25    1.22430    1.30400    2.42020
 6000.00000  101.54690   -4.89530    -999.25    -999.25    -999.25    -999.25    -999.25    -999.25    1.22450    1.31590    2.42200
 6050.00000  104.58960   -8.88480    -999.25    -999.25    -999.25    -999.25    -999.25    -999.25    1.19880    1.26030    2.42870
 6100.00000   77.29960   -7.35950    -999.25    -999.25    -999.25    -999.25    -999.25    -999.25    3.11020    3.29890    4.53170
 6150.00000   73.79570   -8.74080    -999.25    -999.25    -999.25    -999.25    -999.25    -999.25    3.58250    3.75760    5.38520
 6200.00000   91.15880   -4.99170    -999.25    -999.25    -999.25    -999.25    -999.25    -999.25    1.74760    1.85110    2.63340
 6250.00000   90.02950   -4.92340    -999.25    -999.25    -999.25    -999.25    -999.25    -999.25    1.88280    1.96180    2.97260
 6300.00000   82.66540   -2.08080    -999.25    -999.25    -999.25    -999.25    -999.25    -999.25    2.58290    2.70600    4.49960
 6350.00000   88.67580   -4.76390    -999.25    -999.25    -999.25    -999.25    -999.25    -999.25    2.03280    2.17600    3.46230
 6400.00000   91.91320   -4.39930    -999.25    -999.25    -999.25    -999.25    -999.25    -999.25    1.77890    1.90310    3.16570
 6450.00000   94.72620   -3.65870    -999.25    -999.25    -999.25    -999.25    -999.25    -999.25    1.55430    1.63180    2.94340
 6500.00000   91.23240   -4.31240    -999.25    -999.25    -999.25    -999.25    -999.25    -999.25    2.01720    2.12620    3.96590
 6550.00000   93.68800   -4.25450    -999.25    -999.25    -999.25    -999.25    -999.25    -999.25    1.62370    1.76760    3.55040
 6600.00000   89.40410   -5.46580    0.25090    0.11930   87.88490    0.04300   10.57900    2.51310    2.06180    2.20700    3.69110
 6650.00000   88.94070   -6.92860    0.24370    0.08510   81.86110    0.05990   10.51180    2.57220    2.19440    2.34350    4.08530
 6700.00000   78.16470   -9.60740    0.16890    0.06420   57.28160    0.05510   10.95620    2.60160    3.79850    4.05880    4.33010
