~Version ---------------------------------------------------
VERS. 2.0 : CWLS log ASCII Standard -VERSION 2.0
WRAP. YES : MULTIPLE LINES PER DEPTH STEP
~Well ------------------------------------------------------
STRT.FT                   400.0 : START DEPTH
STOP.FT                  7700.0 : STOP DEPTH
STEP.FT                50.00000 : STEP LENGTH
NULL.                   -999.25 : NULL VALUE
COMP. ENCANA OIL & GAS USA INC. : COMPANY
WELL.            BARCLAY 162 #2 : WELL
FLD .                   CHITTIM : FIELD
LOC .                           : LOCATION
CNTY.                  MAVERICK : COUNTY
STAT.                     TEXAS : STATE
CTRY.  UNITED STATES OF AMERICA : COUNTRY
SRVC.              Schlumberger : SERVICE COMPANY
DATE.               22-Oct-2006 : LOGDATE
API .            42323329160000 : API NUMBER
UWI .            42323329160000 : UNIQUE WELL ID
SLAT.WGS84        28.8174515047 : SURFACE LATITUDE
SLON.WGS84      -100.3519501945 : SURFACE LONGITUDE
~Curve Information -----------------------------------------
DEPT  .FT    : DEPTH FEET
AF10ED.OHMM  : 10 INCH ARRAY RESISTIVITY FOUR FOOT RESOLUTION
AF20ED.OHMM  : 20 INCH ARRAY RESISTIVITY FOUR FOOT RESOLUTION
AF30ED.OHMM  : 30 INCH ARRAY RESISTIVITY FOUR FOOT RESOLUTION
AF60ED.OHMM  : 60 INCH ARRAY RESISTIVITY FOUR FOOT RESOLUTION
AF90ED.OHMM  : 90 INCH ARRAY RESISTIVITY FOUR FOOT RESOLUTION
BITED .IN    : BIT SIZE FROM LOG HEADER
CALWS .IN    : CALIPER [(DCALED+BITED)]
CONDWS.MMHO  : CONDUCTIVITY [1000/DRESWS]
DCALED.IN    : DIFFERENTIAL CALIPER FROM DENSITY LOG
DCORWS.G/C3  : DENSITY CORRECTION [HDRAED]
DENWS .G/C3  : BULK DENSITY [M=2.71 F=1.0] [CALCULATED FROM DPOWS]
DPHZED.V/V   : DENSITY POROSITY [M=2.71 F=1.0] FROM DENSITY LOG
DPOWS .V/V   : DENSITY POROSITY [M=2.71 F=1.0] [DPHZED]
DRESWS.OHMM  : DEEP RESISTIVITY [AF90ED]
DT1ED .US/F  : DELTA TIME SHEAR LOWER DIPOLE FROM DIPOLE SONIC LOG
DT4PED.US/F  : DELTA TIME COMP - P & S FROM DIPOLE SONIC LOG
DTSWS .US/F  : DELTA TIME SHEAR [DT1ED]
DTWS  .US/F  : DELTA TIME [DT4PED]
GRRED .GAPI  : GAMMA RAY FROM RESISTIVITY LOG
GRWS  .GAPI  : GAMMA RAY [GRRED. CASED ABOVE 620]
HDRAED.G/C3  : DENSITY CORRECTION FROM DENSITY LOG
MRESWS.OHMM  : MEDIUM RESISTIVITY [AF30ED]
NPOWS .V/V   : NEUTRON POROSITY LIMESTONE [TNPHED. CASED ABOVE 620]
PEFWS .B/E   : PHOTOELECTRIC FACTOR [PEFZED]
PEFZED.B/E   : PHOTOELECTRIC FACTOR STANDARD RESOLUTION FROM DENSITY LOG
SPHIED.V/V   : SONIC POROSITY FROM SONIC LOG
SPOWS .V/V   : SONIC POROSITY [SPHIED]
SPRED .MV    : SPONTANEOUS POTENTIAL FROM RESISTIVITY LOG
SPWS  .MV    : SPONTANEOUS POTENTIAL [BASELINE 0 MV] [SPRED]
SRESWS.OHMM  : SHALLOW RESISTIVITY [AF20ED]
TENRED.LBF   : TENSION FROM RESISTIVITY LOG
TNPHED.V/V   : THERMAL NEUTRON POROSITY LIMESTONE FROM DENSITY LOG
~Params ----------------------------------------------------
PD  .                           GL : PERMANENT DATUM
EPD .FT                      770.7 : ELEVATION PERMANENT DATUM
LMF .                           KB : LOG MEASURED FROM
DAPD.FT                         25 : FEET ABOVE PERMANENT DATUM
DMF .                           KB : DRILLING MEASURED FROM
EKB .FT                      795.7 : KELLY BUSHING
EDF .FT                      794.7 : DRILLING FLOOR
EGL .FT                      770.7 : GROUND LEVEL
DATE.                     10/22/08 : RUN DATE
RUN .                            2 : RUN NUMBER
DD  .FT                       7700 : DEPTH DRILLER
DL  .FT                       7716 : DEPTH LOGGER
BLI .FT                       7708 : BOTTOM LOG INTERVAL
TLI .FT                       6610 : TOP LOG INTERVAL
CS  .IN                      7.875 : CASING SIZE
CBD .FT                       6600 : CASING BOTTOM DRILLER
CBL .FT                       6610 : CASING BOTTOM LOGGER
BS  .IN                       6.75 : BIT SIZE
BSD .FT                       7700 : BIT SIZE AT DEPTH
DFT .                    FRESH MUD : DRILLING FLUID TYPE
DFD .                         16.4 : DRILLING FLUID DENSITY
DFV .                           64 : DRILLING FLUID VISCOSITY
DFPH.                         10.1 : DRILLING FLUID PH
DFL .                          5.2 : DRILLING FLUID LOSS
MSS .                    FLOW LINE : MUD SAMPLE SOURCE
RMS .OHMM                    0.425 : RESISTIVITY MUD SAMPLE
MST .DEGF                      114 : MUD SAMPLE TEMPERATURE
RMF .OHMM                    0.306 : RESISTIVITY MUD FILTRATE SAMPLE
MFST.DEGF                      114 : MUD FILTRATE SAMPLE TEMPERATURE
RMC .OHMM                     0.55 : RESISTIVITY MUD CAKE
MCST.DEGF                      114 : MUD CAKE SAMPLE TEMPERATURE
MFSS.                     COMPUTED : MUD FILTRATE SAMPLE SOURCE
MCSS.                     COMPUTED : MUD CAKE SAMPLE SOURCE
RMB .OHMM                    0.241 : RESISTIVITY MUD AT BHT
TCS .HRS                      1330 : TIME CIRCULATED STOPPED
TLAB.HRS                      2342 : TIME LOGGER AT BOTTOM
LUN .                         2024 : LOGGING UNIT NUMBER
LUL .                    LAREDO TX : LOGGING UNIT LOCATION
ENGI. CARLOS DOSTAL CURT LADBETLER : RECORDING ENGINEER
WITN.                   JEFF FABER : WITNESSED BY
CLNT.                      A2DTECH : CLIENT CODE
ORIG.               1" 2" 5" PRINT : ORIGIN OF DATA
UWI .               42323329160000 : UNIQUE WELL ID
DICO.       A2D Technologies, Inc. : DIGITIZING COMPANY
~Other -----------------------------------------------------
1. CURVE AF20ED WAS CHOSEN FOR SRESWS BECAUSE AF10ED SEEMED TO BEHAVE ERRATICALLY OVER PART OF RUN 1.
~ASCII -----------------------------------------------------
# ...
 4800.00000    9.25730  132.47440   80.87420  252.56070  130.03620    9.87500   12.64590    7.69020    2.77090    0.37200    2.48450    0.13190    0.13190  130.03620  103.05650   51.44060  103.05650   51.44060   23.08960   23.08960    0.37200   80.87420    0.00550    9.53730    9.53730    0.02990    0.02990    2.41990   -5.14710  132.47440 2891.97360    0.00550
 4850.00000    7.22400  104.04750   52.34460  132.36710  113.63790    9.87500    9.86780    8.79990   -0.00720    0.00650    2.70970    0.00020    0.00020  113.63790  105.34110   51.95040  105.34110   51.95040   26.40570   26.40570    0.00650   52.34460    0.00670    4.92860    4.92860    0.03020    0.03020   -1.15200  -10.64220  104.04750 2972.24780    0.00670
 4900.00000    7.13840   57.91660   39.74230   68.64720   62.78560    9.87500    9.86870   15.92720   -0.00630    0.00270    2.66950    0.02370    0.02370   62.78560  105.02820   54.17220  105.02820   54.17220   27.93570   27.93570    0.00270   39.74230    0.02020    4.91950    4.91950    0.04470    0.04470    1.02570  -10.38770   57.91660 2990.69360    0.02020
 4950.00000    7.41140   49.05690   32.69350   73.12470   48.02420    9.87500    9.88740   20.82280    0.01240    0.01370    2.72800   -0.01050   -0.01050   48.02420   99.43650   52.44380   99.43650   52.44380   31.52530   31.52530    0.01370   32.69350    0.02260    5.03130    5.03130    0.03560    0.03560    4.44470   -7.78910   49.05690 2965.52980    0.02260
 5000.00000    8.24440   69.71260   43.65260   93.66580   74.45040    9.87500    9.89960   13.43180    0.02460   -0.00730    2.66710    0.02510    0.02510   74.45040  100.39500   52.64670  100.39500   52.64670   27.92900   27.92900   -0.00730   43.65260    0.01130    5.40130    5.40130    0.03170    0.03170    0.07830  -12.62770   69.71260 2927.60640    0.01130
 5050.00000    6.33370   27.09700   21.98590   32.05830   29.67450    9.87500    9.91400   33.69900    0.03900    0.00140    2.67340    0.02140    0.02140   29.67450  105.43490   55.75690  105.43490   55.75690   42.13670   42.13670    0.00140   21.98590    0.02230    4.85800    4.85800    0.05630    0.05630   -2.29700  -15.47520   27.09700 3007.30960    0.02230
 5100.00000    6.37270   34.57680   26.42260   39.47010   37.00050    9.87500    9.90330   27.02670    0.02830    0.00400    2.68970    0.01190    0.01190   37.00050  104.69110   54.62280  104.69110   54.62280   34.22530   34.22530    0.00400   26.42260    0.02650    4.85330    4.85330    0.04980    0.04980   -2.94680  -16.59720   34.57680 2967.12230    0.02650
 5150.00000    6.20190   30.83890   22.58220   35.38990   33.61230    9.87500    9.88070   29.75100    0.00570    0.00390    2.68880    0.01240    0.01240   33.61230  103.58700   55.26570  103.58700   55.26570   36.69820   36.69820    0.00390   22.58220    0.03890    4.69820    4.69820    0.05250    0.05250   -1.86350  -15.98600   30.83890 3053.68020    0.03890
 5200.00000    7.15840   68.52120   40.01700   77.62080   65.85850    9.87500    9.86400   15.18410   -0.01100    0.00520    2.71850   -0.00500   -0.00500   65.85850  104.52840   52.75910  104.52840   52.75910   26.84470   26.84470    0.00520   40.01700    0.01010    4.94670    4.94670    0.03800    0.03800   -5.89220  -20.48690   68.52120 2968.80590    0.01010
 5250.00000    5.46200   20.21730   17.26060   22.81270   21.53200    9.87500    9.86690   46.44250   -0.00810    0.00210    2.68570    0.01420    0.01420   21.53200  109.91320   58.49500  109.91320   58.49500   41.55070   41.55070    0.00210   17.26060    0.01100    4.76420    4.76420    0.07460    0.07460   -1.32390  -16.39080   20.21730 3087.42210    0.01100
 5300.00000    6.26090   30.82760   23.43580   33.15220   30.00420    9.87500    9.84200   33.32870   -0.03300    0.00050    2.67340    0.02140    0.02140   30.00420  105.56780   55.37480  105.56780   55.37480   35.05360   35.05360    0.00050   23.43580    0.04080    4.91970    4.91970    0.05850    0.05850    2.00320  -13.53580   30.82760 3038.59010    0.04080
 5350.00000    5.37750   25.61730   18.01950   28.44870   21.63160    9.87500    9.86420   46.22870   -0.01080    0.00910    2.72400   -0.00820   -0.00820   21.63160  107.30930   54.26170  107.30930   54.26170   28.82830   28.82830    0.00910   18.01950    0.01690    4.97920    4.97920    0.05720    0.05720    0.49260  -15.51860   25.61730 3082.58150    0.01690
 5400.00000    4.69120   13.43200   11.55820   14.28530   14.07730    9.87500    9.88440   71.03630    0.00940   -0.00440    2.64250    0.03950    0.03950   14.07730  115.60310   61.67360  115.60310   61.67360   48.74100   48.74100   -0.00440   11.55820    0.05710    4.70770    4.70770    0.10030    0.10030    1.08310  -15.40030   13.43200 3155.60110    0.05710
 5450.00000    5.98540   98.96230   51.86500  121.07580  109.53810    9.87500    9.83760    9.12920   -0.03740    0.00230    2.68880    0.01240    0.01240  109.53810   96.46880   50.48370   96.46880   50.48370   22.43550   22.43550    0.00230   51.86500    0.00340    4.90460    4.90460    0.01710    0.01710   -5.18730  -22.14280   98.96230 3161.37260    0.00340
 5500.00000    6.78340  466.62470   76.92600  682.16170  349.34470    9.87500    9.86540    2.86250   -0.00960   -0.00170    2.84130   -0.07680   -0.07680  349.34470   95.63500   50.67750   95.63500   50.67750   22.64410   22.64410   -0.00170   76.92600   -0.01020    5.65460    5.65460    0.02120    0.02120  -10.46270  -27.89040  466.62470 3126.71390   -0.01020
 5550.00000    4.82630   18.58140   15.50290   24.00300   21.68650    9.87500    9.88160   46.11160    0.00660    0.00490    2.69290    0.01000    0.01000   21.68650  104.49770   58.95740  104.49770   58.95740   44.85810   44.85810    0.00490   15.50290    0.09130    4.46940    4.46940    0.07970    0.07970    2.32650  -15.57340   18.58140 3179.36820    0.09130
 5600.00000    6.42050  152.78470   57.50020  163.62830  142.44730    9.87500    9.90720    7.02010    0.03220    0.00590    2.71740   -0.00430   -0.00430  142.44730  103.60770   51.75200  103.60770   51.75200   25.98890   25.98890    0.00590   57.50020    0.00320    4.99310    4.99310    0.03020    0.03020  -13.17150  -31.54350  152.78470 3151.40410    0.00320
 5650.00000    5.53180  199.02530   58.85840  177.52910  165.83800    9.87500    9.87300    6.03000   -0.00200    0.00140    2.68370    0.01540    0.01540  165.83800   94.53740   50.47820   94.53740   50.47820   23.69550   23.69550    0.00140   58.85840    0.00300    5.20350    5.20350    0.01840    0.01840  -24.09420  -42.93840  199.02530 3142.05740    0.00300
 5700.00000    4.64820   12.12630   11.43740   15.78270   13.41560    9.87500    9.88070   74.54010    0.00570    0.00620    2.65610    0.03150    0.03150   13.41560  107.54410   54.86830  107.54410   54.86830   28.39920   28.39920    0.00620   11.43740    0.04350    5.17770    5.17770    0.05260    0.05260  -27.99150  -47.30790   12.12630 3181.63310    0.04350
 5750.00000    4.59440   16.25000   14.06490   17.33680   16.78670    9.87500    9.84930   59.57100   -0.02570    0.00500    2.68250    0.01610    0.01610   16.78670  114.47260   58.98390  114.47260   58.98390   36.66860   36.66860    0.00500   14.06490    0.06010    4.45000    4.45000    0.08370    0.08370    8.94760  -10.84090   16.25000 3167.82300    0.06010
 5800.00000    5.90870   62.08780   38.81180   68.56910   64.25580    9.87500    9.89340   15.56280    0.01840    0.00520    2.70260    0.00430    0.00430   64.25580  101.53810   52.82920  101.53810   52.82920   54.23240   54.23240    0.00520   38.81180    0.01560    4.99990    4.99990    0.03920    0.03920   -9.22420  -29.31440   62.08780 3193.62040    0.01560
 5850.00000    5.27410   29.17790   24.03740   34.29440   31.40300    9.87500    9.89160   31.84410    0.01660    0.00910    2.68860    0.01250    0.01250   31.40300  107.25260   56.05110  107.25260   56.05110   33.03190   33.03190    0.00910   24.03740    0.03310    4.79420    4.79420    0.06220    0.06220    0.72860  -19.56310   29.17790 3239.23900    0.03310
