~Version ---------------------------------------------------
VERS. 2.0 : CWLS log ASCII Standard -VERSION 2.0
WRAP.  NO : ONE LINE PER DEPTH STEP
~Well ------------------------------------------------------
STRT.F                    3800.0 : START DEPTH
STOP.F                    8600.0 : STOP DEPTH
STEP.F                  50.00000 : STEP LENGTH
NULL.                    -999.25 : NULL VALUE
COMP. CHAMPLIN PETROLEUM COMPANY : COMPANY
WELL.            LOSS WARLICK #1 : WELL
FLD .                   GIDDINGS : FIELD
LOC .                            : LOCATION
CNTY.                   BURLESON : COUNTY
STAT.                      TEXAS : STATE
CTRY.   UNITED STATES OF AMERICA : COUNTRY
SRVC.              Dresser Atlas : SERVICE COMPANY
DATE.                29-May-1981 : LOGDATE
API .             42051315180000 : API NUMBER
UWI .             42051315180000 : UNIQUE WELL ID
SLAT.WGS84         30.5233241478 : SURFACE LATITUDE
SLON.WGS84        -96.5951683715 : SURFACE LONGITUDE
~Curve Information -----------------------------------------
DEPT.F                 : 
NPOR.DEC  42 890 03 00 : NEUTRON POROSITY SANDSTONE3826-6650; LIMESTONE6650-8645
GRR .GAPI 07 310 01 00 : GAMMA RAY FROM RES. LOG.
DPOR.DEC  45 890 12 00 : DENSITY POROSITY SANDSTONE3826-6650; LIMESTONE 6650-8645
ILD .OHMM 07 120 46 00 : INDUCTION LOG DEEP
ILM .OHMM 07 120 44 00 : INDUCTION LOG MEDIUM
CALR.IN   07 280 01 00 : CALIPER FROM RESISTIVITY
SFL .OHMM 07 220 01 00 : SHALLOW FOCUSED LOG RESISTIVITY
~Params ----------------------------------------------------
PD  .                     GL : PERMANENT DATUM
EPD .FT                  347 : ELEVATION PERMANENT DATUM
LMF .                     KB : LOG MEASURED FROM
DAPD.FT                   18 : FEET ABOVE PERMANENT DATUM
DMF .                     KB : DRILLING MEASURED FROM
EKB .FT                  365 : KELLY BUSHING
EDF .FT                  363 : DRILLING FLOOR
EGL .FT                  347 : GROUND LEVEL
DATE.               05/29/81 : RUN DATE
RUN .                      1 : RUN NUMBER
DD  .FT                 8643 : DEPTH DRILLER
DL  .FT                 8645 : DEPTH LOGGER
BLI .FT                 8643 : BOTTOM LOG INTERVAL
TLI .FT                 3826 : TOP LOG INTERVAL
CS  .IN                9.625 : CASING SIZE
CBD .FT                 3825 : CASING BOTTOM DRILLER
CBL .FT                 3826 : CASING BOTTOM LOGGER
BS  .IN                 8.75 : BIT SIZE
BSD .FT                 8643 : BIT SIZE AT DEPTH
DFT .              BEN X GEL : DRILLING FLUID TYPE
DFD .                    9.3 : DRILLING FLUID DENSITY
DFV .                     38 : DRILLING FLUID VISCOSITY
DFPH.                    9.5 : DRILLING FLUID PH
DFL .                    8.0 : DRILLING FLUID LOSS
MSS .               FLOWLINE : MUD SAMPLE SOURCE
RMS .OHMM               3.52 : RESISTIVITY MUD SAMPLE
MST .DEGF                 70 : MUD SAMPLE TEMPERATURE
RMF .OHMM               2.64 : RESISTIVITY MUD FILTRATE SAMPLE
MFST.DEGF                 70 : MUD FILTRATE SAMPLE TEMPERATURE
RMC .OHMM                4.4 : RESISTIVITY MUD CAKE
MCST.DEGF                 70 : MUD CAKE SAMPLE TEMPERATURE
MFSS.                      C : MUD FILTRATE SAMPLE SOURCE
MCSS.                      C : MUD CAKE SAMPLE SOURCE
RMB .OHMM               1.36 : RESISTIVITY MUD AT BHT
TCS .HRS                   8 : TIME CIRCULATED STOPPED
LUN .                   6139 : LOGGING UNIT NUMBER
LUL .                  BRYAN : LOGGING UNIT LOCATION
WITN.                  VODAK : WITNESSED BY
CLNT.                A2DTECH : CLIENT CODE
ORIG.          1" 2.5" PRINT : ORIGIN OF DATA
UWI .         42051315180000 : UNIQUE WELL ID
DICO. A2D Technologies, Inc. : DIGITIZING COMPANY
~Other -----------------------------------------------------
~ASCII -----------------------------------------------------
 3800.00000    0.37770    -999.25    -999.25    -999.25    -999.25    -999.25    -999.25
 3850.00000    0.33160   78.65420    0.20830    8.06110    8.71530    9.84830    5.47270
 3900.00000    0.41470   72.83600    0.32170    4.93750    5.48010   10.63370    5.08800
 3950.00000    0.36720   60.22870    0.21690    3.73480    3.87130   12.58170    2.94500
 4000.00000    0.36300   35.36590    0.24310    4.53580    5.04990   11.76970    4.25360
 4050.00000    0.37260   75.67670    0.25890    5.03810    6.37020    9.23190    5.90690
 4100.00000    0.35900   59.80830    0.28950    4.66140    6.73220    9.90980    8.51940
 4150.00000    0.35170   74.15490    0.23050    3.98000    4.37280   10.70930    3.34310
 4200.00000    0.34770   80.57780    0.18290    3.40990    3.75480   10.39480    2.53020
 4250.00000    0.32180   87.49060    0.18330    5.10900    5.51320   10.73600    4.98700
 4300.00000    0.35500   80.03560    0.21880    3.32910    4.04800   10.44680    2.48910
 4350.00000    0.42270   86.26590    0.24280    2.45120    2.38590   11.98410    1.99090
 4400.00000    0.37870   84.73510    0.17300    2.40760    2.28580   12.70600    1.95180
 4450.00000    0.40130   89.44440    0.19720    2.22620    2.05830   12.57330    1.84450
 4500.00000    0.34550   87.53340    0.18120    2.63760    2.56040   10.81350    2.13060
 4550.00000    0.30340   87.85800    0.17730    3.23980    3.05400   10.52100    2.52190
 4600.00000    0.35560   89.45110    0.25300    2.26150    2.11600   11.02230    1.88040
 4650.00000    0.36670   88.68320    0.22150    2.03890    1.99530   10.36470    1.82860
 4700.00000    0.36300   90.84300    0.16390    1.98900    1.87290   12.40860    1.72960
 4750.00000    0.37530   92.90350    0.14720    1.72390    1.69280   13.44770    1.54000
 4800.00000    0.40580   92.24500    0.12550    1.88520    1.81720   13.32120    1.62610
 4850.00000    0.37170   97.65810    0.12970    1.75900    1.69750   13.92120    1.62680
 4900.00000    0.39520   95.67960    0.14830    1.62970    1.56790   14.35610    1.49340
 4950.00000    0.42600   99.53630    0.15940    1.43620    1.40670   14.81630    1.33760
 5000.00000    0.36000   96.57620    0.12760    1.87790    1.80870   13.03790    1.53460
 5050.00000    0.42170   94.04320    0.14990    1.68590    1.56620   11.10840    1.37920
 5100.00000    0.44140   86.47690    0.32570    0.95330    0.90610   11.61780    1.08960
 5150.00000    0.50280   79.85450    0.40110    0.93830    0.88380   12.62250    1.05960
 5200.00000    0.33340   86.53550    0.13990    1.88750    1.83640    9.59210    1.76470
 5250.00000    0.38210   86.73510    0.15850    1.56390    1.52520   10.85360    1.46240
 5300.00000    0.36510   88.51660    0.14980    1.55310    1.52970   11.68180    1.47430
 5350.00000    0.32300   76.58120    0.16060    2.00460    1.86550   12.01850    2.18230
 5400.00000    0.38080   87.42090    0.13360    1.57760    1.51840   12.21770    1.46630
 5450.00000    0.43850   82.86460    0.30250    1.15990    1.12200   11.09990    1.24230
 5500.00000    0.36550   85.45780    0.12200    1.52220    1.44930   10.93840    1.36680
 5550.00000    0.41070   89.83400    0.13360    1.44830    1.39660   11.40110    1.30780
 5600.00000    0.41390   86.03720    0.17550    1.05670    1.00660   12.27800    1.14710
 5650.00000    0.44070   84.74130    0.36010    1.16870    1.12080   13.16630    1.22280
 5700.00000    0.33350   80.95020    0.12160    1.77590    1.73880   11.41120    1.53630
 5750.00000    0.27980   94.24070    0.11680    2.20390    2.11750    9.70800    1.83380
 5800.00000    0.32530   85.13970    0.20400    1.46310    1.43600    9.83820    1.27290
 5850.00000    0.31660   89.72380    0.14840    1.56030    1.51740    9.80100    1.48620
 5900.00000    0.37700   93.16910    0.15840    1.20970    1.18280   11.61330    1.12550
 5950.00000    0.37020   95.21790    0.15440    1.23220    1.20060   12.95980    1.18520
 6000.00000    0.36140  101.21170    0.15280    1.32960    1.30730   12.47750    1.21530
 6050.00000    0.34910   90.19690    0.15370    1.38680    1.33480   11.21310    1.18470
 6100.00000    0.36500   99.60080    0.16450    1.36380    1.32400   11.40850    1.12140
 6150.00000    0.39570   96.57840    0.27180    1.19680    1.16370   10.18570    1.09360
 6200.00000    0.34320   87.39090    0.13360    1.72180    1.67620    9.45020    1.46280
 6250.00000    0.31160   94.49860    0.12070    1.98000    1.95050   11.30030    1.57740
 6300.00000    0.28750   85.22000    0.09180    2.00980    1.97130   10.04860    1.65920
 6350.00000    0.32370   87.39270    0.11690    1.82540    1.77490   10.63720    1.59500
 6400.00000    0.36090   89.50900    0.26070    1.70870    1.66940   10.88510    1.50660
 6450.00000    0.33950   86.58050    0.14350    1.72740    1.69000   10.39490    1.48560
 6500.00000    0.38430   93.92840    0.15600    1.49220    1.46470   11.96250    1.38620
 6550.00000    0.40790   84.36010    0.18770    1.28880    1.25760   13.12960    1.19980
 6600.00000    0.34890   76.62760    0.13320    1.66560    1.61910   11.69520    1.42720
 6650.00000    0.30500   78.53860    0.04930    2.07660    2.02360   11.43410    1.68820
 6700.00000    0.18670   51.96890    0.10320    4.22680    4.04630    9.68420    2.85120
 6750.00000    0.21320   62.38150    0.09660    3.37310    3.25660    9.52670    2.46470
 6800.00000    0.20950   53.09630    0.08830    4.18980    3.96230    9.30340    2.80460
 6850.00000    0.32080   78.48770    0.16340    2.06440    2.02870    9.09130    2.17460
 6900.00000    0.31510  100.22420    0.19530    2.52240    2.46650   10.10600    2.03900
 6950.00000    0.30140   82.91970    0.15910    2.46670    2.40680   10.68440    2.00130
 7000.00000    0.19090   69.73270    0.12100    4.53000    3.98770   10.82810    2.33090
 7050.00000    0.35490   85.39120    0.16830    2.00800    1.95620    9.29950    1.65080
 7100.00000    0.40030   96.67960    0.25450    1.59760    1.54900    9.03180    1.49160
 7150.00000    0.30820   88.66000    0.14270    2.33910    2.25040    9.70650    1.90670
 7200.00000    0.33010   90.39770    0.16120    2.02330    1.95550   10.87940    1.71230
 7250.00000    0.33560   90.67700    0.16080    1.84010    2.06950   10.37320    1.75500
 7300.00000    0.37240   87.41460    0.17360    1.53240    1.75990   10.31820    1.62650
 7350.00000    0.35830   87.41190    0.14240    1.64090    1.89470   11.10390    1.71480
 7400.00000    0.35260   84.68760    0.14490    1.63870    1.89010   11.70910    1.72280
 7450.00000    0.37400   88.86140    0.15630    1.53680    1.77880   11.75790    1.63320
 7500.00000    0.37820   84.30090    0.15330    1.47260    1.71810   11.33020    1.62370
 7550.00000    0.37480   87.65730    0.13790    1.48880    1.73080   11.45540    1.66210
 7600.00000    0.36160   87.17260    0.13140    1.68910    1.99760   11.93280    1.82840
 7650.00000    0.36160   86.71040    0.13130    1.78530    2.02150   10.19660    1.89510
 7700.00000    0.33680   87.96090    0.14260    1.77410    2.05020   10.37040    1.91730
 7750.00000    0.28790   84.65730    0.10740    2.27240    2.59210   10.58350    2.07420
 7800.00000    0.28110   80.82960    0.10080    2.07450    2.46000    9.57420    1.99910
 7850.00000    0.19830   72.24350    0.08190    3.78490    4.16740    9.78330    3.09300
 7900.00000    0.13970   40.71550    0.09500   20.58790   23.78860    8.96670   31.59140
 7950.00000    0.16540   34.10230    0.10600   18.23760   19.37960    8.89620   10.30830
 8000.00000    0.43510   99.40020    0.16330    1.27090    1.42730   13.32970    1.68110
 8050.00000    0.45560   95.98450    0.26030    2.03180    1.92900   14.01310    2.55440
 8100.00000    0.43440   87.91190    0.13800    2.23680    2.43930   13.45120    3.19200
 8150.00000    0.44630  100.07540    0.18700    2.92890    3.22020   10.88490    3.48940
 8200.00000    0.29860  118.95010    0.12580    9.82970   10.56690    9.72360   13.53000
 8250.00000    0.50220   81.98730    0.33130    1.65180    1.77730   12.93330    2.64780
