~Version ---------------------------------------------------
VERS.      2.0 : CWLS log ASCII Standard -VERSION 2.0
WRAP.      YES : Multiple lines per depth step
CREA. 10/06/20 : LAS Creation Date
~Well ------------------------------------------------------
STRT.FT                 3150.0 : START DEPTH
STOP.FT                18400.0 : STOP DEPTH
STEP.FT               50.00000 : STEP LENGTH
NULL.                  -999.25 : NULL VALUE
COMP. AMOCO PRODUCTION COMPANY : COMPANY
WELL.       MARTIN GAS UNIT #1 : WELL
FLD .                  WILDCAT : FIELD
LOC .                          : LOCATION
CNTY.                     LEON : COUNTY
STAT.                    TEXAS : STATE
CTRY. UNITED STATES OF AMERICA : COUNTRY
SRVC.             Schlumberger : SERVICE COMPANY
DATE.              06-Oct-1998 : LOGDATE
API .           42289312900000 : API NUMBER
UWI .           42289312900000 : UNIQUE WELL ID
SLAT.WGS84       31.2448401024 : SURFACE LATITUDE
SLON.WGS84      -96.2384028977 : SURFACE LONGITUDE
~Curve Information -----------------------------------------
DEPT    .FT    : DEPTH FEET
AT20ED  .OHMM  : 20 INCH ARRAY RESISTIVITY TWO FOOT RESOLUTION FROM AIT LOG
AT30ED  .OHMM  : 30 INCH ARRAY RESISTIVITY TWO FOOT RESOLUTION FROM AIT LOG
AT60ED  .OHMM  : 60 INCH ARRAY RESISTIVITY TWO FOOT RESOLUTION FROM AIT LOG
AT90ED  .OHMM  : 90 INCH ARRAY RESISTIVITY TWO FOOT RESOLUTION FROM AIT LOG
BITSED  .IN    : BIT SIZE FROM RUN HEADERS
CALDED  .IN    : CALIPER FROM DENSITY LOG [DSH. TO GRRED]
CALWS   .IN    : CALIPER [TOP CALDED 14108' (DCALDED+BITSED) TD]
CONDWS  .MMHO  : DEEP CONDUCTIVITY [1000/DRESWS]
DCALDED .IN    : DIFFERENTIAL CALIPER FROM DENSITY LOG [DSH. TO GRRED]
DCORWS  .G/C3  : DENSITY CORRECTION [TOP DRHOED 16650' DRHED TD]
DENWS   .G/C3  : BULK DENSITY [CALC. FROM DPOLSWS]
DPHILSED.V/V   : DENSITY POROSITY (LS) [M=2.71 F=1.00] [DSH. TO GRRED]
DPOLSED .V/V   : DENSITY POROSITY (LS) [M=2.71 F=1.00] [DSH. TO GRRED]
DPOLSWS .V/V   : DENSITY POROSITY (LS) [M=2.71 F=1.00] [TOP DPHILSED 16650' DPOLSED TD]
DRESWS  .OHMM  : DEEP RESISTIVITY [TOP AT90ED 14100' ILDED 16650' IDPHED TD]
DRHED   .G/C3  : DENSITY CORRECTION FROM DENSITY LOG [DSH. TO GRRED]
DRHOED  .G/C3  : DENSITY CORRECTION FROM DENSITY LOG [DSH. TO GRRED]
DTCOED  .US/F  : DELTA TIME COMPRESSIONAL FROM SONIC LOG
DTLFED  .US/F  : DELTA TIME LONG SPACING FAR DETECTOR FROM SONIC LOG
DTLNED  .US/F  : DELTA TIME LONG SPACING NEAR DETECTOR FROM SONIC LOG
DTSMED  .US/F  : DELTA TIME SHEAR WAVE FROM SONIC LOG
DTSWS   .US/F  : DELTA TIME SHEAR [DTSMED]
DTWS    .US/F  : DELTA TIME COMPRESSIONAL [TOP DTCOED 16650' DTLNED TD]
GRDED   .GAPI  : GAMMA RAY FROM DENSITY LOG [DSH. TO GRRED]
GRRED   .GAPI  : GAMMA RAY FROM RESISTIVITY LOG
GRWS    .GAPI  : GAMMA RAY [GRRED][RESCALED GRWS IN CSG )14030-14106' & 16606-16645') FROM 0/90-0/150]
IDPHED  .OHMM  : DEEP INDUCTION PHASE RESISTIVITY
ILDED   .OHMM  : DEEP INDUCTION RESISTIVITY
ILMED   .OHMM  : MEDIUM INDUCTION RESISTIVITY
IMPHED  .OHMM  : MEDIUM INDUCTION PHASE RESISTIVITY
MRESWS  .OHMM  : MEDIUM RESISTIVITY [TOP AT30ED 14100' ILMED 16650' IMPHED TD]
NPHILSED.V/V   : NEUTRON POROSITY (LS) [DSH. TO GRRED]
NPOLSWS .V/V   : NEUTRON POROSITY (LS) [NPHILSED]
PEFED   .B/E   : PHOTOELECTRIC FACTOR FROM DENSITY LOG [DSH. TO GRRED]
PEFWS   .B/E   : PHOTOELECTRIC FACTOR [PEFED]
SFLUED  .OHMM  : SPHERICALLY FOCUSED UNAVERAGED RESISTIVITY
SPWS    .MV    : SPONTANEOUS POTENTIAL [BASELINE 0 MV] [SPRED]
SPRED   .MV    : SPONTANEOUS POTENTIAL FROM RESISTIVITY LOG
SRESWS  .OHMM  : SHALLOW RESISTIVITY [TOP AT20ED 14100' SFLUED TD]
TENDED  .LBF   : TENSION FROM DENSITY LOG [DSH. TO GRRED]
TENRED  .LBF   : TENSION FROM RESISTIVITY LOG
~Params ----------------------------------------------------
PD  .                     GL : PERMANENT DATUM
EPD .FT                389.3 : ELEVATION PERMANENT DATUM
LMF .                     KB : LOG MEASURED FROM
DAPD.FT                 33.7 : MEASUREMENT ABOVE PERMANENT DATUM
DMF .                     KB : DRILLING MEASURED FROM
EKB .FT                  423 : KELLY BUSHING
EDF .FT                  422 : DRILLING FLOOR
EGL .FT                389.3 : GROUND LEVEL
DATE.               10/06/98 : RUN DATE
RUN .                      3 : RUN NUMBER
DD  .FT                18400 : DEPTH DRILLER
DL  .FT                18391 : DEPTH LOGGER
BLI .FT                18381 : BOTTOM LOG INTERVAL
TLI .FT                16646 : TOP LOG INTERVAL
CS  .IN                7.625 : CASING SIZE
CBD .FT                16650 : CASING BOTTOM DRILLER
CBL .FT                16646 : CASING BOTTOM LOGGER
BS  .IN                 6.25 : BIT SIZE
BSD .FT                18400 : BIT SIZE AT DEPTH
DFT .             VERSADRILL : DRILLING FLUID TYPE
DFD .                   17.9 : DRILLING FLUID DENSITY
DFV .                     45 : DRILLING FLUID VISCOSITY
MSS .                MUD PIT : MUD SAMPLE SOURCE
MFSS.                   CALC : MUD FILTRATE SAMPLE SOURCE
MCSS.                   CALC : MUD CAKE SAMPLE SOURCE
TCS .HRS                 830 : TIME CIRCULATED STOPPED
TLAB.HRS                2357 : TIME LOGGER AT BOTTOM
LUN .                   2142 : LOGGING UNIT NUMBER
LUL .                  TYLER : LOGGING UNIT LOCATION
ENGI.                SKRBICH : RECORDING ENGINEER
WITN.       WALKER WYSZYNSKI : WITNESSED BY
CLNT.                A2DTECH : CLIENT CODE
ORIG.         1" 2" 5" PRINT : ORIGIN OF DATA
UWI .         42289312900000 : UNIQUE WELL ID
DICO. A2D Technologies, Inc. : DIGITIZING COMPANY
~Other -----------------------------------------------------
1) RESISTIVITY INVALID 14360-14404', 15400-15475 NULLED (REPEAT LOG N/A). PATCHED FROM REPEAT LOG 15950-15980' & 16590-16645'.
2) GRRED PATCHED FROM REPEAT LOG 15400-15500 & 16550-16606'.
3) SONIC NOT LOGGED 14100-16650' AND ERRATIC ON SOME AREAS ABOVE 6300' WITH SOME GAPS AND SPIKES HENCE PATCHED SOME SMALL AREAS.
4) LDL/CNL STICKING TOOL ENTIRE RUN2 - NULLED PEF INVALID @ 15410-15625' & 15730-15410', PATCHED DENSITY@16025-16040', PATCHED NEUTRON@14295-14320' & PATCHED GRDED@VARIOUS DEPTHS BASED ON GRRED. ANY DOUBTS, PLEASE REFER TO ORIGINAL CURVES IN STANDARD LAS. STICKING TOOL MAY SLIGHTLY AFFECT LOG QUALITY ON OTHER AREAS, PLEASE USE WITH CAUTIONS.
~ASCII -----------------------------------------------------
# ...
 13050.00000   72.30050   49.14230   46.64360   39.91370   10.62500   11.15320   11.15320   25.05410    -999.25    0.00690    2.64230    0.03960    -999.25    0.03960   39.91370    -999.25    0.00690   56.86150    -999.25    -999.25   88.70890   88.70890   56.86150   51.84140   52.48210   52.48210    -999.25    -999.25    -999.25    -999.25   49.14230    0.00230    0.00230    3.00580    3.00580    -999.25  -10.91630    6.83590   72.30050 4965.25390 5245.65480
 13100.00000   28.37440   34.55440   37.96640   42.95550   10.62500   11.24340   11.24340   23.27990    -999.25    0.00630    2.54330    0.09750    -999.25    0.09750   42.95550    -999.25    0.00630   60.20040    -999.25    -999.25  101.70930  101.70930   60.20040   10.80530   15.16540   15.16540    -999.25    -999.25    -999.25    -999.25   34.55440    0.01480    0.01480    2.58320    2.58320    -999.25  -45.45930  -29.65630   28.37440 4905.49560 5294.83940
 13150.00000   19.71560   16.94080   17.37020   18.85540   10.62500   10.88590   10.88590   53.03520    -999.25    0.05210    2.71620   -0.00360    -999.25   -0.00360   18.85540    -999.25    0.05210   63.86400    -999.25    -999.25  108.17820  108.17820   63.86400  102.18900   98.45150   98.45150    -999.25    -999.25    -999.25    -999.25   16.94080    0.11180    0.11180    3.98110    3.98110    -999.25   -6.51290    7.39490   19.71560 5034.36230 5281.64700
 13200.00000   43.10950   39.85040   33.15250   26.12730   10.62500   10.49550   10.49550   38.27410    -999.25    0.01170    2.66370    0.02710    -999.25    0.02710   26.12730    -999.25    0.01170   58.65920    -999.25    -999.25   92.15290   92.15290   58.65920   52.12270   54.76350   54.76350    -999.25    -999.25    -999.25    -999.25   39.85040    0.01020    0.01020    2.98520    2.98520    -999.25   -3.06290    9.49500   43.10950 4983.32180 5307.07280
 13250.00000  135.99630   86.78650   72.67100   63.15530   10.62500   10.35040   10.35040   15.83400    -999.25    0.01470    2.62140    0.05180    -999.25    0.05180   63.15530    -999.25    0.01470   54.52220    -999.25    -999.25   85.83660   85.83660   54.52220   21.31470   24.48040   24.48040    -999.25    -999.25    -999.25    -999.25   86.78650   -0.00810   -0.00810    2.67140    2.67140    -999.25  -22.56450  -11.35650  135.99630 4959.67240 5314.79390
 13300.00000   17.71680   15.04040   13.34290   13.00240   10.62500   10.48500   10.48500   76.90890    -999.25    0.01340    2.64500    0.03800    -999.25    0.03800   13.00240    -999.25    0.01340   62.44920    -999.25    -999.25  104.51240  104.51240   62.44920   82.66500   90.99700   90.99700    -999.25    -999.25    -999.25    -999.25   15.04040    0.09770    0.09770    3.52840    3.52840    -999.25   -9.07690    0.78120   17.71680 5034.08110 5317.20210
 13350.00000   12.60770   11.55600   11.78500   11.50720   10.62500   10.68290   10.68290   86.90210    -999.25    0.01430    2.70380    0.00360    -999.25    0.00360   11.50720    -999.25    0.01430   63.06920    -999.25    -999.25  115.17680  115.17680   63.06920  103.50550  107.98000  107.98000    -999.25    -999.25    -999.25    -999.25   11.55600    0.17200    0.17200    4.69100    4.69100    -999.25   -6.18370    2.32450   12.60770 5005.13080 5332.72610
 13400.00000   24.53150   33.22040   36.57100   42.98230   10.62500   10.31970   10.31970   23.26540    -999.25    0.01650    2.65000    0.03510    -999.25    0.03510   42.98230    -999.25    0.01650   56.10090    -999.25    -999.25   92.31290   92.31290   56.10090   29.89910   31.77470   31.77470    -999.25    -999.25    -999.25    -999.25   33.22040    0.00050    0.00050    3.20660    3.20660    -999.25  -14.36140   -7.20310   24.53150 5037.07960 5396.08640
 13450.00000    6.40400   10.02880    8.02820    7.41780   10.62500   10.31520   10.31520  134.81090    -999.25    0.03290    2.71630   -0.00370    -999.25   -0.00370    7.41780    -999.25    0.03290   60.96050    -999.25    -999.25  115.51180  115.51180   60.96050   78.13900   78.26460   78.26460    -999.25    -999.25    -999.25    -999.25   10.02880    0.11270    0.11270    5.08050    5.08050    -999.25   -3.35680    2.45160    6.40400 5050.08200 5420.54930
 13500.00000   10.14160   10.86640   12.10280   12.51840   10.62500   11.20850   11.20850   79.88240    -999.25    0.00700    2.76630   -0.03290    -999.25   -0.03290   12.51840    -999.25    0.00700   62.19120    -999.25    -999.25  111.93100  111.93100   62.19120   70.16190   65.45900   65.45900    -999.25    -999.25    -999.25    -999.25   10.86640    0.08580    0.08580    4.52250    4.52250    -999.25   -4.14560    0.21170   10.14160 4997.41360 5265.43600
 13550.00000    5.16040    5.38870    5.49210    5.76150   10.62500   10.83090   10.83090  173.56590    -999.25    0.01010    2.64720    0.03670    -999.25    0.03670    5.76150    -999.25    0.01010   62.39830    -999.25    -999.25  107.48760  107.48760   62.39830   67.34940   64.93820   64.93820    -999.25    -999.25    -999.25    -999.25    5.38870    0.05920    0.05920    2.90040    2.90040    -999.25   -6.53090   -3.68500    5.16040 5075.05130 5265.63180
 13600.00000   10.60090    8.19110   11.33240   13.41560   10.62500   10.29650   10.29650   74.54010    -999.25    0.03180    2.40100    0.18070    -999.25    0.18070   13.41560    -999.25    0.03180   60.30070    -999.25    -999.25  100.42500  100.42500   60.30070   79.17870   70.36550   70.36550    -999.25    -999.25    -999.25    -999.25    8.19110    0.10410    0.10410    5.62230    5.62230    -999.25  -19.38550  -16.58670   10.60090 5008.75950 5280.45510
 13650.00000   11.91610   10.61530   10.05470    9.79780   10.62500   10.24750   10.24750  102.06370    -999.25    0.08490    2.65780    0.03050    -999.25    0.03050    9.79780    -999.25    0.08490   64.86710    -999.25    -999.25  105.18830  105.18830   64.86710   58.54100   44.10260   44.10260    -999.25    -999.25    -999.25    -999.25   10.61530    0.04680    0.04680    4.24760    4.24760    -999.25  -17.38880  -14.63720   11.91610 5025.30270 5320.44630
 13700.00000    3.22450    2.92060    2.66130    2.58670   10.62500   12.16430   12.16430  386.59300    -999.25    0.14720    2.43470    0.16100    -999.25    0.16100    2.58670    -999.25    0.14720   83.33780    -999.25    -999.25  138.63910  138.63910   83.33780  108.48450  103.11950  103.11950    -999.25    -999.25    -999.25    -999.25    2.92060    0.20710    0.20710    7.70960    7.70960    -999.25  -13.73400  -11.02960    3.22450 5126.53880 5403.74610
 13750.00000  102.85760   22.97790   54.37140   55.90690   10.62500   10.16460   10.16460   17.88690    -999.25    0.00760    2.61820    0.05370    -999.25    0.05370   55.90690    -999.25    0.00760   58.13970    -999.25    -999.25   91.78240   91.78240   58.13970   29.03540   27.90060   27.90060    -999.25    -999.25    -999.25    -999.25   22.97790    0.00340    0.00340    2.57620    2.57620    -999.25  -42.63670  -39.97950  102.85760 5038.52440 5274.01860
 13800.00000    9.43010    8.87190    7.53650    7.16520   10.62500   10.54230   10.54230  139.56340    -999.25    0.04070    2.58210    0.07480    -999.25    0.07480    7.16520    -999.25    0.04070   70.21230    -999.25    -999.25  115.72290  115.72290   70.21230   80.38320   72.40610   72.40610    -999.25    -999.25    -999.25    -999.25    8.87190    0.06080    0.06080    3.57270    3.57270    -999.25  -17.56470  -14.95460    9.43010 5128.90530 5419.50150
 13850.00000   17.52400   19.23670   23.50570   23.99140   10.62500   10.11310   10.11310   41.68160    -999.25    0.04340    2.62520    0.04960    -999.25    0.04960   23.99140    -999.25    0.04340   65.11500    -999.25    -999.25   90.94850   90.94850   65.11500   32.16400   30.20160   30.20160    -999.25    -999.25    -999.25    -999.25   19.23670    0.01230    0.01230    3.69220    3.69220    -999.25  -45.84290  -43.28000   17.52400 4986.17580 5398.48000
 13900.00000   18.65010   26.51080  217.48480  111.89650   10.62500   10.14630   10.14630    8.93680    -999.25    0.00130    2.54500    0.09650    -999.25    0.09650  111.89650    -999.25    0.00130   59.98310    -999.25    -999.25   94.39200   94.39200   59.98310   13.03650   13.24750   13.24750    -999.25    -999.25    -999.25    -999.25   26.51080   -0.00240   -0.00240    2.43450    2.43450    -999.25  -39.77130  -37.29720   18.65010 5137.30130 5423.21390
