~Version ---------------------------------------------------
VERS. 2.0 : CWLS log ASCII Standard -VERSION 2.0
WRAP. YES : Multiple lines per depth step
~Well ------------------------------------------------------
STRT.FT                  2300.0 : START DEPTH
STOP.FT                 10600.0 : STOP DEPTH
STEP.FT                50.00000 : STEP LENGTH
NULL.                   -999.25 : NULL VALUE
COMP. PAUL E CAMERON, JR., INC. : COMPANY
WELL.           FREEMAN UNIT #1 : WELL
FLD .                    BEDIAS : FIELD
LOC .                           : LOCATION
CNTY.                    GRIMES : COUNTY
STAT.                     TEXAS : STATE
CTRY.  UNITED STATES OF AMERICA : COUNTRY
SRVC.                     Welex : SERVICE COMPANY
DATE.               15-Aug-1981 : LOGDATE
API .            42185302840000 : API NUMBER
UWI .            42185302840000 : UNIQUE WELL ID
SLAT.WGS84        30.7842928206 : SURFACE LATITUDE
SLON.WGS84        -95.978471058 : SURFACE LONGITUDE
~Curve Information -----------------------------------------
DEPT    .FT    : DEPTH
CALDED  .IN    : CALIPER FROM DENSITY LOG (ADJ TO RES.)
CALWS   .IN    : CALIPER (CALDED)
CONDWS  .MMHO  : CONDUCTIVITY (1000/DRESWS)
CORRED  .G/C3  : DENSITY CORRECTION (ADJ TO RES.)
DCORWS  .G/C3  : DENSITY CORRECTION (CORRED)
DENWS   .G/C3  : BULK DENSITY  (RHOBED LS)
DPORLSED.V/V   : DENSITY POROSITY  LIMESTONE (ADJ TO RES.)
DPOWS   .V/V   : DENSITY POROSITY (M=2.71 F=1 DPORLSED)
DRESWS  .OHMM  : DEEP RESISTIVITY (ILDED0
GRDED   .GAPI  : GAMMA RAY FROM DENSITY LOG (ADJ TO RES.)
GRRED   .GAPI  : GAMMA RAY FROM RESISTIVITY LOG
GRWS    .GAPI  : GAMMA RAY (GRRED)
ILDED   .OHMM  : DEEP INDUCTION RESISTIVITY
ILMED   .OHMM  : MEDIUM INDUCTION RESISTIVITY
MRESWS  .OHMM  : MEDIUM RESISTIVITY (ILMED)
NEUTED  .NAPI  : Neutron from Neutron Gamma Log (ADJ TO RES.)
NEUTWS  .NAPI  : Neutron from Neutron Gamma Log (NEUTED)
RHOBED  .G/C3  : BULK DENSITY (ADJ TO RES.)
SGUARDED.OHMM  : SHORT GUARD LOG RESISTIVITY
SPRED   .MV    : Spontaneous Potential from Resistivity Log
SPWS    .MV    : SPONTANEOUS POTENTIAL BASELINE 0 MV (SPRED)
SRESWS  .OHMM  : SHALLOW RESISTIVITY (SGUARDED)
~Params ----------------------------------------------------
PD  .                     GL : PERMANENT DATUM
LMF .                    TKB : LOG MEASURED FROM
DAPD.FT                 18.2 : FEET ABOVE PERMANENT DATUM
DMF .                    TKB : DRILLING MEASURED FROM
DATE.               08/15/81 : RUN DATE
RUN .                      1 : RUN NUMBER
DD  .FT                10631 : DEPTH DRILLER
DL  .FT                10612 : DEPTH LOGGER
BLI .FT                10610 : BOTTOM LOG INTERVAL
TLI .FT                 2287 : TOP LOG INTERVAL
CS  .IN                9.625 : CASING SIZE
CBD .FT                 2294 : CASING BOTTOM DRILLER
CBL .FT                 2287 : CASING BOTTOM LOGGER
BS  .IN                 8.75 : BIT SIZE
BSD .FT                10631 : BIT SIZE AT DEPTH
DFT .     LIGNOSULFONATE MUD : DRILLING FLUID TYPE
DFD .                    9.9 : DRILLING FLUID DENSITY
DFV .                     50 : DRILLING FLUID VISCOSITY
DFPH.                    1.8 : DRILLING FLUID PH
DFL .                      6 : DRILLING FLUID LOSS
MSS .                    PIT : MUD SAMPLE SOURCE
RMS .OHMM               1.84 : RESISTIVITY MUD SAMPLE
MST .DEGF                 75 : MUD SAMPLE TEMPERATURE
RMF .OHMM               1.64 : RESISTIVITY MUD FILTRATE SAMPLE
MFST.DEGF                 75 : MUD FILTRATE SAMPLE TEMPERATURE
RMC .OHMM               1.41 : RESISTIVITY MUD CAKE
MCST.DEGF                 75 : MUD CAKE SAMPLE TEMPERATURE
MFSS.                   MEAS : MUD FILTRATE SAMPLE SOURCE
MCSS.                   MEAS : MUD CAKE SAMPLE SOURCE
RMB .OHMM               0.62 : RESISTIVITY MUD AT BHT
TCS .HRS                   7 : TIME CIRCULATED STOPPED
LUN .                   1123 : LOGGING UNIT NUMBER
LUL .                   BRYN : LOGGING UNIT LOCATION
ENGI.                  SMITH : RECORDING ENGINEER
CLNT.                A2DTECH : CLIENT CODE
ORIG.            1" 5" PRINT : ORIGIN OF DATA
UWI .         42185302840000 : UNIQUE WELL ID
DICO. A2D Technologies, Inc. : DIGITIZING COMPANY
~Other -----------------------------------------------------
~ASCII -----------------------------------------------------
# ...
 7100.00000    -999.25    -999.25  420.69830    -999.25    -999.25    -999.25    -999.25    -999.25    2.37700    -999.25   78.03830   78.03830    2.37700    2.31480    2.31480    -999.25    -999.25    -999.25    2.72220  -37.02560   -4.20060    2.72220
 7150.00000    -999.25    -999.25  448.63170    -999.25    -999.25    -999.25    -999.25    -999.25    2.22900    -999.25   82.86960   82.86960    2.22900    2.13520    2.13520    -999.25    -999.25    -999.25    2.52740  -39.20310   -6.44200    2.52740
 7200.00000    -999.25    -999.25  431.66710    -999.25    -999.25    -999.25    -999.25    -999.25    2.31660    -999.25   80.16860   80.16860    2.31660    2.41140    2.41140    -999.25    -999.25    -999.25    2.54080  -38.99580   -6.29790    2.54080
 7250.00000    -999.25    -999.25  390.53340    -999.25    -999.25    -999.25    -999.25    -999.25    2.56060    -999.25   92.95560   92.95560    2.56060    2.67060    2.67060    -999.25    -999.25    -999.25    2.86150  -38.14160   -5.50690    2.86150
 7300.00000    -999.25    -999.25  396.98290    -999.25    -999.25    -999.25    -999.25    -999.25    2.51900    -999.25   90.66560   90.66560    2.51900    2.71270    2.71270    -999.25    -999.25    -999.25    3.17350  -39.79890   -7.22740    3.17350
 7350.00000    -999.25    -999.25  431.05310    -999.25    -999.25    -999.25    -999.25    -999.25    2.31990    -999.25   85.85220   85.85220    2.31990    2.41560    2.41560    -999.25    -999.25    -999.25    2.72550  -37.11180   -4.60350    2.72550
 7400.00000    -999.25    -999.25  396.13370    -999.25    -999.25    -999.25    -999.25    -999.25    2.52440    -999.25   78.01160   78.01160    2.52440    2.62720    2.62720    -999.25    -999.25    -999.25    2.87070  -41.24880   -8.80370    2.87070
 7450.00000    -999.25    -999.25  402.56030    -999.25    -999.25    -999.25    -999.25    -999.25    2.48410    -999.25   98.00470   98.00470    2.48410    2.58580    2.58580    -999.25    -999.25    -999.25    2.87530  -37.88100   -5.49910    2.87530
 7500.00000    -999.25    -999.25  396.33790    -999.25    -999.25    -999.25    -999.25    -999.25    2.52310    -999.25   88.36570   88.36570    2.52310    2.58910    2.58910    -999.25    -999.25    -999.25    2.67110  -39.14340   -6.82460    2.67110
 7550.00000    -999.25    -999.25  424.95330    -999.25    -999.25    -999.25    -999.25    -999.25    2.35320    -999.25   78.42130   78.42130    2.35320    2.44920    2.44920    -999.25    -999.25    -999.25    2.61250  -37.06730   -4.81170    2.61250
 7600.00000    -999.25    -999.25  343.70170    -999.25    -999.25    -999.25    -999.25    -999.25    2.90950    -999.25   80.06510   80.06510    2.90950    3.09630    3.09630    -999.25    -999.25    -999.25    3.71720  -39.50990   -7.31750    3.71720
 7650.00000    -999.25    -999.25  401.91310    -999.25    -999.25    -999.25    -999.25    -999.25    2.48810    -999.25   90.08600   90.08600    2.48810    2.59640    2.59640    -999.25    -999.25    -999.25    2.91990  -38.74270   -6.61350    2.91990
 7700.00000    -999.25    -999.25  367.49840    -999.25    -999.25    -999.25    -999.25    -999.25    2.72110    -999.25   91.60490   91.60490    2.72110    3.04550    3.04550    -999.25    -999.25    -999.25    3.80640  -36.20180   -4.13580    3.80640
 7750.00000    -999.25    -999.25  383.42090    -999.25    -999.25    -999.25    -999.25    -999.25    2.60810    -999.25   82.74990   82.74990    2.60810    2.71490    2.71490    -999.25    -999.25    -999.25    2.84200  -37.52690   -5.52410    2.84200
 7800.00000    -999.25    -999.25  366.91860    -999.25    -999.25    -999.25    -999.25    -999.25    2.72540    -999.25   89.77310   89.77310    2.72540    2.83350    2.83350    -999.25    -999.25    -999.25    3.03130  -38.38870   -6.44910    3.03130
 7850.00000    -999.25    -999.25  374.77050    -999.25    -999.25    -999.25    -999.25    -999.25    2.66830    -999.25   92.13110   92.13110    2.66830    2.91540    2.91540    -999.25    -999.25    -999.25    3.16820  -36.39920   -4.52280    3.16820
 7900.00000    -999.25    -999.25  341.36690    -999.25    -999.25    -999.25    -999.25    -999.25    2.92940    -999.25   78.95560   78.95560    2.92940    3.13810    3.13810    -999.25    -999.25    -999.25    3.25330  -36.91990   -5.10670    3.25330
 7950.00000    -999.25    -999.25  414.01010    -999.25    -999.25    -999.25    -999.25    -999.25    2.41540    -999.25   80.05560   80.05560    2.41540    2.58260    2.58260    -999.25    -999.25    -999.25    2.83800  -31.05270   -2.89890    2.83800
 8000.00000    -999.25    -999.25  583.53270    -999.25    -999.25    -999.25    -999.25    -999.25    1.71370    -999.25   64.66770   64.66770    1.71370    1.78400    1.78400    -999.25    -999.25    -999.25    2.06350  -30.21180   -2.35650    2.06350
 8050.00000    -999.25    -999.25  632.95140    -999.25    -999.25    -999.25    -999.25    -999.25    1.57990    -999.25   78.76230   78.76230    1.57990    1.64440    1.64440    -999.25    -999.25    -999.25    1.86110  -31.01060   -2.97610    1.86110
 8100.00000    -999.25    -999.25  529.40860    -999.25    -999.25    -999.25    -999.25    -999.25    1.88890    -999.25   76.92040   76.92040    1.88890    1.96780    1.96780    -999.25    -999.25    -999.25    2.02630  -30.69470   -2.48110    2.02630
 8150.00000    -999.25    -999.25  567.08630    -999.25    -999.25    -999.25    -999.25    -999.25    1.76340    -999.25   71.55120   71.55120    1.76340    1.83530    1.83530    -999.25    -999.25    -999.25    1.95150  -31.00700   -2.61420    1.95150
 8200.00000    -999.25    -999.25  587.40600    -999.25    -999.25    -999.25    -999.25    -999.25    1.70240    -999.25   77.01090   77.01090    1.70240    1.77350    1.77350    -999.25    -999.25    -999.25    1.96180  -30.98500   -2.41310    1.96180
 8250.00000    -999.25    -999.25  524.60390    -999.25    -999.25    -999.25    -999.25    -999.25    1.90620    -999.25   75.27290   75.27290    1.90620    1.98400    1.98400    -999.25    -999.25    -999.25    2.12390  -30.49670   -1.74560    2.12390
 8300.00000    -999.25    -999.25  516.02250    -999.25    -999.25    -999.25    -999.25    -999.25    1.93790    -999.25   73.40460   73.40460    1.93790    2.06620    2.06620    -999.25    -999.25    -999.25    2.27130  -29.58590   -0.65570    2.27130
 8350.00000    -999.25    -999.25  455.14540    -999.25    -999.25    -999.25    -999.25    -999.25    2.19710    -999.25   81.34920   81.34920    2.19710    2.23860    2.23860    -999.25    -999.25    -999.25    2.38420  -31.03120   -1.92180    2.38420
 8400.00000    -999.25    -999.25  499.50050    -999.25    -999.25    -999.25    -999.25    -999.25    2.00200    -999.25   74.32870   74.32870    2.00200    1.90840    1.90840    -999.25    -999.25    -999.25    2.08850  -30.57260   -1.28410    2.08850
 8450.00000    -999.25    -999.25  419.00610    -999.25    -999.25    -999.25    -999.25    -999.25    2.38660    -999.25   85.03050   85.03050    2.38660    2.48420    2.48420    -999.25    -999.25    -999.25    2.74960  -30.99350   -1.52580    2.74960
 8500.00000    -999.25    -999.25  419.26970    -999.25    -999.25    -999.25    -999.25    -999.25    2.38510    -999.25   77.21360   77.21360    2.38510    2.48900    2.48900    -999.25    -999.25    -999.25    2.76500  -32.20140   -2.55460    2.76500
 8550.00000    -999.25    -999.25  238.66350    -999.25    -999.25    -999.25    -999.25    -999.25    4.19000    -999.25   49.99940   49.99940    4.19000    4.65380    4.65380    -999.25    -999.25    -999.25    4.91190  -36.40080   -2.60810    4.91190
 8600.00000    -999.25    -999.25  231.09100    -999.25    -999.25    -999.25    -999.25    -999.25    4.32730    -999.25   51.05200   51.05200    4.32730    4.83170    4.83170    -999.25    -999.25    -999.25    5.54270  -35.85190   -2.54500    5.54270
 8650.00000    -999.25    -999.25  257.91810    -999.25    -999.25    -999.25    -999.25    -999.25    3.87720    -999.25   55.43450   55.43450    3.87720    4.24940    4.24940    -999.25    -999.25    -999.25    4.95860  -34.57820   -1.75710    4.95860
