~Version ---------------------------------------------------
VERS. 2.0 : CWLS log ASCII Standard -VERSION 2.0
WRAP. YES : Multiple lines per depth step
~Well ------------------------------------------------------
STRT.FT                   3400.0 : START DEPTH
STOP.FT                  16600.0 : STOP DEPTH
STEP.FT                 50.00000 : STEP LENGTH
NULL.                    -999.25 : NULL VALUE
COMP. CHAMPLIN PETROLEUM COMPANY : COMPANY
WELL.      CHARLES C. CHARTER #1 : WELL
FLD .                    WILDCAT : FIELD
LOC .                            : LOCATION
CNTY.                     BRAZOS : COUNTY
STAT.                      TEXAS : STATE
CTRY.   UNITED STATES OF AMERICA : COUNTRY
SRVC.                            : SERVICE COMPANY
DATE.                            : LOGDATE
API .             42041304470000 : API NUMBER
UWI .             42041304470000 : UNIQUE WELL ID
SLAT.WGS84         30.8464717491 : SURFACE LATITUDE
SLON.WGS84        -96.3676910928 : SURFACE LONGITUDE
~Curve Information -----------------------------------------
DEPT  .FT    : DEPTH
CALDED.IN    : CALIPER FROM DENSITY LOG
CALWS .IN    : CALIPER [CALDED]
CONDWS.MMHO  : CONDUCTIVITY [1000/DRESWS]
DCORWS.G/C3  : DENSITY CORRECTION [DRHOED]
DENWS .G/C3  : BULK DENSITY [RHOBED]
DPOWS .V/V   : DENSITY POROSITY [3434 M=2.71 F=1.0, 11632 M=2.65 F=1.0, 15400 M=2.71 F=1.0] [CALCULATED FROM RHOBED]
DRESWS.OHMM  : DEEP RESISTIVITY [ILDED]
DRHOED.G/C3  : DENSITY CORRECTION FROM DENSITY LOG
DTED  .US/F  : DELTA TIME FROM SONIC LOG
DTWS  .US/F  : DELTA TIME [DTED]
GRDED .GAPI  : GAMMA RAY FROM DENSITY LOG
GRRED .GAPI  : GAMMA RAY FROM RESISTIVITY LOG
GRWS  .GAPI  : GAMMA RAY [GRDED]
ILDED .OHMM  : INDUCTION LOG DEEP RESISTIVITY
ILMED .OHMM  : INDUCTION LOG MEDIUM RESISTIVITY
MRESWS.OHMM  : MEDIUM RESISTIVITY [ILMED]
NPHIED.V/V   : NEUTRON POROSITY 3434 LIMESTONE 11632 SANDSTONE 15400 LIMESTONE FROM DENSITY LOG
NPOWS .V/V   : NEUTRON POROSITY 3434 LIMESTONE 11632 SANDSTONE 15400 LIMESTONE [NPHIED]
RHOBED.G/C3  : BULK DENSITY FROM DENSITY LOG
SFLED .OHMM  : SPHERICALLY FOCUSED LOG RESISTIVITY
SPED  .MV    : SPONTANEOUS POTENTIAL [BASELINE 0 MV] FROM RESISTIVITY LOG
SPWS  .MV    : SPONTANEOUS POTENTIAL [SPED]
SRESWS.OHMM  : SHALLOW RESISTIVITY [SFLED]
~Params ----------------------------------------------------
EKB .F                 368.0 : Kelly bushing
EGL .F                 346.0 : Ground level
EDF .F                 367.0 : Drilling floor
EPD .F                 346.0 : Permanent datum
TD  .F               16600.0 : Total depth
DATE.            01-OCT-1979 : DATE LOGGED
CLNT.                A2DTECH : CLIENT CODE
SL  . 100' FSEL & 3100' FNEL : SURFACE LOCATION
PD  .                     GL : PERMANENT DATUM
LMF .                     KB : LOG MEASURED FROM
DMF .                     KB : DRILLING MEASURED FROM
DAPD.F                    22 : FEET ABOVE PERMANENT DATUM
DD  .F                 16600 : DEPTH DRILLER
DL  .F                 16600 : DEPTH LOGGER
BLI .F                 16593 : BOTTOM LOG INTERVAL
TLI .F                 10338 : TOP LOG INTERVAL
CS1 .IN                9.625 : CASING SIZE
CBD1.        9.625" @ 10324' : CASING DRILLER 1
CBL1.F                 10338 : CASING LOGGER 1
BS1 .IN                  8.5 : BIT SIZE
BSD1.F                 16600 : DEPTH DRILLED WITH BIT1
DFT .             SPER XP-20 : TYPE FLUID IN HOLE
DFD .                   12.2 : DENSITY
DFV .                     47 : VISCOSITY
DFPH.                   10.5 : PH
DFL .                    5.3 : FLUID LOSS
MSS .                    PIT : SOURCE OF SAMPLE
RMS .OHMM               0.21 : RM
RMF .OHMM               0.16 : RMF
RMC .OHMM               0.32 : RMC
MFSS.                   CALC : SOURCE RMF.
MCSS.                   CALC : SOURCE RMC.
RMB .OHMM               0.04 : RM. AT BHT
BHT .F                   334 : BHT.
TCS .HRS                 600 : TIME CIRC. STOPPED
TLAB.HRS                 530 : TIME LOGGER AT BOTTOM
LUN .                   8101 : LOGGING UNIT NUMBER
LUL .                BRENHAM : LOGGING UNIT LOCATION
ENGI.                   EAST : RECORDED BY
WITN.           LANNY CRAMER : WITNESSED BY
ORIG.               5" PRINT : ORIGIN OF DATA
UWI .         42041304470000 : UNIQUE WELL ID
DICO. A2D TECHNOLOGIES, INC. : DIGITIZING COMPANY
~Other -----------------------------------------------------
~ASCII -----------------------------------------------------
# ...
 15800.00000    9.13700    9.13700   31.10420   -0.00700    2.69600    0.00820   32.15000   -0.00700   51.25650   51.25650   15.31600    -999.25   15.31600   32.15000   26.33400   26.33400   -0.00300   -0.00300    2.69600   33.96400  -46.22930  -46.22930   33.96400
 15850.00000    7.39400    7.39400   17.18450    0.04900    2.57900    0.07660   58.19200    0.04900   52.00200   52.00200   17.45800    -999.25   17.45800   58.19200   67.95900   67.95900    0.01800    0.01800    2.57900  180.12700  -35.08120  -35.08120  180.12700
 15900.00000    9.44200    9.44200   14.02350   -0.00040    2.76900   -0.03450   71.30900   -0.00040   50.27300   50.27300   15.80100    -999.25   15.80100   71.30900   39.72000   39.72000    0.01200    0.01200    2.76900  181.55700  -43.28520  -43.28520  181.55700
 15950.00000    8.69300    8.69300   36.32660   -0.01000    2.72500   -0.00880   27.52800   -0.01000   53.75800   53.75800   43.64700    -999.25   43.64700   27.52800   40.39100   40.39100    0.01950    0.01950    2.72500   77.77700  -11.10110  -11.10110   77.77700
 16000.00000    8.58900    8.58900   38.03870    0.00100    2.73800   -0.01640   26.28900    0.00100   53.75550   53.75550   41.85100    -999.25   41.85100   26.28900   22.30200   22.30200    0.01650    0.01650    2.73800   98.62600   -9.61510   -9.61510   98.62600
 16050.00000    9.74000    9.74000  443.65570    0.00900    2.68500    0.01460    2.25400    0.00900   79.24800   79.24800  126.19700    -999.25  126.19700    2.25400    2.29900    2.29900    0.14100    0.14100    2.68500    3.08600   -3.71290   -3.71290    3.08600
 16100.00000    9.01100    9.01100  184.97960   -0.00700    2.73800   -0.01640    5.40600   -0.00700   66.91700   66.91700   76.59600    -999.25   76.59600    5.40600    5.35100    5.35100    0.10350    0.10350    2.73800    7.62400   -6.56760   -6.56760    7.62400
 16150.00000    8.72600    8.72600  157.45550    0.00000    2.72600   -0.00940    6.35100    0.00000   64.72750   64.72750   65.14100    -999.25   65.14100    6.35100    6.84900    6.84900    0.07050    0.07050    2.72600    8.40300   -9.42830   -9.42830    8.40300
 16200.00000    9.04600    9.04600  256.21320   -0.00200    2.69900    0.00640    3.90300   -0.00200   75.33200   75.33200   72.83800    -999.25   72.83800    3.90300    3.49800    3.49800    0.16800    0.16800    2.69900    4.43500   -9.10590   -9.10590    4.43500
 16250.00000    9.28400    9.28400  478.92720    0.01300    2.71100   -0.00060    2.08800    0.01300   80.65550   80.65550  126.48500    -999.25  126.48500    2.08800    2.09400    2.09400    0.17850    0.17850    2.71100    3.24600   -5.00260   -5.00260    3.24600
 16300.00000    8.80700    8.80700  126.18300    0.00700    2.75200   -0.02460    7.92500    0.00700   63.44550   63.44550   57.00000    -999.25   57.00000    7.92500    7.58100    7.58100    0.05100    0.05100    2.75200   16.86700   -8.16830   -8.16830   16.86700
 16350.00000    9.05700    9.05700   16.18540    0.01200    2.73600   -0.01520   61.78400    0.01200   52.32500   52.32500   16.20500    -999.25   16.20500   61.78400  284.87000  284.87000    0.00600    0.00600    2.73600  267.23700  -11.33300  -11.33300  267.23700
 16400.00000    8.66300    8.66300  222.46940    0.00400    2.73000   -0.01170    4.49500    0.00400   69.44350   69.44350   17.70800    -999.25   17.70800    4.49500    3.15000    3.15000    0.11550    0.11550    2.73000    9.84600   -5.08370   -5.08370    9.84600
 16450.00000    8.76900    8.76900   46.24490    0.00200    2.75100   -0.02400   21.62400    0.00200   51.44700   51.44700   26.98300    -999.25   26.98300   21.62400   17.11700   17.11700    0.03300    0.03300    2.75100  155.55800  -14.50740  -14.50740  155.55800
 16500.00000    8.25700    8.25700   49.83800   -0.00400    2.76000   -0.02920   20.06500   -0.00400   51.31950   51.31950   13.57500    -999.25   13.57500   20.06500   42.36100   42.36100    0.06000    0.06000    2.76000  409.43200   -4.12310   -4.12310  409.43200
 16550.00000    8.22500    8.22500   81.85320    0.00600    2.73100   -0.01230   12.21700    0.00600   55.16350   55.16350   37.17200    -999.25   37.17200   12.21700   13.20500   13.20500    -999.25    -999.25    2.73100   24.00600  -11.58550  -11.58550   24.00600
 16600.00000    8.01800    8.01800    -999.25    -999.25    -999.25    -999.25    -999.25    -999.25    -999.25    -999.25    -999.25    -999.25    -999.25    -999.25    -999.25    -999.25    -999.25    -999.25    -999.25    -999.25    -999.25    -999.25    -999.25
