~Version ---------------------------------------------------
VERS. 2.0 : CWLS log ASCII Standard -VERSION 2.0
WRAP. YES : MULTIPLE LINES PER DEPTH STEP
~Well ------------------------------------------------------
STRT.FT                 1650.0 : START DEPTH
STOP.FT                 6350.0 : STOP DEPTH
STEP.FT               50.00000 : STEP LENGTH
NULL.                  -999.25 : NULL VALUE
COMP.  JENNINGS EXPLORATION CO : COMPANY
WELL.       BROLL HENRY JR. #1 : WELL
FLD .                       WC : FIELD
LOC .                          : LOCATION
CNTY.                   WILSON : COUNTY
STAT.                    TEXAS : STATE
CTRY. UNITED STATES OF AMERICA : COUNTRY
SRVC.               Computalog : SERVICE COMPANY
DATE.              23-Sep-1990 : LOGDATE
API .           42493322270000 : API NUMBER
UWI .           42493322270000 : UNIQUE WELL ID
SLAT.WGS84        29.059677326 : SURFACE LATITUDE
SLON.WGS84      -98.2105069587 : SURFACE LONGITUDE
~Curve Information -----------------------------------------
DEPT    .FT                                                                                               : DEPTH FEET
BITED   .IN                                                                                               : BIT SIZE FROM LOG HEADER
CALWS   .IN                                                                                               : CALIPER [DCALED+BITED]
CONDWS  .MMHO                                                                                             : CONDUCTIVITY [1000/DRESWS]
DCALED  .IN                                                                                               : DIFFERENTIAL CALIPER FROM DENSITY LOG
DCORWS  .G/C3                                                                                             : DENSITY CORRECTION [DRHOED]
DENWS   .G/C3 :   BULK DENSITY [CALCULATED FROM DPHISSED: M=2.65 F=1.0 TO 5330] [CALCULATED FROM DPHILSED : M=2.71, F=1 (5330 TO TD)]
DPHILSED.V/V                                                                                              : DENSITY POROSITY LIMESTONE
DPHISSED.V/V                                                                                              : DENSITY POROSITY SANDSTONE
DPOWS   .V/V                                   :   DENSITY POROSITY [M=2.71 F=1.0] [CALCULATED FROM DENWS : WELLTOP TO TD]
DRESWS  .OHMM                                                                                             : DEEP RESISTIVITY [ILDED]
DRHOED  .G/C3                                                                                             : DENSITY CORRECTION FROM DENSITY LOG
GRRED   .GAPI                                                                                             : GAMMA RAY FROM RESISTIVITY LOG
GRWS    .GAPI                                                                                             : GAMMA RAY [GRRED]
ILDED   .OHMM                                                                                             : INDUCTION LOG DEEP RESISTIVITY
ILMED   .OHMM                                                                                             : INDUCTION LOG MEDIUM RESISTIVITY
LL3ED   .OHMM                                                                                             : LATEROLOG 3 RESISTIVITY
MRESWS  .OHMM                                                                                             : MEDIUM RESISTIVITY [ILMED]
NPHILSED.V/V                                                                                              : NEUTRON POROSITY LIMESTONE
NPHISSED.V/V                                                                                              : NEUTRON POROSITY SANDSTONE
NPOWS   .V/V                                                                                              : NEUTRON POROSITY LIMESTONE [CONVERTED FROM NPHISSED (WELLTOP TO 5330), THEN EQUALS NPHILSED TO TD. SEE OTHER INFORMATION BELOW ON CONVERSION PARMS]
SPRED   .MV                                                                                               : SPONTANEOUS POTENTIAL FROM RESISTIVITY LOG
SPWS    .MV                                                                                               : SPONTANEOUS POTENTIAL [BASELINE 0 MV] [SPRED]
SRESWS  .OHMM                                                                                             : SHALLOW RESISTIVITY [LL3ED]
TENRED  .LBF                                                                                              : TENSION FROM RESISTIVITY LOG
~Params ----------------------------------------------------
PD  .                     GL : PERMANENT DATUM
EPD .FT                  461 : ELEVATION PERMANENT DATUM
LMF .                    TKB : LOG MEASURED FROM
DAPD.FT                    8 : FEET ABOVE PERMANENT DATUM
DMF .                    TKB : DRILLING MEASURED FROM
EKB .FT                  469 : KELLY BUSHING
EDF .FT                  468 : DRILLING FLOOR
EGL .FT                  461 : GROUND LEVEL
DATE.               09/23/90 : RUN DATE
RUN .                      1 : RUN NUMBER
DD  .FT                 6390 : DEPTH DRILLER
DL  .FT                 6372 : DEPTH LOGGER
BLI .FT                 6369 : BOTTOM LOG INTERVAL
TLI .FT                 1640 : TOP LOG INTERVAL
CS  .IN                8.625 : CASING SIZE
CBD .FT                 1640 : CASING BOTTOM DRILLER
CBL .FT                 1640 : CASING BOTTOM LOGGER
BS  .IN                7.875 : BIT SIZE
BSD .FT                 6390 : BIT SIZE AT DEPTH
DFT .                    WBM : DRILLING FLUID TYPE
DFD .                   9.85 : DRILLING FLUID DENSITY
DFV .                     50 : DRILLING FLUID VISCOSITY
DFPH.                      9 : DRILLING FLUID PH
DFL .                    7.6 : DRILLING FLUID LOSS
MSS .             CIRCULATED : MUD SAMPLE SOURCE
RMS .OHMM               3.65 : RESISTIVITY MUD SAMPLE
MST .DEGF                106 : MUD SAMPLE TEMPERATURE
RMF .OHMM               3.21 : RESISTIVITY MUD FILTRATE SAMPLE
MFST.DEGF                106 : MUD FILTRATE SAMPLE TEMPERATURE
RMC .OHMM               4.05 : RESISTIVITY MUD CAKE
MCST.DEGF                106 : MUD CAKE SAMPLE TEMPERATURE
MFSS.                   MEAS : MUD FILTRATE SAMPLE SOURCE
MCSS.                   MEAS : MUD CAKE SAMPLE SOURCE
RMB .OHMM               2.36 : RESISTIVITY MUD AT BHT
TCS .HRS                   6 : TIME CIRCULATED STOPPED
LUN .                   3049 : LOGGING UNIT NUMBER
LUL .                    SEG : LOGGING UNIT LOCATION
ENGI.              DEVILBISS : RECORDING ENGINEER
WITN.               JENNINGS : WITNESSED BY
CLNT.                A2DTECH : CLIENT CODE
ORIG.               5" PRINT : ORIGIN OF DATA
UWI .         42493322270000 : UNIQUE WELL ID
DICO. A2D Technologies, Inc. : DIGITIZING COMPANY
~Other -----------------------------------------------------
1. NPOWS converted from NPHISSED (welltop to 5330) with following parms: Logging Co. = Computalog. Tool = CNS. Input Matrix: Quartz. Output Matrix: Limestone. Rest of NPOWS = NPHILSED (5330 to TD).
2. DENWS calculated from DPHISSED (welltop TO 5330) M=2.65, F=1. Then calculated from DPHILSED (5330 to TD) M=2.71, F=1.
3. DPOWS then calculated from DENWS (welltop to TD) M=2.71, F=1.
~ASCII -----------------------------------------------------
# ...
 3100.00000    7.87500    7.83520  107.92490   -0.03980    -999.25    -999.25    -999.25    -999.25    -999.25    9.26570    -999.25   63.95000   63.95000    9.26570    8.51700    9.18020    8.51700    -999.25    -999.25    -999.25 -113.07340  -19.73520    9.18020 2053.54880
 3150.00000    7.87500    8.06040  227.12300    0.18540    -999.25    -999.25    -999.25    -999.25    -999.25    4.40290    -999.25   69.25290   69.25290    4.40290    4.30670    5.95070    4.30670    -999.25    -999.25    -999.25 -111.32410  -17.90780    5.95070 2097.44380
 3200.00000    7.87500    7.81540  109.22040   -0.05960    -999.25    -999.25    -999.25    -999.25    -999.25    9.15580    -999.25   64.70400   64.70400    9.15580    8.25660    9.80800    8.25660    -999.25    -999.25    -999.25 -117.41250  -23.91810    9.80800 2074.09810
 3250.00000    7.87500    7.89220   69.28520    0.01720    -999.25    -999.25    -999.25    -999.25    -999.25   14.43310    -999.25   54.04240   54.04240   14.43310   13.96590   17.36320   13.96590    -999.25    -999.25    -999.25 -116.97580  -23.40330   17.36320 2183.86570
 3300.00000    7.87500    8.42740  193.02780    0.55240    -999.25    -999.25    -999.25    -999.25    -999.25    5.18060    -999.25   46.22780   46.22780    5.18060    5.22030   10.58160    5.22030    -999.25    -999.25    -999.25 -112.51510  -18.86450   10.58160 2205.41430
 3350.00000    7.87500    8.08950  126.15110    0.21450    -999.25    -999.25    -999.25    -999.25    -999.25    7.92700    -999.25   45.94240   45.94240    7.92700    7.67680   11.80980    7.67680    -999.25    -999.25    -999.25 -115.81720  -22.08850   11.80980 2203.58370
 3400.00000    7.87500    9.74470   89.30800    1.86970    -999.25    -999.25    -999.25    -999.25    -999.25   11.19720    -999.25   43.16230   43.16230   11.19720    9.70930   11.51810    9.70930    -999.25    -999.25    -999.25 -116.25970  -22.45290   11.51810 2194.79790
 3450.00000    7.87500    8.13810  299.42810    0.26310    -999.25    -999.25    -999.25    -999.25    -999.25    3.33970    -999.25   81.73420   81.73420    3.33970    3.14550    4.66820    3.14550    -999.25    -999.25    -999.25 -100.60960   -6.72470    4.66820 2218.33540
 3500.00000    7.87500    7.64700  100.33210   -0.22800    0.01750    2.12610    -999.25    0.31750    0.34140    9.96690    0.01750   50.15670   50.15670    9.96690    8.64400   11.40580    8.64400    -999.25    0.34440    0.29940 -114.96780  -21.00480   11.40580 2258.91970
 3550.00000    7.87500    7.97660  397.59850    0.10160    0.07710    2.26340    -999.25    0.23430    0.26120    2.51510    0.07710   89.15340   89.15340    2.51510    2.50180    4.20450    2.50180    -999.25    0.34940    0.30440  -98.94170   -4.90060    4.20450 2246.21900
 3600.00000    7.87500    7.56840  183.31810   -0.30660    0.03760    2.20050    -999.25    0.27240    0.29790    5.45500    0.03760   66.59780   66.59780    5.45500    5.78440    5.55170    5.78440    -999.25    0.34540    0.30040 -107.20910  -13.08990    5.55170 2308.40210
 3650.00000    7.87500    7.64980  326.55190   -0.22520    0.05010    2.24580    -999.25    0.24500    0.27150    3.06230    0.05010   92.06970   92.06970    3.06230    3.03180    4.91590    3.03180    -999.25    0.37930    0.33430 -100.87000   -6.67270    4.91590 2265.06640
 3700.00000    7.87500   10.92970  468.42800    3.05470    0.16310    2.02750    -999.25    0.37730    0.39910    2.13480    0.16310   86.41310   86.41310    2.13480    1.93510    2.85840    1.93510    -999.25    0.49360    0.44860  -96.07640   -1.93510    2.85840 2433.89060
 3750.00000    7.87500    8.22880  415.95610    0.35380    0.12060    2.27560    -999.25    0.22690    0.25400    2.40410    0.12060   91.77440   91.77440    2.40410    2.16900    3.17120    2.16900    -999.25    0.42310    0.37810  -97.89140   -3.94010    3.17120 2316.60110
 3800.00000    7.87500    7.85530  289.82990   -0.01970    0.02580    2.25570    -999.25    0.23900    0.26570    3.45030    0.02580   87.32460   87.32460    3.45030    3.33310    7.42210    3.33310    -999.25    0.31220    0.26720 -116.34600  -22.58470    7.42210 2343.97490
 3850.00000    7.87500    8.80890  329.31570    0.93390    0.11450    2.26770    -999.25    0.23170    0.25870    3.03660    0.11450   86.69680   86.69680    3.03660    2.70670    3.47980    2.70670    -999.25    0.38300    0.33800  -97.59070   -4.01930    3.47980 2373.33110
 3900.00000    7.87500    8.42120  338.38660    0.54620    0.05210    2.33450    -999.25    0.19120    0.21960    2.95520    0.05210   90.47090   90.47090    2.95520    2.73670    3.77350    2.73670    -999.25    0.35430    0.30930  -97.31800   -3.93660    3.77350 2367.23850
 3950.00000    7.87500    9.03140  491.42460    1.15640    0.06820    2.34620    -999.25    0.18410    0.21270    2.03490    0.06820   97.02410   97.02410    2.03490    1.93890    2.65050    1.93890    -999.25    0.39230    0.34730  -95.01240   -1.82100    2.65050 2387.60500
 4000.00000    7.87500    9.95780  490.31630    2.08280    0.13580    2.27540    -999.25    0.22700    0.25410    2.03950    0.13580   89.41070   89.41070    2.03950    1.94260    2.75850    1.94260    -999.25    0.39980    0.35480  -94.50670   -1.50530    2.75850 2472.69530
 4050.00000    7.87500    8.67770  393.51490    0.80270    0.14640    2.35120    -999.25    0.18110    0.20980    2.54120    0.14640   92.65860   92.65860    2.54120    2.40180    3.26680    2.40180    -999.25    0.34480    0.29980  -93.72390   -0.82880    3.26680 2443.87230
 4100.00000    7.87500    9.98980  558.47200    2.11480    0.07650    2.28240    -999.25    0.22280    0.25010    1.79060    0.07650   89.53560   89.53560    1.79060    1.78110    2.52300    1.78110    -999.25    0.38690    0.34190  -95.22960   -2.42000    2.52300 2442.03080
 4150.00000    7.87500   10.57110  584.65860    2.69610    0.08160    2.28900    -999.25    0.21880    0.24620    1.71040    0.08160   95.37590   95.37590    1.71040    1.69200    2.34290    1.69200    -999.25    0.44030    0.39530 -105.27380  -12.54960    2.34290 2450.12500
 4200.00000    7.87500   11.46170  699.25180    3.58670    0.08490    2.35600    -999.25    0.17820    0.20700    1.43010    0.08490   96.84490   96.84490    1.43010    1.44310    2.17390    1.44310    -999.25    0.44600    0.40100 -105.41960  -12.78090    2.17390 2471.43510
 4250.00000    7.87500   11.59080  754.88790    3.71580    0.12560    2.28600    -999.25    0.22060    0.24790    1.32470    0.12560   90.70490   90.70490    1.32470    1.33670    2.02600    1.33670    -999.25    0.47430    0.42930 -105.83380  -13.28050    2.02600 2482.20560
 4300.00000    7.87500   10.65360  806.71180    2.77860    0.09390    2.24180    -999.25    0.24740    0.27380    1.23960    0.09390  105.88200  105.88200    1.23960    1.25350    1.74900    1.25350    -999.25    0.47870    0.43370 -103.33620  -10.86830    1.74900 2484.39920
 4350.00000    7.87500   10.04810  903.17920    2.17310    0.03380    2.29760    -999.25    0.21360    0.24120    1.10720    0.03380  106.06320  106.06320    1.10720    1.11730    1.63300    1.11730    -999.25    0.46400    0.41900 -105.00450  -12.62210    1.63300 2531.43990
 4400.00000    7.87500    9.16050  506.66260    1.28550    0.13830    2.32810    -999.25    0.19510    0.22330    1.97370    0.13830   72.56940   72.56940    1.97370    1.93400    2.54670    1.93400    -999.25    0.34180    0.29680 -103.35590  -11.05890    2.54670 2588.99320
 4450.00000    7.87500   10.61990  707.26360    2.74490    0.19400    2.26800    -999.25    0.23150    0.25850    1.41390    0.19400   82.29920   82.29920    1.41390    1.42700    2.00150    1.42700    -999.25    0.40790    0.36290 -103.56170  -11.35010    2.00150 2579.67800
 4500.00000    7.87500    9.09350  457.83350    1.21850    0.08440    2.39410    -999.25    0.15510    0.18470    2.18420    0.08440   80.51320   80.51320    2.18420    2.08680    2.71910    2.08680    -999.25    0.31780    0.27280 -103.79200  -11.66590    2.71910 2614.92190
