~Version ---------------------------------------------------
VERS. 2.0 : CWLS log ASCII Standard -VERSION 2.0
WRAP. YES : MULTIPLE LINES PER DEPTH STEP
~Well ------------------------------------------------------
STRT.FT                   1000.0 : START DEPTH
STOP.FT                  11500.0 : STOP DEPTH
STEP.FT                 50.00000 : STEP LENGTH
NULL.                    -999.25 : NULL VALUE
COMP. KAISER-FRANCIS OIL COMPANY : COMPANY
WELL.            D.C. MCMANUS #1 : WELL
FLD .              AUSTIN PIERCE : FIELD
LOC .                            : LOCATION
CNTY.                   GONZALES : COUNTY
STAT.                      TEXAS : STATE
CTRY.   UNITED STATES OF AMERICA : COUNTRY
SRVC.               Schlumberger : SERVICE COMPANY
DATE.                01-Dec-1996 : LOGDATE
API .             42177320060000 : API NUMBER
UWI .             42177320060000 : UNIQUE WELL ID
SLAT.WGS84          29.374572664 : SURFACE LATITUDE
SLON.WGS84        -97.3289574079 : SURFACE LONGITUDE
~Curve Information -----------------------------------------
DEPT    .FT    : DEPTH FEET
AO10ED  .OHMM  : 10 INCH ARRAY RESISTIVITY ONE FOOT RESOLUTION
AO20ED  .OHMM  : 20 INCH ARRAY RESISTIVITY ONE FOOT RESOLUTION
AO30ED  .OHMM  : 30 INCH ARRAY RESISTIVITY ONE FOOT RESOLUTION
AO60ED  .OHMM  : 60 INCH ARRAY RESISTIVITY ONE FOOT RESOLUTION
AO90ED  .OHMM  : 90 INCH ARRAY RESISTIVITY ONE FOOT RESOLUTION
CALWS   .IN    : CALIPER [DCALED+BITED]
CONDWS  .MMHO  : CONDUCTIVITY [1000/DRESWS]
DCALRED .IN    : DIFFERENTIAL CALIPER FROM RESISTIVITY LOG
DCORWS  .G/C3  : DENSITY CORRECTION [HDRAED]
DENWS   .G/C3  : BULK DENSITY [M=2.71 F=1.0] [CALCULATED FROM DPOWS]
DPHZLSED.V/V   : DENSITY POROSITY [M=2.71 F=1.0] FROM DENSITY LOG
DPOWS   .V/V   : DENSITY POROSITY [M=2.71 F=1.0] [DPHZLSED]
DRESWS  .OHMM  : DEEP RESISTIVITY [AO90ED]
DTED    .US/F  : DELTA TIME FROM SONIC LOG
DTWS    .US/F  : DELTA TIME [DTED]
GRRED   .GAPI  : GAMMA RAY FROM RESISTIVITY LOG
GRWS    .GAPI  : GAMMA RAY [GRRED, CSG ABOVE 1070F]
HDRAED  .G/C3  : DENSITY CORRECTION FROM DENSITY LOG
MRESWS  .OHMM  : MEDIUM RESISTIVITY [AO30ED]
NPHILSED.V/V   : NEUTRON POROSITY LIMESTONE FROM DENSITY LOG
NPOWS   .V/V   : NEUTRON POROSITY LIMESTONE [NPHILSED]
SPRED   .MV    : SPONTANEOUS POTENTIAL FROM RESISTIVITY LOG
SPWS    .MV    : SPONTANEOUS POTENTIAL [BASELINE 0 MV] [SPRED]
SRESWS  .OHMM  : SHALLOW RESISTIVITY [AO10ED]
TENRED  .LBF   : TENSION FROM RESISTIVITY LOG
~Params ----------------------------------------------------
PD  .                     GL : PERMANENT DATUM
EPD .FT               257.26 : ELEVATION PERMANENT DATUM
LMF .                     KB : LOG MEASURED FROM
DAPD.FT                 16.3 : FEET ABOVE PERMANENT DATUM
DMF .                     KB : DRILLING MEASURED FROM
EKB .FT               275.58 : KELLY BUSHING
EDF .FT                  275 : DRILLING FLOOR
EGL .FT               257.26 : GROUND LEVEL
DATE.               12/01/96 : RUN DATE
RUN .                      1 : RUN NUMBER
DD  .FT                11530 : DEPTH DRILLER
DL  .FT                11500 : DEPTH LOGGER
BLI .FT                11500 : BOTTOM LOG INTERVAL
TLI .FT                 1070 : TOP LOG INTERVAL
CS  .IN                9.625 : CASING SIZE
CBD .FT                 1061 : CASING BOTTOM DRILLER
CBL .FT                 1070 : CASING BOTTOM LOGGER
BS  .IN                 8.75 : BIT SIZE
BSD .FT                11530 : BIT SIZE AT DEPTH
DFT .                 LOLIME : DRILLING FLUID TYPE
DFD .                   10.1 : DRILLING FLUID DENSITY
DFV .                     47 : DRILLING FLUID VISCOSITY
DFPH.                    9.5 : DRILLING FLUID PH
MSS .                MUD PIT : MUD SAMPLE SOURCE
RMS .OHMM               4.36 : RESISTIVITY MUD SAMPLE
MST .FT                   75 : MUD SAMPLE TEMPERATURE
RMF .OHMM                3.7 : RESISTIVITY MUD FILTRATE SAMPLE
MFST.FT                   75 : MUD FILTRATE SAMPLE TEMPERATURE
RMC .OHMM                6.5 : RESISTIVITY MUD CAKE
MCST.FT                   75 : MUD CAKE SAMPLE TEMPERATURE
MFSS.              MUD PRESS : MUD FILTRATE SAMPLE SOURCE
MCSS.                   CALC : MUD CAKE SAMPLE SOURCE
RMB .OHMM              1.515 : RESISTIVITY MUD AT BHT
TCS .HRS                 430 : TIME CURCULATED STOPPED
TLAB.HRS                 900 : TIME LOGGER AT BOTTOM
LUN .                   3075 : LOGGING UNIT NUMBER
LUL .               VICTORIA : LOGGING UNIT LOCATION
ENGI.                  NAHRI : RECORDING ENGINEER
WITN.                   RUSS : WITNESSED BY
CLNT.                A2DTECH : CLIENT CODE
ORIG.               5" PRINT : ORIGIN OF DATA
UWI .         42177320060000 : UNIQUE WELL ID
DICO. A2D Technologies, Inc. : DIGITIZING COMPANY
~Other -----------------------------------------------------
~ASCII -----------------------------------------------------
# ...
 8000.00000    2.70470    2.74150    2.55650    2.53890    2.51710   10.99850  397.28260    2.24850    -999.25    -999.25    -999.25    -999.25    2.51710    -999.25    -999.25  107.18140  107.18140    -999.25    2.55650    -999.25    -999.25   -7.14940   -1.44050    2.70470 3725.45040
 8050.00000    2.15700    2.13960    2.13050    2.11920    2.09370   10.98620  477.62340    2.23620    -999.25    -999.25    -999.25    -999.25    2.09370    -999.25    -999.25  114.43970  114.43970    -999.25    2.13050    -999.25    -999.25   -6.74070   -1.64410    2.15700 3750.92140
 8100.00000    2.31430    2.30780    2.17120    2.15770    2.13940   10.96010  467.42080    2.21010    -999.25    -999.25    -999.25    -999.25    2.13940    -999.25    -999.25  101.31930  101.31930    -999.25    2.17120    -999.25    -999.25   -7.21070   -2.72650    2.31430 3721.81930
 8150.00000    2.24160    2.15570    2.11180    2.10040    2.08480   10.57220  479.66230    1.82220    -999.25    -999.25    -999.25    -999.25    2.08480    -999.25    -999.25  104.80130  104.80130    -999.25    2.11180    -999.25    -999.25   -5.19900   -1.32710    2.24160 3817.60030
 8200.00000    2.16400    2.01410    1.99930    1.93650    1.92180   10.93130  520.34550    2.18130    -999.25    -999.25    -999.25    -999.25    1.92180    -999.25    -999.25  106.39010  106.39010    -999.25    1.99930    -999.25    -999.25   -4.08040   -0.82090    2.16400 3836.94700
 8250.00000    2.22210    1.94600    1.91890    1.90730    1.89160   10.96860  528.65300    2.21860    -999.25    -999.25    -999.25    -999.25    1.89160    -999.25    -999.25   99.41440   99.41440    -999.25    1.91890    -999.25    -999.25   -5.38040   -2.73320    2.22210 3823.13890
 8300.00000    2.70730    2.66390    2.64690    2.58200    2.53690   10.98800  394.18190    2.23800    -999.25    -999.25    -999.25    -999.25    2.53690    -999.25    -999.25  105.67030  105.67030    -999.25    2.64690    -999.25    -999.25   -3.82900   -1.79420    2.70730 3830.95340
 8350.00000    1.81020    1.78930    1.71160    1.70190    1.67930   10.96000  595.48620    2.21000    -999.25    -999.25    -999.25    -999.25    1.67930    -999.25    -999.25  104.86700  104.86700    -999.25    1.71160    -999.25    -999.25   -4.36820   -2.97460    1.81020 3896.18120
 8400.00000    1.71580    1.73340    1.65720    1.64840    1.63640   10.98700  611.09750    2.23700    -999.25    -999.25    -999.25    -999.25    1.63640    -999.25    -999.25  106.51360  106.51360    -999.25    1.65720    -999.25    -999.25   -2.79660   -2.19620    1.71580 3920.73440
 8450.00000    2.02470    2.15880    1.97510    1.91190    1.94640   10.97310  513.76900    2.22310    -999.25    -999.25    -999.25    -999.25    1.94640    -999.25    -999.25  103.72600  103.72600    -999.25    1.97510    -999.25    -999.25   -4.34260   -4.53530    2.02470 3914.72680
 8500.00000    1.95610    1.93690    1.87320    1.86020    1.84260   10.94790  542.71140    2.19790    -999.25    -999.25    -999.25    -999.25    1.84260    -999.25    -999.25  109.26970  109.26970    -999.25    1.87320    -999.25    -999.25   -4.26440   -5.25020    1.95610 3771.05590
 8550.00000    2.18180    2.22570    2.11840    2.10170    2.07930   10.49030  480.93110    1.74030    -999.25    -999.25    -999.25    -999.25    2.07930    -999.25    -999.25  106.54730  106.54730    -999.25    2.11840    -999.25    -999.25   -4.22450   -6.00340    2.18180 3838.24610
 8600.00000    2.17480    2.14070    1.98050    1.97010    1.95590   10.44870  511.27360    1.69870    -999.25    -999.25    -999.25    -999.25    1.95590    -999.25    -999.25  105.61240  105.61240    -999.25    1.98050    -999.25    -999.25    0.43070   -2.14130    2.17480 3783.34450
 8650.00000    2.08970    2.07320    1.92640    1.91630    1.90260   10.76340  525.59660    2.01340    -999.25    -999.25    -999.25    -999.25    1.90260    -999.25    -999.25  104.08720  104.08720    -999.25    1.92640    -999.25    -999.25   -0.49920   -4.68340    2.08970 3881.72360
 8700.00000    2.10830    1.99060    2.03560    1.90000    1.88100    9.24230  531.63210    0.49230    -999.25    -999.25    -999.25    -999.25    1.88100    -999.25    -999.25  111.40110  111.40110    -999.25    2.03560    -999.25    -999.25    4.46870   -1.80880    2.10830 3928.56050
 8750.00000    1.42770    1.39090    1.32440    1.30750    1.29830    8.85040  770.23800    0.10040    -999.25    -999.25    -999.25    -999.25    1.29830    -999.25    -999.25  110.15900  110.15900    -999.25    1.32440    -999.25    -999.25    6.11040   -2.26030    1.42770 3966.44460
 8800.00000    1.18380    1.15200    1.08160    1.05690    1.04950    9.91640  952.83470    1.16640    -999.25    -999.25    -999.25    -999.25    1.04950    -999.25    -999.25  100.15020  100.15020    -999.25    1.08160    -999.25    -999.25    8.68270   -1.78120    1.18380 3954.48410
 8850.00000    1.28740    1.33810    1.21530    1.19220    1.18390    9.41800  844.66600    0.66800    -999.25    -999.25    -999.25    -999.25    1.18390    -999.25    -999.25   97.36760   97.36760    -999.25    1.21530    -999.25    -999.25   10.35540   -1.78720    1.28740 3997.15700
 8900.00000    1.88750    1.81750    1.73280    1.69130    1.66180    9.35390  601.75710    0.60390    -999.25    -999.25    -999.25    -999.25    1.66180    -999.25    -999.25   83.46350   83.46350    -999.25    1.73280    -999.25    -999.25    7.28600   -4.35890    1.88750 3974.82620
 8950.00000    1.48700    1.45940    1.40740    1.37830    1.36730   10.71150  731.36830    1.96150    -999.25    -999.25    -999.25    -999.25    1.36730    -999.25    -999.25  100.56650  100.56650    -999.25    1.40740    -999.25    -999.25    6.90190   -4.24530    1.48700 4156.84230
 9000.00000    1.31540    1.33320    1.29440    1.28770    1.27240   10.98340  785.91640    2.23340    -999.25    2.66930    0.02380    0.02380    1.27240   94.62940   94.62940   94.40270   94.40270    -999.25    1.29440    0.25550    0.25550    7.34240   -4.49040    1.31540 4011.70290
 9050.00000    1.30710    1.42060    1.27340    1.21650    1.24230   10.95070  804.95850    2.20070    -999.25    2.58820    0.07120    0.07120    1.24230   97.11190   97.11190  100.96580  100.96580    -999.25    1.27340    0.27540    0.27540   10.39070   -2.40530    1.30710 3911.26680
 9100.00000    1.36010    1.58520    1.27000    1.19360    1.22870   11.00430  813.86830    2.25430    -999.25    2.70210    0.00460    0.00460    1.22870   97.75440   97.75440   91.03890   91.03890    -999.25    1.27000    0.31280    0.31280   13.34870   -0.41050    1.36010 3900.13820
 9150.00000    1.32000    1.51720    1.22390    1.20430    1.19200   10.98180  838.92610    2.23180    -999.25    2.70030    0.00570    0.00570    1.19200   94.98390   94.98390   96.76610   96.76610    -999.25    1.22390    0.27640    0.27640   12.19900   -2.52340    1.32000 3991.05710
 9200.00000    1.44040    1.48500    1.37650    1.31360    1.30610   10.96580  765.63810    2.21580    -999.25    2.52450    0.10850    0.10850    1.30610   95.21970   95.21970   99.30290   99.30290    -999.25    1.37650    0.25390    0.25390   12.13790   -3.54770    1.44040 3974.81740
 9250.00000    1.44990    1.44090    1.36810    1.30430    1.29830   10.56160  770.23800    1.81160    -999.25    2.42890    0.16440    0.16440    1.29830   94.02080   94.02080   96.42150   96.42150    -999.25    1.36810    0.26130    0.26130   13.47230   -3.17650    1.44990 3960.06400
 9300.00000    1.28270    1.27180    1.15160    1.14300    1.13750    9.92610  879.12080    1.17610    0.10570    2.44750    0.15350    0.15350    1.13750   96.40470   96.40470   99.13240   99.13240    0.10570    1.15160    0.26440    0.26440   16.00330   -1.60870    1.28270 4058.21220
 9350.00000    2.65380    2.68900    2.35410    2.21240    2.19080    8.77660  456.45430    0.02660    0.00950    2.58170    0.07500    0.07500    2.19080   84.11700   84.11700  103.44890  103.44890    0.00950    2.35410    0.19180    0.19180   17.36900   -1.20620    2.65380 4149.45750
