~Version ---------------------------------------------------
VERS.      2.0 : CWLS log ASCII Standard -VERSION 2.0
WRAP.      YES : Multiple lines per depth step
CREA. 05/20/13 : LAS Creation Date
~Well ------------------------------------------------------
STRT.FT                    1750.0 : START DEPTH
STOP.FT                   15250.0 : STOP DEPTH
STEP.FT                  50.00000 : STEP LENGTH
NULL.                     -999.25 : NULL VALUE
COMP. TEXAS OIL & GAS CORPORATION : COMPANY
WELL.                   REED E #1 : WELL
FLD .                  BEAR GRASS : FIELD
LOC .                             : LOCATION
CNTY.                   FREESTONE : COUNTY
STAT.                       TEXAS : STATE
CTRY.    UNITED STATES OF AMERICA : COUNTRY
SRVC.               Dresser Atlas : SERVICE COMPANY
DATE.                 20-Dec-1978 : LOGDATE
API .              42161304400000 : API NUMBER
UWI .              42161304400000 : UNIQUE WELL ID
SLAT.WGS84           31.421505692 : SURFACE LATITUDE
SLON.WGS84         -96.2242059669 : SURFACE LONGITUDE
~Curve Information -----------------------------------------
DEPT    .FT    : DEPTH FEET
CALDED  .IN    : CALIPER FROM DENSITY LOG
CALWS   .IN    : CALIPER [CALDED]
CONDWS  .MMHO  : CONDUCTIVITY [1000/DRESWS]
CORRED  .G/C3  : DENSITY CORRECTION FROM DENSITY LOG
DCORWS  .G/C3  : DENSITY CORRECTION [CORRED]
DENWS   .G/C3  : FORMATION BULK DENSITY [RHOBED]
DPHILSED.V/V   : DENSITY POROSITY LIMESTONE [M=2.71, F=1.0] FROM DENSITY LOG [ADJ. TO RHOBED]
DPOWS   .V/V   : DENSITY POROSITY LIMESTONE [DPHILSED]
DRESWS  .OHMM  : DEEP RESISTIVITY [ILDED]
GRDED   .GAPI  : GAMMA RAY FROM DENSITY LOG
GRWS    .GAPI  : GAMMA RAY [GRDED]
ILDED   .OHMM  : DEEP INDUCTION RESISTIVITY FROM RESISTIVITY LOG
ILMED   .OHMM  : MEDIUM INDUCTION RESISTIVITY FROM RESISTIVITY LOG
MRESWS  .OHMM  : MEDIUM RESISTIVITY [ILMED]
NPHILSED.V/V   : NEUTRON POROSITY LIMESTONE FROM DENSITY LOG
NPOWS   .V/V   : NEUTRON POROSITY LIMESTONE [NPHILSED]
RHOBED  .G/C3  : BULK DENSITY FROM DENSITY LOG
SFLED   .OHMM  : SPHERICALLY FOCUSED FROM RESISTIVITY LOG
SPRED   .MV    : SPONTANEOUS POTENTIAL FROM RESISTIVITY LOG
SPWS    .MV    : SPONTANEOUS POTENTIAL [BASELINE 0 MV, SPRED]
SRESWS  .OHMM  : SHALLOW RESISTIVITY [SFLED]
TENDED  .LBF   : TENSION FROM DENSITY LOG
~Params ----------------------------------------------------
PD  .                     GL : PERMANENT DATUM
EPD .FT                  452 : ELEVATION PERMANENT DATUM
LMF .                     KB : LOG MEASURED FROM
DAPD.FT                   21 : FEET ABOVE PERMANENT DATUM
DMF .                     KB : DRILLING MEASURED FROM
EKB .FT                  473 : KELLY BUSHING
EDF .FT                  472 : DRILLING FLOOR
EGL .FT                  452 : GROUND LEVEL
DATE.               12/20/78 : RUN DATE
RUN .                      4 : RUN NUMBER
DD  .FT                15297 : DEPTH DRILLER
DL  .FT                15240 : DEPTH LOGGER
BLI .FT                15238 : BOTTOM LOG INTERVAL
TLI .FT                14903 : TOP LOG INTERVAL
CS  .IN                    7 : CASING SIZE
CBD .FT                12937 : CASING BOTTOM DRILLER
CBL .FT                12936 : CASING BOTTOM LOGGER
BS  .IN                    6 : BIT SIZE
BSD .FT                15297 : BIT SIZE AT DEPTH
DFT .               CHEM GEL : DRILLING FLUID TYPE
DFD .                   16.5 : DRILLING FLUID DENSITY
DFV .                     60 : DRILLING FLUID VISCOSITY
DFPH.                   10.8 : DRILLING FLUID PH
DFL .                      8 : DRILLING FLUID LOSS
TCS .HRS                   8 : TIME CIRCULATED STOPPED
LUN .                   6104 : LOGGING UNIT NUMBER
LUL .                  TYLER : LOGGING UNIT LOCATION
ENGI.                 DELLVA : RECORDING ENGINEER
WITN.                  GRACE : WITNESSED BY
CLNT.                A2DTECH : CLIENT CODE
ORIG.               5" PRINT : ORIGIN OF DATA
UWI .         42161304400000 : UNIQUE WELL ID
DICO. A2D Technologies, Inc. : DIGITIZING COMPANY
~Other -----------------------------------------------------
CDL-CNL-DIL LOG RAN
RUN 2: CDL & CNL VALUES FROM 12935'TO 13250'NOT VALID DUE TO INTERMITTANT,
TOOL FAILURE CAUSED BY CONSTANT STICKING OF TOOL.
RUN 3:TOOL RUN WITHOUT 1.5" S.O. BECAUSE OF SMALL BOREHOLE SET DOWN AT 15033' & LOGGED UP.
~ASCII -----------------------------------------------------
# ...
 12950.00000    7.37050    7.37050  232.83970    -999.25    -999.25    -999.25    -999.25    -999.25    4.29480   73.95730   73.95730    4.29480    5.67280    5.67280    -999.25    -999.25    -999.25    4.87050  -21.77810   -4.56130    4.87050   66.65260
 13000.00000    7.22070    7.22070  200.07600    -999.25    -999.25    -999.25    -999.25    -999.25    4.99810   62.84630   62.84630    4.99810    5.84870    5.84870    -999.25    -999.25    -999.25    6.81240  -28.63910  -11.88970    6.81240   -5.44390
 13050.00000    7.93100    7.93100  174.16440    -999.25    -999.25    -999.25    -999.25    -999.25    5.74170   84.59760   84.59760    5.74170    6.76330    6.76330    -999.25    -999.25    -999.25    8.30670  -32.18480  -15.90270    8.30670  -10.54620
 13100.00000    8.10640    8.10640  239.20580    -999.25    -999.25    -999.25    -999.25    -999.25    4.18050   76.03370   76.03370    4.18050    5.25900    5.25900    -999.25    -999.25    -999.25    6.10710  -28.65890  -12.84420    6.10710    -999.25
 13150.00000    8.94150    8.94150  235.52690    -999.25    -999.25    -999.25    -999.25    -999.25    4.24580   67.29110   67.29110    4.24580    5.06290    5.06290    -999.25    -999.25    -999.25    6.00700  -28.32800  -12.98070    6.00700    -999.25
 13200.00000    9.65930    9.65930  117.80920    -999.25    -999.25    -999.25    -999.25    -999.25    8.48830   79.93360   79.93360    8.48830    8.84280    8.84280    -999.25    -999.25    -999.25    9.39580  -22.92110   -8.04110    9.39580    -999.25
 13250.00000    9.67730    9.67730   59.93770   -0.00060   -0.00060    2.58480    0.06350    0.07320   16.68400   94.28980   94.28980   16.68400   13.59000   13.59000    0.14280    0.14280    2.58480   13.24150  -23.03290   -8.62030   13.24150    -999.25
 13300.00000   13.28230   13.28230  129.90560   -0.02710   -0.02710    2.66010    0.01990    0.02920    7.69790   78.68580   78.68580    7.69790    8.71950    8.71950    0.18500    0.18500    2.66010   11.63110  -20.38410   -6.43890   11.63110    -999.25
 13350.00000   13.31130   13.31130  183.87760    0.01700    0.01700    2.66090    0.01800    0.02870    5.43840   92.61390   92.61390    5.43840    7.06700    7.06700    0.17580    0.17580    2.66090   11.43280  -23.01560   -9.53780   11.43280    -999.25
 13400.00000   13.55350   13.55350  219.38480    0.01520    0.01520    2.62270    0.03930    0.05110    4.55820   83.68540   83.68540    4.55820    5.01740    5.01740    0.19880    0.19880    2.62270    7.55380  -25.08020  -12.06970    7.55380   -6.96840
 13450.00000   13.30160   13.30160  164.89680   -0.01660   -0.01660    2.58340    0.06430    0.07400    6.06440   90.52880   90.52880    6.06440    6.90560    6.90560    0.19100    0.19100    2.58340    8.88640  -24.66720  -12.12410    8.88640   -7.90040
 13500.00000   12.78880   12.78880  205.08610   -0.00660   -0.00660    2.56970    0.07290    0.08200    4.87600   87.39410   87.39410    4.87600    6.14480    6.14480    0.20540    0.20540    2.56970   10.72980  -19.69340   -7.61770   10.72980    -999.25
 13550.00000    8.80180    8.80180   63.47470    0.01180    0.01180    2.59590    0.04740    0.06670   15.75430  102.93150  102.93150   15.75430   16.70160   16.70160    0.15300    0.15300    2.59590   68.38290  -18.25260   -7.16970   68.38290    -999.25
 13600.00000   11.03060   11.03060  194.53360    0.01610    0.01610    2.54680    0.08520    0.09540    5.14050  104.05800  104.05800    5.14050    5.92150    5.92150    0.18060    0.18060    2.54680    8.10470  -18.88440   -9.15950    8.10470    -999.25
 13650.00000    8.72310    8.72310  212.26920    0.02910    0.02910    2.61610    -999.25    0.05490    4.71100   85.95740   85.95740    4.71100    5.31490    5.31490    -999.25    -999.25    2.61610    7.38240  -14.53230   -6.16540    7.38240 1968.09470
 13700.00000    7.83100    7.83100  242.13660    0.03540    0.03540    2.62110    0.04210    0.05200    4.12990  107.48400  107.48400    4.12990    5.02030    5.02030    0.08040    0.08040    2.62110    7.06810  -18.57980  -11.57090    7.06810    -999.25
 13750.00000    7.78620    7.78620  145.41010    0.01860    0.01860    2.61930    0.03920    0.05300    6.87710  108.65940  108.65940    6.87710   10.21590   10.21590    0.16630    0.16630    2.61930   20.56330  -15.47870   -9.82780   20.56330    -999.25
 13800.00000    7.54980    7.54980  162.30340    0.02220    0.02220    2.57180    0.06850    0.08080    6.16130  125.24160  125.24160    6.16130    9.78270    9.78270    0.14810    0.14810    2.57180   10.37460  -13.32240   -9.02950   10.37460    -999.25
 13850.00000    8.01690    8.01690  183.34160    0.02550    0.02550    2.57910    0.06750    0.07650    5.45430  112.37170  112.37170    5.45430    5.85950    5.85950    0.16310    0.16310    2.57910   11.47150  -13.56130  -10.62640   11.47150   34.63010
 13900.00000    7.11110    7.11110  272.26440    0.01320    0.01320    2.55630    0.08110    0.08990    3.67290  115.07180  115.07180    3.67290    4.37390    4.37390    0.15510    0.15510    2.55630    6.17120   -9.41260   -7.83570    6.17120  878.59740
 13950.00000    6.96760    6.96760  145.82570    0.03460    0.03460    2.57080    0.07210    0.08140    6.85750  111.86110  111.86110    6.85750    8.54920    8.54920    0.08720    0.08720    2.57080   14.05210   -5.93690   -5.44640   14.05210  135.46300
 14000.00000    6.35920    6.35920   43.67040    0.01880    0.01880    2.64320    0.02890    0.03910   22.89880   90.80060   90.80060   22.89880   29.00770   29.00770    0.06590    0.06590    2.64320   46.09640  -17.55150  -17.06100   46.09640    1.57110
 14050.00000    6.21460    6.21460   32.31820    0.02450    0.02450    2.69810   -0.00390    0.00700   30.94230   60.35130   60.35130   30.94230   34.91200   34.91200    0.02850    0.02850    2.69810   53.90040  -27.66870  -27.17820   53.90040    -999.25
 14100.00000    6.24670    6.24670    9.97490    0.02070    0.02070    2.67510    0.00810    0.02040  100.25190   53.00590   53.00590  100.25190  178.33530  178.33530    0.00890    0.00890    2.67510 1978.73960  -57.41480  -56.92430 1978.73960   -5.75040
 14150.00000    6.28840    6.28840    7.71020    0.01840    0.01840    2.67320    0.00880    0.02150  129.69810   51.19400   51.19400  129.69810 1986.33410 1986.33410    0.00940    0.00940    2.67320 2007.20310  -72.17740  -71.68690 2007.20310    -999.25
 14200.00000    6.39800    6.39800   13.94570    0.02050    0.02050    2.66660    0.01250    0.02540   71.70650   46.38300   46.38300   71.70650  172.63440  172.63440    0.00740    0.00740    2.66660  228.09660  -71.57900  -71.08850  228.09660   -4.33860
 14250.00000    6.37600    6.37600    7.88020    0.02000    0.02000    2.66760    0.01370    0.02480  126.90000   42.91550   42.91550  126.90000  180.69370  180.69370    0.01050    0.01050    2.66760 1972.96090  -59.56510  -59.07460 1972.96090   -5.76950
 14300.00000    6.29800    6.29800    8.98070    0.00760    0.00760    2.62720    0.03850    0.04840  111.35050   54.91570   54.91570  111.35050  280.92890  280.92890    0.00920    0.00920    2.62720 2007.69200  -51.07500  -50.58450 2007.69200    -999.25
 14350.00000    6.36090    6.36090   14.59910    0.02030    0.02030    2.67590    0.00980    0.01990   68.49750   56.19810   56.19810   68.49750  114.41590  114.41590    0.01370    0.01370    2.67590  398.11580  -43.48280  -42.99230  398.11580   -1.43870
 14400.00000    6.90260    6.90260   20.35060   -0.05640   -0.05640    2.67140    0.01700    0.02260   49.13850   59.51130   59.51130   49.13850   71.15180   71.15180    0.01190    0.01190    2.67140  120.07280  -36.09770  -35.60720  120.07280   17.03470
 14450.00000    6.80030    6.80030   11.01480   -0.04750   -0.04750    2.67180    0.01110    0.02230   90.78710   49.53970   49.53970   90.78710 2022.92810 2022.92810    0.00710    0.00710    2.67180 1989.78220  -40.13780  -39.64730 1989.78220   16.86480
 14500.00000    6.59450    6.59450   21.08710   -0.03110   -0.03110    2.70120    0.00590    0.00510   47.42230   57.71010   57.71010   47.42230   49.11630   49.11630    0.01870    0.01870    2.70120  220.80960  -28.99080  -28.50030  220.80960   15.70450
