~Version ---------------------------------------------------
VERS. 2.0 : CWLS log ASCII Standard -VERSION 2.0
WRAP.  NO : ONE LINE PER DEPTH STEP
~Well ------------------------------------------------------
STRT.F                     300.0 : START DEPTH
STOP.F                   16600.0 : STOP DEPTH
STEP.F                  50.00000 : STEP LENGTH
NULL.                    -999.25 : NULL VALUE
COMP. CHAMPLIN PETROLEUM COMPANY : COMPANY
WELL.                   MIXON #1 : WELL
FLD .                    WILDCAT : FIELD
LOC .                            : LOCATION
CNTY.                    DE WITT : COUNTY
STAT.                      TEXAS : STATE
CTRY.   UNITED STATES OF AMERICA : COUNTRY
SRVC.               Schlumberger : SERVICE COMPANY
DATE.                04-Jan-1980 : LOGDATE
API .             42123310090000 : API NUMBER
UWI .             42123310090000 : UNIQUE WELL ID
SLAT.WGS84         28.9499646475 : SURFACE LATITUDE
SLON.WGS84        -97.6437950223 : SURFACE LONGITUDE
~Curve Information -----------------------------------------
DEPT.F                 : 
CALD.IN   45 280 60 00 : CALIPER FROM DENSITY LOG
CORR.G/C3 45 356 01 00 : CORRELATION LOG
RHOB.G/C3 45 350 01 00 : BULK DENSITY
GRD .GAPI 45 310 01 00 : GAMMA RAY FROM DENSITY LOG
NPHI.DEC  42 890 01 00 : NEUTRON POROSITY
DPHI.DEC  45 890 10 00 : DENSITY POROSITY
DT  .US/F 60 520 00 00 : DELTA-T (INTERVAL TRANSIT TIME)
SPR .MV   07 010 01 00 : SPONTANEOUS POTENTIAL FROM RESISTIVITY
ILD .OHMM 07 120 46 00 : INDUCTION DEEP RESISTIVITY
ILM .OHMM 07 120 44 00 : INDUCTION MEDIUM RESISTIVITY
SFL .OHMM 07 220 01 00 : SPHERICALLY FOCUSSED LOG
GRR .GAPI 07 310 01 00 : GAMMA RAY FROM RESISTIVITY
CALR.IN   07 280 01 00 : CALIPER FROM RESISTIVITY LOG
~Params ----------------------------------------------------
EKB .FT                  450 : KELLY BUSHING
EDF .FT                  449 : DRILLING FLOOR
EGL .FT                  423 : GROUND LEVEL
DATE.               01-04-80 : RUN DATE
DD  .FT                 1646 : DEPTH DRILLER
DL  .FT                 1609 : DEPTH LOGGER
BLI .FT                 1602 : BOTTOM LOG INTERVAL
BSD .FT                 1646 : BIT SIZE AT DEPTH
CLNT.                A2DTECH : CLIENT CODE
ORIG.            2" 5" PRINT : ORIGIN OF DATA
UWI .         42123310090000 : UNIQUE WELL ID
DICO. A2D Technologies, Inc. : DIGITIZING COMPANY
~Other -----------------------------------------------------
~ASCII -----------------------------------------------------
# ...
 10700.00000    -999.25    -999.25    -999.25    -999.25    -999.25    -999.25   86.13190  -39.93200    2.05900    2.05580    2.22520   67.53340   16.21520
 10750.00000    -999.25    -999.25    -999.25    -999.25    -999.25    -999.25   89.42970  -43.38950    2.28630    2.15700    2.25600   65.97500   16.14440
 10800.00000    -999.25    -999.25    -999.25    -999.25    -999.25    -999.25   86.43180  -40.69830    2.33530    2.35860    2.49850   65.06590   16.02590
 10850.00000    -999.25    -999.25    -999.25    -999.25    -999.25    -999.25   90.77960  -40.41610    2.07690    1.99990    2.22520   72.21400   16.08950
 10900.00000    -999.25    -999.25    -999.25    -999.25    -999.25    -999.25   84.33380  -42.18930    2.25520    2.24800    2.33730   74.77680   16.04100
 10950.00000    -999.25    -999.25    -999.25    -999.25    -999.25    -999.25   86.58170  -41.90410    1.97960    1.95760    1.98990   73.20920   16.05940
 11000.00000    -999.25    -999.25    -999.25    -999.25    -999.25    -999.25   82.08490  -42.74300    2.20930    2.24780    2.53620   75.45070   15.97000
 11050.00000    -999.25    -999.25    -999.25    -999.25    -999.25    -999.25   89.46990  -44.87370    2.06080    2.02770    2.18770   72.80590   16.01490
 11100.00000    -999.25    -999.25    -999.25    -999.25    -999.25    -999.25   83.73480  -43.09070    2.31140    2.26330    2.49360   65.47760   15.90030
 11150.00000    -999.25    -999.25    -999.25    -999.25    -999.25    -999.25   91.46370  -42.79350    1.89960    1.91930    2.02060   73.99140   15.83350
 11200.00000    -999.25    -999.25    -999.25    -999.25    -999.25    -999.25   87.48120  -40.11890    2.00690    2.00490    2.33500   69.98510   15.73130
 11250.00000    -999.25    -999.25    -999.25    -999.25    -999.25    -999.25   87.63050  -39.25570    1.89820    1.89290    1.99290   61.51560   15.79100
 11300.00000    -999.25    -999.25    -999.25    -999.25    -999.25    -999.25   82.68370  -38.93020    2.39890    2.44530    2.79260   75.55510   14.53730
 11350.00000    -999.25    -999.25    -999.25    -999.25    -999.25    -999.25   85.38230  -40.65990    2.41540    2.26530    2.79270   74.44280   15.43300
 11400.00000    -999.25    -999.25    -999.25    -999.25    -999.25    -999.25   91.23000  -40.71150    2.16420    2.14220    2.24410   65.77730   15.86590
 11450.00000    -999.25    -999.25    -999.25    -999.25    -999.25    -999.25   89.93530  -40.22750    1.87370    1.86720    2.18190   68.71750   15.85070
 11500.00000    -999.25    -999.25    -999.25    -999.25    -999.25    -999.25   84.39380  -39.81980    2.37200    2.45790    2.41680   64.24790   15.85070
 11550.00000    -999.25    -999.25    -999.25    -999.25    -999.25    -999.25   91.69520  -43.68500    1.74950    1.69590    1.65520   73.54930   15.88100
 11600.00000    -999.25    -999.25    -999.25    -999.25    -999.25    -999.25   83.99030  -44.28100    1.85640    1.80400    1.91730   64.12910   15.86570
 11650.00000    -999.25    -999.25    -999.25    -999.25    -999.25    -999.25   85.38230  -43.09060    1.98230    2.00550    2.02780   65.52750   15.85680
 11700.00000    -999.25    -999.25    -999.25    -999.25    -999.25    -999.25   78.48030  -41.34310    2.52860    2.57770    2.83130   64.19020   15.82250
 11750.00000    -999.25    -999.25    -999.25    -999.25    -999.25    -999.25   85.50220  -42.61900    1.95250    2.01380    2.21970   71.99110   15.94020
 11800.00000    -999.25    -999.25    -999.25    -999.25    -999.25    -999.25   83.65790  -43.09260    2.39440    2.26530    2.28730   64.18820   15.92730
 11850.00000    -999.25    -999.25    -999.25    -999.25    -999.25    -999.25   86.15540  -43.10130    2.41790    2.31510    2.53230   68.86640   15.89680
 11900.00000    -999.25    -999.25    -999.25    -999.25    -999.25    -999.25   94.63040  -43.98600    1.81060    1.77270    1.91240   62.83290   15.92520
 11950.00000    -999.25    -999.25    -999.25    -999.25    -999.25    -999.25   91.23060  -40.71660    1.65760    1.61620    1.74870   60.84700   15.99850
 12000.00000    -999.25    -999.25    -999.25    -999.25    -999.25    -999.25   93.92800  -42.19570    1.49400    1.48640    1.55470   60.76050   16.34630
 12050.00000    -999.25    -999.25    -999.25    -999.25    -999.25    -999.25   93.32370  -41.30590    1.66730    1.63850    1.67800   65.25170   16.25790
 12100.00000    -999.25    -999.25    -999.25    -999.25    -999.25    -999.25   80.67670  -39.91380    2.44120    2.50340    3.14380   66.67030   16.22560
 12150.00000    -999.25    -999.25    -999.25    -999.25    -999.25    -999.25   90.45110  -40.64750    2.01060    2.00030    2.06320   68.00500   14.68430
 12200.00000    -999.25    -999.25    -999.25    -999.25    -999.25    -999.25   74.17420  -42.73330    3.85960    4.01310    3.80230   63.33840   16.24860
 12250.00000    -999.25    -999.25    -999.25    -999.25    -999.25    -999.25   74.84530  -42.13650    3.03350    3.10950    3.46270   52.22440   16.34220
 12300.00000    -999.25    -999.25    -999.25    -999.25    -999.25    -999.25   86.18620  -42.13650    2.24800    2.14290    2.00670   61.55550   16.34340
 12350.00000    -999.25    -999.25    -999.25    -999.25    -999.25    -999.25   77.32820  -39.16910    3.16990    3.10940    3.14610   65.55560   16.40840
 12400.00000    -999.25    -999.25    -999.25    -999.25    -999.25    -999.25   73.72370  -40.94950    2.87900    3.02480    3.58650   57.77780   16.48380
 12450.00000    -999.25    -999.25    -999.25    -999.25    -999.25    -999.25   82.23030  -42.72780    2.47500    2.17260    2.36860   63.37490   16.37230
 12500.00000    -999.25    -999.25    -999.25    -999.25    -999.25    -999.25   78.22820  -40.10290    3.14010    3.02460    3.01600   65.86160   16.43550
 12550.00000    -999.25    -999.25    -999.25    -999.25    -999.25    -999.25   77.92700  -39.20660    2.47500    2.61700    2.84780   71.11550   16.12100
 12600.00000    -999.25    -999.25    -999.25    -999.25    -999.25    -999.25   88.43840  -40.64640    2.39130    2.44270    2.18130   63.56610   16.35850
 12650.00000    -999.25    -999.25    -999.25    -999.25    -999.25    -999.25   83.50820  -41.83690    2.65280    2.63530    2.55190   57.33390   16.28410
 12700.00000    -999.25    -999.25    -999.25    -999.25    -999.25    -999.25   80.54880  -43.91690    2.42580    2.32750    2.32000   53.29100   16.13760
 12750.00000    -999.25    -999.25    -999.25    -999.25    -999.25    -999.25   83.03300  -42.77570    2.96260    2.67190    2.74630   66.86720   16.29890
 12800.00000    -999.25    -999.25    -999.25    -999.25    -999.25    -999.25   92.64260  -40.66720    1.76730    1.75880    1.81620   70.88890   16.20930
 12850.00000    -999.25    -999.25    -999.25    -999.25    -999.25    -999.25   79.39060  -41.02420    2.82030    2.80370    3.05800   61.33100   16.34770
 12900.00000    -999.25    -999.25    -999.25    -999.25    -999.25    -999.25   84.94140  -40.35610    2.20140    2.17260    2.22590   65.33770   16.10680
 12950.00000    -999.25    -999.25    -999.25    -999.25    -999.25    -999.25   85.43540  -41.19700    2.29470    2.25860    2.37520   56.63660   16.38750
 13000.00000    -999.25    -999.25    -999.25    -999.25    -999.25    -999.25   97.44830  -42.14230    2.34250    1.99980    2.02060   61.20180   16.40230
 13050.00000    -999.25    -999.25    -999.25    -999.25    -999.25    -999.25   93.39220  -40.94960    2.21230    2.14280    2.43500   80.73540   16.21030
 13100.00000    -999.25    -999.25    -999.25    -999.25    -999.25    -999.25   88.85360  -41.15900    2.59740    2.59890    2.52050   76.37350   15.47630
 13150.00000    -999.25    -999.25    -999.25    -999.25    -999.25    -999.25   80.17900  -42.42740    2.54400    2.61700    3.18720   67.18540   16.42290
 13200.00000    -999.25    -999.25    -999.25    -999.25    -999.25    -999.25   94.89580  -43.88160    2.16890    2.18770    2.29950   68.32500   16.10930
 13250.00000    -999.25    -999.25    -999.25    -999.25    -999.25    -999.25   60.81000  -44.77250   12.61910   12.51460   22.80510   39.83520   14.00700
