~Version ---------------------------------------------------
VERS. 2.0 : CWLS log ASCII Standard -VERSION 2.0
WRAP. YES : MULTIPLE LINES PER DEPTH STEP
~Well ------------------------------------------------------
STRT.FT                 2050.0 : START DEPTH
STOP.FT                15100.0 : STOP DEPTH
STEP.FT               50.00000 : STEP LENGTH
NULL.                  -999.25 : NULL VALUE
COMP. BUTTES RESOURCES COMPANY : COMPANY
WELL.             KING GAIL #1 : WELL
FLD .                  WILDCAT : FIELD
LOC .                          : LOCATION
CNTY.                     LEON : COUNTY
STAT.                    TEXAS : STATE
CTRY. UNITED STATES OF AMERICA : COUNTRY
SRVC.             Schlumberger : SERVICE COMPANY
DATE.              13-Apr-1977 : LOGDATE
API .           42289301060000 : API NUMBER
UWI .           42289301060000 : UNIQUE WELL ID
SLAT.WGS84        31.383896527 : SURFACE LATITUDE
SLON.WGS84      -96.2493859425 : SURFACE LONGITUDE
~Curve Information -----------------------------------------
DEPT    .FT    : DEPTH FEET
CALDED  .IN    : CALIPER FROM DENSITY LOG [AJD TO ILDED]
CALWS   .IN    : CALIPER [CALDED]
CONDWS  .MMHO  : CONDUCTIVITY [1000/DRESWS]
CORRED  .G/C3  : DENSITY CORRECTION FROM DENSITY LOG [AJD TO ILDED]
DCORWS  .G/C3  : DENSITY CORRECTION [CORRED]
DENWS   .G/C3  : BULK DENSITY [M=2.71 F=1.0] [CALCULATED FROM DPOWS]
DPHILSED.V/V   : DENSITY POROSITY [M=2.71 F=1.0] FROM DENSITY LOG [AJD TO ILDED]
DPOWS   .V/V   : DENSITY POROSITY [M=2.71 F=1.0] [DPHILSED]
DRESWS  .OHMM  : DEEP RESISTIVITY [ILDED]
DRHOED  .G/C3  : DENSITY CORRECTION FROM DENSITY LOG [AJD TO ILDED]
DTED    .US/F  : DELTA TIME FROM SONIC LOG [AJD TO RHOBED]
DTWS    .US/F  : DELTA TIME [DTED]
GRDED   .GAPI  : GAMMA RAY FROM DENSITY LOG [AJD TO ILDED]
GRWS    .GAPI  : GAMMA RAY [GRDED]
ILDED   .OHMM  : INDUCTION LOG DEEP RESISTIVITY
ILMED   .OHMM  : INDUCTION LOG MEDIUM RESISTIVITY
LL8ED   .OHMM  : 8 INCH LATEROLOG RESISTIVITY
MCALED  .IN    : CALIPER MICROLOG [AJD TO SPRED]
MRESWS  .OHMM  : MEDIUM RESISTIVITY [ILMED]
NPHILSED.V/V   : NEUTRON POROSITY LIMESTONE FROM DENSITY LOG [AJD TO ILDED]
NPOWS   .V/V   : NEUTRON POROSITY LIMESTONE [NPHILSED]
RHOBED  .G/C3  : BULK DENSITY FROM DENSITY LOG [AJD TO ILDED]
SFLED   .OHMM  : SPHERICALLY FOCUSED LOG RESISTIVITY [AJD TO ILDED]
SPMED   .MV    : SPONTANEOUS POTENTIAL FROM MICROLOGLOG [AJD TO SPRED]
SPRED   .MV    : SPONTANEOUS POTENTIAL FROM RESISTIVITY LOG
SPWS    .MV    : SPONTANEOUS POTENTIAL [BASELINE 0 MV] [SPRED]
SRESWS  .OHMM  : SHALLOW RESISTIVITY [SPL SFLED <14485> LL8ED]
TENDED  .LBF   : TENSION FROM DENSITY LOG
~Params ----------------------------------------------------
PD  .                     GL : PERMANENT DATUM
EPD .FT                  503 : ELEVATION PERMANENT DATUM
LMF .                     KB : LOG MEASURED FROM
DAPD.FT                   18 : FEET ABOVE PERMANENT DATUM
DMF .                     KB : DRILLING MEASURED FROM
EKB .FT                  521 : KELLY BUSHING
EDF .FT                  520 : DRILLING FLOOR
EGL .FT                  503 : GROUND LEVEL
DATE.               04/13/77 : RUN DATE
RUN .                      1 : RUN NUMBER
DD  .FT                15147 : DEPTH DRILLER
DL  .FT                15148 : DEPTH LOGGER
BLI .FT                15147 : BOTTOM LOG INTERVAL
TLI .FT                13098 : TOP LOG INTERVAL
CS  .IN                    7 : CASING SIZE
CBD .FT                13097 : CASING BOTTOM DRILLER
CBL .FT                13098 : CASING BOTTOM LOGGER
BS  .IN                    6 : BIT SIZE
BSD .FT                15147 : BIT SIZE AT DEPTH
DFT .               LOW LIME : DRILLING FLUID TYPE
DFD .                   15.7 : DRILLING FLUID DENSITY
DFV .                     48 : DRILLING FLUID VISCOSITY
DFPH.                   12.5 : DRILLING FLUID PH
DFL .                   10.8 : DRILLING FLUID LOSS
MSS .                    PIT : MUD SAMPLE SOURCE
RMS .OHMM               0.89 : RESISTIVITY MUD SAMPLE
MST .DEGF                 75 : MUD SAMPLE TEMPERATURE
RMF .OHMM               0.67 : RESISTIVITY MUD FILTRATE SAMPLE
MFST.DEGF                 75 : MUD FILTRATE SAMPLE TEMPERATURE
RMC .OHMM               0.34 : RESISTIVITY MUD CAKE
MCST.DEGF                 75 : MUD CAKE SAMPLE TEMPERATURE
MFSS.                      M : MUD FILTRATE SAMPLE SOURCE
MCSS.                      C : MUD CAKE SAMPLE SOURCE
RMB .OHMM               0.21 : RESISTIVITY MUD AT BHT
TCS .HRS                2000 : TIME CIRCULATED STOPPED
TLAB.HRS                 300 : TIME LOGGER AT BOTTOM
LUN .                   7659 : LOGGING UNIT NUMBER
LUL .                 DAYTON : LOGGING UNIT LOCATION
ENGI.          CHENAULT EAST : RECORDING ENGINEER
WITN.                  MILES : WITNESSED BY
CLNT.                A2DTECH : CLIENT CODE
ORIG.            2" 5" PRINT : ORIGIN OF DATA
UWI .         42289301060000 : UNIQUE WELL ID
DICO. A2D Technologies, Inc. : DIGITIZING COMPANY
~Other -----------------------------------------------------
~ASCII -----------------------------------------------------
# ...
 10800.00000   10.09060   10.09060   75.97860    0.01430    -999.25    2.52530    0.10800    0.10800   13.16160    -999.25    -999.25    -999.25   34.30600   34.30600   13.16160   15.39710    -999.25    -999.25   15.39710    0.02530    0.02530    -999.25   63.06680    -999.25  -87.67830  -49.64500   63.06680    -999.25
 10850.00000   10.11700   10.11700   53.72880    0.02150    -999.25    2.54960    0.09380    0.09380   18.61200    -999.25    -999.25    -999.25   27.61960   27.61960   18.61200   19.91580    -999.25    -999.25   19.91580    0.02370    0.02370    -999.25   31.31010    -999.25  -87.20360  -49.43990   31.31010    -999.25
 10900.00000   10.12550   10.12550   76.50110    0.01560    -999.25    2.55340    0.09160    0.09160   13.07170    -999.25    -999.25    -999.25   33.38380   33.38380   13.07170   14.59860    -999.25    -999.25   14.59860    0.02990    0.02990    -999.25   45.34570    -999.25  -79.26960  -41.77550   45.34570    -999.25
 10950.00000   10.36580   10.36580   60.89580    0.00740    -999.25    2.54520    0.09640    0.09640   16.42150    -999.25    -999.25    -999.25   28.31690   28.31690   16.42150   25.58810    -999.25    -999.25   25.58810    0.02930    0.02930    -999.25   49.51090    -999.25  -55.67670  -18.45230   49.51090    -999.25
 11000.00000   10.17840   10.17840   68.75970    0.02520    -999.25    2.55700    0.08950    0.08950   14.54340    -999.25    -999.25    -999.25   41.46400   41.46400   14.54340   13.21220    -999.25    -999.25   13.21220    0.03140    0.03140    -999.25   36.40300    -999.25  -67.45630  -30.50150   36.40300    -999.25
 11050.00000   10.05430   10.05430  130.05590    0.06230    -999.25    2.57490    0.07900    0.07900    7.68900    -999.25    -999.25    -999.25   42.38380   42.38380    7.68900    6.17960    -999.25    -999.25    6.17960    0.07650    0.07650    -999.25   21.57220    -999.25  -57.38940  -20.70420   21.57220    -999.25
 11100.00000   10.40210   10.40210   60.03910    0.01640    -999.25    2.54740    0.09510    0.09510   16.65580    -999.25    -999.25    -999.25   39.37180   39.37180   16.65580   19.76800    -999.25    -999.25   19.76800    0.02760    0.02760    -999.25   40.14050    -999.25  -65.51490  -29.09930   40.14050    -999.25
 11150.00000   10.07820   10.07820   45.13740    0.01520    -999.25    2.57470    0.07910    0.07910   22.15460    -999.25    -999.25    -999.25   37.47430   37.47430   22.15460   23.22190    -999.25    -999.25   23.22190    0.02580    0.02580    -999.25   57.45270    -999.25  -77.19010  -41.04420   57.45270    -999.25
 11200.00000   10.12500   10.12500   45.94980    0.01420    -999.25    2.56190    0.08660    0.08660   21.76290    -999.25    -999.25    -999.25   30.91230   30.91230   21.76290   27.20920    -999.25    -999.25   27.20920    0.01850    0.01850    -999.25   43.58660    -999.25  -71.74070  -35.86440   43.58660    -999.25
 11250.00000   10.37600   10.37600   49.94710    0.02390    -999.25    2.55710    0.08940    0.08940   20.02120    -999.25    -999.25    -999.25   29.78620   29.78620   20.02120   24.91740    -999.25    -999.25   24.91740    0.03060    0.03060    -999.25   90.28320    -999.25  -74.48260  -38.87590   90.28320    -999.25
 11300.00000   10.62850   10.62850   46.46620    0.02330    -999.25    2.54360    0.09730    0.09730   21.52100    -999.25    -999.25    -999.25   25.53880   25.53880   21.52100   24.18440    -999.25    -999.25   24.18440    0.03440    0.03440    -999.25   59.39650    -999.25  -69.72500  -34.38800   59.39650    -999.25
 11350.00000   10.40080   10.40080   67.22010    0.01990    -999.25    2.54410    0.09700    0.09700   14.87650    -999.25    -999.25    -999.25   42.19190   42.19190   14.87650   12.63170    -999.25    -999.25   12.63170    0.04720    0.04720    -999.25   44.11880    -999.25  -42.31240   -7.24500   44.11880    -999.25
 11400.00000   10.41090   10.41090   77.70550    0.10200    -999.25    2.62450    0.05000    0.05000   12.86910    -999.25    -999.25    -999.25   50.87940   50.87940   12.86910   17.25580    -999.25    -999.25   17.25580    0.09050    0.09050    -999.25   18.89530    -999.25  -41.59680   -6.90800   18.89530    -999.25
 11450.00000   10.33100   10.33100   67.97910    0.02430    -999.25    2.51100    0.11640    0.11640   14.71040    -999.25    -999.25    -999.25   28.41510   28.41510   14.71040   17.54670    -999.25    -999.25   17.54670    0.02830    0.02830    -999.25   47.73000    -999.25  -60.70560  -26.43170   47.73000    -999.25
 11500.00000   10.30980   10.30980   48.23970    0.03520    -999.25    2.47030    0.14020    0.14020   20.72980    -999.25    -999.25    -999.25   28.33670   28.33670   20.72980   23.29530    -999.25    -999.25   23.29530    0.03040    0.03040    -999.25   73.89550    -999.25  -68.09520  -34.23620   73.89550    -999.25
 11550.00000   11.20360   11.20360   58.63280    0.02060    -999.25    2.55080    0.09310    0.09310   17.05530    -999.25    -999.25    -999.25   36.03420   36.03420   17.05530   23.39890    -999.25    -999.25   23.39890    0.01060    0.01060    -999.25   59.64380    -999.25  -75.12390  -41.67990   59.64380    -999.25
 11600.00000   11.44090   11.44090   57.62530    0.01510    -999.25    2.55230    0.09220    0.09220   17.35350    -999.25    -999.25    -999.25   31.99900   31.99900   17.35350   20.82830    -999.25    -999.25   20.82830    0.03150    0.03150    -999.25   24.06730    -999.25  -83.99110  -50.96200   24.06730    -999.25
 11650.00000   11.20410   11.20410   71.17840   -0.00220    -999.25    2.53180    0.10420    0.10420   14.04920    -999.25    -999.25    -999.25   21.08700   21.08700   14.04920   21.28700    -999.25    -999.25   21.28700    0.02010    0.02010    -999.25   49.73190    -999.25  -96.99310  -64.37890   49.73190    -999.25
 11700.00000   12.86490   12.86490   98.23760    0.06270    -999.25    2.20450    0.29560    0.29560   10.17940    -999.25    -999.25    -999.25   32.78960   32.78960   10.17940   16.60760    -999.25    -999.25   16.60760    0.05420    0.05420    -999.25   30.60920    -999.25  -74.55150  -42.35220   30.60920    -999.25
 11750.00000   11.03240   11.03240  194.76090    0.00430    -999.25    2.51040    0.11670    0.11670    5.13450    -999.25    -999.25    -999.25   26.36050   26.36050    5.13450    7.60800    -999.25    -999.25    7.60800    0.01740    0.01740    -999.25   21.62390    -999.25 -109.90060  -78.11620   21.62390    -999.25
 11800.00000   10.92840   10.92840   67.80530   -0.01190    -999.25    2.52700    0.10700    0.10700   14.74810    -999.25    -999.25    -999.25   51.79970   51.79970   14.74810   21.85460    -999.25    -999.25   21.85460    0.01820    0.01820    -999.25   47.98260    -999.25  -84.40740  -53.03800   47.98260    -999.25
 11850.00000   10.82010   10.82010   43.49210    0.03210    -999.25    2.09510    0.35960    0.35960   22.99270    -999.25    -999.25    -999.25   21.55810   21.55810   22.99270   25.87980    -999.25    -999.25   25.87980    0.03580    0.03580    -999.25   37.52340    -999.25  -88.45860  -57.50410   37.52340    -999.25
 11900.00000   10.77020   10.77020   52.49260   -0.00730    -999.25    2.59710    0.06600    0.06600   19.05030    -999.25    -999.25    -999.25   59.04260   59.04260   19.05030   19.73120    -999.25    -999.25   19.73120    0.02590    0.02590    -999.25   44.87490    -999.25  -60.64320  -30.10360   44.87490    -999.25
 11950.00000   10.83860   10.83860   32.08570    0.00870    -999.25    2.50480    0.12000    0.12000   31.16650    -999.25    -999.25    -999.25   22.12360   22.12360   31.16650  116.41120    -999.25    -999.25  116.41120    0.00580    0.00580    -999.25  154.93700    -999.25  -61.79660  -31.67190  154.93700    -999.25
 12000.00000   10.90330   10.90330  101.43840   -0.00660    -999.25    2.56380    0.08550    0.08550    9.85820    -999.25    -999.25    -999.25   36.08840   36.08840    9.85820   12.62940    -999.25    -999.25   12.62940    0.02860    0.02860    -999.25   25.41920    -999.25  -77.76490  -48.05510   25.41920    -999.25
