~Version ---------------------------------------------------
VERS. 2.0 : CWLS log ASCII Standard -VERSION 2.0
WRAP. YES : MULTIPLE LINES PER DEPTH STEP
~Well ------------------------------------------------------
STRT.FT                   3500.0 : START DEPTH
STOP.FT                  16150.0 : STOP DEPTH
STEP.FT                 50.00000 : STEP LENGTH
NULL.                    -999.25 : NULL VALUE
COMP. CHEYENNE PETROLEUM COMPANY : COMPANY
WELL.              RUBY YOUNG #1 : WELL
FLD .                    WILDCAT : FIELD
LOC .                            : LOCATION
CNTY.                     KARNES : COUNTY
STAT.                      TEXAS : STATE
CTRY.   UNITED STATES OF AMERICA : COUNTRY
SRVC.               Schlumberger : SERVICE COMPANY
DATE.                06-Jan-1997 : LOGDATE
API .             42255313650000 : API NUMBER
UWI .             42255313650000 : UNIQUE WELL ID
SLAT.WGS84         28.8201979392 : SURFACE LATITUDE
SLON.WGS84        -97.8404688792 : SURFACE LONGITUDE
~Curve Information -----------------------------------------
DEPT    .FT    : DEPTH FEET
ASFLED  .OHMM  : AMPLIFIED SPHERICALLY FOCUSED LOG RESISTIVITY
CALWS   .IN    : CALIPER [DCALRED+9.875]<15054>[DCALRED+6.5]
CONDWS  .MMHO  : CONDUCTIVITY [1000/DRESWS]
DCALRED .IN    : DIFFERENTIAL CALIPER FROM RESISTIVITY LOG
DCORWS  .G/C3  : DENSITY CORRECTION [DRHOED]
DENWS   .G/C3  : BULK DENSITY [M=2.71 F=1.0] [CALCULATED FROM DPOWS]
DPHILSED.V/V   : DENSITY POROSITY LIMESTONE[M=2.71 F=1.0] FROM COMPOSITE RES. LOG
DPOWS   .V/V   : DENSITY POROSITY [DPHILSED]
DRESWS  .OHMM  : DEEP RESISTIVITY [IDPHED]
DRHOED  .G/C3  : DENSITY CORRECTION FROM COMPOSITE RES. LOG
DTLFED  .US/F  : DELTA TIME LONG SPACING FAR DETECTOR COMPOSITE RES. LOG
DTLNED  .US/F  : DELTA TIME LONG SPACING NEAR DETECTOR COMPOSITE RES. LOG
DTWS    .US/F  : DELTA TIME [DTLFED]
GRRED   .GAPI  : GAMMA RAY FROM RESISTIVITY LOG
GRWS    .GAPI  : GAMMA RAY [GRRED]
IDPHED  .OHMM  : INDUCTION DEEP PHASE RESISTIVITY
IMPHED  .OHMM  : INDUCTION MEDIUM PHASE RESISTIVITY
MRESWS  .OHMM  : MEDIUM RESISTIVITY [IMPHED]
NPHILSED.V/V   : NEUTRON POROSITY LIMESTONE FROM COMPOSITE RES. LOG
NPOWS   .V/V   : NEUTRON POROSITY LIMESTONE [NPHILSED]
SFLUED  .OHMM  : SPHERICALLY FOCUSED LOG RESISTIVITY
SPRED   .MV    : SPONTANEOUS POTENTIAL FROM RESISTIVITY LOG
SPWS    .MV    : SPONTANEOUS POTENTIAL [BASELINE 0 MV] [SPRED]
SRESWS  .OHMM  : SHALLOW RESISTIVITY [ASFLED], SPLICED WITH [SFLUED] AT 12400'
TENRED  .LBF   : TENSION FROM RESISTIVITY LOG
~Params ----------------------------------------------------
PD  .                     GL : PERMANENT DATUM
EPD .FT                258.6 : ELEVATION PERMANENT DATUM
LMF .                     KB : LOG MEASURED FROM
DAPD.FT                   25 : FEET ABOVE PERMANENT DATUM
DMF .                     KB : DRILLING MEASURED FROM
EKB .FT                284.5 : KELLY BUSHING
EDF .FT                283.6 : DRILLING FLOOR
EGL .FT                258.6 : GROUND LEVEL
DATE.               01/06/97 : RUN DATE
RUN .                      2 : RUN NUMBER
DD  .FT                16145 : DEPTH DRILLER
DL  .FT                16144 : DEPTH LOGGER
BLI .FT                16142 : BOTTOM LOG INTERVAL
TLI .FT                15080 : TOP LOG INTERVAL
CS  .IN                7.625 : CASING SIZE
CBD .FT                15084 : CASING BOTTOM DRILLER
CBL .FT                15080 : CASING BOTTOM LOGGER
BS  .IN                  6.5 : BIT SIZE
BSD .FT                16145 : BIT SIZE AT DEPTH
DFT .              LIG DESCO : DRILLING FLUID TYPE
DFD .                   15.9 : DRILLING FLUID DENSITY
DFV .                     47 : DRILLING FLUID VISCOSITY
DFPH.                   10.3 : DRILLING FLUID PH
DFL .                    5.2 : DRILLING FLUID LOSS
MSS .                MUD PIT : MUD SAMPLE SOURCE
RMS .OHMM                0.6 : RESISTIVITY MUD SAMPLE
MST .DEGF                 75 : MUD SAMPLE TEMPERATURE
RMF .OHMM                0.5 : RESISTIVITY MUD FILTRATE SAMPLE
MFST.DEGF                 75 : MUD FILTRATE SAMPLE TEMPERATURE
RMC .OHMM               0.92 : RESISTIVITY MUD CAKE
MCST.DEGF                 75 : MUD CAKE SAMPLE TEMPERATURE
MFSS.               MEASURED : MUD FILTRATE SAMPLE SOURCE
MCSS.             CALCULATED : MUD CAKE SAMPLE SOURCE
RMB .OHMM               0.13 : RESISTIVITY MUD AT BHT
TCS .HRS                   0 : TIME CIRCULATED STOPPED
TLAB.HRS                1530 : TIME LOGGER AT BOTTOM
LUN .                   2020 : LOGGING UNIT NUMBER
LUL .               VICTORIA : LOGGING UNIT LOCATION
ENGI.                  NAHRI : RECORDING ENGINEER
WITN.    ZAUNBRECHER BRANDON : WITNESSED BY
CLNT.                A2DTECH : CLIENT CODE
ORIG.               5" PRINT : ORIGIN OF DATA
UWI .         42255313650000 : UNIQUE WELL ID
DICO. A2D Technologies, Inc. : DIGITIZING COMPANY
~Other -----------------------------------------------------
MUD WEIGHT USED 9.6 TO 18.8 WHILE DRILLING
~ASCII -----------------------------------------------------
# ...
 11900.00000    2.50200    -999.25  455.61360    -999.25    -999.25    -999.25    -999.25    -999.25    2.19480    -999.25   89.67730   90.94150   89.67730   72.91660   72.91660    2.19480    2.03850    2.03850    -999.25    -999.25    2.51740    -999.25    -999.25    2.50200 4423.85400
 11950.00000    2.49820    -999.25  418.87330    -999.25    -999.25    -999.25    -999.25    -999.25    2.38740    -999.25   90.20090   89.14620   90.20090   64.86870   64.86870    2.38740    2.16510    2.16510    -999.25    -999.25    2.46520    -999.25    -999.25    2.49820 4491.79540
 12000.00000    2.37130    -999.25  442.42400    -999.25    -999.25    -999.25    -999.25    -999.25    2.26030    -999.25   89.55200   89.84660   89.55200   66.36550   66.36550    2.26030    2.12940    2.12940    -999.25    -999.25    2.41370    -999.25    -999.25    2.37130 4499.88430
 12050.00000    2.32600    -999.25  497.57470    -999.25    -999.25    -999.25    -999.25    -999.25    2.00970    -999.25   89.72510   92.75470   89.72510   63.96250   63.96250    2.00970    2.01470    2.01470    -999.25    -999.25    2.31370    -999.25    -999.25    2.32600 4550.90480
 12100.00000    2.27410    -999.25  502.23520    -999.25    -999.25    -999.25    -999.25    -999.25    1.99110    -999.25   91.39750   90.21930   91.39750   67.77980   67.77980    1.99110    2.11850    2.11850    -999.25    -999.25    2.31430    -999.25    -999.25    2.27410 4528.78660
 12150.00000    1.80220    -999.25  593.95240    -999.25    -999.25    -999.25    -999.25    -999.25    1.68360    -999.25   95.56340   96.65450   95.56340   73.53280   73.53280    1.68360    1.63540    1.63540    -999.25    -999.25    -999.25    -999.25    -999.25    1.80220 4621.36470
 12200.00000    2.67540    -999.25  403.09170    -999.25    -999.25    -999.25    -999.25    -999.25    2.48080    -999.25   89.09760   88.06820   89.09760   67.15150   67.15150    2.48080    2.56810    2.56810    -999.25    -999.25    2.69100    -999.25    -999.25    2.67540 4552.66020
 12250.00000    2.84400    -999.25  383.81050    -999.25    -999.25    -999.25    -999.25    -999.25    2.60550    -999.25   82.47140   84.72870   82.47140   64.23480   64.23480    2.60550    2.96160    2.96160    -999.25    -999.25    3.56740    -999.25    -999.25    2.84400 4607.95750
 12300.00000    3.55990    -999.25  319.42890    -999.25    -999.25    -999.25    -999.25    -999.25    3.13060    -999.25   81.65720   82.90330   81.65720   64.17730   64.17730    3.13060    3.37650    3.37650    -999.25    -999.25    3.75260    -999.25    -999.25    3.55990 4521.01610
 12350.00000    3.66500    -999.25  287.38780    -999.25    -999.25    -999.25    -999.25    -999.25    3.47960    -999.25   80.99730   81.34920   80.99730   61.06230   61.06230    3.47960    3.56290    3.56290    -999.25    -999.25    4.16220    -999.25    -999.25    3.66500 4592.21000
 12400.00000    3.14540    -999.25  297.40180    -999.25    -999.25    -999.25    -999.25    -999.25    3.36250    -999.25   83.27600   86.15120   83.27600   68.84140   68.84140    3.36250    2.96380    2.96380    -999.25    -999.25    4.38370    -999.25    -999.25    4.38370 4653.37600
 12450.00000    7.58400    -999.25  164.36280    -999.25    -999.25    -999.25    -999.25    -999.25    6.08410    -999.25   75.63700   76.35250   75.63700   47.61490   47.61490    6.08410    6.42020    6.42020    -999.25    -999.25    8.43740    -999.25    -999.25    8.43740 4640.51220
 12500.00000    -999.25    -999.25  501.50780    -999.25    -999.25    -999.25    -999.25    -999.25    1.99400    -999.25   92.56780   94.58130   92.56780   63.75920   63.75920    1.99400    1.81720    1.81720    -999.25    -999.25    2.25290    -999.25    -999.25    2.25290 4597.28760
 12550.00000    3.92420    -999.25  346.47670    -999.25    -999.25    -999.25    -999.25    -999.25    2.88620    -999.25   81.52950   78.50800   81.52950   64.58770   64.58770    2.88620    2.83550    2.83550    -999.25    -999.25    4.08150    -999.25    -999.25    4.08150 4610.08540
 12600.00000   49.38890    -999.25   28.59080    -999.25    -999.25    -999.25    -999.25    -999.25   34.97630    -999.25   69.04850   71.61170   69.04850   31.69560   31.69560   34.97630   21.23990   21.23990    -999.25    -999.25   42.45410    -999.25    -999.25   42.45410 4618.39990
 12650.00000   23.64870    -999.25   61.20710    -999.25    -999.25    -999.25    -999.25    -999.25   16.33800    -999.25   82.08400   81.06010   82.08400   35.00970   35.00970   16.33800   12.58440   12.58440    -999.25    -999.25   22.01720    -999.25    -999.25   22.01720 4638.11130
 12700.00000   35.61140    -999.25   45.74670    -999.25    -999.25    -999.25    -999.25    -999.25   21.85950    -999.25   85.82800   86.62780   85.82800   56.89360   56.89360   21.85950   15.83480   15.83480    -999.25    -999.25   32.37730    -999.25    -999.25   32.37730 4713.46580
 12750.00000   58.38490    -999.25   34.01780    -999.25    -999.25    -999.25    -999.25    -999.25   29.39640    -999.25   79.44290   78.91040   79.44290   57.75690   57.75690   29.39640   17.70270   17.70270    -999.25    -999.25   74.70230    -999.25    -999.25   74.70230 4705.04690
 12800.00000   51.85300    -999.25   39.67570    -999.25    -999.25    -999.25    -999.25    -999.25   25.20430    -999.25   88.67180   87.08890   88.67180   64.49620   64.49620   25.20430   15.71980   15.71980    -999.25    -999.25   44.13450    -999.25    -999.25   44.13450 4723.11040
 12850.00000   20.84240    -999.25   86.42180    -999.25    -999.25    -999.25    -999.25    -999.25   11.57120    -999.25   86.29890   89.95770   86.29890   65.90460   65.90460   11.57120    9.13330    9.13330    -999.25    -999.25   19.37680    -999.25    -999.25   19.37680 4717.06050
 12900.00000   72.30330    -999.25   30.64930    -999.25    -999.25    -999.25    -999.25    -999.25   32.62720    -999.25  119.75030  123.26480  119.75030   28.20630   28.20630   32.62720   21.32900   21.32900    -999.25    -999.25   69.03110    -999.25    -999.25   69.03110 4694.95850
 12950.00000  150.61450    -999.25   41.01150    -999.25    -999.25    -999.25    -999.25    -999.25   24.38340    -999.25  112.90030  107.29090  112.90030   21.39000   21.39000   24.38340   20.60170   20.60170    -999.25    -999.25  145.58910    -999.25    -999.25  145.58910 4758.72900
 13000.00000   94.14990    -999.25   33.15700    -999.25    -999.25    -999.25    -999.25    -999.25   30.15950    -999.25  115.75580  120.94630  115.75580   31.89270   31.89270   30.15950   17.81260   17.81260    -999.25    -999.25   89.64150    -999.25    -999.25   89.64150 4706.86670
 13050.00000   88.82230    -999.25   29.52990    -999.25    -999.25    -999.25    -999.25    -999.25   33.86390    -999.25  106.07910  105.00600  106.07910   27.27030   27.27030   33.86390   18.37010   18.37010    -999.25    -999.25   85.74190    -999.25    -999.25   85.74190 4758.31050
 13100.00000   42.23850    -999.25   57.95030    -999.25    -999.25    -999.25    -999.25    -999.25   17.25620    -999.25  121.01230  121.16840  121.01230   21.23260   21.23260   17.25620   17.75650   17.75650    -999.25    -999.25   54.49560    -999.25    -999.25   54.49560 4783.33450
 13150.00000   31.85820    -999.25   76.19650    -999.25    -999.25    -999.25    -999.25    -999.25   13.12400    -999.25  125.09840  126.15210  125.09840   31.74870   31.74870   13.12400   11.57710   11.57710    -999.25    -999.25   29.61120    -999.25    -999.25   29.61120 4727.61280
 13200.00000   66.67500    -999.25   38.73540    -999.25    -999.25    -999.25    -999.25    -999.25   25.81620    -999.25  109.07750  108.02170  109.07750   26.33380   26.33380   25.81620   14.84680   14.84680    -999.25    -999.25   62.29410    -999.25    -999.25   62.29410 4807.09620
 13250.00000  582.66160    -999.25   24.96620    -999.25    -999.25    -999.25    -999.25    -999.25   40.05420    -999.25  103.98080  106.45330  103.98080   35.57130   35.57130   40.05420   17.47720   17.47720    -999.25    -999.25  114.56770    -999.25    -999.25  114.56770 4783.49410
