~Version ---------------------------------------------------
VERS. 2.0 : CWLS log ASCII Standard -VERSION 2.0
WRAP.  NO : ONE LINE PER DEPTH STEP
~Well ------------------------------------------------------
STRT.F                  2450.0 : START DEPTH
STOP.F                 15800.0 : STOP DEPTH
STEP.F                50.00000 : STEP LENGTH
NULL.                  -999.25 : NULL VALUE
COMP.     MARATHON OIL COMPANY : COMPANY
WELL.                 CAZEY #1 : WELL
FLD .                  WILDCAT : FIELD
LOC .                          : LOCATION
CNTY.                ROBERTSON : COUNTY
STAT.                    TEXAS : STATE
CTRY. UNITED STATES OF AMERICA : COUNTRY
SRVC.        STRATAGRAPH, INC. : SERVICE COMPANY
DATE.              30-Dec-1995 : LOGDATE
API .           42395304440000 : API NUMBER
UWI .           42395304440000 : UNIQUE WELL ID
SLAT.WGS84       31.0729547384 : SURFACE LATITUDE
SLON.WGS84      -96.4245842071 : SURFACE LONGITUDE
~Curve Information -----------------------------------------
DEPT.F                 : 
DTCO.US/F 60 523 00 00 : COMPRESSIONAL-WAVE INTERVAL TRANSIT TIME ACAUSTIC SLOWNESS
SPR .MV   07 010 01 00 : SPONTANEOUS POTENTIAL
TEND.LB   45 635 01 00 : TENSION FROM DENSITY LOG
DCAL.IN   07 280 30 00 : DIFFERENTIAL CALIPER
SFLU.OHMM 07 220 01 00 : SPHERICALLY FOCUSED LOG UNAVERAGED RESISTIVITY
ILM .OHMM 07 120 44 00 : INDUCTION LOG MEDIUM
ILD .OHMM 07 120 46 00 : INDUCTION LOG DEEP
PEF .B/E  45 358 01 00 : PHOTOELECTRIC FACTOR
DRHO.G/C3 45 356 01 00 : DENSITY CORRECTION
DT  .US/F 60 520 00 00 : INTERVAL TRANSIT TIME
DPHI.DEC  45 890 10 00 : DENSITY POROSITY LIMESTONE
GRD .GAPI 45 310 01 00 : GAMMA RAY FROM DENSITY LOG
IDPH.OHMM 07 120 46 00 : INDUCTION DEEP PHASOR RES.
IMPH.OHMM 07 120 44 00 : INDUCTION MEDIUM PHASOR RES.
NPHI.DEC  42 890 01 00 : NEUTRON POROSITY LIMESTONE
DTLF.US/F 60 523 00 00 : ACOUSTIC TRANSIT TIME, LONG SPACED, FAR ARRAY
DTLN.US/F 60 523 00 00 : ACOUSTIC TRANSIT TIME, LONG SPACED, NEAR ARRAY
~Params ----------------------------------------------------
EKB .F                 421.0 : Kelly bushing
EGL .F                 390.0 : Ground level
EDF .F                 420.0 : Drilling floor
EPD .F                 390.0 : Permanent datum
TD  .F               15800.0 : Total depth
DATE.            31-DEC-1995 : Date logged
CLNT.                A2DTECH : Client Code
SL  . 344' FNWL & 1230' FNEL : Surface Location
PD  .                     GL : Permanent Datum
LMF .                     KB : Log Measured From
DMF .                     KB : Drilling Measured From
DAPD.F                    31 : Feet Above Permanent Datum
DD  .F                 15800 : Depth driller
DL  .F                 15796 : Depth logger
BLI .F                 15793 : Bottom log interval
CS1 .IN                7.875 : Casing size
CBD1.        7.875" @ 14300' : Casing driller 1
CBL1.F                 14292 : Casing logger 1
BS1 .IN                  8.5 : Bit size
BSD1.F                 15800 : Depth drilled with bit1
DFT .                THERMEX : Type fluid in hole
DFD .                   16.2 : Density
DFPH.                   10.5 : pH
MSS .              CIRC TANK : Source of sample
RMS .OHMM              1.932 : Rm
RMF .OHMM              1.872 : Rmf
RMC .OHMM              2.181 : Rmc
MFSS.                   MEAS : Source Rmf.
MCSS.                   CALC : Source Rmc.
RMB .OHMM              0.423 : Rm. at BHT
BHT .F                   358 : BHT.
TCS .HRS                 130 : Time Circ. stopped
TLAB.HRS                1130 : Time logger at bottom
LUN .                   8400 : Logging unit number
LUL .                    LER : Logging unit location
ENGI.                 CORLEA : Recorded By
WITN.              FAIRHURST : Witnessed by
ORIG.               5" PRINT : Origin of data
UWI .         42395304440000 : Unique Well ID
DICO. A2D TECHNOLOGIES, INC. : Digitizing Company
~Other -----------------------------------------------------
~ASCII -----------------------------------------------------
# ...
 8600.00000   88.73300  -51.95500 4340.00000    6.15900    2.93100    3.40900    3.99800    4.36400   -0.02000    -999.25    -999.25   55.42600    -999.25    -999.25    0.34800   92.30700   66.89800
 8650.00000   89.07600  -45.11100 4380.00000    5.61400    4.82000    6.41200    7.44300    4.32500    0.08700    -999.25    0.34800   83.68900    -999.25    -999.25    0.34700   80.90500   77.28500
 8700.00000   75.45000  -49.28800 4340.00000    5.94900    8.10900    6.97800    8.65300    4.36900    0.03000    -999.25    -999.25   80.23000    -999.25    -999.25    -999.25   71.51100   89.00600
 8750.00000   88.30200  -45.47400 4442.81690    4.64700    3.11800    3.30200    3.35600    4.31000    0.03500    -999.25    -999.25   79.50700    -999.25    -999.25    0.34900  -58.50900   87.81300
 8800.00000   73.88500  -41.00200 4478.34180    2.00000    5.59000    6.11600    5.75600    4.56900    0.04400    -999.25    0.19600   64.65900    -999.25    -999.25    0.19200  139.70200   55.05300
 8850.00000   78.25800   -1.66800 4533.21090    3.95700    3.75300    3.60200    3.85800    3.87700    0.09600    -999.25    0.34700   86.30300    -999.25    -999.25    0.34900   84.97800  -35.64600
 8900.00000   50.67400  -59.95000 4452.27100    1.45100   90.54800   83.62600  153.70600    5.38800   -0.00900    -999.25    0.02100   27.28200    -999.25    -999.25    0.04100   75.08900   21.42600
 8950.00000   55.61500  -81.55200 4564.47220    1.52500    7.98800    9.29000   12.26500    5.05200    0.00500    -999.25    0.10000   18.11600    -999.25    -999.25    0.10500   53.91600   57.43800
 9000.00000   52.27900  -72.75300 4532.27980    1.96800   23.87400   20.32300   34.72100    4.54900    0.14900   79.97090    0.15000   22.99600    -999.25    -999.25    0.12800   51.74200   51.47700
 9050.00000   50.95100  -94.98600 4600.73000    2.40100   27.87200   11.93500  112.26200    5.25300    0.06600   53.47300    0.07300   27.48700    -999.25    -999.25    0.00600  110.17900   50.04000
 9100.00000   54.92300  -16.87100 4657.46390    1.09300   31.53900   23.80100   25.03200    5.59000    0.00400   50.92700    0.04100   42.29400    -999.25    -999.25    0.02100   54.41400   52.87100
 9150.00000   70.60800   -5.09900 4622.89790    1.49000    6.86800    6.59100    7.66200    3.40100    0.01300   71.28720    0.28600   65.68300    -999.25    -999.25    0.16000   86.42100   68.72800
 9200.00000   53.18300   -7.78500 4690.92290    0.61800   58.51000   47.17700   45.28000    4.52000   -0.00600   52.78590    0.01900   51.84600    -999.25    -999.25    0.01500   53.41900   51.63000
 9250.00000   50.92900  -13.34700 4647.29000    0.46500   95.10000   99.96300  113.11400    5.70700   -0.01300   50.37860    0.01800   21.91600    -999.25    -999.25    -999.25   49.13700   49.07700
 9300.00000   56.88300    3.55500 4595.70210    0.15200    9.16400    7.13600    6.67700    -999.25    -999.25   69.94010    -999.25   36.05600    -999.25    -999.25    -999.25    -999.25    -999.25
 9350.00000    -999.25    -999.25 2985.92410    -999.25    -999.25    -999.25    -999.25    -999.25    -999.25   76.59000    -999.25   32.10100    -999.25    -999.25    -999.25    -999.25    -999.25
 9400.00000    -999.25   11.81800 3568.58400    -999.25    -999.25    -999.25    -999.25    -999.25    -999.25   59.92500    -999.25   39.99300    -999.25    -999.25    -999.25    -999.25    -999.25
 9450.00000    -999.25   14.97700 3652.82100    -999.25    -999.25    -999.25    -999.25    -999.25    -999.25   76.61400    -999.25   56.33900    -999.25    -999.25    0.20500    -999.25    -999.25
 9500.00000    -999.25   14.16500 3688.05300    3.28600   10.06800    6.95700    6.70600    5.06400    0.01600   67.61700    0.08100   54.54900    -999.25    -999.25    0.04500    -999.25    -999.25
 9550.00000    -999.25  -18.69400 3723.59300    1.82200   15.42000   14.03000   12.75800    4.02600    0.00000   61.97700    0.05500   52.56600    -999.25    -999.25    0.04200    -999.25    -999.25
 9600.00000    -999.25   12.20000 3688.05300    3.73700    9.36600    9.83400    9.14200    4.22200    0.00100   61.37800    0.01100   72.03500    -999.25    -999.25    0.08700    -999.25    -999.25
 9650.00000    -999.25  -13.21400 3705.11500    2.96100    7.71900    7.85700    8.07600    4.74600    0.00200   60.85300    0.05800   60.37600    -999.25    -999.25    0.08000    -999.25    -999.25
 9700.00000    -999.25  -25.64900 3727.87600    2.08600   11.39600   13.26200   13.77400    4.12200    0.00300   59.14300    0.05000   51.44900    -999.25    -999.25    0.03700    -999.25    -999.25
 9750.00000    -999.25  -21.19800 3730.62300    2.05100   21.11400   24.11100   18.45600    4.10800    0.00700   58.54600    0.05400   48.63400    -999.25    -999.25    0.02700    -999.25    -999.25
 9800.00000    -999.25   -7.34500 3807.52200    1.86700   14.60300   15.46400   15.01100    5.06800   -0.00800   60.34100    0.04900   67.04600    -999.25    -999.25    0.08400    -999.25    -999.25
 9850.00000    -999.25  -30.03900 3718.85300    1.90000   48.40400   22.97200   20.25800    4.91600    0.01200   59.17100    0.08700   27.32600    -999.25    -999.25    0.00500    -999.25    -999.25
 9900.00000    -999.25  -59.87800 3799.71510    1.15700   42.67600   21.58300   17.32200    4.72900    0.00000   62.11300    0.10000   25.07900    -999.25    -999.25    0.01200    -999.25    -999.25
 9950.00000    -999.25  -38.40700 3765.77100    2.13500    9.14200   10.49200   13.68400    3.90500    0.00800   61.42000    0.06500   55.35200    -999.25    -999.25    0.04100    -999.25    -999.25
 10000.00000    -999.25  -54.61300 3847.34500    1.14700   44.44000   27.70600   24.20600    3.33200   -0.01100   58.82400    0.10000   26.73200    -999.25    -999.25    0.00700    -999.25    -999.25
 10050.00000    -999.25  -19.77100 3786.42210    1.11200   28.16400   37.25800   28.28600    3.99100   -0.00600   55.90900    0.04300   50.36400    -999.25    -999.25    0.02000    -999.25    -999.25
 10100.00000    -999.25   -7.81900 3831.41600    2.51200   23.14600   20.04600   18.45600    4.42700    0.00300   58.24500    0.04300   59.35400    -999.25    -999.25    0.03200    -999.25    -999.25
 10150.00000    -999.25  -40.25100 3887.16800    1.15700   30.30300   29.07700   27.23800    3.70500   -0.00100   57.57500    0.05200   46.74600    -999.25    -999.25    0.01100    -999.25    -999.25
 10200.00000    -999.25   -9.44700 3949.73510    2.77700   15.44300   10.06800    9.79400    5.04700    0.01300   61.87400    0.03700   45.62900    -999.25    -999.25    0.03600    -999.25    -999.25
 10250.00000    -999.25  -11.51200 3926.99100    2.04800   17.70900   12.90000   11.32100    4.51200    0.00600   57.39700    0.04500   45.42700    -999.25    -999.25    0.02700    -999.25    -999.25
 10300.00000    -999.25  -21.28700 3966.81400    1.30400   18.59300   16.66400   13.68600    4.23500    0.00100   59.84000    0.06900   63.02000    -999.25    -999.25    0.05300    -999.25    -999.25
 10350.00000    -999.25  -75.62300 3863.81490    0.70700   26.88400   25.23500   25.33500    4.13900   -0.00600   59.04300    0.11000   27.79800    -999.25    -999.25    0.01000    -999.25    -999.25
 10400.00000    -999.25  -57.03700 3966.81400    0.63900   12.11200   10.78500   11.14500    4.08500   -0.01600   58.68400    0.10000   33.91700    -999.25    -999.25    0.02900    -999.25    -999.25
 10450.00000    -999.25  -56.25600 3966.81400    0.53800   24.19600   25.33500   29.07700    4.98700    0.00500   57.48000    0.07300   42.95700    -999.25    -999.25    0.02500    -999.25    -999.25
 10500.00000    -999.25  -72.75700 3966.81400    1.18000   36.74800   48.24300   48.07200    5.44500    0.00800   58.15700    0.08300   43.24400    -999.25    -999.25    0.00700    -999.25    -999.25
 10550.00000    -999.25  -61.12500 3994.30910    0.79800   34.34900   22.22900   22.07500    3.42800    0.00100   59.17600    0.08600   36.22000    -999.25    -999.25    0.00900    -999.25    -999.25
 10600.00000    -999.25  -84.41300 4492.22900    0.71800   22.38100   24.60700   24.64700    4.35000    0.00900   58.04600    0.06800   32.56300    -999.25    -999.25    0.01300    -999.25    -999.25
