~Version ---------------------------------------------------
VERS. 2.0 : CWLS log ASCII Standard -VERSION 2.0
WRAP. YES : MULTIPLE LINES PER DEPTH STEP
~Well ------------------------------------------------------
STRT.FT                  850.0 : START DEPTH
STOP.FT                 7550.0 : STOP DEPTH
STEP.FT               50.00000 : STEP LENGTH
NULL.                  -999.25 : NULL VALUE
COMP.      REDMAN OPERATING CO : COMPANY
WELL.         J C WALLACE  #11 : WELL
FLD .               JOURDANTON : FIELD
LOC .                          : LOCATION
CNTY.                 ATASCOSA : COUNTY
STAT.                    TEXAS : STATE
CTRY. UNITED STATES OF AMERICA : COUNTRY
SRVC.             Schlumberger : SERVICE COMPANY
DATE.              09-Mar-2006 : LOGDATE
API .           42013342130000 : API NUMBER
UWI .           42013342130000 : UNIQUE WELL ID
SLAT.WGS84       28.8623537028 : SURFACE LATITUDE
SLON.WGS84      -98.6331986757 : SURFACE LONGITUDE
~Curve Information -----------------------------------------
DEPT    .FT    : DEPTH FEET
AT10ED  .OHMM  : 10 INCH RESISTIVITY TWO FOOT RESOLUTION FROM AIT LOG
AT20ED  .OHMM  : 20 INCH RESISTIVITY TWO FOOT RESOLUTION FROM AIT LOG
AT30ED  .OHMM  : 30 INCH RESISTIVITY TWO FOOT RESOLUTION FROM AIT LOG
AT60ED  .OHMM  : 60 INCH RESISTIVITY TWO FOOT RESOLUTION FROM AIT LOG
AT90ED  .OHMM  : 90 INCH RESISTIVITY TWO FOOT RESOLUTION FROM AIT LOG
CALWS   .IN    : CALIPER [DCALED+7.875]
CONDWS  .MMHO  : CONDUCTIVITY [1000/DRESWS]
DCALED  .IN    : DIFFERENTIAL CALIPER FROM DENSITY LOG
DCORWS  .G/C3  : DENSITY CORRECTION [HDRAED]
DENWS   .G/C3  : BULK DENSITY [M=2.71 F=1.0] [CALCULATED FROM DPOWS]
DPHZLSED.V/V   : DENSITY POROSITY [M=2.71 F=1.0] FROM DENSITY LOG
DPHZSSED.V/V   : DENSITY POROSITY [M=2.65 F=1.0] FROM DENSITY LOG
DPOWS   .V/V   : DENSITY POROSITY [M=2.71 F=1.0] [MERGED DPHISSED CONVERTED TO LS/DPHZLSED at 6000]
DRESWS  .OHMM  : DEEP RESISTIVITY [AT90ED]
GRRED   .GAPI  : GAMMA RAY FROM RESISTIVITY LOG
GRWS    .GAPI  : GAMMA RAY [GRRED] *CASED HOLE ABOVE 891 FT*
HDRAED  .G/C3  : DENSITY CORRECTION FROM DENSITY LOG
MRESWS  .OHMM  : MEDIUM RESISTIVITY [AT30ED]
NPOWS   .V/V   : NEUTRON POROSITY LIMESTONE [MERGED TNPHSSED CONVERTED TO LS/TNPHLSED at 6000] *CASED HOLE ABOVE 891 FT*
SPRED   .MV    : SPONTANEOUS POTENTIAL FROM RESISTIVITY LOG
SPWS    .MV    : SPONTANEOUS POTENTIAL [BASELINE 0 MV] [SPRED]
SRESWS  .OHMM  : SHALLOW RESISTIVITY [AT20ED]
TENRED  .LBF   : TENSION FROM RESISTIVITY LOG
TNPHLSED.V/V   : THERMAL NEUTRON POROSITY LIMESTONE FROM LWD LOG
TNPHSSED.V/V   : THERMAL NEUTRON POROSITY SANDSTONE FROM LWD LOG
~Params ----------------------------------------------------
PD  .                     GL : PERMANENT DATUM
EPD .FT                  445 : ELEVATION PERMANENT DATUM
LMF .                     KB : LOG MEASURED FROM
DAPD.FT                   15 : FEET ABOVE PERMANENT DATUM
DMF .                     KB : DRILLING MEASURED FROM
EKB .FT                  445 : KELLY BUSHING
EDF .FT                  460 : DRILLING FLOOR
EGL .FT                  459 : GROUND LEVEL
DATE.             03/09/2006 : RUN DATE
RUN .                      1 : RUN NUMBER
DD  .FT                 7575 : DEPTH DRILLER
DL  .FT                 7570 : DEPTH LOGGER
BLI .FT                 7570 : BOTTOM LOG INTERVAL
TLI .FT                  891 : TOP LOG INTERVAL
CS  .IN                8.625 : CASING SIZE
CBD .FT                  888 : CASING BOTTOM DRILLER
CBL .FT                  891 : CASING BOTTOM LOGGER
BS  .IN                7.875 : BIT SIZE
BSD .FT                 7575 : BIT SIZE AT DEPTH
DFT .  FRESH WATER BASED MUD : DRILLING FLUID TYPE
DFD .                   10.2 : DRILLING FLUID DENSITY
DFV .                     40 : DRILLING FLUID VISCOSITY
DFPH.                    8.7 : DRILLING FLUID PH
DFL .                    5.2 : DRILLING FLUID LOSS
MSS .                MUD PIT : MUD SAMPLE SOURCE
RMS .OHMM              1.006 : RESISTIVITY MUD SAMPLE
MST .FT                   82 : MUD SAMPLE TEMPERATURE
RMF .OHMM              0.754 : RESISTIVITY MUD FILTRATE SAMPLE
MFST.FT                   82 : MUD FILTRATE SAMPLE TEMPERATURE
RMC .OHMM              1.512 : RESISTIVITY MUD CAKE
MCST.FT                   82 : MUD CAKE SAMPLE TEMPERATURE
MFSS.             CALCULATED : MUD FILTRATE SAMPLE SOURCE
MCSS.             CALCULATED : MUD CAKE SAMPLE SOURCE
RMB .OHMM              0.501 : RESISTIVITY MUD AT BHT
TCS .HRS                1200 : TIME CURCULATED STOPPED
TLAB.HRS                1930 : TIME LOGGER AT BOTTOM
LUN .                   2129 : LOGGING UNIT NUMBER
LUL .               VICTORIA : LOGGING UNIT LOCATION
ENGI.         JOSEPH JEPHSON : RECORDING ENGINEER
WITN.         BRIAN MCMICKEN : WITNESSED BY
CLNT.                A2DTECH : CLIENT CODE
ORIG.            1" 5" PRINT : ORIGIN OF DATA
UWI .         42013342130000 : UNIQUE WELL ID
DICO. A2D Technologies, Inc. : DIGITIZING COMPANY
~Other -----------------------------------------------------
~ASCII -----------------------------------------------------
# ...
 5050.00000    1.47850    1.57110    1.59100    1.60370    1.61130    9.03690  620.61690    1.16190    0.22320    2.34660    -999.25    0.18390    0.21250    1.61130   98.45780   98.45780    0.22320    1.59100    0.32070    0.48010   -2.81170    1.57110 2360.71580    -999.25    0.36420
 5100.00000    1.73380    1.80690    1.82920    1.84350    1.87430    8.89880  533.53250    1.02380    0.17760    2.38670    -999.25    0.15960    0.18910    1.87430   97.49920   97.49920    0.17760    1.82920    0.27850    0.38000   -3.32040    1.80690 2311.27830    -999.25    0.32240
 5150.00000    1.73300    1.75110    1.77450    1.78950    1.79830    8.85470  556.08070    0.97970    0.20970    2.35840    -999.25    0.17670    0.20560    1.79830   94.33150   94.33150    0.20970    1.77450    0.29880    1.65880   -2.45020    1.75110 2290.20430    -999.25    0.34250
 5200.00000    3.00950    3.01400    3.05250    3.07690    3.09120    7.92250  323.49900    0.04750    0.01900    2.53830    -999.25    0.06770    0.10040    3.09120   84.05040   84.05040    0.01900    3.05250    0.19280    2.18430   -2.33320    3.01400 2388.64940    -999.25    0.23660
 5250.00000    2.09190    2.11460    2.14180    2.15920    2.16950    7.95690  460.93570    0.08190    0.01170    2.36220    -999.25    0.17440    0.20340    2.16950   93.89380   93.89380    0.01170    2.14180    0.25080   -4.76600   -9.69210    2.11460 2401.21390    -999.25    0.29480
 5300.00000    1.66490    1.68720    1.70400    1.76200    1.77990    8.51750  561.82930    0.64250    0.15700    2.36970    -999.25    0.16990    0.19900    1.77990  108.77460  108.77460    0.15700    1.70400    0.27520    2.57130   -2.76330    1.68720 2413.37350    -999.25    0.31910
 5350.00000    1.75990    1.77500    1.79520    1.82960    1.84500    8.03150  542.00540    0.15650    0.00670    2.44280    -999.25    0.12560    0.15630    1.84500  119.85430  119.85430    0.00670    1.79520    0.26920    0.64220   -5.10100    1.77500 2389.17020    -999.25    0.31310
 5400.00000    1.15670    1.16710    1.18110    1.20490    1.21560    8.66980  822.63900    0.79480    0.06090    2.36770    -999.25    0.17110    0.20020    1.21560  117.97800  117.97800    0.06090    1.18110    0.29380    4.30220   -1.84950    1.16710 2472.38820    -999.25    0.33760
 5450.00000    2.05320    2.07080    2.09440    2.11500    2.13250    8.11100  468.93320    0.23600   -0.00150    2.43760    -999.25    0.12870    0.15930    2.13250  114.69690  114.69690   -0.00150    2.09440    0.22900    1.24220   -5.31810    2.07080 2440.68410    -999.25    0.27300
 5500.00000    1.45250    1.46470    1.48100    1.50950    1.52190    9.54690  657.07340    1.67190    0.11970    2.37350    -999.25    0.16760    0.19680    1.52190  127.32250  127.32250    0.11970    1.48100    0.27050    3.29280   -3.60900    1.46470 2482.05660    -999.25    0.31440
 5550.00000    2.50060    2.53030    2.57020    2.61450    2.63830    7.85560  379.03200   -0.01940    0.00010    2.44950    -999.25    0.12150    0.15230    2.63830  108.28840  108.28840    0.00010    2.57020    0.20900    1.11270   -5.89260    2.53030 2505.59790    -999.25    0.25290
 5600.00000    2.13020    2.15180    2.17380    2.19740    2.21970    8.02180  450.51130    0.14680    0.00020    2.45120    -999.25    0.12050    0.15140    2.21970  116.20540  116.20540    0.00020    2.17380    0.24110    2.13710   -4.97180    2.15180 2547.01070    -999.25    0.28510
 5650.00000    2.00950    1.93870    1.97080    2.00860    2.01200    8.35820  497.01790    0.48320    0.03930    2.42030    -999.25    0.13920    0.16940    2.01200  108.69560  108.69560    0.03930    1.97080    0.23500    3.60600   -3.60650    1.93870 2485.68480    -999.25    0.27900
 5700.00000    0.97480    0.98700    0.99400    1.02710    1.04190    9.85710  959.78500    1.98210    0.05650    2.35050    -999.25    0.18150    0.21020    1.04190  127.55500  127.55500    0.05650    0.99400    0.32320    5.13590   -2.15910    0.98700 2561.59840    -999.25    0.36660
 5750.00000    1.24230    1.26930    1.28380    1.30860    1.31970    9.93640  757.74800    2.06140    0.10910    2.36420    -999.25    0.17320    0.20220    1.31970  116.79810  116.79810    0.10910    1.28380    0.28360    3.90720   -3.31630    1.26930 2517.98900    -999.25    0.32740
 5800.00000    2.03850    2.05540    2.07790    2.14400    2.16140    8.76710  462.66310    0.89210    0.07910    2.48300    -999.25    0.10120    0.13270    2.16140  131.72460  131.72460    0.07910    2.07790    0.22650    2.99750   -4.15460    2.05540 2547.73140    -999.25    0.27050
 5850.00000    1.83200    1.84720    1.86750    1.87340    1.88850    9.87050  529.52080    1.99550    0.22530    2.46670    -999.25    0.11110    0.14230    1.88850  138.54140  138.54140    0.22530    1.86750    0.24260    3.07730   -4.00330    1.84720 2570.81640    -999.25    0.28660
 5900.00000    1.48090    1.49420    1.51200    1.52130    1.53420    9.96630  651.80550    2.09130    0.15960    2.42660    -999.25    0.13540    0.16570    1.53420  133.67540  133.67540    0.15960    1.51200    0.26080    3.79870   -3.21040    1.49420 2558.39720    -999.25    0.30480
 5950.00000    1.45580    1.50250    1.56650    1.60880    1.62190    8.61580  616.56090    0.74080    0.07290    2.35840    -999.25    0.17670    0.20560    1.62190  119.17870  119.17870    0.07290    1.56650    0.20870    4.82860   -2.10900    1.50250 2559.53760    -999.25    0.25260
 6000.00000    1.45030    1.51530    1.53240    1.56200    1.59540    9.93690  626.80210    2.06190    0.14250    2.34900    0.17920    0.18240    0.21110    1.59540  118.93440  118.93440    0.14250    1.53240    0.21840    4.44000   -2.42610    1.51530 2612.50730    0.26300    0.26240
 6050.00000    1.16130    1.17830    1.19760    1.23080    1.24580    9.91340  802.69700    2.03840    0.09790    2.40660    0.17740    -999.25    0.17740    1.24580  125.14360  125.14360    0.09790    1.19760    0.29110    3.66940   -3.12520    1.17830 2564.06760    0.29110    -999.25
 6100.00000    1.23430    1.25550    1.26920    1.29260    1.30310   10.16940  767.40080    2.29440    0.13750    2.39670    0.18320    -999.25    0.18320    1.30310  117.63330  117.63330    0.13750    1.26920    0.29950    4.25140   -2.47170    1.25550 2639.58670    0.29950    -999.25
 6150.00000    2.67620    2.61500    2.66770    2.62820    2.70330    9.24970  369.91820    1.37470    0.00720    2.44610    0.15430    -999.25    0.15430    2.70330  107.52600  107.52600    0.00720    2.66770    0.20440    4.03740   -2.61430    2.61500 2654.20210    0.20440    -999.25
 6200.00000    3.53550    3.43110    3.32730    3.26700    3.19180    8.00510  313.30280    0.13010    0.01060    2.49250    0.12720    -999.25    0.12720    3.19180   72.06200   72.06200    0.01060    3.32730    0.16510    2.62770   -3.95250    3.43110 2683.84030    0.16510    -999.25
 6250.00000    3.23390    3.18510    3.09680    3.04670    3.01590    8.04530  331.57600    0.17030    0.00200    2.55110    0.09290    -999.25    0.09290    3.01590   82.38330   82.38330    0.00200    3.09680    0.14160    3.23100   -3.27770    3.18510 2697.86160    0.14160    -999.25
 6300.00000    2.86450    2.83200    2.77550    2.73170    2.70470    8.15900  369.72680    0.28400   -0.00080    2.55540    0.09040    -999.25    0.09040    2.70470   84.22720   84.22720   -0.00080    2.77550    0.16620    3.09740   -3.26660    2.83200 2689.19850    0.16620    -999.25
 6350.00000    6.06820    5.88110    5.62140    5.37120    5.20790    7.89950  192.01600    0.02450    0.00060    2.59320    0.06830    -999.25    0.06830    5.20790   47.60820   47.60820    0.00060    5.62140    0.09160    1.97060   -4.01680    5.88110 2704.24370    0.09160    -999.25
 6400.00000    4.57160    4.52120    4.43190    4.37940    4.32130    7.98680  231.41180    0.11180    0.00190    2.58860    0.07100    -999.25    0.07100    4.32130   65.27380   65.27380    0.00190    4.43190    0.11420    1.35370   -4.25700    4.52120 2717.42530    0.11420    -999.25
