~Version ---------------------------------------------------
VERS. 2.0 : CWLS log ASCII Standard -VERSION 2.0
WRAP. YES : MULTIPLE LINES PER DEPTH STEP
~Well ------------------------------------------------------
STRT.FT                    700.0 : START DEPTH
STOP.FT                   6350.0 : STOP DEPTH
STEP.FT                 50.00000 : STEP LENGTH
NULL.                    -999.25 : NULL VALUE
COMP. TEXLARK EXPLORATION CO INC : COMPANY
WELL.            V. STAVINOHA #1 : WELL
FLD .                  CINDY ANN : FIELD
LOC .                            : LOCATION
CNTY.                     WILSON : COUNTY
STAT.                      TEXAS : STATE
CTRY.   UNITED STATES OF AMERICA : COUNTRY
SRVC.                   Gearhart : SERVICE COMPANY
DATE.                31-Mar-1982 : LOGDATE
API .             42493310750000 : API NUMBER
UWI .             42493310750000 : UNIQUE WELL ID
SLAT.WGS84         29.1162057424 : SURFACE LATITUDE
SLON.WGS84        -98.0533635571 : SURFACE LONGITUDE
~Curve Information -----------------------------------------
DEPT   .FT    : DEPTH FEET
CALWS  .IN    : CALIPER [CALXRED]
CALXDED.IN    : CALIPER X FROM DENSITY LOG
CALXRED.IN    : CALIPER X FROM RESISTIVITY LOG
CALYDED.IN    : CALIPER Y FROM DENSITY LOG
CDLSSED.V/V   : COMPENSATED DENSITY POROSITY SANDSTONE FROM DENSITY LOG
CNSSSED.V/V   : COMPENSATED NEUTRON POROSITY SANDSTONE FROM DENSITY LOG
CONDWS .MMHO  : CONDUCTIVITY [1000/DRESWS]
DCORWS .G/C3  : DENSITY CORRECTION [DRHOED]
DENWS  .G/C3  : BULK DENSITY [M=2.65 F=1.0] [RHOBED]
DPOWS  .V/V   : DENSITY POROSITY [M=2.65 F=1.0] [CALCULATED FROM DENWS]
DRESWS .OHMM  : DEEP RESISTIVITY [RILDED]
DRHOED .G/C3  : DENSITY CORRECTION FROM DENSITY LOG
DTED   .US/F  : DELTA TIME FROM SONIC LOG
DTWS   .US/F  : DELTA TIME [DTED]
GRDED  .GAPI  : GAMMA RAY FROM DENSITY LOG
GRNED  .GAPI  : GAMMA RAY FROM NEUTRON LOG [ADJ TO GRRED]
GRRED  .GAPI  : GAMMA RAY FROM RESISTIVITY LOG
GRWS   .GAPI  : GAMMA RAY [SPL GRRED <6056F> GRNED, CSG ABOVE 732F ALSO CASED HOLE DATA FROM 6056-BOTTOM AND BULK SHIFTED +20GAPI]
MRESWS .OHMM  : MEDIUM RESISTIVITY [RILMED]
NEUTED .NAPI  : NEUTRON FROM NEUTRON LOG [ADJ TO GRRED]
NEUTWS .NAPI  : NEUTRON [NEUTED]
NPOWS  .V/V   : NEUTRON POROSITY SANDSTONE [CNSSSED]
RHOBED .G/C3  : BULK DENSITY FROM DENSITY LOG
RILDED .OHMM  : INDUCTION LOG DEEP RESISTIVITY
RILMED .OHMM  : INDUCTION LOG MEDIUM RESISTIVITY
RLLED  .OHMM  : LATEROLOG RESISTIVITY
SPRED  .MV    : SPONTANEOUS POTENTIAL FROM RESISTIVITY LOG
SPWS   .MV    : SPONTANEOUS POTENTIAL [BASELINE 0 MV] [SPRED]
SRESWS .OHMM  : SHALLOW RESISTIVITY [RLLED]
TENDED .LBF   : TENSION FROM DENSITY LOG
TENRED .LBF   : TENSION FROM RESISTIVITY LOG
~Params ----------------------------------------------------
PD  .                     GL : PERMANENT DATUM
EPD .FT                416.4 : ELEVATION PERMANENT DATUM
LMF .                    TKB : LOG MEASURED FROM
DAPD.FT                 13.9 : FEET ABOVE PERMANENT DATUM
DMF .                    TKB : DRILLING MEASURED FROM
EKB .FT                430.3 : KELLY BUSHING
EDF .FT                429.3 : DRILLING FLOOR
EGL .FT                416.4 : GROUND LEVEL
DATE.               03/31/82 : RUN DATE
RUN .                      1 : RUN NUMBER
DD  .FT                 6068 : DEPTH DRILLER
DL  .FT                 6105 : DEPTH LOGGER
BLI .FT                 6104 : BOTTOM LOG INTERVAL
TLI .FT                  675 : TOP LOG INTERVAL
CS  .IN                8.625 : CASING SIZE
CBD .FT                  732 : CASING BOTTOM DRILLER
CBL .FT                  732 : CASING BOTTOM LOGGER
BS  .IN                7.875 : BIT SIZE
BSD .FT                 6068 : BIT SIZE AT DEPTH
DFT .         LIGNOSULFONATE : DRILLING FLUID TYPE
DFD .                    9.8 : DRILLING FLUID DENSITY
DFV .                     75 : DRILLING FLUID VISCOSITY
DFPH.                   10.5 : DRILLING FLUID PH
DFL .                    8.0 : DRILLING FLUID LOSS
MSS .               FLOWLINE : MUD SAMPLE SOURCE
RMS .OHMM                2.3 : RESISTIVITY MUD SAMPLE
MST .DEGF                 75 : MUD SAMPLE TEMPERATURE
RMF .OHMM                2.1 : RESISTIVITY MUD FILTRATE SAMPLE
MFST.DEGF                 75 : MUD FILTRATE SAMPLE TEMPERATURE
RMC .OHMM                2.4 : RESISTIVITY MUD CAKE
MCST.DEGF                 75 : MUD CAKE SAMPLE TEMPERATURE
MFSS.                      M : MUD FILTRATE SAMPLE SOURCE
MCSS.                      C : MUD CAKE SAMPLE SOURCE
RMB .OHMM               1.17 : RESISTIVITY MUD AT BHT
TCS .HRS                1400 : TIME CIRCULATED STOPPED
TLAB.HRS                  30 : TIME LOGGER AT BOTTOM
LUN .                   7506 : LOGGING UNIT NUMBER
LUL .                     CC : LOGGING UNIT LOCATION
ENGI.                  DEPUR : RECORDING ENGINEER
CLNT.                A2DTECH : CLIENT CODE
ORIG.               5" PRINT : ORIGIN OF DATA
UWI .         42493310750000 : UNIQUE WELL ID
DICO. A2D Technologies, Inc. : DIGITIZING COMPANY
~Other -----------------------------------------------------
~ASCII -----------------------------------------------------
# ...
 4150.00000   11.91500    -999.25   11.91500    -999.25    -999.25    -999.25  560.69530    -999.25    -999.25    -999.25    1.78350    -999.25  118.14010  118.14010    -999.25    -999.25   79.30210   79.30210    2.05750    -999.25    -999.25    -999.25    -999.25    1.78350    2.05750    2.16990  -18.23390   -3.28510    2.16990    -999.25  863.91310
 4200.00000   12.27280    -999.25   12.27280    -999.25    -999.25    -999.25  669.29930    -999.25    -999.25    -999.25    1.49410    -999.25  105.92010  105.92010    -999.25    -999.25   81.78950   81.78950    1.67680    -999.25    -999.25    -999.25    -999.25    1.49410    1.67680    1.85020  -16.69380   -2.51780    1.85020    -999.25  992.27260
 4250.00000   10.96120    -999.25   10.96120    -999.25    -999.25    -999.25  651.21130    -999.25    -999.25    -999.25    1.53560    -999.25  106.72830  106.72830    -999.25    -999.25   78.37100   78.37100    1.68760    -999.25    -999.25    -999.25    -999.25    1.53560    1.68760    1.97310  -16.00080   -2.59770    1.97310    -999.25 1012.42600
 4300.00000   11.22750    -999.25   11.22750    -999.25    -999.25    -999.25  687.75790    -999.25    -999.25    -999.25    1.45400    -999.25  109.56240  109.56240    -999.25    -999.25   78.88060   78.88060    1.59380    -999.25    -999.25    -999.25    -999.25    1.45400    1.59380    1.93310  -15.69710   -3.06680    1.93310    -999.25 1010.86780
 4350.00000   12.60670    -999.25   12.60670    -999.25    -999.25    -999.25  771.12890    -999.25    -999.25    -999.25    1.29680    -999.25  109.45850  109.45850    -999.25    -999.25   80.53610   80.53610    1.45470    -999.25    -999.25    -999.25    -999.25    1.29680    1.45470    1.74390  -15.08880   -3.23130    1.74390    -999.25  997.03090
 4400.00000   10.14950    -999.25   10.14950    -999.25    -999.25    -999.25  783.39210    -999.25    -999.25    -999.25    1.27650    -999.25  106.56510  106.56510    -999.25    -999.25   81.22830   81.22830    1.47150    -999.25    -999.25    -999.25    -999.25    1.27650    1.47150    1.64060  -12.36970   -1.28090    1.64060    -999.25 1112.53960
 4450.00000   12.51480    -999.25   12.51480    -999.25    -999.25    -999.25  886.60340    -999.25    -999.25    -999.25    1.12790    -999.25  113.76460  113.76460    -999.25    -999.25   81.05920   81.05920    1.29210    -999.25    -999.25    -999.25    -999.25    1.12790    1.29210    1.59430  -14.55520   -4.10110    1.59430    -999.25  958.98330
 4500.00000   15.99330    -999.25   15.99330    -999.25    -999.25    -999.25 1272.91240    -999.25    -999.25    -999.25    0.78560    -999.25  119.82340  119.82340    -999.25    -999.25   99.04750   99.04750    0.92150    -999.25    -999.25    -999.25    -999.25    0.78560    0.92150    1.15700   -9.13540    0.68400    1.15700    -999.25  931.65560
 4550.00000   10.94050    -999.25   10.94050    -999.25    -999.25    -999.25  553.70980    -999.25    -999.25    -999.25    1.80600    -999.25   97.74500   97.74500    -999.25    -999.25   63.74700   63.74700    1.89510    -999.25    -999.25    -999.25    -999.25    1.80600    1.89510    2.04680  -11.20030   -2.01560    2.04680    -999.25  956.98220
 4600.00000    8.58400    -999.25    8.58400    -999.25    -999.25    -999.25  444.72120    -999.25    -999.25    -999.25    2.24860    -999.25   92.04810   92.04810    -999.25    -999.25   68.61810   68.61810    2.49950    -999.25    -999.25    -999.25    -999.25    2.24860    2.49950    2.67900  -11.65490   -3.10490    2.67900    -999.25 1069.10630
 4650.00000    9.65020    -999.25    9.65020    -999.25    -999.25    -999.25  614.51480    -999.25    -999.25    -999.25    1.62730    -999.25  108.28140  108.28140    -999.25    -999.25   72.32080   72.32080    1.74200    -999.25    -999.25    -999.25    -999.25    1.62730    1.74200    2.02310  -10.66300   -2.74770    2.02310    -999.25 1217.98630
 4700.00000    7.90060    -999.25    7.90060    -999.25    -999.25    -999.25  573.98690    -999.25    -999.25    -999.25    1.74220    -999.25   94.00990   94.00990    -999.25    -999.25   63.64710   63.64710    2.05870    -999.25    -999.25    -999.25    -999.25    1.74220    2.05870    2.30380  -10.42920   -3.73110    2.30380    -999.25 1034.43590
 4750.00000   10.35940    -999.25   10.35940    -999.25    -999.25    -999.25  653.89390    -999.25    -999.25    -999.25    1.52930    -999.25  104.35530  104.35530    -999.25    -999.25   66.28630   66.28630    1.65650    -999.25    -999.25    -999.25    -999.25    1.52930    1.65650    1.85200   -8.30100   -2.87770    1.85200    -999.25  937.70950
 4800.00000   12.24050    -999.25   12.24050    -999.25    -999.25    -999.25  728.22600    -999.25    -999.25    -999.25    1.37320    -999.25  105.65120  105.65120    -999.25    -999.25   66.15810   66.15810    1.54350    -999.25    -999.25    -999.25    -999.25    1.37320    1.54350    1.79510   -7.32620   -3.17770    1.79510    -999.25 1127.81970
 4850.00000   11.03830    -999.25   11.03830    -999.25    -999.25    -999.25  847.52940    -999.25    -999.25    -999.25    1.17990    -999.25  106.48910  106.48910    -999.25    -999.25   63.13190   63.13190    1.33320    -999.25    -999.25    -999.25    -999.25    1.17990    1.33320    1.66440   -8.30040   -5.42670    1.66440    -999.25  931.06470
 4900.00000   12.40960    -999.25   12.40960    -999.25    -999.25    -999.25  976.37180    -999.25    -999.25    -999.25    1.02420    -999.25  111.67220  111.67220    -999.25    -999.25   65.41440   65.41440    1.15340    -999.25    -999.25    -999.25    -999.25    1.02420    1.15340    1.41540   -7.76820   -6.16930    1.41540    -999.25  923.67530
 4950.00000   10.29750    -999.25   10.29750    -999.25    -999.25    -999.25  745.04540    -999.25    -999.25    -999.25    1.34220    -999.25  105.81150  105.81150    -999.25    -999.25   72.20420   72.20420    1.53130    -999.25    -999.25    -999.25    -999.25    1.34220    1.53130    1.72110   -2.09320   -2.23510    1.72110    -999.25  861.12230
 5000.00000    8.41650    -999.25    8.41650    -999.25    -999.25    -999.25  614.96830    -999.25    -999.25    -999.25    1.62610    -999.25  103.08070  103.08070    -999.25    -999.25   67.21200   67.21200    1.75060    -999.25    -999.25    -999.25    -999.25    1.62610    1.75060    2.02690   -2.03110   -4.25140    2.02690    -999.25  855.49730
 5050.00000    7.65810    -999.25    7.65810    -999.25    -999.25    -999.25  532.48140    -999.25    -999.25    -999.25    1.87800    -999.25   95.08090   95.08090    -999.25    -999.25   74.89190   74.89190    2.27590    -999.25    -999.25    -999.25    -999.25    1.87800    2.27590    2.33560    0.91120   -3.38740    2.33560    -999.25  960.33230
 5100.00000    7.94330    -999.25    7.94330    -999.25    -999.25    -999.25  494.38870    -999.25    -999.25    -999.25    2.02270    -999.25   92.19030   92.19030    -999.25    -999.25   70.19630   70.19630    2.30460    -999.25    -999.25    -999.25    -999.25    2.02270    2.30460    2.71660    5.06760   -1.30930    2.71660    -999.25  970.19250
 5150.00000   10.05280    -999.25   10.05280    -999.25    -999.25    -999.25  676.68150    -999.25    -999.25    -999.25    1.47780    -999.25  101.48860  101.48860    -999.25    -999.25   65.70900   65.70900    1.62990    -999.25    -999.25    -999.25    -999.25    1.47780    1.62990    2.24000    5.26280   -2.70390    2.24000    -999.25  967.79690
 5200.00000    8.24120    -999.25    8.24120    -999.25    -999.25    -999.25  654.02220    -999.25    -999.25    -999.25    1.52900    -999.25   99.36200   99.36200    -999.25    -999.25   75.48600   75.48600    1.82040    -999.25    -999.25    -999.25    -999.25    1.52900    1.82040    2.06850    3.90130   -5.32940    2.06850    -999.25  933.83330
 5250.00000    7.83990    -999.25    7.83990    -999.25    -999.25    -999.25  513.76900    -999.25    -999.25    -999.25    1.94640    -999.25   93.36580   93.36580    -999.25    -999.25   79.90400   79.90400    2.21300    -999.25    -999.25    -999.25    -999.25    1.94640    2.21300    2.50600    7.43770   -3.05690    2.50600    -999.25  970.41410
