~Version ---------------------------------------------------
VERS. 2.0 : CWLS log ASCII Standard -VERSION 2.0
WRAP.  NO : ONE LINE PER DEPTH STEP
~Well ------------------------------------------------------
STRT.FT                 2900.0 : START DEPTH
STOP.FT                 7750.0 : STOP DEPTH
STEP.FT               50.00000 : STEP LENGTH
NULL.                  -999.25 : NULL VALUE
COMP.  ENERGETICS INCORPORATED : COMPANY
WELL.       W. D. NORRIS JR #1 : WELL
FLD .               SMILEY, SE : FIELD
LOC .                          : LOCATION
CNTY.                 GONZALES : COUNTY
STAT.                    TEXAS : STATE
CTRY. UNITED STATES OF AMERICA : COUNTRY
SRVC.             Schlumberger : SERVICE COMPANY
DATE.              23-Apr-1981 : LOGDATE
API .           42177309400000 : API NUMBER
UWI .           42177309400000 : UNIQUE WELL ID
SLAT.WGS84       29.2479234294 : SURFACE LATITUDE
SLON.WGS84      -97.6816438125 : SURFACE LONGITUDE
~Curve Information -----------------------------------------
DEPT  .FT    : DEPTH FEET
DCALR .IN    : DIFFERENTIAL CALIPER FROM RESISTIVITY LOG
DPHILS.V/V   : DENSITY POROSITY LIMESTONE FROM DENSITY LOG
DPHISS.V/V   : DENSITY POROSITY SANDSTONE FROM DENSITY LOG
DRHO  .G/C3  : DENSITY CORRECTION FROM DENSITY LOG
GRR   .GAPI  : GAMMA RAY FROM RESISTIVITY LOG
ILD   .OHMM  : INDUCTION LOG DEEP RESISTIVITY
ILM   .OHMM  : INDUCTION LOG MEDIUM RESISTIVITY
NPHILS.V/V   : NEUTRON POROSITY LIMESTONE FROM DENSITY LOG
NPHISS.V/V   : NEUTRON POROSITY SANDSTONE FROM DENSITY LOG
SFLU  .OHMM  : SPHERICALLY FOCUSED LOG RESISTIVITY
SPR   .MV    : SPONTANEOUS POTENTIAL FROM RESISTIVITY LOG
~Params ----------------------------------------------------
PD  .                     GL : PERMANENT DATUM
EPD .FT                  280 : ELEVATION PERMANENT DATUM
LMF .                     KB : LOG MEASURED FROM
DMF .                     KB : DRILLING MEASURED FROM
EGL .FT                  280 : GROUND LEVEL
DATE.               04/23/81 : RUN DATE
RUN .                      1 : RUN NUMBER
DD  .FT                 7775 : DEPTH DRILLER
DL  .FT                 7759 : DEPTH LOGGER
BLI .FT                 7752 : BOTTOM LOG INTERVAL
TLI .FT                 2896 : TOP LOG INTERVAL
CS  .IN                8.625 : CASING SIZE
CBD .FT                 2926 : CASING BOTTOM DRILLER
CBL .FT                 2896 : CASING BOTTOM LOGGER
BS  .IN                7.875 : BIT SIZE
BSD .FT                 7775 : BIT SIZE AT DEPTH
DFT .             LIGNOSULF. : DRILLING FLUID TYPE
DFD .                    9.3 : DRILLING FLUID DENSITY
DFV .                     38 : DRILLING FLUID VISCOSITY
DFPH.                   10.5 : DRILLING FLUID PH
DFL .                    8.4 : DRILLING FLUID LOSS
MSS .              CIRC TANK : MUD SAMPLE SOURCE
RMS .OHMM               1.35 : RESISTIVITY MUD SAMPLE
MST .FT                   75 : MUD SAMPLE TEMPERATURE
RMF .OHMM               1.22 : RESISTIVITY MUD FILTRATE SAMPLE
MFST.FT                   75 : MUD FILTRATE SAMPLE TEMPERATURE
RMC .OHMM               2.03 : RESISTIVITY MUD CAKE
MCST.FT                   75 : MUD CAKE SAMPLE TEMPERATURE
MFSS.                      M : MUD FILTRATE SAMPLE SOURCE
MCSS.                      C : MUD CAKE SAMPLE SOURCE
RMB .OHMM               0.55 : RESISTIVITY MUD AT BHT
TCS .HRS                1300 : TIME CURCULATED STOPPED
TLAB.HRS                1830 : TIME LOGGER AT BOTTOM
LUN .                   8005 : LOGGING UNIT NUMBER
LUL .               VICTORIA : LOGGING UNIT LOCATION
ENGI.            LOEVY LANCI : RECORDING ENGINEER
WITN.        WALTERS RUSSELL : WITNESSED BY
CLNT.                A2DTECH : CLIENT CODE
ORIG.               5" PRINT : ORIGIN OF DATA
UWI .         42177309400000 : UNIQUE WELL ID
DICO. A2D Technologies, Inc. : DIGITIZING COMPANY
~Other -----------------------------------------------------
~ASCII -----------------------------------------------------
# ...
 5950.00000   43.38200    -999.25    0.11560    -999.25   90.19030    0.99070    1.04690    -999.25    0.43220    1.23000  -10.98700
 6000.00000   42.33680    -999.25    0.11970    -999.25   87.60050    1.49520    1.57390    -999.25    0.32430    1.70750   -8.50800
 6050.00000   43.39890    -999.25    0.12280    -999.25   92.14200    1.10840    1.21260    -999.25    0.36000    1.45220   -9.46650
 6100.00000   42.69510    -999.25    0.13040    -999.25   92.08220    1.33200    1.45230    -999.25    0.34400    1.65800   -7.02410
 6150.00000   42.25520    -999.25    0.11190    0.08550   91.67430    1.42700    1.54820    -999.25    0.33550    1.79770   -7.01740
 6200.00000   42.70380    -999.25    0.10000    -999.25   87.89460    1.35950    1.47590    -999.25    0.33300    1.67690   13.60640
 6250.00000   41.99320    -999.25    0.10650    -999.25   96.39950    1.20390    1.35080    -999.25    0.35690    1.51500    5.81240
 6300.00000   40.87570    -999.25    0.09450    0.09510   90.14480    1.65670    1.76360    -999.25    0.31050    2.07770   -7.83340
 6350.00000   40.37390    -999.25    0.05970    0.00650   82.95340    2.63540    2.72230    -999.25    0.25740    3.07670   -3.99370
 6400.00000   40.42310    -999.25    0.12150    0.03520  105.50600    1.70220    1.79660    -999.25    0.26800    2.09920   -4.56230
 6450.00000   42.83730    -999.25    0.09750    0.09750  100.89100    1.18140    1.28170    -999.25    0.31050    1.39460   -3.81200
 6500.00000   42.21090    -999.25    0.10000    0.07940   98.93590    1.39460    1.50280    -999.25    0.29800    1.64820   -3.60640
 6550.00000   42.88650    -999.25    0.09090    0.09810  100.53440    1.21420    1.35330    -999.25    0.28480    1.62040   -3.70810
 6600.00000   42.70800    -999.25    0.09290    0.05610   95.54850    1.30980    1.44380    -999.25    0.29260    1.58770   -3.63740
 6650.00000   42.72950    -999.25    0.10310    0.09140  108.58980    1.55610    1.63560    -999.25    0.30280    1.77010   -3.23260
 6700.00000   43.06750    -999.25    0.11790    0.04860  111.51320    1.17960    1.27940    -999.25    0.32120    1.45160   -3.58470
 6750.00000   42.70780    -999.25    0.09720    0.08800  100.03230    1.20900    1.30720    -999.25    0.31960    1.44830   -5.55810
 6800.00000   41.61250    -999.25    0.09610    0.05720  108.08250    1.45650    1.58100    -999.25    0.30860    1.78840   -3.52030
 6850.00000   41.39890    -999.25    0.10670    0.03030   97.18910    1.34120    1.46900    -999.25    0.30870    1.58810   -2.62930
 6900.00000   41.67520    -999.25    0.10380    0.06250   97.70270    1.34120    1.45340    -999.25    0.28980    1.70350   -4.23830
 6950.00000   41.92090    -999.25    0.10380    0.04020  113.16910    1.25720    1.37160    -999.25    0.30370    1.61270   -7.06860
 7000.00000   43.16810    -999.25    0.09120    0.04820   94.79470    1.46580    1.55890    -999.25    0.29900    1.80650   -3.92680
 7050.00000   44.38400    -999.25    0.14120    0.09860  112.02900    1.23050    1.34630    -999.25    0.32630    1.45490   -3.59300
 7100.00000   43.82830    -999.25    0.19720    0.06940  134.63220    1.13850    1.23870    -999.25    0.32420    1.41640   -5.19030
 7150.00000   42.46280    0.23000    -999.25    0.09680  123.06840    1.00510    1.10640    0.29750    -999.25    1.23710   -5.61250
 7200.00000   41.94450    0.06660    -999.25    0.00630   48.25650    4.78200    4.94510    0.11190    -999.25    5.57250   -3.85740
 7250.00000   42.02230    0.05420    -999.25    0.00280   52.24460    5.41340    5.65770    0.09370    -999.25    6.45440   -2.45600
 7300.00000   41.25960    0.22440    -999.25    0.09770   76.06000    3.26690    2.32930    0.18450    -999.25    8.23260   -7.93700
 7350.00000   41.06490    0.03470    -999.25    0.03400   31.22090   10.23900   10.80160    0.05250    -999.25   12.94050  -14.09660
 7400.00000   41.12200    0.07980    -999.25    0.00540   26.88170   22.33700   22.47110    0.05070    -999.25   26.21980  -18.58850
 7450.00000   41.04870    0.03190    -999.25    0.05760   29.06230    7.72360    8.21350    0.04700    -999.25    9.46250  -19.56240
 7500.00000   41.31840    0.13620    -999.25   -0.00250   57.52050    6.40950    7.25180    0.14380    -999.25   17.34720   -4.80660
 7550.00000   41.26030    0.09950    -999.25    0.01410   67.40590   13.27880   13.90670    0.15100    -999.25   21.87700    5.22520
 7600.00000   41.25580    0.10940    -999.25    0.00670   75.85370   34.90750   28.72430    0.17790    -999.25   56.10740   -2.88150
 7650.00000   40.00770    0.00120    -999.25    0.01590   17.61420   43.01450   38.47930    0.01730    -999.25   69.09650  -26.75160
 7700.00000   40.21820    0.01200    -999.25    0.00760   54.71960   14.65430   14.80990    0.06170    -999.25   22.58950  -35.36650
 7750.00000   39.92910    0.02920    -999.25    0.00320   95.07270   38.76190   51.22070    -999.25    -999.25   52.30720  -30.97550
