~Version ---------------------------------------------------
VERS. 2.0 : CWLS log ASCII Standard -VERSION 2.0
WRAP.  NO : ONE LINE PER DEPTH STEP
~Well ------------------------------------------------------
STRT.F                  3800.0 : START DEPTH
STOP.F                  9750.0 : STOP DEPTH
STEP.F                50.00000 : STEP LENGTH
NULL.                  -999.25 : NULL VALUE
COMP. GENERAL PRODUCTION CORP. : COMPANY
WELL.    JACKIE BEESON UNIT #1 : WELL
FLD .              NAILS CREEK : FIELD
LOC .                          : LOCATION
CNTY.                      LEE : COUNTY
STAT.                    TEXAS : STATE
CTRY. UNITED STATES OF AMERICA : COUNTRY
SRVC.                    Welex : SERVICE COMPANY
DATE.              05-Jun-1981 : LOGDATE
API .           42287309540000 : API NUMBER
UWI .           42287309540000 : UNIQUE WELL ID
SLAT.WGS84       30.2059951736 : SURFACE LATITUDE
SLON.WGS84      -96.7853557026 : SURFACE LONGITUDE
~Curve Information -----------------------------------------
DEPT   .F    0   1   0  0 : 1 MEASURED DEPTH
SPR    .MV   07 010 01 00 : SPONTANEOUS POTENTIAL FROM RESISTIVITY LOG
ASGUARD.OHMM 07 121 05 00 : AMPLIFIED SHALLOW/SHORT GUARD RESISTIVITY
CIL    .MMHO 07 110 45 00 : INDUCTION CONDUCTIVITY
IL     .OHMM 07 120 45 00 : INDUCTION LOG RESISTIVITY
CALD   .IN   45 280 60 00 : CALIPER FROM DENSITY LOG
CORR   .G/C3 45 356 01 00 : DENSITY CORRECTION
DPHI   .DEC  45 890 10 00 : DENSITY POROSITY
GRD    .GAPI 45 310 01 00 : GAMMA RAY FROM DENSITY LOG
~Params ----------------------------------------------------
PD  .                     GL : PERMANENT DATUM
EPD .FT                  370 : ELEVATION PERMANENT DATUM
LMF .                    TKB : LOG MEASURED FROM
DAPD.FT                   18 : FEET ABOVE PERMANENT DATUM
DMF .                    TKB : DRILLING MEASURED FROM
EKB .FT                  388 : KELLY BUSHING
EDF .FT                  387 : DRILLING FLOOR
EGL .FT                  370 : GROUND LEVEL
DATE.               06/05/81 : RUN DATE
RUN .                      1 : RUN NUMBER
DD  .FT                 9797 : DEPTH DRILLER
DL  .FT                 9794 : DEPTH LOGGER
BLI .FT                 9792 : BOTTOM LOG INTERVAL
TLI .FT                 3800 : TOP LOG INTERVAL
CS  .IN                9.625 : CASING SIZE
CBD .FT                 3803 : CASING BOTTOM DRILLER
CBL .FT                 3800 : CASING BOTTOM LOGGER
BS  .IN                  8.5 : BIT SIZE
BSD .FT                 9797 : BIT SIZE AT DEPTH
DFT .         WATER BASE MUD : DRILLING FLUID TYPE
DFD .                    9.9 : DRILLING FLUID DENSITY
DFV .                     50 : DRILLING FLUID VISCOSITY
DFPH.                    8.5 : DRILLING FLUID PH
DFL .                    5.6 : DRILLING FLUID LOSS
MSS .             CIRCULATED : MUD SAMPLE SOURCE
RMS .OHMM               3.14 : RESISTIVITY MUD SAMPLE
MST .DEGF                 75 : MUD SAMPLE TEMPERATURE
RMF .OHMM               2.52 : RESISTIVITY MUD FILTRATE SAMPLE
MFST.DEGF                 75 : MUD FILTRATE SAMPLE TEMPERATURE
RMC .OHMM               3.76 : RESISTIVITY MUD CAKE
MCST.DEGF                 75 : MUD CAKE SAMPLE TEMPERATURE
MFSS.                   MEAS : MUD FILTRATE SAMPLE SOURCE
MCSS.                   MEAS : MUD CAKE SAMPLE SOURCE
RMB .OHMM               1.01 : RESISTIVITY MUD AT BHT
TCS .HRS                   8 : TIME CIRCULATED STOPPED
LUN .                   1905 : LOGGING UNIT NUMBER
LUL .                  BRYAN : LOGGING UNIT LOCATION
WITN.              MC LENNAN : WITNESSED BY
CLNT.                A2DTECH : CLIENT CODE
ORIG.               1" PRINT : ORIGIN OF DATA
UWI .         42287309540000 : UNIQUE WELL ID
DICO. A2D Technologies, Inc. : DIGITIZING COMPANY
~Other -----------------------------------------------------
~ASCII -----------------------------------------------------
# ...
 7800.00000  -11.85870    1.43250  687.85160    1.45380   17.31420    0.15980    0.22580  104.16150
 7850.00000   -9.41960    1.63920  616.29630    1.62150   13.49520    0.13490    0.19050  127.76190
 7900.00000  -11.23640    1.48860  613.13590    1.55660   12.96580    0.12180    0.20500  110.83310
 7950.00000  -11.53550    1.58600  628.30660    1.59160   13.46770    0.15050    0.16660  127.11130
 8000.00000  -10.98560    2.06540  529.99370    1.93150    9.45370    0.17830    0.18250  118.84460
 8050.00000  -12.10960    2.23360  500.25620    1.97080   10.37620    0.12220    0.15580  103.48760
 8100.00000  -13.32260    1.97080  536.61720    1.86350   12.35400    0.14340    0.12800  111.48900
 8150.00000  -13.96300    1.81860  563.98570    1.77310   13.99370    0.17110    0.14920  107.08080
 8200.00000  -13.91340    2.83720  504.18130    1.98340   12.15770    0.16070    0.10860  119.71450
 8250.00000  -13.40830    1.76820  557.34290    1.80160   11.21410    0.15810    0.11760  108.49260
 8300.00000  -12.50510    3.58120  331.96430    3.01240    9.42060    0.01020    0.05150   86.84600
 8350.00000  -23.03870    7.73030  175.32790    5.70360    9.38670   -0.02020    0.04920   54.73460
 8400.00000  -10.62300    3.29020  337.48090    3.17240    9.81380    0.02430    0.04780  106.94390
 8450.00000   -7.88480    4.29980  301.47130    3.31710    9.80030    0.00380    0.03300   90.30590
 8500.00000   -7.02110    3.41120  403.75990    2.47670    9.95400    0.11530    0.04250  111.63480
 8550.00000   -4.21320    3.56100  359.88250    2.77870   10.48850    0.04700    0.03730  106.83140
 8600.00000   -4.72080    3.41250  382.01360    2.71100   10.45020    0.05570    0.04970  112.19320
 8650.00000   -6.27080    4.34700  307.80110    3.36750    9.79480    0.01760    0.04490  104.77740
 8700.00000   -5.96390    3.15950  406.58530    2.55970   10.22380    0.06600    0.06390  105.40630
 8750.00000   -5.30640    3.03850  399.04860    2.50610    9.78690    0.08010    0.13820  119.70350
 8800.00000   -8.79420    2.68290  479.86240    2.18030   11.50260    0.06550    0.22430  130.00560
 8850.00000   -2.30580    3.46770  420.22960    2.37970    9.86800    0.14880    0.09700  118.66630
 8900.00000  -12.00610    9.38930  160.66080    6.39320    9.23530   -0.01060    0.05640   63.29110
 8950.00000  -27.88690   19.74720   52.31140   16.78570    9.13200   -0.01830    0.04020   37.96290
 9000.00000  -24.34830   14.77180   78.21800   11.89930    9.14350   -0.01650    0.04800   40.86410
 9050.00000  -36.96350   16.24710   66.39840   15.06090    9.04290   -0.00950    0.05080   35.47650
 9100.00000  -15.85610   12.58130  116.15580    9.66970    9.04840   -0.01430    0.04500   51.67530
 9150.00000  -19.09500   10.91160  102.28400    9.77670    9.11150    0.00070    0.02120   51.02620
 9200.00000  -12.60830   11.76910  114.37010    8.42980    9.05860   -0.04320    0.05620   52.78860
 9250.00000  -17.13170   12.33390  117.23340    8.72500    9.06890   -0.02460    0.03550   50.34870
 9300.00000  -13.36910    8.33590  167.97690    6.52830    8.93040   -0.02510    0.06500   60.76540
 9350.00000  -19.75180   10.18460  123.73050    7.70580    8.89290    0.01760    0.03610   62.91990
 9400.00000  -23.62820    5.89030   48.12700   15.98040    8.82240   -0.00430    0.04310   71.96170
 9450.00000  -25.66750    3.80880   49.21250   17.48980    8.82470   -0.00560    0.05660   67.62620
 9500.00000  -41.57010    5.40340   42.92910   23.29420    8.80640   -0.02620    0.07800   57.70730
 9550.00000  -32.33340    5.89710   17.58370   56.83420    8.84300    0.00670    0.05010   48.02590
 9600.00000   -6.92360    4.82930  379.70840    2.75770   10.66230    0.13220    0.11480  133.17710
 9650.00000   -9.70110    3.45660  503.91670    1.98450   11.33880    0.10460    0.10410  139.05590
 9700.00000   -5.27810   12.32680  111.63640    9.91830    8.65440    0.01740    0.08110  184.67720
 9750.00000   -7.38220    5.20810  306.46940    3.26300    8.73780    0.02410    0.10190  167.42050
