~Version ---------------------------------------------------
VERS. 2.0 : CWLS log ASCII Standard -VERSION 2.0
WRAP.  NO : ONE LINE PER DEPTH STEP
~Well ------------------------------------------------------
STRT.F                    3850.0 : START DEPTH
STOP.F                    8600.0 : STOP DEPTH
STEP.F                  50.00000 : STEP LENGTH
NULL.                    -999.25 : NULL VALUE
COMP. CHAMPLIN PETROLEUM COMPANY : COMPANY
WELL.            T. L. CALVIN #1 : WELL
FLD .                   GIDDINGS : FIELD
LOC .                            : LOCATION
CNTY.                   BURLESON : COUNTY
STAT.                      TEXAS : STATE
CTRY.   UNITED STATES OF AMERICA : COUNTRY
SRVC.              Dresser Atlas : SERVICE COMPANY
DATE.                22-May-1981 : LOGDATE
API .             42051314640000 : API NUMBER
UWI .             42051314640000 : UNIQUE WELL ID
SLAT.WGS84         30.5167344557 : SURFACE LATITUDE
SLON.WGS84        -96.6013986499 : SURFACE LONGITUDE
~Curve Information -----------------------------------------
DEPT.F                 : 
NPHI.DEC  42 890 01 00 : NEUTRON POROSITY LIMESTONE
GRR .GAPI 07 310 01 00 : GAMMA RAY FROM RES. LOG.
DPHI.DEC  45 890 12 00 : DENSITY POROSITY SANDSTONE
ILD .OHMM 07 120 46 00 : INDUCTION LOG DEEP
ILM .OHMM 07 120 44 00 : INDUCTION LOG MEDIUM
CALR.IN   07 280 01 00 : CALIPER FROM RESISTIVITY
SFL .OHMM 07 220 01 00 : SHALLOW FOCUSED LOG RESISTIVITY
~Params ----------------------------------------------------
PD  .                     GL : PERMANENT DATUM
EPD .FT                  343 : ELEVATION PERMANENT DATUM
LMF .                     KB : LOG MEASURED FROM
DAPD.FT                   18 : FEET ABOVE PERMANENT DATUM
DMF .                     KB : DRILLING MEASURED FROM
EKB .FT                  361 : KELLY BUSHING
EDF .FT                  360 : DRILLING FLOOR
EGL .FT                  343 : GROUND LEVEL
DATE.               05/22/81 : RUN DATE
RUN .                      1 : RUN NUMBER
DD  .FT                 8649 : DEPTH DRILLER
DL  .FT                 8644 : DEPTH LOGGER
BLI .FT                 8642 : BOTTOM LOG INTERVAL
TLI .FT                 3862 : TOP LOG INTERVAL
CS  .IN                9.625 : CASING SIZE
CBD .FT                 3831 : CASING BOTTOM DRILLER
CBL .FT                 3862 : CASING BOTTOM LOGGER
BS  .IN                 8.75 : BIT SIZE
BSD .FT                 8649 : BIT SIZE AT DEPTH
DFT .              BENEX GEL : DRILLING FLUID TYPE
DFD .                      9 : DRILLING FLUID DENSITY
DFV .                     39 : DRILLING FLUID VISCOSITY
DFPH.                    9.5 : DRILLING FLUID PH
DFL .                    6.8 : DRILLING FLUID LOSS
MSS .               FLOWLINE : MUD SAMPLE SOURCE
RMS .OHMM               6.97 : RESISTIVITY MUD SAMPLE
MST .DEGF                 70 : MUD SAMPLE TEMPERATURE
RMF .OHMM               5.44 : RESISTIVITY MUD FILTRATE SAMPLE
MFST.DEGF                 70 : MUD FILTRATE SAMPLE TEMPERATURE
RMC .OHMM               8.71 : RESISTIVITY MUD CAKE
MCST.DEGF                 70 : MUD CAKE SAMPLE TEMPERATURE
MFSS.                      C : MUD FILTRATE SAMPLE SOURCE
MCSS.                      C : MUD CAKE SAMPLE SOURCE
RMB .OHMM               2.64 : RESISTIVITY MUD AT BHT
TCS .HRS                   6 : TIME CIRCULATED STOPPED
LUN .                   6139 : LOGGING UNIT NUMBER
LUL .                  BRYAN : LOGGING UNIT LOCATION
ENGI.             KIRK REALI : RECORDING ENGINEER
WITN.            JOHN KEAUHS : WITNESSED BY
CLNT.                A2DTECH : CLIENT CODE
ORIG.          1" 2.5" PRINT : ORIGIN OF DATA
UWI .         42051314640000 : UNIQUE WELL ID
DICO. A2D Technologies, Inc. : DIGITIZING COMPANY
~Other -----------------------------------------------------
~ASCII -----------------------------------------------------
 3850.00000    0.49450   35.45520    -999.25    -999.25    -999.25    -999.25    -999.25
 3900.00000    0.37390  100.38180    0.28400    5.08510    5.63910   12.97280    6.39580
 3950.00000    0.40280   89.36000    0.30540    6.23990    6.80250   10.17930    7.03850
 4000.00000    0.32160   64.48150    0.26790    3.87880    5.95320   10.27470    7.34240
 4050.00000    0.31640   72.51610    0.30050    3.42900    5.26720   10.62090    7.59780
 4100.00000    0.26910  106.07930    0.15070    4.68930    6.32600   11.46480    6.46180
 4150.00000    0.30820  108.69550    0.15230    2.36450    2.43920   11.10600    3.01800
 4200.00000    0.28970  107.82770    0.12660    4.00850    4.81930   10.75390    4.51860
 4250.00000    0.29690  105.13630    0.14390    3.38330    3.73650   10.35330    3.28760
 4300.00000    0.27110   89.78690    0.21150    2.83550    3.99680   11.16510    6.35470
 4350.00000    0.33170  110.27640    0.20790    1.95670    2.27480   10.42730    2.41940
 4400.00000    0.33250   99.29340    0.17910    1.99340    2.23300   10.86470    2.55640
 4450.00000    0.32620  100.95850    0.18220    1.90880    2.18750   10.92610    2.43730
 4500.00000    0.31050  103.67850    0.14250    2.24090    2.64530   10.19970    2.68670
 4550.00000    0.29010  106.62410    0.13250    2.60620    2.74380   10.30300    2.78140
 4600.00000    0.33830  108.71670    0.11910    1.83470    2.06760   10.97470    2.24640
 4650.00000    0.34920  110.53820    0.08790    1.67600    1.92200   11.86090    2.16980
 4700.00000    0.31580  115.45250    0.06410    1.61480    1.78730   13.76010    2.13270
 4750.00000    0.35000  114.80880    0.07960    1.37800    1.51060   15.24510    1.84150
 4800.00000    0.31940  108.90210    0.07390    1.60570    1.77490   14.99400    1.95210
 4850.00000    0.30410  117.10060    0.07890    1.52920    1.69660   15.12450    2.00930
 4900.00000    0.31810  109.69450    0.10000    1.35700    1.50270   14.95620    1.85510
 4950.00000    0.37870  105.18530    0.18430    1.18950    1.29500   12.07410    1.77740
 5000.00000    0.29780  123.60430    0.08610    1.52550    1.70960   12.52750    1.90370
 5050.00000    0.32660  113.99970    0.06670    1.30500    1.43070   13.36800    1.80520
 5100.00000    0.30280  107.47230    0.11940    1.15610    1.22560   14.23070    1.47810
 5150.00000    0.37580  103.54140    0.23660    0.83460    0.91320   12.73600    1.29640
 5200.00000    0.31420  105.78200    0.11430    1.58120    1.80820    9.99700    1.99970
 5250.00000    0.27600  111.70160    0.12070    1.38620    1.53520   10.45570    1.62930
 5300.00000    0.32330  103.80570    0.09050    1.29490    1.43770   11.95260    1.84910
 5350.00000    0.32210   96.27880    0.08130    1.20210    1.45480   12.74310    1.56660
 5400.00000    0.32300  108.65080    0.09250    1.00880    1.09930   13.06600    1.70440
 5450.00000    0.35170  109.15820    0.09550    0.94030    1.02600   13.20760    1.61810
 5500.00000    0.28760  100.76640    0.06530    1.46620    1.62880   13.27150    1.80330
 5550.00000    0.31700  103.26450    0.06040    1.28900    1.41520   12.59850    1.66980
 5600.00000    0.37320  107.76840    0.14090    0.89840    0.99670   12.50690    1.39870
 5650.00000    0.37130  105.03740    0.11160    0.94660    1.03650   12.10500    1.43120
 5700.00000    0.30030   98.90260    0.08580    1.36070    1.54190   11.27240    1.73470
 5750.00000    0.27590   95.99970    0.03520    1.74660    1.95040   11.24110    2.07120
 5800.00000    0.28220  105.55850    0.10480    1.21430    1.39820   11.52710    1.73220
 5850.00000    0.25350  102.20090    0.07140    1.52020    1.75180   12.18280    1.91000
 5900.00000    0.26790   89.74180    0.09360    1.42170    1.83960   12.20120    2.00560
 5950.00000    0.28950  122.66430    0.12420    1.33700    1.48680   12.71200    1.62250
 6000.00000    0.30400  123.97130    0.10410    1.29670    1.46120   12.99000    1.59310
 6050.00000    0.29110  117.99810    0.09770    1.19130    1.36140   13.75370    1.60950
 6100.00000    0.31750  122.21560    0.12030    1.06240    1.19010   14.17750    1.51340
 6150.00000    0.33950  133.75180    0.13660    0.87710    0.97260   13.39410    1.32970
 6200.00000    0.25890  111.13410    0.05870    1.48190    1.73190   12.26440    1.85810
 6250.00000    0.24710  102.39890    0.03790    1.70410    1.95820   11.91870    2.09360
 6300.00000    0.26190   95.25230    0.07690    1.69260    1.90330   11.51000    2.00180
 6350.00000    0.28890  106.56340    0.06030    1.57420    1.79580   11.36720    2.04340
 6400.00000    0.28330  105.34310    0.05350    1.43820    1.64390   11.85590    1.90010
 6450.00000    0.32950  104.14850    0.07520    1.33650    1.56300   13.47080    1.82980
 6500.00000    0.28420  105.28990    0.09270    1.42920    1.63420   12.38150    1.85950
 6550.00000    0.32920  106.11900    0.15090    1.34860    1.49140   12.22350    1.71000
 6600.00000    0.32880   97.28540    0.13160    1.14460    1.35170   13.37970    1.69130
 6650.00000    0.38810   91.09120    0.10330    1.38250    1.65700   12.71280    1.89840
 6700.00000    0.17430   71.55880    0.07640    2.31230    2.71210   11.42480    2.79810
 6750.00000    0.18450   60.63270    0.10040    2.72940    3.18660   11.51410    3.09760
 6800.00000    0.18670   67.83590    0.09180    2.88530    3.10450   11.64690    2.98830
 6850.00000    0.14110   54.18850    0.09620    4.71840    5.07070   11.61640    4.10490
 6900.00000    0.24200   83.84990    0.10640    2.45180    2.81140   12.01730    2.72920
 6950.00000    0.25190   82.51400    0.16030    2.28390    2.77360   13.13790    2.86110
 7000.00000    0.29610   91.19430    0.14400    2.07150    2.41180   13.20120    2.48790
 7050.00000    0.31170   87.00880    0.18150    1.71250    1.91540   12.80080    2.24880
 7100.00000    0.20970   83.21630    0.09090    2.68870    3.18990   11.85940    2.90960
 7150.00000    0.27290   96.39670    0.20370    1.78860    1.99400   12.87440    2.09580
 7200.00000    0.27690  108.98670    0.26240    1.68650    1.97760   14.52470    2.16420
 7250.00000    0.32140  102.30760    0.15740    1.74660    2.03300   13.03650    2.20910
 7300.00000    0.31150  102.22840    0.17870    1.56100    1.81380   12.07260    2.08940
 7350.00000    0.33300  102.68900    0.15840    1.44540    1.71090   12.87320    1.98740
 7400.00000    0.33340  101.61280    0.13920    1.47500    1.70560   12.93120    2.07430
 7450.00000    0.31210  100.71860    0.15090    1.41180    1.64530   13.01970    1.98470
 7500.00000    0.32490  103.55580    0.20120    1.38470    1.61680   12.10410    1.96160
 7550.00000    0.31140  105.52590    0.15890    1.42590    1.64700   12.15310    1.98570
 7600.00000    0.28680   99.39900    0.15700    1.54020    1.85090   11.66530    1.90150
 7650.00000    0.26970  104.02680    0.11390    1.66510    1.98060   11.49810    2.19910
 7700.00000    0.26940  111.01460    0.11900    1.62520    1.96870   12.15620    2.16720
 7750.00000    0.25830   99.53130    0.08100    1.85880    2.32790   12.85940    2.43160
 7800.00000    0.33750   94.64200    0.09870    1.61330    1.95020   11.66640    2.26400
 7850.00000    0.30560   94.38780    0.08560    2.14890    2.52630   11.55740    2.66950
 7900.00000    0.19630   59.88590    0.10830   24.03750   30.52690   10.75260   24.69450
 7950.00000    0.14560   54.92530    0.11810   32.07120   34.50820   10.52400   54.03070
 8000.00000    0.44640  104.66640    0.29270    0.98300    1.14800   10.37220    3.22230
 8050.00000    0.42540  118.99060    0.20080    1.97070    2.01890    -999.25    2.23960
 8100.00000    0.39720  105.95890    0.15280    1.86170    2.10450    -999.25    2.93710
 8150.00000    0.38810  127.42810    0.23610    6.67030    7.10530   13.55830    6.68760
 8200.00000    0.37310    -999.25    0.16110    5.18320    5.70160   11.72830    5.88270
 8250.00000    0.36520  116.88090    0.12170    2.37320    2.77230   12.81350    4.09070
 8300.00000    0.20390   61.48020    0.04860    4.31700    4.59360   15.62000    4.22300
