~Version ---------------------------------------------------
VERS. 2.0 : CWLS log ASCII Standard -VERSION 2.0
WRAP. YES : Multiple lines per depth step
~Well ------------------------------------------------------
STRT.FT                         1650.0 : START DEPTH
STOP.FT                        10200.0 : STOP DEPTH
STEP.FT                       50.00000 : STEP LENGTH
NULL.                          -999.25 : NULL VALUE
COMP.    WISENBAKER PRODUCTION COMPANY : COMPANY
WELL.                   LOUISE COOK #1 : WELL
FLD .                          Wildcat : FIELD
LOC .                                  : LOCATION
CNTY.                             LEON : COUNTY
STAT.                            TEXAS : STATE
CTRY.         UNITED STATES OF AMERICA : COUNTRY
SRVC. HALLIBURTON LOGGING SERVICES INC : SERVICE COMPANY
DATE.                      23-Jun-1991 : LOGDATE
API .                   42289310900000 : API NUMBER
UWI .                   42289310900000 : UNIQUE WELL ID
SLAT.WGS84               31.4085562243 : SURFACE LATITUDE
SLON.WGS84              -96.1795644382 : SURFACE LONGITUDE
~Curve Information -----------------------------------------
DEPT    .FT    : DEPTH FEET
CALDED  .IN    : CALIPER FROM DUAL INDUCTION SPECTRAL DENSITY DSN II LOG
CALWS   .IN    : CALIPER [DCALED + BITS]
CONDWS  .MMHO  : CONDUCTIVITY [1000/DRESWS]
DCALED  .IN    : DIFFERENTIAL CALIPER FROM DUAL INDUCTION SPECTRAL DENSITY DSN II LOG
DCORED  .G/C3  : DENSITY CORRECTION FROM DUAL INDUCTION SPECTRAL DENSITY DSN II LOG
DCORWS  .G/C3  : DENSITY CORRECTION [DCORED]
DENED   .G/C3  : COMPENSATED BULK DENSITY FROM DUAL INDUCTION SPECTRAL DENSITY DSN II LOG
DENWS   .G/C3  : FORMATION BULK DENSITY [CALCULATED FROM DPOWS, M=2.71, F=1.0 & SPLICED @ 8196' WITH DENED]
DPORLSED.V/V   : DENSITY POROSITY LIMESTONE [M=2.71, F=1.0] FROM DUAL INDUCTION SPECTRAL DENSITY DSN II LOG
DPOWS   .V/V   : DENSITY POROSITY LIMESTONE [DPORLSED]
DRESWS  .OHMM  : DEEP RESISTIVITY [ILDED]
GRDED   .GAPI  : GAMMA RAY FROM DUAL INDUCTION SPECTRAL DENSITY DSN II LOG
GRWS    .GAPI  : GAMMA RAY [GRDED]
ILDED   .OHMM  : DEEP RESISTIVITY FROM DUAL INDUCTION SPECTRAL DENSITY DSN II LOG
ILMED   .OHMM  : MEDIUM RESISTIVITY FROM DUAL INDUCTION SPECTRAL DENSITY DSN II LOG
MRESWS  .OHMM  : MEDIUM RESISTIVITY [ILMED]
NPORLSED.V/V   : NEUTRON POROSITY LIMESTONE FROM DUAL INDUCTION SPECTRAL DENSITY DSN II LOG
NPOWS   .V/V   : NEUTRON POROSITY LIMESTONE [NPORLSED]
PEED    .B/E   : PHOTO ELECTRIC CROSS SECTION FROM DUAL INDUCTION SPECTRAL DENSITY DSN II LOG
PEFWS   .B/E   : PHOTOELECTRIC FACTOR [PEED]
SGUARDED.OHMM  : SHALLOW/SHORT GUARD INDUCTION FROM DUAL INDUCTION SPECTRAL DENSITY DSN II LOG
SPRED   .MV    : SPONTANEOUS POTENTIAL FROM DUAL INDUCTION SPECTRAL DENSITY DSN II LOG
SPWS    .MV    : SPONTANEOUS POTENTIAL [BASELINE 0 MV, SPRED]
SRESWS  .OHMM  : SHALLOW RESISTIVITY [SGUARDED]
TENRED  .LBF   : TENSION FROM DUAL INDUCTION SPECTRAL DENSITY DSN II LOG
~Params ----------------------------------------------------
PD  .                     GL : PERMANENT DATUM
EPD .FT                  510 : ELEVATION PERMANENT DATUM
LMF .                    TKB : LOG MEASURED FROM
DAPD.FT                   14 : FEET ABOVE PERMANENT DATUM
DMF .                    TKB : DRILLING MEASURED FROM
EKB .FT                  524 : KELLY BUSHING
EDF .FT                  523 : DRILLING FLOOR
EGL .FT                  510 : GROUND LEVEL
DATE.               06/23/91 : RUN DATE
RUN .                      1 : RUN NUMBER
DD  .FT                10200 : DEPTH DRILLER
DL  .FT                10200 : DEPTH LOGGER
BLI .FT                10295 : BOTTOM LOG INTERVAL
TLI .FT                 1610 : TOP LOG INTERVAL
CS  .IN                9.625 : CASING SIZE
CBD .FT                 1600 : CASING BOTTOM DRILLER
CBL .FT                 1610 : CASING BOTTOM LOGGER
BS  .IN                 8.75 : BIT SIZE
BSD .FT                10200 : BIT SIZE AT DEPTH
DFT .         WATER BASE MUD : DRILLING FLUID TYPE
DFD .                   10.3 : DRILLING FLUID DENSITY
DFV .                     45 : DRILLING FLUID VISCOSITY
DFPH.                    8.9 : DRILLING FLUID PH
DFL .                    9.8 : DRILLING FLUID LOSS
MSS .                   TANK : MUD SAMPLE SOURCE
RMS .OHMM               1.72 : RESISTIVITY MUD SAMPLE
MST .DEGF                 75 : MUD SAMPLE TEMPERATURE
RMF .OHMM               1.66 : RESISTIVITY MUD FILTRATE SAMPLE
MFST.DEGF                 75 : MUD FILTRATE SAMPLE TEMPERATURE
RMC .OHMM               2.17 : RESISTIVITY MUD CAKE
MCST.DEGF                 75 : MUD CAKE SAMPLE TEMPERATURE
MFSS.                   MEAS : MUD FILTRATE SAMPLE SOURCE
MCSS.                   MEAS : MUD CAKE SAMPLE SOURCE
RMB .OHMM               0.54 : RESISTIVITY MUD AT BHT
TCS .HRS                   5 : TIME CIRCULATED STOPPED
TLAB.HRS                 630 : TIME LOGGER AT BOTTOM
LUN .                   2910 : LOGGING UNIT NUMBER
LUL .                  TYLER : LOGGING UNIT LOCATION
ENGI.               SULLIVAN : RECORDING ENGINEER
WITN.           GLYNN SHREVE : WITNESSED BY
CLNT.                A2DTECH : CLIENT CODE
ORIG.         1" 2" 5" PRINT : ORIGIN OF DATA
UWI .         42289310900000 : UNIQUE WELL ID
DICO. A2D Technologies, Inc. : DIGITIZING COMPANY
~Other -----------------------------------------------------
~ASCII -----------------------------------------------------
# ...
 8650.00000   10.34440   10.25480   49.12730    1.50480    0.02700    0.02700    2.69130    2.69130    0.00840    0.00840   20.35530   49.80350   49.80350   20.35530   21.47640   21.47640    0.04460    0.04460    4.90920    4.90920   21.29730  -30.33790   -5.85590   21.29730 3487.61060
 8700.00000   15.42130   15.40900  332.30320    6.65900    0.20000    0.20000    2.27810    2.27810    0.25340    0.25340    3.00930   91.14530   91.14530    3.00930    2.91330    2.91330    0.38860    0.38860    4.28120    4.28120    3.24970  -33.23920   -9.07680    3.24970 3536.57320
 8750.00000   12.62580   12.61250  352.17470    3.86250    0.19910    0.19910    2.35170    2.35170    0.22240    0.22240    2.83950   88.00610   88.00610    2.83950    2.85700    2.85700    0.31540    0.31540    4.57060    4.57060    4.08740  -33.93270  -10.09000    4.08740 3509.09860
 8800.00000   13.10080   12.68210  261.86920    3.93210    0.15160    0.15160    2.41970    2.41970    0.17480    0.17480    3.81870   97.44250   97.44250    3.81870    3.99460    3.99460    0.28960    0.28960    4.46470    4.46470    3.49230  -31.55880   -8.03580    3.49230 3540.18680
 8850.00000   15.44620   15.41760  298.46290    6.66760    0.19900    0.19900    2.55140    2.55140    0.09480    0.09480    3.35050   91.95550   91.95550    3.35050    3.23050    3.23050    0.33110    0.33110    3.96690    3.96690    2.93000  -27.26430   -4.04860    2.93000 3526.48240
 8900.00000   10.81770   10.72090   88.13140    1.97090    0.03650    0.03650    2.65380    2.65380    0.02900    0.02900   11.34670   84.33640   84.33640   11.34670   15.60320   15.60320    0.09180    0.09180    4.83110    4.83110   24.31870  -27.27540   -3.75750   24.31870 3443.71360
 8950.00000   10.19210   10.12260   54.08940    1.37260    0.01710    0.01710    2.67760    2.67760    0.01730    0.01730   18.48790   48.53040   48.53040   18.48790   21.93610   21.93610    0.05570    0.05570    4.66420    4.66420   31.25480  -30.05790   -6.23780   31.25480 3592.84180
 9000.00000   11.38890   11.41150  203.10340    2.66150    0.11470    0.11470    2.68380    2.68380    0.01900    0.01900    4.92360   85.97880   85.97880    4.92360    5.66200    5.66200    0.14130    0.14130    4.27720    4.27720    7.69790  -30.76880   -6.64660    7.69790 3571.04030
 9050.00000   12.40700   12.33630  215.61950    3.58630    0.20150    0.20150    2.67230    2.67230    0.02220    0.02220    4.63780   99.57050   99.57050    4.63780    5.16160    5.16160    0.24500    0.24500    3.97750    3.97750    6.15660  -32.18260   -7.75820    6.15660 3625.51170
 9100.00000   10.20070   10.09670   34.89960    1.34670    0.03090    0.03090    2.70310    2.70310    0.00320    0.00320   28.65360   57.05840   57.05840   28.65360   35.32690   35.32690    0.00500    0.00500    4.90490    4.90490   63.00820  -50.15430  -25.71780   63.00820 3549.42700
 9150.00000   10.80270   10.71840   32.29740    1.96840    0.03650    0.03650    2.68070    2.68070    0.01630    0.01630   30.96220   50.33760   50.33760   30.96220   50.68210   50.68210   -0.00490   -0.00490    5.09530    5.09530   84.48640  -87.37440  -62.93790   84.48640 3643.25370
 9200.00000   10.32750   10.25360   27.39110    1.50360    0.03610    0.03610    2.70090    2.70090    0.00380    0.00380   36.50820   46.22000   46.22000   36.50820   33.73550   33.73550    0.02970    0.02970    4.91540    4.91540   32.02660  -78.58950  -54.15300   32.02660 3613.08890
 9250.00000   10.13130   10.06040   42.02550    1.31040    0.02030    0.02030    2.68220    2.68220    0.01460    0.01460   23.79510   46.42730   46.42730   23.79510   22.97130   22.97130    0.01540    0.01540    5.09660    5.09660   34.15160  -54.66110  -30.22460   34.15160 3621.48170
 9300.00000    9.91020    9.82020   45.76850    1.07020    0.02470    0.02470    2.68700    2.68700    0.01050    0.01050   21.84910   41.07150   41.07150   21.84910   30.80340   30.80340   -0.00060   -0.00060    4.89760    4.89760  180.40980  -42.02070  -17.58420  180.40980 3584.03690
 9350.00000    9.89100    9.78360   20.83800    1.03360    0.02410    0.02410    2.69800    2.69800    0.00710    0.00710   47.98920   52.26170   52.26170   47.98920   77.36880   77.36880    0.00510    0.00510    4.88660    4.88660   79.06380  -65.37070  -40.93420   79.06380 3720.46340
 9400.00000    9.87780    9.79660   13.78760    1.04660    0.02810    0.02810    2.68360    2.68360    0.01560    0.01560   72.52920   25.56230   25.56230   72.52920   99.97360   99.97360   -0.00310   -0.00310    5.20800    5.20800  128.66650  -81.88420  -57.44770  128.66650 3726.50050
 9450.00000    9.83780    9.73260   39.38250    0.98260    0.06060    0.06060    2.75150    2.75150   -0.02570   -0.02570   25.39200   60.76890   60.76890   25.39200   34.65530   34.65530    0.02470    0.02470    4.51560    4.51560   31.06240  -62.81350  -38.37700   31.06240 3693.19820
 9500.00000    9.84070    9.76890  221.88690    1.01890    0.06260    0.06260    2.62810    2.62810    0.04240    0.04240    4.50680   85.64420   85.64420    4.50680    4.97330    4.97330    0.10350    0.10350    3.22300    3.22300    8.32230  -52.11370  -27.67720    8.32230 3712.38430
 9550.00000    9.42550    9.33680  239.14290    0.58680    0.05880    0.05880    2.59060    2.59060    0.07090    0.07090    4.18160   81.57200   81.57200    4.18160    4.46460    4.46460    0.06480    0.06480    2.64070    2.64070    4.71720  -85.48360  -61.04710    4.71720 3721.47170
 9600.00000    9.66860    9.58940  347.05350    0.83940    0.05150    0.05150    2.48880    2.48880    0.13480    0.13480    2.88140   62.30420   62.30420    2.88140    3.14960    3.14960    0.07140    0.07140    2.72910    2.72910    3.39820 -107.40630  -82.96980    3.39820 3729.91890
 9650.00000    9.26390    9.16730  200.94850    0.41730    0.09080    0.09080    2.61820    2.61820    0.05310    0.05310    4.97640   64.07260   64.07260    4.97640    5.15410    5.15410    0.11960    0.11960    2.92970    2.92970    5.69710  -67.55630  -43.11980    5.69710 3744.67070
 9700.00000    9.98680    9.90180  281.03310    1.15180    0.10770    0.10770    2.64610    2.64610    0.03920    0.03920    3.55830  112.20680  112.20680    3.55830    4.09080    4.09080    0.10410    0.10410    3.10080    3.10080    3.97870  -47.06010  -22.62360    3.97870 3769.95390
 9750.00000    9.50190    9.42620  283.12570    0.67620    0.08010    0.08010    2.58760    2.58760    0.07010    0.07010    3.53200   77.36340   77.36340    3.53200    3.69020    3.69020    0.09820    0.09820    2.74680    2.74680    3.84830  -58.97550  -34.53900    3.84830 3796.62180
 9800.00000    9.65710    9.60410  306.36320    0.85410    0.05930    0.05930    2.60240    2.60240    0.06210    0.06210    3.26410  101.87460  101.87460    3.26410    3.34570    3.34570    0.11980    0.11980    2.72120    2.72120    3.87600  -47.37010  -22.93360    3.87600 3810.03560
 9850.00000    9.12980    9.07340   85.57470    0.32340    0.07130    0.07130    2.59180    2.59180    0.06930    0.06930   11.68570   61.50190   61.50190   11.68570   12.90870   12.90870    0.03320    0.03320    2.38450    2.38450   13.29810  -82.51780  -58.08130   13.29810 3769.79740
 9900.00000    9.12420    9.06230  158.06780    0.31230    0.10430    0.10430    2.60080    2.60080    0.06710    0.06710    6.32640  100.45010  100.45010    6.32640    6.87640    6.87640    0.10560    0.10560    2.77900    2.77900    7.04740  -59.11300  -34.67650    7.04740 3848.68650
 9950.00000    8.93140    8.84810  120.26460    0.09810    0.06080    0.06080    2.66170    2.66170    0.02760    0.02760    8.31500   90.67910   90.67910    8.31500    8.87230    8.87230    0.06810    0.06810    2.87640    2.87640   10.58530  -57.47340  -33.03690   10.58530 3855.03340
 10000.00000    8.77250    8.69820   80.19310   -0.05180    0.13690    0.13690    2.61750    2.61750    0.05250    0.05250   12.46990   47.09410   47.09410   12.46990   16.68350   16.68350    0.02870    0.02870    2.60130    2.60130   42.10760  -54.12340  -29.68690   42.10760 3830.32620
