~Version ---------------------------------------------------
VERS. 2.0 : CWLS log ASCII Standard -VERSION 2.0
WRAP.  NO : ONE LINE PER DEPTH STEP
~Well ------------------------------------------------------
STRT.F                   2500.0 : START DEPTH
STOP.F                  11600.0 : STOP DEPTH
STEP.F                 50.00000 : STEP LENGTH
NULL.                   -999.25 : NULL VALUE
COMP. MATADOR OPERATING COMPANY : COMPANY
WELL.                 AUTREY #2 : WELL
FLD .              BALD PRAIRIE : FIELD
LOC .                           : LOCATION
CNTY.                 ROBERTSON : COUNTY
STAT.                     TEXAS : STATE
CTRY.  UNITED STATES OF AMERICA : COUNTRY
SRVC.                           : SERVICE COMPANY
DATE.                           : LOGDATE
API .            42395307330000 : API NUMBER
UWI .            42395307330000 : UNIQUE WELL ID
SLAT.WGS84        31.1144734373 : SURFACE LATITUDE
SLON.WGS84       -96.5293981383 : SURFACE LONGITUDE
~Curve Information -----------------------------------------
DEPT.F                 : 
GRD .GAPI 45 310 01 00 : GAMMA RAY FROM DENSITY LOG
TEND.LB   45 635 01 00 : TENSION FROM DENSITY LOG
CHTD.LB   45 635 01 00 : CH-TENSION FROM DENSITY LOG
SPR .MV   07 010 01 00 : SPONTANEOUS POTENTIAL
ILD .OHMM 07 120 46 00 : INDUCTION LOG DEEP
ILM .OHMM 07 120 44 00 : INDUCTION LOG MEDIUM
DFL .OHMM 07 220 01 00 : DIGITAL FOCUSED LATEROLOG
DCAL.IN   07 280 30 00 : DIFFERENTIAL CALIPER
DRHO.G/C3 45 356 01 00 : DENSITY CORRECTION
DPHI.DEC  45 890 10 00 : DENSITY POROSITY LIMESTONE
NPHI.DEC  42 890 01 00 : NEUTRON POROSITY LIMESTONE
PE  .B/E  45 358 01 00 : PHOTOELECTRIC FACTOR
~Params ----------------------------------------------------
EKB .F                 498.0 : Kelly bushing
EGL .F                 481.0 : Ground level
EDF .F                 497.0 : Drilling floor
EPD .F                 481.0 : Permanent datum
TD  .F               11628.0 : Total depth
DATE.            09-JUN-2002 : Date logged
CLNT.                A2DTECH : Client Code
SL  .  2205' FNL & 2156' FNL : Surface Location
PD  .                     GL : Permanent Datum
LMF .                     KB : Log Measured From
DMF .                     KB : Drilling Measured From
DAPD.F                    17 : Feet Above Permanent Datum
DD  .F                 11620 : Depth driller
DL  .F                 11628 : Depth logger
BLI .F                 11616 : Bottom log interval
TLI .F                  2516 : Top log interval
CS1 .IN                9.625 : Casing size
CBD1.         9.625" @ 2516' : Casing driller 1
CBL1.F                  2516 : Casing logger 1
BS1 .IN                7.875 : Bit size
BSD1.F                 11620 : Depth drilled with bit1
DFT .              WATERBASE : Type fluid in hole
DFD .                   10.2 : Density
DFV .                     37 : Viscosity
DFPH.                   10.3 : pH
DFL .                   16.8 : Fluid loss
MSS .               MUD TANK : Source of sample
RMS .OHMM               1.18 : Rm
RMF .OHMM               0.96 : Rmf
RMC .OHMM               1.69 : Rmc
MFSS.                   MEAS : Source Rmf.
MCSS.                   MEAS : Source Rmc.
RMB .OHMM              0.464 : Rm. at BHT
BHT .F                   234 : BHT.
TCS .HRS                2130 : Time Circ. stopped
TLAB.HRS                 330 : Time logger at bottom
LUN .                   9103 : Logging unit number
LUL .                 KLOGRE : Logging unit location
ENGI.               P. EYLEY : Recorded By
WITN.             JIM EWBANK : Witnessed by
ORIG.               5" PRINT : Origin of data
UWI .         42395307330000 : Unique Well ID
DICO. A2D TECHNOLOGIES, INC. : Digitizing Company
~Other -----------------------------------------------------
~ASCII -----------------------------------------------------
# ...
 5300.00000   38.51960 2790.66970 1452.56600  -58.56740    5.10820    5.21420    6.24430    2.79740    -999.25    -999.25    -999.25    -999.25
 5350.00000   21.29910 2790.59180 1452.70350  -63.22840    9.15540    9.22200   10.29790    2.15990    -999.25    -999.25    -999.25    -999.25
 5400.00000   40.86100 2867.47000 1482.57820  -56.91210    3.93680    4.00180    4.09110    2.50380    -999.25    -999.25    -999.25    -999.25
 5450.00000   21.29990 2837.34940 1482.70030  -63.04680   15.22290   14.17920   18.02960    2.23080    -999.25    -999.25    -999.25    -999.25
 5500.00000   49.16920 2824.31670 1452.48860  -53.39370    8.07910    9.19770   11.66240    2.94020    -999.25    -999.25    -999.25    -999.25
 5550.00000   15.18090 2881.63890 1479.03090 -188.53690    6.42690   12.02330   40.76430    1.48750    -999.25    -999.25    -999.25    -999.25
 5600.00000   28.09590 2911.93530 1427.82530  -79.94050   17.35790   17.89950   17.84350    2.39560    -999.25    -999.25    -999.25    -999.25
 5650.00000   47.13060 2911.98830 1482.65440  -53.39370    5.84670    5.67160    6.52450    2.88480    -999.25    -999.25    -999.25    -999.25
 5700.00000   35.68760 2912.04100 1392.15690  -54.90180   18.59330   18.40040   22.19150    2.66780    -999.25    -999.25    -999.25    -999.25
 5750.00000   55.28660 2942.33690 1485.76660  -50.37660    3.58450    3.52330    3.94590    4.27180    -999.25    -999.25    -999.25    -999.25
 5800.00000   46.90290 2927.29030 1452.48860  -50.98040   10.48300   10.46470   11.30550    3.15210    -999.25    -999.25    -999.25    -999.25
 5850.00000   72.50810 3003.03440 1482.54970  -49.47010    2.31410    2.36280    2.53880    4.99230    -999.25    -999.25    -999.25    -999.25
 5900.00000   40.10550 3003.03490 1452.48860  -51.88540   10.37400   10.76390   13.37220    2.33490    -999.25    -999.25    -999.25    -999.25
 5950.00000   41.23850 2972.68600 1452.92540  -47.96460    6.09790    5.75930    7.42120    2.51650    -999.25    -999.25    -999.25    -999.25
 6000.00000   43.43910 3002.98320 1452.48930  -54.90330    1.86620    1.81500    3.57530    3.69690    -999.25    -999.25    -999.25    -999.25
 6050.00000   43.21340 2972.91020 1512.82040  -48.86880    3.69830    3.45920    4.22040    3.63640    -999.25    -999.25    -999.25    -999.25
 6100.00000   55.57270 3078.23630 1452.48860  -49.47210    2.54160    2.58510    3.36690    3.84820    -999.25    -999.25    -999.25    -999.25
 6150.00000   30.57170 3048.11520 1484.64170  -53.09200   10.37440   10.52970   11.66260    4.21130    -999.25    -999.25    -999.25    -999.25
 6200.00000   30.71410 3030.41360 1452.48890  -57.55680   11.87920   12.43700   11.89990    3.81790    -999.25    -999.25    -999.25    -999.25
 6250.00000   47.96380 3124.43140 1423.38440  -65.76090   27.62570   20.95550   23.12560    3.09160    -999.25    -999.25    -999.25    -999.25
 6300.00000   67.42080 3063.73290 1482.65450  -52.79030    2.24290    2.15860    2.78160    3.99950    -999.25    -999.25    -999.25    -999.25
 6350.00000   41.62880 3033.38400 1432.43350  -51.28210    6.49140    6.99230    9.57660    3.27310    -999.25    -999.25    -999.25    -999.25
 6400.00000   63.97170 3124.43090 1512.93130  -53.39530   16.57990   16.99210   21.50610    2.97050    -999.25    -999.25    -999.25    -999.25
 6450.00000   64.70570 3185.12890 1452.48830  -58.52190   17.03490   18.08720   19.79420    3.45470    -999.25    -999.25    -999.25    -999.25
 6500.00000   47.58350 3148.26030 1411.29030  -53.19130   12.83100   12.77790   17.29650    3.14520    -999.25    -999.25    -999.25    -999.25
 6550.00000   53.70020 3148.31250 1455.36670  -55.36960    7.86880    7.78990    8.16380    3.28560    -999.25    -999.25    -999.25    -999.25
 6600.00000   52.56800 3178.46530 1485.58410  -49.54410    8.28900    8.11400    7.91250    2.96460    -999.25    -999.25    -999.25    -999.25
 6650.00000   48.03630 3178.51730 1455.13400  -56.17160   21.43490   21.73940   29.10220    2.69370    -999.25    -999.25    -999.25    -999.25
 6700.00000   21.52570 3178.47460 1424.91250 -137.99390    5.97350    8.78140   23.76610    3.02480    -999.25    -999.25    -999.25    -999.25
 6750.00000   29.19190 3239.05790 1429.95520  -53.26430   21.32280   22.66360   21.62570    3.30570    -999.25    -999.25    -999.25    -999.25
 6800.00000   43.27790 3239.87820 1455.26780  -52.27960    8.86430    8.87340    8.69040    3.41610    -999.25    -999.25    -999.25    -999.25
 6850.00000   41.91900 3269.21140 1485.58440  -50.45540    8.86430    8.82160   11.39330    2.99480    -999.25    -999.25    -999.25    -999.25
 6900.00000   61.63140 3325.31640 1424.71340  -47.72040    3.40890    3.54760    4.65110    3.47630    -999.25    -999.25    -999.25    -999.25
 6950.00000   41.91840 3330.72290 1424.80750  -58.66260   11.37410   13.88840   16.94350    3.32580    -999.25    -999.25    -999.25    -999.25
 7000.00000   33.53470 3381.81270 1485.58420  -80.24320   52.36860   57.28480   69.10210    3.92770    -999.25    -999.25    -999.25    -999.25
 7050.00000   22.37500 3269.21020 1443.10490  -96.75840   20.56250   29.71500   77.49630    2.45290    -999.25    -999.25    -999.25    -999.25
 7100.00000   31.49550 3239.03170 1394.48510  -60.51910   20.34960   19.38470   25.95110    3.07020    0.03760    0.03610    0.01710    5.20960
 7150.00000   37.61300 3360.08640 1424.88620  -60.79030   14.33380   13.46110   17.83430    6.45610    0.10980    0.49990    0.11980    5.42330
 7200.00000   27.34040 3269.39310 1394.45810 -110.29590   13.18710   16.40780   51.08080    2.30220    0.05560    0.08080    0.06700    6.96500
 7250.00000   41.46530 3269.23780 1394.53740  -52.65650   11.20780   11.27640   13.88900    2.63020    0.02860    0.01350    0.09460    4.79040
 7300.00000   39.42600 3299.49410 1394.53710  -90.13660   20.42980   25.96710   35.84560    3.45630    0.02750    0.08550    0.06680    5.34150
 7350.00000   55.74020 3299.54610 1424.88620  -55.53870   10.20590    9.84780   12.91150    2.84420    0.03010    0.01220    0.08420    4.88020
 7400.00000   33.98790 3329.80320 1424.86040  -73.92860   17.89860   24.18880   66.28150    1.94420    0.07370    0.07940    0.09960    6.91010
 7450.00000   61.63140 3420.57520 1455.23510  -42.18510    6.33670    6.42420    8.37100    2.66370    0.01010    0.02930    0.12540    4.67070
 7500.00000   57.94770 3450.45070 1273.14120  -44.30850   20.49120   22.43140   29.52530    2.69380    0.02110    0.01810    0.07300    5.00000
 7550.00000   76.13350 3420.57470 1455.23540  -41.59820    3.57660    3.59790    3.79110    4.31910    0.07670    0.12790    0.22210    4.57870
 7600.00000   45.76980 3450.88380 1397.62150  -39.51500   14.75040   15.09590   20.42040    4.10840    0.07220    0.02430    0.08990    4.82030
 7650.00000   97.65840 3450.97900 1424.88620  -37.69000    2.68100    2.54160    2.91030    6.96770    0.19700    0.26120    0.28330    4.19160
 7700.00000   89.04850 3481.08980 1485.37060  -36.47420    7.54810    7.15410    9.70140    3.95790    0.06170    0.01350    0.17530    4.18590
 7750.00000   29.68280 3511.23000 1424.88620  -45.13610   32.38530   35.22030   51.11870    3.32580    0.02260    0.00800    0.04990    5.04500
 7800.00000   92.78790 3513.77320 1447.67850  -42.29100    3.21920    3.36810    3.78710    4.40940    0.19400    0.16420    0.33820    4.15900
 7850.00000   24.47050 3481.08940 1422.28940 -125.83590   55.62830   58.49110   76.69030    2.69380    0.11730    0.02570    0.06620    5.58560
 7900.00000   42.82520 3541.60400 1424.75460  -83.76330   49.34990   49.51110   68.52950    3.08500    0.00750    0.01110    0.05540    5.05630
 7950.00000   35.34760 3541.60350 1424.88600 -110.87400   42.88990   45.55080   56.69160    3.25830    0.05260    0.01580    0.03690    5.10510
 8000.00000   50.52870 3541.60300 1424.86020 -109.40800   43.24580   46.50990   72.04220    2.87430    0.03460    0.00950    0.04910    5.01500
 8050.00000   44.28050 3622.79790 1424.86020  -57.35960   47.36320   46.09500   91.67820    2.18200    0.00300    0.02930    0.03020    4.26430
