~Version ---------------------------------------------------
VERS.      2.0 : CWLS log ASCII Standard -VERSION 2.0
WRAP.      YES : Multiple lines per depth step
CREA. 08/30/12 : LAS Creation Date
~Well ------------------------------------------------------
STRT.FT                   3750.0 : START DEPTH
STOP.FT                   8250.0 : STOP DEPTH
STEP.FT                 50.00000 : STEP LENGTH
NULL.                    -999.25 : NULL VALUE
COMP. CHAMPLIN PETROLEUM COMPANY : COMPANY
WELL.    EBERHARDT WILLIE F.  #1 : WELL
FLD .                   GIDDINGS : FIELD
LOC .                            : LOCATION
CNTY.                   BURLESON : COUNTY
STAT.                      TEXAS : STATE
CTRY.   UNITED STATES OF AMERICA : COUNTRY
SRVC.               Schlumberger : SERVICE COMPANY
DATE.                17-Sep-1980 : LOGDATE
API .             42051309370000 : API NUMBER
UWI .             42051309370000 : UNIQUE WELL ID
SLAT.WGS84         30.4181083894 : SURFACE LATITUDE
SLON.WGS84        -96.7334542825 : SURFACE LONGITUDE
~Curve Information -----------------------------------------
DEPT    .FT                                                                                  : DEPTH FEET
CALWS   .IN                                                                                  : CALIPER [DCALED+BITS]
CONDWS  .MMHO                                                                                : CONDUCTIVITY [1000/DRESWS]
DCALED  .IN                                                                                  : DIFFERENTIAL CALIPER FROM DIL-SFL-CNFD LOG
DCORWS  .G/C3                                                                                : DENSITY CORRECTION [DRHOED]
DENWS   .G/C3                    :   FORMATION BULK DENSITY [CALCULATED FROM DPOWS, M:2.71,F : 1.0]
DPHILSED.V/V                                        :   DENSITY POROSITY LIMESTONE [M:2.71,F : 1.0]FROM DIL-SFL-CNFD LOG
DPHISSED.V/V                                        :   DENSITY POROSITY SANDSTONE [M:2.65,F : 1.0] FROM DIL-SFL-CNFD LOG
DPOWS   .V/V :   DENSITY POROSITY LIMESTONE[DPHISSED CONVERTED TO LIMESTONE MATRIX, M:2.71,F : 1.0, SPL TO DPHILSED @ 6475']
DRESWS  .OHMM                                                                                : DEEP RESISTIVITY [ILDED]
DRHOED  .G/C3                                                                                : DENSITY CORRECTION FROM DIL-SFL-CNFD LOG
GRRED   .GAPI                                                                                : GAMMA RAY FROM DIL-SFL-CNFD LOG
GRWS    .GAPI                                                                                : GAMMA RAY [GRRED]
ILDED   .OHMM                                                                                : INDUCTION LOG DEEP FROM DIL-SFL-CNFD LOG
ILMED   .OHMM                                                                                : INDUCTION LOG MEDIUM FROM DIL-SFL-CNFD LOG
MRESWS  .OHMM                                                                                : MEDIUM RESISTIVITY [ILMED]
NPHILSED.V/V                                                                                 : NEUTRON POROSITY LIMESTONE FROM DIL-SFL-CNFD LOG
NPHISSED.V/V                                                                                 : NEUTRON POROSITY SANDSTONE FROM DIL-SFL-CNFD LOG
NPOWS   .V/V                                                                                 : NEUTRON POROSITY LIMESTONE[NPHISSED MATRIX CONVERSION FOR LIMESTONE, SPL. TO NPHILSED @ 6475']
SFLUED  .OHMM                                                                                : SPHERICALLY FOCUSED LOG UNAVERAGED RESISTIVITY FROM DIL-SFL-CNFD LOG
SPRED   .MV                                                                                  : SPONTANEOUS POTENTIAL FROM DIL-SFL-CNFD LOG
SPWS    .MV                                                                                  : SPONTANEOUS POTENTIAL [BASELINE, 0 MV, SPRED]
SRESWS  .OHMM                                                                                : SHALLOW RESISTIVITY [SFLUED]
~Params ----------------------------------------------------
PD  .                     GL : PERMANENT DATUM
EPD .FT                  392 : ELEVATION PERMANENT DATUM
LMF .                     KB : LOG MEASURED FROM
DAPD.FT                   14 : FEET ABOVE PERMANENT DATUM
DMF .                     KB : DRILLING MEASURED FROM
EKB .FT                  406 : KELLY BUSHING
EDF .FT                  405 : DRILLING FLOOR
EGL .FT                  392 : GROUND LEVEL
DATE.               09/17/80 : RUN DATE
RUN .                      1 : RUN NUMBER
DD  .FT                 8233 : DEPTH DRILLER
DL  .FT                 8271 : DEPTH LOGGER
BLI .FT                 8265 : BOTTOM LOG INTERVAL
TLI .FT                 3747 : TOP LOG INTERVAL
CS  .IN                9.625 : CASING SIZE
CBD .FT                 3749 : CASING BOTTOM DRILLER
CBL .FT                 3747 : CASING BOTTOM LOGGER
BS  .IN                 8.75 : BIT SIZE
BSD .FT                 8233 : BIT SIZE AT DEPTH
DFT .                  BENEX : DRILLING FLUID TYPE
DFD .                    9.4 : DRILLING FLUID DENSITY
DFV .                     45 : DRILLING FLUID VISCOSITY
DFPH.                      9 : DRILLING FLUID PH
DFL .                    6.4 : DRILLING FLUID LOSS
MSS .                   TANK : MUD SAMPLE SOURCE
RMS .OHMM               1.38 : RESISTIVITY MUD SAMPLE
MST .DEGF                104 : MUD SAMPLE TEMPERATURE
RMF .OHMM               1.04 : RESISTIVITY MUD FILTRATE SAMPLE
MFST.DEGF                104 : MUD FILTRATE SAMPLE TEMPERATURE
RMC .OHMM               2.08 : RESISTIVITY MUD CAKE
MCST.DEGF                104 : MUD CAKE SAMPLE TEMPERATURE
MFSS.                      M : MUD FILTRATE SAMPLE SOURCE
MCSS.                      C : MUD CAKE SAMPLE SOURCE
RMB .OHMM               0.73 : RESISTIVITY MUD AT BHT
TCS .HRS                2300 : TIME CIRCULATED STOPPED
TLAB.HRS                 630 : TIME LOGGER AT BOTTOM
LUN .                   8101 : LOGGING UNIT NUMBER
LUL .                BRENHAM : LOGGING UNIT LOCATION
ENGI.        WYATT GILLILAND : RECORDING ENGINEER
WITN.                CAMERON : WITNESSED BY
CLNT.                A2DTECH : CLIENT CODE
ORIG.            2" 5" PRINT : ORIGIN OF DATA
UWI .         42051309370000 : UNIQUE WELL ID
DICO. A2D Technologies, Inc. : DIGITIZING COMPANY
~Other -----------------------------------------------------
~ASCII -----------------------------------------------------
 3750.00000   14.87830  636.29420    6.12830    0.13550    2.01110    -999.25    0.38720    0.40870    1.57160    0.13550   97.67220   97.67220    1.57160    5.58720    5.58720    -999.25    0.43480    0.39270    2.68070  -28.87750  -16.52520    2.68070
 3800.00000   11.39520  284.90840    2.64520    0.09510    2.39750    -999.25    0.15300    0.18270    3.50990    0.09510  106.18460  106.18460    3.50990    3.44790    3.44790    -999.25    0.32950    0.28570    3.46190  -21.02390   -8.67160    3.46190
 3850.00000   10.41620  129.94610    1.66620    0.01650    2.31800    -999.25    0.20120    0.22920    7.69550    0.01650  101.85320  101.85320    7.69550    7.85580    7.85580    -999.25    0.31360    0.26970    9.33300  -32.26980  -19.91750    9.33300
 3900.00000   10.08690  227.26240    1.33690    0.09640    2.42580    -999.25    0.13590    0.16620    4.40020    0.09640  122.46930  122.46930    4.40020    4.16260    4.16260    -999.25    0.31610    0.27220    5.11760  -23.28460  -10.93230    5.11760
 3950.00000    9.67710  196.97450    0.92710   -0.00400    2.17050    -999.25    0.29060    0.31550    5.07680   -0.00400  133.26720  133.26720    5.07680    4.68610    4.68610    -999.25    0.36840    0.32500    4.81960  -26.04310  -13.69080    4.81960
 4000.00000    9.49370  135.00200    0.74370    0.01340    2.24460    -999.25    0.24570    0.27220    7.40730    0.01340   75.71390   75.71390    7.40730    7.66240    7.66240    -999.25    0.32130    0.27740   10.32500  -35.40000  -23.04770   10.32500
 4050.00000    9.23800  154.49030    0.48800    0.00640    2.18980    -999.25    0.27890    0.30420    6.47290    0.00640   75.69230   75.69230    6.47290    6.72710    6.72710    -999.25    0.35020    0.30660    8.99640  -36.03210  -23.67980    8.99640
 4100.00000    9.38810  138.56170    0.63810    0.03530    2.28250    -999.25    0.22270    0.25000    7.21700    0.03530   66.91360   66.91360    7.21700    8.32770    8.32770    -999.25    0.30810    0.26410   13.47160  -40.91430  -28.56200   13.47160
 4150.00000   10.85320  691.13280    2.10320    0.15970    2.24590    -999.25    0.24490    0.27140    1.44690    0.15970  120.82060  120.82060    1.44690    1.43370    1.43370    -999.25    0.46980    0.42810    1.47210  -14.15000   -1.79770    1.47210
 4200.00000    9.38230  240.39620    0.63230    0.01820    2.31340    -999.25    0.20400    0.23190    4.15980    0.01820  110.78240  110.78240    4.15980    4.53600    4.53600    -999.25    0.32140    0.27750    5.56370  -31.80000  -19.44770    5.56370
 4250.00000    9.69490  307.42740    0.94490    0.08580    2.40990    -999.25    0.14550    0.17550    3.25280    0.08580  114.99130  114.99130    3.25280    3.18730    3.18730    -999.25    0.33010    0.28630    2.58050  -25.40150  -13.04920    2.58050
 4300.00000   10.29630  356.18880    1.54630    0.07960    2.40840    -999.25    0.14640    0.17640    2.80750    0.07960  107.59370  107.59370    2.80750    2.69110    2.69110    -999.25    0.31050    0.26660    2.93250  -18.19280   -5.84050    2.93250
 4350.00000   10.02620  326.12590    1.27620    0.06200    2.43570    -999.25    0.12990    0.16040    3.06630    0.06200  109.79970  109.79970    3.06630    2.91910    2.91910    -999.25    0.32920    0.28540    3.12930  -17.40000   -5.28240    3.12930
 4400.00000   10.30780  429.94110    1.55780    0.09830    2.39390    -999.25    0.15520    0.18480    2.32590    0.09830  109.28410  109.28410    2.32590    2.24140    2.24140    -999.25    0.37040    0.32700    2.34180  -16.46710   -4.80960    2.34180
 4450.00000    9.92580  334.57120    1.17580    0.06590    2.41190    -999.25    0.14430    0.17430    2.98890    0.06590  105.11890  105.11890    2.98890    2.98890    2.98890    -999.25    0.31720    0.27330    3.13990  -18.76530   -7.56790    3.13990
 4500.00000   10.22560  310.87760    1.47560    0.12430    2.46950    -999.25    0.10940    0.14060    3.21670    0.12430  104.04370  104.04370    3.21670    2.81860    2.81860    -999.25    0.28050    0.23650    3.04430  -15.99090   -5.25370    3.04430
 4550.00000   10.77400  420.43300    2.02400    0.15450    2.41260    -999.25    0.14390    0.17390    2.37850    0.15450  103.75170  103.75170    2.37850    2.27570    2.27570    -999.25    0.34100    0.29730    2.28560  -15.03200   -4.75490    2.28560
 4600.00000   11.97360  585.82310    3.22360    0.04590    2.16610    -999.25    0.29330    0.31810    1.70700    0.04590  121.99100  121.99100    1.70700    1.66060    1.66060    -999.25    0.39260    0.34960    1.76510  -13.78500   -3.96800    1.76510
 4650.00000   12.30430  494.73110    3.55430    0.05080    2.44870    -999.25    0.12200    0.15280    2.02130    0.05080  114.87040  114.87040    2.02130    1.95780    1.95780    -999.25    0.35480    0.31120    2.06090  -14.24810   -4.89130    2.06090
 4700.00000   14.12410  537.28780    5.37410    0.09040    2.49410    -999.25    0.09450    0.12630    1.86120    0.09040  115.18050  115.18050    1.86120    1.81530    1.81530    -999.25    0.32610    0.28220    1.93170  -15.00000   -6.10330    1.93170
 4750.00000   15.16810  603.64600    6.41810    0.09690    2.48430    -999.25    0.10040    0.13200    1.65660    0.09690  118.44880  118.44880    1.65660    1.60870    1.60870    -999.25    0.33320    0.28940    1.82030  -14.44010   -6.00360    1.82030
 4800.00000   14.03410  625.00000    5.28410    0.06190    2.47990    -999.25    0.10310    0.13460    1.60000    0.06190  115.65000  115.65000    1.60000    1.55110    1.55110    -999.25    0.32410    0.28020    1.70440  -13.51290   -5.53650    1.70440
 4850.00000   13.78120  667.51220    5.03120    0.07570    2.43100    -999.25    0.13270    0.16310    1.49810    0.07570  116.78180  116.78180    1.49810    1.44830    1.44830    -999.25    0.34930    0.30570    1.52890  -13.25090   -5.73460    1.52890
 4900.00000   13.85470  673.12870    5.10470    0.11480    2.40560    -999.25    0.14810    0.17800    1.48560    0.11480  132.75000  132.75000    1.48560    1.41980    1.41980    -999.25    0.35060    0.30700    1.54030  -12.84860   -5.79250    1.54030
 4950.00000   12.21840  606.46490    3.46840    0.12670    2.42970    -999.25    0.13350    0.16390    1.64890    0.12670  110.83870  110.83870    1.64890    1.58360    1.58360    -999.25    0.37510    0.33180    1.69140  -12.20340   -5.60740    1.69140
 5000.00000   12.71020  838.92620    3.96020    0.06140    2.25370    -999.25    0.24020    0.26690    1.19200    0.06140  134.25000  134.25000    1.19200    1.13370    1.13370    -999.25    0.44550    0.40370    1.04590  -11.17790   -5.04200    1.04590
 5050.00000   10.62440  575.14230    1.87440    0.11000    2.46340    -999.25    0.11310    0.14420    1.73870    0.11000   96.49460   96.49460    1.73870    1.69140    1.69140    -999.25    0.30150    0.25750    1.70700  -11.40000   -5.72430    1.70700
 5100.00000    9.88660  469.41750    1.13660    0.04540    2.46670    -999.25    0.11110    0.14230    2.13030    0.04540   96.15230   96.15230    2.13030    2.07440    2.07440    -999.25    0.27510    0.23110    2.35410  -11.80000   -6.58440    2.35410
 5150.00000   11.27640  596.19630    2.52640    0.07600    2.44490    -999.25    0.12430    0.15500    1.67730    0.07600   94.15100   94.15100    1.67730    1.63390    1.63390    -999.25    0.34680    0.30310    1.72930  -10.90060   -6.14510    1.72930
 5200.00000   11.41020  654.32180    2.66020    0.13600    2.43980    -999.25    0.12740    0.15800    1.52830    0.13600   94.78680   94.78680    1.52830    1.43250    1.43250    -999.25    0.33830    0.29450    1.62290  -20.10710  -15.81180    1.62290
 5250.00000   13.83530  915.24800    5.08530    0.04680    2.42050    -999.25    0.13910    0.16930    1.09260    0.04680  103.82890  103.82890    1.09260    1.07330    1.07330    -999.25    0.39020    0.34710    1.23450  -10.46150   -6.62630    1.23450
 5300.00000   12.84440  845.09420    4.09440    0.05980    2.44750    -999.25    0.12270    0.15350    1.18330    0.05980  111.28110  111.28110    1.18330    1.15750    1.15750    -999.25    0.36040    0.31690    1.32000  -11.32410   -7.94900    1.32000
