~Version ---------------------------------------------------
VERS. 2.0 : CWLS log ASCII Standard -VERSION 2.0
WRAP. YES : MULTIPLE LINES PER DEPTH STEP
~Well ------------------------------------------------------
STRT.FT                 1050.0 : START DEPTH
STOP.FT                 5550.0 : STOP DEPTH
STEP.FT               50.00000 : STEP LENGTH
NULL.                  -999.25 : NULL VALUE
COMP.             CATLETT, E G : COMPANY
WELL.          TALLEY J. E. #1 : WELL
FLD .                       WC : FIELD
LOC .                          : LOCATION
CNTY.                 GONZALES : COUNTY
STAT.                    TEXAS : STATE
CTRY. UNITED STATES OF AMERICA : COUNTRY
SRVC.             Schlumberger : SERVICE COMPANY
DATE.              21-Feb-1981 : LOGDATE
API .           42177307700000 : API NUMBER
UWI .           42177307700000 : UNIQUE WELL ID
SLAT.WGS84       29.5350845878 : SURFACE LATITUDE
SLON.WGS84      -97.5648931406 : SURFACE LONGITUDE
~Curve Information -----------------------------------------
DEPT    .FT    : DEPTH FEET
CALWS   .IN    : CALIPER [DCALED+7.875]
CONDWS  .MMHO  : CONDUCTIVITY [1000/DRESWS]
DCALRED .IN    : DIFFERENTIAL CALIPER FROM RESISTIVITY LOG
DCORWS  .G/C3  : DENSITY CORRECTION [DRHOED]
DENWS   .G/C3  : BULK DENSITY [CALCULATED FROM DPHISSED SPL WITH DPHILSED @4593F]
DPHILSED.V/V   : DENSITY POROSITY [M=2.71 F=1.0] FROM DENSITY LOG
DPHISSED.V/V   : DENSITY POROSITY [M=2.65 F=1.0] FROM DENSITY LOG
DPOWS   .V/V   : DENSITY POROSITY [M=2.71 F=1.0] [CALCULATED FROM DENWS]
DRESWS  .OHMM  : DEEP RESISTIVITY [ILDED]
DRHOED  .G/C3  : DENSITY CORRECTION FROM DENSITY LOG
GRRED   .GAPI  : GAMMA RAY FROM RESISTIVITY LOG
GRWS    .GAPI  : GAMMA RAY [GRRED, CSG ABOVE 1216F]
ILDED   .OHMM  : INDUCTION LOG DEEP RESISTIVITY
ILMED   .OHMM  : INDUCTION LOG MEDIUM RESISTIVITY
MRESWS  .OHMM  : MEDIUM RESISTIVITY [ILMED]
NPHILSED.V/V   : NEUTRON POROSITY LIMESTONE FROM DENSITY LOG
NPHISSED.V/V   : NEUTRON POROSITY SANDSTONE FROM DENSITY LOG
NPOWS   .V/V   : NEUTRON POROSITY LIMESTONE [CONVERTED NPHISSED TO LIMESTONE AND SPL WITH NPHILSED @4593F, CSG ABOVE 1216F]
SFLUED  .OHMM  : SPHERICALLY FOCUSED LOG RESISTIVITY
SPRED   .MV    : SPONTANEOUS POTENTIAL FROM RESISTIVITY LOG
SPWS    .MV    : SPONTANEOUS POTENTIAL [BASELINE 0 MV] [SPRED]
SRESWS  .OHMM  : SHALLOW RESISTIVITY [SFLUED]
~Params ----------------------------------------------------
PD  .                     GL : PERMANENT DATUM
EPD .FT                  430 : ELEVATION PERMANENT DATUM
LMF .                     KB : LOG MEASURED FROM
DAPD.FT                   12 : FEET ABOVE PERMANENT DATUM
DMF .                     KB : DRILLING MEASURED FROM
EKB .FT                  442 : KELLY BUSHING
EDF .FT                  441 : DRILLING FLOOR
EGL .FT                  420 : GROUND LEVEL
DATE.               02/21/81 : RUN DATE
RUN .                      1 : RUN NUMBER
DD  .FT                 5592 : DEPTH DRILLER
DL  .FT                 5586 : DEPTH LOGGER
BLI .FT                 5580 : BOTTOM LOG INTERVAL
TLI .FT                 1016 : TOP LOG INTERVAL
CS  .IN                8.625 : CASING SIZE
CBD .FT                 1017 : CASING BOTTOM DRILLER
CBL .FT                 1016 : CASING BOTTOM LOGGER
BS  .IN                7.875 : BIT SIZE
BSD .FT                 5592 : BIT SIZE AT DEPTH
DFT .                    LNS : DRILLING FLUID TYPE
DFD .                    9.5 : DRILLING FLUID DENSITY
DFV .                     53 : DRILLING FLUID VISCOSITY
DFPH.                      9 : DRILLING FLUID PH
DFL .                    5.8 : DRILLING FLUID LOSS
MSS .                   TANK : MUD SAMPLE SOURCE
RMS .OHMM               1.68 : RESISTIVITY MUD SAMPLE
MST .DEGF                 75 : MUD SAMPLE TEMPERATURE
RMF .OHMM               1.54 : RESISTIVITY MUD FILTRATE SAMPLE
MFST.DEGF                 75 : MUD FILTRATE SAMPLE TEMPERATURE
RMC .OHMM               2.52 : RESISTIVITY MUD CAKE
MCST.DEGF                 75 : MUD CAKE SAMPLE TEMPERATURE
MFSS.                      M : MUD FILTRATE SAMPLE SOURCE
MCSS.                      C : MUD CAKE SAMPLE SOURCE
RMB .OHMM               0.88 : RESISTIVITY MUD AT BHT
TCS .HRS                1100 : TIME CIRCULATED STOPPED
TLAB.HRS                1400 : TIME LOGGER AT BOTTOM
LUN .                   8101 : LOGGING UNIT NUMBER
LUL .                BRENHAM : LOGGING UNIT LOCATION
CLNT.                A2DTECH : CLIENT CODE
ORIG.             2.5" PRINT : ORIGIN OF DATA
UWI .         42177307700000 : UNIQUE WELL ID
DICO. A2D Technologies, Inc. : DIGITIZING COMPANY
~Other -----------------------------------------------------
~ASCII -----------------------------------------------------
 1050.00000    9.65980   41.42540    1.78480    -999.25    1.91230    -999.25    0.44710    0.46650   24.13980    -999.25   55.82590   55.82590   24.13980   19.69400   19.69400    -999.25    0.45770    0.41600   16.06280    4.82940   10.14970   16.06280
 1100.00000    9.56450   36.44310    1.68950    0.09440    1.68820    -999.25    0.58290    0.59750   27.44000    0.09440   59.70450   59.70450   27.44000   16.03490   16.03490    -999.25    0.50450    0.46280   22.13810   -2.44640    2.60820   22.13810
 1150.00000    8.89240   41.46900    1.01740    0.10160    1.96510    -999.25    0.41510    0.43560   24.11440    0.10160   44.77200   44.77200   24.11440  114.84310  114.84310    -999.25    0.35440    0.31080  145.39320   20.05460   24.84340  145.39320
 1200.00000    7.79300   95.89570   -0.08200    -999.25    2.00450    -999.25    0.39120    0.41260   10.42800    -999.25   78.46530   78.46530   10.42800   10.86180   10.86180    -999.25    0.42970    0.38750    9.54340   -4.64030   -0.06460    9.54340
 1250.00000    7.33930  104.08970   -0.53570    -999.25    2.07080    -999.25    0.35100    0.37380    9.60710    -999.25   91.41670   91.41670    9.60710   10.58550   10.58550    -999.25    0.42110    0.37870    9.79280   -0.99540    3.47410    9.79280
 1300.00000    7.12340  103.77750   -0.75160    -999.25    1.90060    -999.25    0.45420    0.47340    9.63600    -999.25   69.92970   69.92970    9.63600    9.42400    9.42400    -999.25    0.47910    0.43740   11.09150    1.13850    5.50170   11.09150
 1350.00000    6.99510  127.74820   -0.87990    -999.25    1.97930    -999.25    0.40650    0.42730    7.82790    -999.25   70.11860   70.11860    7.82790    7.29550    7.29550    -999.25    0.46440    0.42270    8.84390   -0.16340    4.09360    8.84390
 1400.00000    7.07900   80.13270   -0.79600    -999.25    2.03210    -999.25    0.37450    0.39640   12.47930    -999.25   71.13750   71.13750   12.47930   12.33250   12.33250    -999.25    0.47970    0.43800   12.38710   -0.20240    3.94830   12.38710
 1450.00000    7.14520  272.91090   -0.72980    -999.25    1.98590    -999.25    0.40250    0.42350    3.66420    -999.25   88.91330   88.91330    3.66420    3.58700    3.58700    -999.25    0.51930    0.47760    3.40950   -1.62090    2.42360    3.40950
 1500.00000    6.81290  213.00620   -1.06210    -999.25    1.96970    -999.25    0.41230    0.43290    4.69470    -999.25   79.38440   79.38440    4.69470    4.44750    4.44750    -999.25    0.46670    0.42500    4.99210   -3.36600    0.57220    4.99210
 1550.00000    6.85840  366.32720   -1.01660    -999.25    1.96440    -999.25    0.41550    0.43600    2.72980    -999.25   90.38990   90.38990    2.72980    2.58360    2.58360    -999.25    0.55660    0.51490    2.14390   -0.52450    3.30750    2.14390
 1600.00000    6.79700  138.25900   -1.07800    -999.25    1.93720    -999.25    0.43200    0.45190    7.23280    -999.25   65.11610   65.11610    7.23280    7.22720    7.22720    -999.25    0.46570    0.42400    8.05700   -4.27620   -0.55050    8.05700
 1650.00000    6.64850  332.29220   -1.22650    -999.25    2.00270    -999.25    0.39230    0.41360    3.00940    -999.25  103.41630  103.41630    3.00940    2.85980    2.85980    -999.25    0.51220    0.47050    2.87990   -0.55040    3.06910    2.87990
 1700.00000    6.54780  164.05550   -1.32720    -999.25    1.97890    -999.25    0.40670    0.42750    6.09550    -999.25   82.89260   82.89260    6.09550    6.20610    6.20610    -999.25    0.45890    0.41720    5.80530   -7.14120   -3.62790    5.80530
 1750.00000    6.71020  180.06340   -1.16480    -999.25    2.02990    -999.25    0.37580    0.39770    5.55360    -999.25   87.84640   87.84640    5.55360    5.72080    5.72080    -999.25    0.46900    0.42730    5.55840   -8.49710   -5.09010    5.55840
 1800.00000    6.58310  279.44670   -1.29190    -999.25    1.98320    -999.25    0.40410    0.42500    3.57850    -999.25   96.17200   96.17200    3.57850    3.39960    3.39960    -999.25    0.45430    0.41260    3.46710   -7.58930   -4.28850    3.46710
 1850.00000    6.76610  265.12540   -1.10890    -999.25    1.97730    -999.25    0.40770    0.42850    3.77180    -999.25   82.17260   82.17260    3.77180    3.70360    3.70360    -999.25    0.45270    0.41100    3.68420   -4.87480   -1.68030    3.68420
 1900.00000    6.68720  117.61380   -1.18780    -999.25    2.15830    -999.25    0.29800    0.32260    8.50240    -999.25   58.91420   58.91420    8.50240   10.58060   10.58060    -999.25    0.36270    0.31920    7.34160   -6.30360   -3.26840    7.34160
 1950.00000    6.71470  109.67920   -1.16030    -999.25    1.94250    -999.25    0.42880    0.44880    9.11750    -999.25   57.49410   57.49410    9.11750    9.03510    9.03510    -999.25    0.42220    0.37980    9.39720  -11.45660   -8.74890    9.39720
 2000.00000    6.73480  109.37930   -1.14020    -999.25    1.96790    -999.25    0.41340    0.43400    9.14250    -999.25   59.02010   59.02010    9.14250    9.04770    9.04770    -999.25    0.41960    0.37710    8.41880  -10.51370   -8.13350    8.41880
 2050.00000    7.08250  354.39630   -0.79250    -999.25    2.01150    -999.25    0.38700    0.40850    2.82170    -999.25  107.16040  107.16040    2.82170    2.78540    2.78540    -999.25    0.46070    0.41900    2.54820   -3.20950   -1.15670    2.54820
 2100.00000    6.76960  315.93580   -1.10540    -999.25    2.10730    -999.25    0.32890    0.35240    3.16520    -999.25  105.43230  105.43230    3.16520    3.12130    3.12130    -999.25    0.46060    0.41890    2.72190   -5.18390   -3.45860    2.72190
 2150.00000    6.91700  187.76880   -0.95800    -999.25    2.00570    -999.25    0.39050    0.41190    5.32570    -999.25   79.50530   79.50530    5.32570    5.10970    5.10970    -999.25    0.47120    0.42950    6.92780   -5.76900   -4.37120    6.92780
 2200.00000    6.72100  593.89480   -1.15400    -999.25    2.11080    -999.25    0.32680    0.35040    1.68380    -999.25   89.25940   89.25940    1.68380    1.65270    1.65270    -999.25    0.45140    0.40970    1.74570   -1.77190   -0.70150    1.74570
 2250.00000    6.85490  174.24640   -1.02010    -999.25    2.06920    -999.25    0.35200    0.37470    5.73900    -999.25   67.57020   67.57020    5.73900    5.68420    5.68420    -999.25    0.42140    0.37900    5.38710   -7.25000   -6.50160    5.38710
 2300.00000    6.96830  145.05370   -0.90670    -999.25    2.15880    -999.25    0.29770    0.32230    6.89400    -999.25   53.56550   53.56550    6.89400    6.83130    6.83130    -999.25    0.43230    0.39010    5.30180   -4.63100   -4.20360    5.30180
 2350.00000    7.09470  391.51200   -0.78030    -999.25    2.08870    -999.25    0.34020    0.36340    2.55420    -999.25   91.99430   91.99430    2.55420    2.48170    2.48170    -999.25    0.42990    0.38770    2.57030   -0.49310   -0.38660    2.57030
 2400.00000    7.31270  421.49630   -0.56230    -999.25    2.08220    -999.25    0.34410    0.36710    2.37250    -999.25   77.36260   77.36260    2.37250    2.64000    2.64000    -999.25    0.42930    0.38710    3.09690   -0.23800   -0.45250    3.09690
 2450.00000    6.85270  340.63430   -1.02230    -999.25    1.86180    -999.25    0.47770    0.49600    2.93570    -999.25   93.19310   93.19310    2.93570    2.52670    2.52670    -999.25    0.57630    0.53460    1.96400   -1.86970   -2.40510    1.96400
 2500.00000    7.52310  402.23650   -0.35190    -999.25    2.18830    -999.25    0.27980    0.30510    2.48610    -999.25   82.69130   82.69130    2.48610    2.39420    2.39420    -999.25    0.41550    0.37290    2.62150   -1.19850   -2.05490    2.62150
 2550.00000    6.96320  249.17770   -0.91180    -999.25    2.06890    -999.25    0.35220    0.37490    4.01320    -999.25   64.68580   64.68580    4.01320    3.91180    3.91180    -999.25    0.42800    0.38570    3.74270   -5.55990   -6.63770    3.74270
 2600.00000    6.85630  144.27100   -1.01870    -999.25    2.02880    -999.25    0.37650    0.39840    6.93140    -999.25   56.34070   56.34070    6.93140    6.86890    6.86890    -999.25    0.43840    0.39640    6.91000   -8.05630   -9.13410    6.91000
