~Version ---------------------------------------------------
VERS. 2.0 : CWLS log ASCII Standard -VERSION 2.0
WRAP. YES : MULTIPLE LINES PER DEPTH STEP
~Well ------------------------------------------------------
STRT.FT                        2500.0 : START DEPTH
STOP.FT                       18000.0 : STOP DEPTH
STEP.FT                      50.00000 : STEP LENGTH
NULL.                         -999.25 : NULL VALUE
COMP. UNION PACIFIC RESOURCES COMPANY : COMPANY
WELL.       UPR T-BAR-X KING COBRA #1 : WELL
FLD .                         WILDCAT : FIELD
LOC .                                 : LOCATION
CNTY.                            LEON : COUNTY
STAT.                           TEXAS : STATE
CTRY.        UNITED STATES OF AMERICA : COUNTRY
SRVC.                    Schlumberger : SERVICE COMPANY
DATE.                     05-Nov-1997 : LOGDATE
API .                  42289312660000 : API NUMBER
UWI .                  42289312660000 : UNIQUE WELL ID
SLAT.WGS84              31.2008912115 : SURFACE LATITUDE
SLON.WGS84             -96.2874133979 : SURFACE LONGITUDE
~Curve Information -----------------------------------------
DEPT    .FT    : DEPTH FEET
AT10ED  .OHMM  : 10 INCH RESISTIVITY TWO FOOT RESOLUTION FROM AIT LOG
AT20ED  .OHMM  : 20 INCH RESISTIVITY TWO FOOT RESOLUTION FROM AIT LOG
AT30ED  .OHMM  : 30 INCH RESISTIVITY TWO FOOT RESOLUTION FROM AIT LOG
AT60ED  .OHMM  : 60 INCH RESISTIVITY TWO FOOT RESOLUTION FROM AIT LOG
AT90ED  .OHMM  : 90 INCH RESISTIVITY TWO FOOT RESOLUTION FROM AIT LOG
CALDED  .IN    : CALIPER FROM DENSITY LOG [DEP ADJ TO GRRED]
CALRED  .IN    : CALIPER FROM RESISTIVITY LOG
CALWS   .IN    : CALIPER [2484 CALICAL 15888 CALRED]
CGRDED  .GAPI  : GAMMA RAY FROM DENSITY LOG [DEP ADJ TO GRRED]
CONDWS  .MMHO  : CONDUCTIVITY [1000/DRESWS]
DCALED  .IN    : DIFFERENTIAL CALIPER FROM DENSITY LOG
DCORWS  .G/C3  : DENSITY CORRECTION [2484 DRHOED 9946 DRHED 15888.5 DRHOED]
DENWS   .G/C3  : BULK DENSITY [M=2.71 F=1.0] [CALCULATED FROM DPOWS]
DPHILSED.V/V   : DENSITY POROSITY [M=2.71 F=1.0] FROM DENSITY LOG [DEP ADJ TO GRRED]
DPOLSED .V/V   : DENSITY POROSITY HIGH RESOLUTION [M=2.71 F=1.0] FROM DENSITY LOG
DPOWS   .V/V   : DENSITY POROSITY [M=2.71 F=1.0] [2484 DPHILSED 9942 DPOLSED 15888 DPHILSED]
DRESWS  .OHMM  : DEEP RESISTIVITY [A2484 AT90ED 9948.5 IDPHED 15892 LLDED]
DRHED   .G/C3  : DENSITY CORRECTION
DRHOED  .G/C3  : DENSITY CORRECTION FROM DENSITY LOG [DEP ADJ TO GRRED]
DTCOED  .US/F  : DELTA TIME COMPRESSIONAL FROM SONIC LOG [DEP ADJ TO GRRED]
DTED    .US/F  : DELTA TIME FROM SONIC LOG
DTLED   .US/F  : DELTA TIME LONG SPACING FROM SONIC LOG
DTLFED  .US/F  : DELTA TIME LONG SPACING FAR DETECTOR FROM SONIC LOG
DTLNED  .US/F  : DELTA TIME LONG SPACING NEAR DETECTOR FROM SONIC LOG
DTSMED  .US/F  : DELTA TIME SHEAR WAVE FROM SONIC LOG [DEP ADJ TO GRRED]
DTSWS   .US/F  : DELTA TIME SHEAR [DTSMED]
DTWS    .US/F  : DELTA TIME [2484 DTLNED 10155.5 DTLFED 10297.5 DTLNED 10506.5 DTLFED 10628.5 DTLNED 10694 DTLFED 10859 DTLNED 11620 DTLFED 13285.5 DTLNED 14723 DTLFED 15057 DTLNED 15798 DTLFED 15889.5 DTED 15912.5 DTCOED]
GRRED   .GAPI  : GAMMA RAY FROM RESISTIVITY LOG
GRSED   .GAPI  : GAMMA RAY FROM SONIC LOG [DEP ADJ TO GRRED]
GRWS    .GAPI  : GAMMA RAY [2484 GRRED 9881.5 GRREDNRM 9946 GRRED 15728.5 GRSEDNRM 15878 CGRDED 16070 GRRED]
IDPHED  .OHMM  : INDUCTION DEEP PHASE RESISTIVITY
IMPHED  .OHMM  : INDUCTION MEDIUM PHASE RESISTIVITY
LLDED   .OHMM  : LATEROLOG DEEP RESISTIVITY
LLSED   .OHMM  : LATEROLOG SHALLOW RESISTIVITY
MRESWS  .OHMM  : MEDIUM RESISTIVITY [2484 AT30ED 9949.5 IMPHED]
NPHILSED.V/V   : NEUTRON POROSITY LIMESTONE FROM DENSITY LOG [DEP ADJ TO GRRED]
NPOWS   .V/V   : NEUTRON POROSITY LIMESTONE [2484 NPHILSED 15780.5 NPHILNRM 15883.5 NPHILSED]
PEFED   .B/E   : PHOTOELECTRIC FACTOR FROM DENSITY LOG
PEFLED  .B/E   : PHOTOELECTRIC FACTOR FROM DENSITY LOG
PEFWS   .B/E   : PHOTOELECTRIC FACTOR [2484 PEFED 9952.5 PEFLED]
RESED   .OHMM  : SYNTHETIC RESISTIVITY
SFLUED  .OHMM  : SPHERICALLY FOCUSED LOG RESISTIVITY
SPHILSED.V/V   : SONIC POROSITY FROM SONIC LOG [DEP ADJ TO GRRED]
SPOWS   .V/V   : SONIC POROSITY [CAL FR DTWS; M= 47.6, F=189]
SPRED   .MV    : SPONTANEOUS POTENTIAL FROM RESISTIVITY LOG [SHIFTS ARE REMOVED]
SPWS    .MV    : SPONTANEOUS POTENTIAL [BASELINE 0 MV] [SPRED]
SRESWS  .OHMM  : SHALLOW RESISTIVITY [2484 AT10ED 9945.5 SFLUED 15891.5 LLSED]
TENDED  .LBF   : TENSION FROM DENSITY LOG [DEP ADJ TO GRRED]
TENRED  .LBF   : TENSION FROM RESISTIVITY LOG
~Params ----------------------------------------------------
PD  .                     GL : PERMANENT DATUM
EPD .FT                  348 : ELEVATION PERMANENT DATUM
LMF .                     KB : LOG MEASURED FROM
DAPD.FT                   28 : FEET ABOVE PERMANENT DATUM
DMF .                     KB : DRILLING MEASURED FROM
EKB .FT                  376 : KELLY BUSHING
EDF .FT                  374 : DRILLING FLOOR
EGL .FT                  348 : GROUND LEVEL
DATE.               11/05/97 : RUN DATE
RUN .                      3 : RUN NUMBER
DD  .FT                18038 : DEPTH DRILLER
DL  .FT                18024 : DEPTH LOGGER
BLI .FT                 1800 : BOTTOM LOG INTERVAL
TLI .FT                15888 : TOP LOG INTERVAL
CS  .IN                7.625 : CASING SIZE
CBD .FT                15888 : CASING BOTTOM DRILLER
CBL .FT                15888 : CASING BOTTOM LOGGER
BS  .IN                    6 : BIT SIZE
BSD .FT                18038 : BIT SIZE AT DEPTH
DFT .                POLYMER : DRILLING FLUID TYPE
DFD .                   18.2 : DRILLING FLUID DENSITY
DFV .                     40 : DRILLING FLUID VISCOSITY
DFPH.                      9 : DRILLING FLUID PH
DFL .                    5.6 : DRILLING FLUID LOSS
MSS .       CIRCULATION TANK : MUD SAMPLE SOURCE
RMS .OHMM               1.14 : RESISTIVITY MUD SAMPLE
MST .DEGF                 90 : MUD SAMPLE TEMPERATURE
RMF .OHMM              0.969 : RESISTIVITY MUD FILTRATE SAMPLE
MFST.DEGF                 90 : MUD FILTRATE SAMPLE TEMPERATURE
RMC .OHMM              1.311 : RESISTIVITY MUD CAKE
MCST.DEGF                 90 : MUD CAKE SAMPLE TEMPERATURE
MFSS.             CALCULATED : MUD FILTRATE SAMPLE SOURCE
MCSS.             CALCULATED : MUD CAKE SAMPLE SOURCE
RMB .OHMM              0.278 : RESISTIVITY MUD AT BHT
TCS .HRS                2200 : TIME CIRCULATED STOPPED
TLAB.HRS                 445 : TIME LOGGER AT BOTTOM
LUN .                   8400 : LOGGING UNIT NUMBER
LUL .                   6450 : LOGGING UNIT LOCATION
ENGI.                SKRBICH : RECORDING ENGINEER
WITN.          BLANKE WEAVER : WITNESSED BY
CLNT.                A2DTECH : CLIENT CODE
ORIG.         1" 2" 5" PRINT : ORIGIN OF DATA
UWI .         42289312660000 : UNIQUE WELL ID
DICO. A2D Technologies, Inc. : DIGITIZING COMPANY
~Other -----------------------------------------------------
~ASCII -----------------------------------------------------
# ...
 14500.00000    -999.25    -999.25    -999.25    -999.25    -999.25    -999.25    -999.25   11.99070    -999.25  218.01690    3.49070    0.14000    2.62470    -999.25    0.04990    0.04990    4.58680    0.14000    -999.25    -999.25    -999.25    -999.25   74.25130   77.58870    -999.25    -999.25   77.58870   85.74570    -999.25   85.74570    4.58680    4.91400    -999.25    -999.25    4.91400    0.14210    0.14210    -999.25   10.00970   10.00970   10.00970    5.52410    -999.25    0.21210  102.44470   -5.65190    5.52410    -999.25 5555.81540
 14550.00000    -999.25    -999.25    -999.25    -999.25    -999.25    -999.25    -999.25   12.95730    -999.25  198.07470    4.45730    0.12660    2.61970    -999.25    0.05280    0.05280    5.04860    0.12660    -999.25    -999.25    -999.25    -999.25   72.29780   71.41850    -999.25    -999.25   71.41850   93.28670    -999.25   93.28670    5.04860    5.67280    -999.25    -999.25    5.67280    0.15520    0.15520    -999.25    9.99880    9.99880    9.99880    6.28010    -999.25    0.16840  103.58240   -3.74850    6.28010    -999.25 5505.42770
 14600.00000    -999.25    -999.25    -999.25    -999.25    -999.25    -999.25    -999.25   12.66580    -999.25  348.46850    4.16580    0.11660    2.59100    -999.25    0.06960    0.06960    2.86970    0.11660    -999.25    -999.25    -999.25    -999.25   83.76710   85.07560    -999.25    -999.25   85.07560   96.71820    -999.25   96.71820    2.86970    2.74950    -999.25    -999.25    2.74950    0.18030    0.18030    -999.25   10.01230   10.01230   10.01230    3.63010    -999.25    0.26500  105.01070   -1.55460    3.63010    -999.25 5550.74070
 14650.00000    -999.25    -999.25    -999.25    -999.25    -999.25    -999.25    -999.25   14.65280    -999.25  210.11930    6.15280    0.09790    2.65730    -999.25    0.03080    0.03080    4.75920    0.09790    -999.25    -999.25    -999.25    -999.25   76.10210   77.44970    -999.25    -999.25   77.44970   91.68660    -999.25   91.68660    4.75920    4.63280    -999.25    -999.25    4.63280    0.16530    0.16530    -999.25   10.00370   10.00370   10.00370    6.06780    -999.25    0.21110   97.90830   -7.76710    6.06780    -999.25 5578.61870
 14700.00000    -999.25    -999.25    -999.25    -999.25    -999.25    -999.25    -999.25   11.25260    -999.25   96.57920    2.75260    0.07840    2.48480    -999.25    0.13170    0.13170   10.35420    0.07840    -999.25    -999.25    -999.25    -999.25   77.17310   72.07040    -999.25    -999.25   72.07040   25.34590    -999.25   25.34590   10.35420   10.80750    -999.25    -999.25   10.80750    0.01120    0.01120    -999.25   10.00240   10.00240   10.00240   38.50680    -999.25    0.17310   95.00890   -9.12450   38.50680    -999.25 5659.68360
 14750.00000    -999.25    -999.25    -999.25    -999.25    -999.25    -999.25    -999.25   13.73570    -999.25  293.72890    5.23570    0.20390    2.72090    -999.25   -0.00640   -0.00640    3.40450    0.20390    -999.25    -999.25    -999.25    -999.25   89.90870   77.56170    -999.25    -999.25   89.90870   77.07250    -999.25   77.07250    3.40450    3.80580    -999.25    -999.25    3.80580    0.17020    0.17020    -999.25    9.99720    9.99720    9.99720    5.35210    -999.25    0.29920   99.85770   -2.73380    5.35210    -999.25 5735.76860
 14800.00000    -999.25    -999.25    -999.25    -999.25    -999.25    -999.25    -999.25   12.86050    -999.25   85.28200    4.36050   -0.03000    2.24570    -999.25    0.27150    0.27150   11.72580   -0.03000    -999.25    -999.25    -999.25    -999.25  139.86790  122.45310    -999.25    -999.25  139.86790   49.18640    -999.25   49.18640   11.72580    4.79770    -999.25    -999.25    4.79770    0.02470    0.02470    -999.25    9.98430    9.98430    9.98430   13.95340    -999.25    0.65250   90.05730  -10.99220   13.95340    -999.25 5574.71880
 14850.00000    -999.25    -999.25    -999.25    -999.25    -999.25    -999.25    -999.25   11.99160    -999.25  212.84750    3.49160    0.12890    2.72710    -999.25   -0.01000   -0.01000    4.69820    0.12890    -999.25    -999.25    -999.25    -999.25  100.42000   74.38380    -999.25    -999.25  100.42000   82.00690    -999.25   82.00690    4.69820    5.17860    -999.25    -999.25    5.17860    0.15410    0.15410    -999.25   10.02790   10.02790   10.02790    7.49640    -999.25    0.37360   94.48050   -6.01080    7.49640    -999.25 5719.29000
 14900.00000    -999.25    -999.25    -999.25    -999.25    -999.25    -999.25    -999.25   13.02570    -999.25  328.07320    4.52570    0.12180    2.65820    -999.25    0.03030    0.03030    3.04810    0.12180    -999.25    -999.25    -999.25    -999.25   79.95220   81.91590    -999.25    -999.25   79.95220   95.44150    -999.25   95.44150    3.04810    3.28500    -999.25    -999.25    3.28500    0.18520    0.18520    -999.25   10.01030   10.01030   10.01030    3.83470    -999.25    0.22880   92.24630   -8.79630    3.83470    -999.25 5810.75930
 14950.00000    -999.25    -999.25    -999.25    -999.25    -999.25    -999.25    -999.25   12.79990    -999.25  248.78100    4.29990    0.13100    2.69320    -999.25    0.00980    0.00980    4.01960    0.13100    -999.25    -999.25    -999.25    -999.25   89.37550   78.51970    -999.25    -999.25   89.37550   92.30590    -999.25   92.30590    4.01960    3.40930    -999.25    -999.25    3.40930    0.19650    0.19650    -999.25   10.01530   10.01530   10.01530    5.72800    -999.25    0.29540   89.24250  -12.35140    5.72800    -999.25 5813.87350
 15000.00000    -999.25    -999.25    -999.25    -999.25    -999.25    -999.25    -999.25   13.44540    -999.25  215.59620    4.94540    0.09940    2.67840    -999.25    0.01850    0.01850    4.63830    0.09940    -999.25    -999.25    -999.25    -999.25   79.37680   78.28960    -999.25    -999.25   79.37680   97.76220    -999.25   97.76220    4.63830    2.66870    -999.25    -999.25    2.66870    0.22150    0.22150    -999.25    9.98160    9.98160    9.98160    4.67740    -999.25    0.22470   89.88270  -12.26240    4.67740    -999.25 6124.57860
 15050.00000    -999.25    -999.25    -999.25    -999.25    -999.25    -999.25    -999.25   13.65140    -999.25   47.22300    5.15140    0.14690    2.70420    -999.25    0.00340    0.00340   21.17610    0.14690    -999.25    -999.25    -999.25    -999.25   90.22440   89.92430    -999.25    -999.25   90.22440   82.23780    -999.25   82.23780   21.17610    3.97590    -999.25    -999.25    3.97590    0.19860    0.19860    -999.25    9.99290    9.99290    9.99290    5.60220    -999.25    0.30140   88.54190  -13.55080    5.60220    -999.25 5792.67480
 15100.00000    -999.25    -999.25    -999.25    -999.25    -999.25    -999.25    -999.25   12.51560    -999.25   97.75840    4.01560    0.18910    2.64500    -999.25    0.03800    0.03800   10.22930    0.18910    -999.25    -999.25    -999.25    -999.25   86.54500   88.67530    -999.25    -999.25   88.67530   91.26390    -999.25   91.26390   10.22930    7.01930    -999.25    -999.25    7.01930    0.23150    0.23150    -999.25    9.98200    9.98200    9.98200    9.60120    -999.25    0.29050   84.93050  -14.96940    9.60120    -999.25 5826.24560
 15150.00000    -999.25    -999.25    -999.25    -999.25    -999.25    -999.25    -999.25   16.32620    -999.25  240.62180    7.82620    0.08690    2.61660    -999.25    0.05460    0.05460    4.15590    0.08690    -999.25    -999.25    -999.25    -999.25  101.29260  101.38780    -999.25    -999.25  101.38780   99.76080    -999.25   99.76080    4.15590    2.94390    -999.25    -999.25    2.94390    0.20750    0.20750    -999.25    9.99860    9.99860    9.99860    3.71360    -999.25    0.38040   77.46280  -20.24420    3.71360    -999.25 5846.49270
 15200.00000    -999.25    -999.25    -999.25    -999.25    -999.25    -999.25    -999.25   16.48240    -999.25  310.47220    7.98240    0.09120    2.58380    -999.25    0.07380    0.07380    3.22090    0.09120    -999.25    -999.25    -999.25    -999.25  103.89830  104.62400    -999.25    -999.25  104.62400   91.51860    -999.25   91.51860    3.22090    2.52500    -999.25    -999.25    2.52500    0.19180    0.19180    -999.25    9.98100    9.98100    9.98100    4.00410    -999.25    0.40330   72.52330  -22.99080    4.00410    -999.25 6016.89700
