~Version ---------------------------------------------------
VERS. 2.0 : CWLS log ASCII Standard -VERSION 2.0
WRAP.  NO : ONE LINE PER DEPTH STEP
~Well ------------------------------------------------------
STRT.F                     1250.0 : START DEPTH
STOP.F                     8000.0 : STOP DEPTH
STEP.F                   50.00000 : STEP LENGTH
NULL.                     -999.25 : NULL VALUE
COMP.  CHAMPLIN PETROLEUM COMPANY : COMPANY
WELL. STEADMAN RANCH BETTY ANN #2 : WELL
FLD .                     WILDCAT : FIELD
LOC .                             : LOCATION
CNTY.                      DIMMIT : COUNTY
STAT.                       TEXAS : STATE
CTRY.    UNITED STATES OF AMERICA : COUNTRY
SRVC.               Dresser Atlas : SERVICE COMPANY
DATE.                 15-Nov-1978 : LOGDATE
API .              42127317560000 : API NUMBER
UWI .              42127317560000 : UNIQUE WELL ID
SLAT.WGS84          28.2575413645 : SURFACE LATITUDE
SLON.WGS84         -99.9698949429 : SURFACE LONGITUDE
~Curve Information -----------------------------------------
DEPT.F                 : 
CALD.IN   45 280 60 00 : CALIPER FROM DENSITY LOG
DPHI.DEC  45 890 12 00 : DENSITY POROSITY SANDSTONE
GRD .GAPI 45 310 01 00 : GAMMA RAY FROM DENSITY LOG
NPHI.DEC  42 890 03 00 : NEUTRON POROSITY SANDSTONE
RHOB.G/C3 45 350 01 00 : BULK DENSITY
DRHO.G/C3 45 356 01 00 : DENSITY CORRECTION
DT  .US/F 60 520 42 00 : INTERVAL TRANSIT TIME
ILD .OHMM 07 120 46 00 : INDUCTION LOG DEEP
ILM .OHMM 07 120 44 00 : INDUCTION LOG MEDIUM
SFL .OHMM 07 220 01 00 : SHALLOW FOCUSED LOG RESISTIVITY
SPR .MV   07 010 01 00 : SPONTANEOUS POTENTIAL FROM RES. LOG
~Params ----------------------------------------------------
EKB .F                 757.9 : Kelly bushing
EGL .F                 746.9 : Ground level
EDF .F                 756.9 : Drilling floor
EPD .F                 746.9 : Permanent datum
TD  .F                8050.0 : Total depth
DATE.            16-NOV-1978 : Date logged
CLNT.                A2DTECH : Client Code
SL  .   1500' FWL & 330' FNL : Surface Location
PD  .                     GL : Permanent Datum
LMF .                     KB : Log Measured From
DMF .                     KB : Drilling Measured From
DAPD.F                    11 : Feet Above Permanent Datum
DD  .F                  8050 : Depth driller
DL  .F                  8046 : Depth logger
BLI .F                  8044 : Bottom log interval
TLI .F                  1215 : Top log interval
CS1 .IN                8.625 : Casing size
CBD1.         8.625" @ 1215' : Casing driller 1
CBL1.F                  1215 : Casing logger 1
BS1 .IN                7.875 : Bit size
BSD1.F                  8050 : Depth drilled with bit1
DFT .                  BENEX : Type fluid in hole
DFD .                    9.2 : Density
DFV .                     73 : Viscosity
DFPH.                    7.7 : pH
DFL .                    7.3 : Fluid loss
MSS .               FLOWLINE : Source of sample
RMS .OHMM               0.89 : Rm
RMF .OHMM               0.85 : Rmf
RMC .OHMM               1.11 : Rmc
MFSS.                   MEAS : Source Rmf.
MCSS.                   CALC : Source Rmc.
RMB .OHMM               0.35 : Rm. at BHT
BHT .F                   191 : BHT.
TCS .HRS                  32 : Time Circ. stopped
LUN .                   6160 : Logging unit number
LUL .                  ALICE : Logging unit location
ENGI.  BOYKIN/KENDALL/CHAVEZ : Recorded By
WITN.      KRANER/MONTGOMERY : Witnessed by
ORIG.               5" PRINT : Origin of data
UWI .         42127317560000 : Unique Well ID
DICO. A2D TECHNOLOGIES, INC. : Digitizing Company
~Other -----------------------------------------------------
~ASCII -----------------------------------------------------
 1250.00000    7.95180    0.19530   78.22140    0.29820    2.34620   -0.00310   95.06220    5.94290    7.09010    7.63880  -63.38600
 1300.00000    7.98290    0.16820  100.79690    0.26410    2.39070   -0.00980   95.67840    6.87890    8.08700    8.41700  -48.62480
 1350.00000    7.78770    0.23440   78.98570    0.30180    2.27910   -0.00530   97.93930    5.31010    7.03220    7.25180  -58.25660
 1400.00000    7.44100    0.26350   77.86140    0.28870    2.23230   -0.00390   98.28930    4.69760    5.79490    5.68670  -60.32380
 1450.00000    7.30270    0.25090   69.53970    0.23920    2.25260   -0.00990   95.12700    5.62690    7.76510    9.28210  -59.69580
 1500.00000    7.74960    0.20160   83.86040    0.22830    2.33500   -0.00680   93.69290    8.24150    9.15330    9.80020  -52.35940
 1550.00000    9.93560    0.11730  130.32950    0.24780    2.49020   -0.00680   92.19160    6.50800    7.07730    7.72420  -46.68100
 1600.00000   10.88210    0.13030  123.74490    0.31180    2.44540   -0.00380  104.64550    3.51470    3.97310    4.42450  -45.67240
 1650.00000   11.55310    0.32450  126.34950    0.31070    2.11800   -0.00390  106.48000    3.61780    3.95060    3.96500  -45.66470
 1700.00000   10.63510    0.14360  115.43740    0.28280    2.43560   -0.00230   99.97880    3.58440    3.80970    3.26110  -45.53020
 1750.00000   10.47130    0.13290  105.99410    0.31470    2.44660   -0.00680   95.85260    3.62610    4.14290    3.57180  -45.71620
 1800.00000   10.30010    0.07490  109.67820    0.27680    2.51990   -0.00680   85.22550    4.19620    4.93970    4.51640  -45.32430
 1850.00000   10.20680    0.05800  113.05970    0.24990    2.56620   -0.00680   78.92790    2.77760    3.89250    5.27110  -45.10050
 1900.00000    9.66690    0.29320  126.97230    0.24450    2.20750   -0.00680  101.08690    2.32550    2.36340    3.18540  -44.70700
 1950.00000    9.32040    0.14850   56.09160    0.18220    2.41830   -0.00380   74.96060    9.23960    9.35010    7.56400  -67.90840
 2000.00000    9.21080    0.08580   62.85770    0.16820    2.53080   -0.00830   75.66870   11.81530   12.70870    9.51410  -58.95410
 2050.00000    9.46950    0.10560   75.00000    0.18230    2.49010   -0.00980   79.93790   11.05760   11.52810    9.03180  -57.54150
 2100.00000    9.92420    0.04710   74.40800    0.15800    2.59050   -0.00230   77.44930   11.09750   12.89450    9.77260  -50.25910
 2150.00000   11.00860    0.25630   89.23300    0.25110    2.20990   -0.00530   91.60140    6.03280    6.32850    5.45170  -47.17020
 2200.00000    8.87430    0.17000   68.76810    0.20260    2.38840   -0.00830   71.07310    7.28060    9.82930    7.87220  -61.00420
 2250.00000    9.21780    0.06110   74.80450    0.23170    2.54990   -0.00830   96.86990    5.03360    5.84460    5.47400  -49.97460
 2300.00000    8.91850    0.13150   55.76570    0.24140    2.45260   -0.00230   78.84910    7.41230    9.68970   10.38970  -71.46640
 2350.00000    9.07670    0.02680  102.80370    0.21300    2.59550   -0.00380   87.86940    6.02370    6.94850    6.20610  -51.70280
 2400.00000    8.75750    0.04980  103.01200    0.24050    2.58310   -0.00530   86.73300    6.40530    6.88710    6.40890  -48.03850
 2450.00000    8.17280    0.03760   88.98190    0.17990    2.61430    0.00230   69.36240   14.10840   15.19220   18.25630  -47.20230
 2500.00000    9.65870    0.19060  104.28210    0.31950    2.38650   -0.00530   93.00030    4.44960    4.82170    6.79550  -48.84850
 2550.00000    8.35030    0.06220   73.03280    0.21350    2.55410   -0.00680   80.24860    7.59170    8.29230    6.75240  -48.25530
 2600.00000    8.71000    0.08750   99.39920    0.28900    2.52930   -0.00530   86.02900    6.05660    6.94080    6.21790  -47.33010
 2650.00000   10.96960    0.34570  107.11130    0.29590    2.10170   -0.00230   95.83680    3.72240    4.15850    4.41000  -45.37480
 2700.00000    7.97140    0.06440   94.43810    0.22970    2.55270   -0.00230   81.95870    8.73910    9.03540    8.17540  -47.50450
 2750.00000   10.49930    0.32760   94.93050    0.31380    2.14060   -0.00080   86.42490    5.30140    6.57140    5.24400  -45.68280
 2800.00000    8.85450    0.11840  106.00170    0.29760    2.49080   -0.00230   91.07660    6.72130    6.51800    5.10020  -45.47460
 2850.00000   10.06410    0.22170  118.72000    0.37090    2.28890   -0.00230  101.88410    3.18140    3.48800    3.46610  -44.02280
 2900.00000    9.84350    0.41500  112.07130    0.35870    2.00750   -0.00530   97.51120    3.94320    4.44990    4.16090  -44.87270
 2950.00000    9.69530    0.26330  111.42040    0.31750    2.24210   -0.00530   99.06690    3.90270    5.02860    3.18070  -44.01110
 3000.00000    8.47900    0.16900  110.69990    0.23100    2.35760   -0.00230   83.82580    7.07210    8.33560    4.62820  -43.66650
 3050.00000    8.68950    0.07470  103.81650    0.24950    2.54830   -0.00380   83.99430    6.59510    7.52670    7.23130  -43.51590
 3100.00000    9.28370    0.10520  105.30360    0.28610    2.52610   -0.00230   85.24640    6.51400    7.33180    6.34690  -44.43720
 3150.00000   10.50000    0.34300  102.90100    0.34240    2.12610   -0.00380   94.08970    4.29340    4.96280    4.71860  -43.09260
 3200.00000   10.95570    0.27070  108.87370    0.31420    2.23840   -0.00380   89.17070    5.88010    6.49430    6.01520  -45.07480
 3250.00000   10.93870    0.32040  111.14590    0.29050    2.14220   -0.00230   85.69210    6.09190    6.53550    5.85940  -43.82710
 3300.00000   11.15240    0.24240  123.21620    0.28650    2.28050   -0.00080   85.43280    5.79850    6.46510    5.79620  -45.32740
 3350.00000    7.37310    0.21220   36.42380    0.20670    2.31510   -0.00230   74.38660    4.54590    8.38400   12.75130  -89.13090
 3400.00000    9.39770    0.31410  103.55490    0.29180    2.15710   -0.00380   78.21410    5.14120    6.80850    7.30230  -47.88840
 3450.00000    8.72730    0.13190  112.72550    0.23310    2.44140   -0.00380   86.53440    5.11640    5.94430    7.31690  -50.54430
 3500.00000    9.33210    0.26370   98.45990    0.24340    2.24300   -0.00230   95.61950    5.26920    6.11780    4.07510  -47.28920
 3550.00000    8.89030    0.24150  137.75510    0.32690    2.26470   -0.00230   85.30910    3.13780    3.58230    3.92170  -43.96650
 3600.00000    8.59100    0.24310  134.21830    0.39040    2.26580   -0.00230  118.91840    2.22610    2.46720    2.99370  -46.34630
 3650.00000    8.51510    0.28550   97.23480    0.24950    2.16390   -0.00680   82.94420    5.46220    6.87250    4.28040  -40.64800
 3700.00000    8.27540    0.11710   94.65310    0.22320    2.45740   -0.00230   81.64760    9.89810   11.47520    7.51420  -45.60550
 3750.00000    7.37870    0.22750   50.55360    0.19430    2.27980   -0.00230   86.93540    2.45990    4.21040    6.68650  -96.15480
 3800.00000    7.45460    0.23600   48.37790    0.21480    2.28510   -0.00380   74.80560    4.38130    6.76450    7.88290  -71.66540
 3850.00000    9.46930    0.12170  154.64980    0.25300    2.46550   -0.00380   83.04820    8.28720    8.74060    8.13980  -44.60830
 3900.00000   11.50950    0.48600  111.62770    0.32870    -999.25   -0.00530   97.88580    3.24280    3.56870    3.48480  -45.15430
 3950.00000   10.07000    0.35030  119.09950    0.33010    2.05590   -0.00380  100.59640    2.89910    3.48030    3.24950  -44.52850
 4000.00000    9.45200    0.29330  100.85620    0.24450    2.14630   -0.00830   87.25300    5.22920    5.95790    5.32290  -44.61830
 4050.00000   10.00500    0.14690  142.82550    0.25550    2.41450   -0.00830   91.05570    5.85780    7.01360    5.82230  -43.86340
 4100.00000   11.80310    0.40080  112.36170    0.27710    2.04490   -0.00680   92.06840    5.28920    6.41370    4.74070  -44.47780
 4150.00000   10.81330    0.42270  123.62900    0.28900    2.01680   -0.00840   93.00080    5.38280    5.84360    4.97470  -45.02170
 4200.00000    8.73470    0.14480  122.07990    0.22150    2.54280   -0.00680   81.02610    6.02350    7.60610    5.65420  -45.10180
 4250.00000    9.27390    0.15690  124.33530    0.26070    2.40580   -0.00980   86.23360    4.95240    6.01410    5.16900  -45.32480
