~Version ---------------------------------------------------
VERS. 2.0 : CWLS log ASCII Standard -VERSION 2.0
WRAP. YES : MULTIPLE LINES PER DEPTH STEP
~Well ------------------------------------------------------
STRT.FT                  3250.0 : START DEPTH
STOP.FT                  7950.0 : STOP DEPTH
STEP.FT                50.00000 : STEP LENGTH
NULL.                   -999.25 : NULL VALUE
COMP. EVERGREEN OIL CORPORATION : COMPANY
WELL.           HAMILTON R C #1 : WELL
FLD .                      COST : FIELD
LOC .                           : LOCATION
CNTY.                  GONZALES : COUNTY
STAT.                     TEXAS : STATE
CTRY.  UNITED STATES OF AMERICA : COUNTRY
SRVC.              Schlumberger : SERVICE COMPANY
DATE.               15-Dec-1980 : LOGDATE
API .            42177307020000 : API NUMBER
UWI .            42177307020000 : UNIQUE WELL ID
SLAT.WGS84        29.2306839754 : SURFACE LATITUDE
SLON.WGS84       -97.6857640562 : SURFACE LONGITUDE
~Curve Information -----------------------------------------
DEPT    .FT    : DEPTH FEET
CALDED  .IN    : CALIPER FROM DENSITY LOG
CALWS   .IN    : CALIPER [CALDED]
CONDWS  .MMHO  : CONDUCTIVITY [1000/DRESWS]
DCALED  .IN    : DIFFERENTIAL CALIPER FROM DENSITY LOG
DCORWS  .G/C3  : DENSITY CORRECTION [DRHOED]
DENWS   .G/C3  : BULK DENSITY [M=2.71 F=1.0] [RHOBED]
DPHILSED.V/V   : DENSITY POROSITY [M=2.71 F=1.0] FROM DENSITY LOG
DPHISSED.V/V   : DENSITY POROSITY [M=2.68 F=1.0] FROM DENSITY LOG
DPOLSWS .V/V   : DENSITY POROSITY [M=2.71 F=1.0] [CAL FR DENWS]
DRESWS  .OHMM  : DEEP RESISTIVITY [ILDED IS PATCHED TO REMOVE DUBIOUS SPIKES]
DRHOED  .G/C3  : DENSITY CORRECTION FROM DENSITY LOG
GRDED   .GAPI  : GAMMA RAY FROM DENSITY LOG
GRRED   .GAPI  : GAMMA RAY FROM RESISTIVITY LOG
GRWS    .GAPI  : GAMMA RAY [3234 GRDED 7734 GRRED]
ILDED   .OHMM  : INDUCTION LOG DEEP RESISTIVITY
ILMED   .OHMM  : INDUCTION LOG MEDIUM RESISTIVITY
MRESWS  .OHMM  : MEDIUM RESISTIVITY [ILMED IS PATCHED TO REMOVE DUBIOUS SPIKES]
NPHILSED.V/V   : NEUTRON POROSITY LIMESTONE FROM DENSITY LOG
NPHISSED.V/V   : NEUTRON POROSITY SANDSTONE FROM DENSITY LOG
NPOLSWS .V/V   : NEUTRON POROSITY LIMESTONE [3234 NPHILS_CAL 7394.5 NPHILSED][NPHISSED IS CONVERTED TO NPHILS_CAL USING POWERLOG MODULE]
RHOBED  .G/C3  : BULK DENSITY FROM DENSITY LOG [SOME PEAKS ARE DEPTH MATCHED TO DPHIED]
SFLUED  .OHMM  : SPHERICALLY FOCUSED LOG RESISTIVITY
SPRED   .MV    : SPONTANEOUS POTENTIAL FROM RESISTIVITY LOG
SPWS    .MV    : SPONTANEOUS POTENTIAL [BASELINE 0 MV] [SPRED]
SRESWS  .OHMM  : SHALLOW RESISTIVITY [SFLUED]
TENRED  .LBF   : TENSION FROM RESISTIVITY LOG
~Params ----------------------------------------------------
PD  .                     GL : PERMANENT DATUM
EPD .FT                  262 : ELEVATION PERMANENT DATUM
LMF .                     KB : LOG MEASURED FROM
DAPD.FT                   15 : FEET ABOVE PERMANENT DATUM
DMF .                     KB : DRILLING MEASURED FROM
EKB .FT                  277 : KELLY BUSHING
EDF .FT                  276 : DRILLING FLOOR
EGL .FT                  262 : GROUND LEVEL
DATE.               12/15/80 : RUN DATE
RUN .                      1 : RUN NUMBER
DD  .FT                 7980 : DEPTH DRILLER
DL  .FT                 7972 : DEPTH LOGGER
BLI .FT                 7966 : BOTTOM LOG INTERVAL
TLI .FT                 3249 : TOP LOG INTERVAL
CS  .IN                8.625 : CASING SIZE
CBD .FT                 2258 : CASING BOTTOM DRILLER
CBL .FT                 3249 : CASING BOTTOM LOGGER
BS  .IN                7.875 : BIT SIZE
BSD .FT                 7980 : BIT SIZE AT DEPTH
DFD .                    9.5 : DRILLING FLUID DENSITY
DFV .                     54 : DRILLING FLUID VISCOSITY
DFPH.                      9 : DRILLING FLUID PH
DFL .                    8.0 : DRILLING FLUID LOSS
MSS .               FLOWLINE : MUD SAMPLE SOURCE
RMS .OHMM               2.65 : RESISTIVITY MUD SAMPLE
MST .FT                   75 : MUD SAMPLE TEMPERATURE
RMF .OHMM               2.61 : RESISTIVITY MUD FILTRATE SAMPLE
MFST.FT                   75 : MUD FILTRATE SAMPLE TEMPERATURE
RMC .OHMM               3.97 : RESISTIVITY MUD CAKE
MCST.FT                   75 : MUD CAKE SAMPLE TEMPERATURE
MFSS.                      M : MUD FILTRATE SAMPLE SOURCE
MCSS.                      C : MUD CAKE SAMPLE SOURCE
RMB .OHMM                1.0 : RESISTIVITY MUD AT BHT
TCS .HRS                2400 : TIME CURCULATED STOPPED
TLAB.HRS                 600 : TIME LOGGER AT BOTTOM
LUN .                   8011 : LOGGING UNIT NUMBER
LUL .               VICTORIA : LOGGING UNIT LOCATION
ENGI.              PISHVAVOV : RECORDING ENGINEER
WITN.                 GERJES : WITNESSED BY
CLNT.                A2DTECH : CLIENT CODE
ORIG.            1" 5" PRINT : ORIGIN OF DATA
UWI .         42177307020000 : UNIQUE WELL ID
DICO. A2D Technologies, Inc. : DIGITIZING COMPANY
~Other -----------------------------------------------------
~ASCII -----------------------------------------------------
# ...
 7300.00000   13.50470   13.50470  680.17960    5.65950    0.05960    2.49570    -999.25    0.12530    0.12530    1.47020    0.05960   88.54890  104.73890   88.54890    1.47020    1.58040    1.58040    -999.25    0.27930    0.23530    2.49570    1.79160   -3.91830   -6.54030    1.79160 2351.16530
 7350.00000   12.33420   12.33420  755.45820    4.44870    0.10700    2.37640    -999.25    0.19270    0.19510    1.32370    0.10700  106.26350  119.67740  106.26350    1.32370    1.41620    1.41620    -999.25    0.30860    0.26470    2.37640    1.62530   -6.94410   -9.31650    1.62530 2359.36110
 7400.00000    9.68600    9.68600  227.92020    1.69040    0.00810    2.59480    0.06710    -999.25    0.06740    4.38750    0.00810   60.58770   57.92690   60.58770    4.38750    4.69000    4.69000    0.12250    -999.25    0.12250    2.59480    5.21780   -1.56890   -3.69180    5.21780 2406.38380
 7450.00000   10.43750   10.43750  216.35190    2.63340    0.00030    2.61200    0.05700    -999.25    0.05730    4.62210    0.00030   49.53440   50.33690   49.53440    4.62210    4.86680    4.86680    0.11630    -999.25    0.11630    2.61200    4.71340   -0.30980   -2.18320    4.71340 2422.51540
 7500.00000   10.47930   10.47930  170.87880    2.65700   -0.00460    2.61780    0.05410    -999.25    0.05390    5.85210   -0.00460   44.64540   43.69570   44.64540    5.85210    6.33490    6.33490    0.07720    -999.25    0.07720    2.61780    7.44760   -9.39430  -10.80100    7.44760 2446.37600
 7550.00000    9.26340    9.26340   97.10340    1.42530    0.03610    2.67380    0.02190    -999.25    0.02120   10.29830    0.03610   47.48290   42.82760   47.48290   10.29830   11.90490   11.90490    0.03530    -999.25    0.03530    2.67380   24.38730  -22.60970  -23.33240   24.38730 2432.72610
 7600.00000    9.23560    9.23560   79.87600    1.32450    0.01540    2.64260    0.03840    -999.25    0.03940   12.51940    0.01540   32.73580   29.89640   32.73580   12.51940   12.76160   12.76160    0.05780    -999.25    0.05780    2.64260   10.01640  -19.27680  -19.31550   10.01640 2459.05130
 7650.00000    8.92960    8.92960  135.63370    1.05110   -0.00540    2.52760    0.12480    -999.25    0.10670    7.37280   -0.00540   47.34140   43.64190   47.34140    7.37280    7.06210    7.06210    0.09480    -999.25    0.09480    2.52760    7.07740  -21.01440  -20.36920    7.07740 2497.41530
 7700.00000    8.88450    8.88450  218.66530    0.99390    0.08660    2.52510    0.10140    -999.25    0.10810    4.57320    0.08660   57.46570   52.29290   57.46570    4.57320    4.20460    4.20460    0.07770    -999.25    0.07770    2.52510    7.94320  -18.05260  -16.72340    7.94320 2495.76510
 7750.00000    8.38360    8.38360   35.91330    0.35410   -0.00180    2.62590    0.04960    -999.25    0.04920   27.84480   -0.00180   72.08430   64.98340   64.98340   27.84480   26.97080   26.97080    0.10750    -999.25    0.10750    2.62590   39.11470  -11.74400   -9.73090   39.11470 2519.48240
 7800.00000    8.14180    8.14180   74.91930    0.32900    0.00770    2.54170    0.09800    -999.25    0.09840   13.34770    0.00770   63.68530   57.59050   57.59050   13.34770   13.00590   13.00590    0.21930    -999.25    0.21930    2.54170   16.63380   -5.29240   -2.59530   16.63380 2523.48750
 7850.00000    7.59330    7.59330   29.94760   -0.14770    0.00390    2.56320    0.08570    -999.25    0.08580   33.39170    0.00390   88.70680   76.80140   76.80140   33.39170   34.50630   34.50630    0.15180    -999.25    0.15180    2.56320   63.78290   -7.02680   -3.64570   63.78290 2561.86960
 7900.00000    7.17400    7.17400   52.00830   -0.73770    0.00180    2.71530    0.00190    -999.25   -0.00310   19.22770    0.00180   29.36580   25.74100   25.74100   19.22770   19.98870   19.98870    0.04750    -999.25    0.04750    2.71530   24.85270  -14.64470  -11.20210   24.85270 2571.79170
 7950.00000    6.03350    6.03350   51.39960   -1.93100    0.00860    2.71990    0.00100    -999.25   -0.00580   19.45540    0.00860    -999.25    -999.25    -999.25   19.45540   20.40310   20.40310    -999.25    -999.25    -999.25    2.71990   28.45310  -10.34730   -6.90470   28.45310 2565.58350
