~Version ---------------------------------------------------
VERS. 2.0 : CWLS log ASCII Standard -VERSION 2.0
WRAP. YES : Multiple lines per depth step
~Well ------------------------------------------------------
STRT.FT                   4000.0 : START DEPTH
STOP.FT                   8600.0 : STOP DEPTH
STEP.FT                 50.00000 : STEP LENGTH
NULL.                    -999.25 : NULL VALUE
COMP. CHAMPLIN PETROLEUM COMPANY : COMPANY
WELL.           JOE J MAREK #A-1 : WELL
FLD .                   GIDDINGS : FIELD
LOC .                            : LOCATION
CNTY.                   BURLESON : COUNTY
STAT.                      TEXAS : STATE
CTRY.   UNITED STATES OF AMERICA : COUNTRY
SRVC.               Schlumberger : SERVICE COMPANY
DATE.                23-Sep-1980 : LOGDATE
API .             42051309940000 : API NUMBER
UWI .             42051309940000 : UNIQUE WELL ID
SLAT.WGS84             30.425386 : SURFACE LATITUDE
SLON.WGS84            -96.678468 : SURFACE LONGITUDE
~Curve Information -----------------------------------------
DEPT    .FT    : DEPTH FEET
CALWS   .IN    : CALIPER [DCALED + BITS]
CONDWS  .MMHO  : CONDUCTIVITY [1000/DRESWS]
DCALED  .IN    : DIFFERENTIAL CALIPER FROM DISFL-CNFD LOG
DCORWS  .G/C3  : DENSITY CORRECTION [DRHOED]
DENWS   .G/C3  : FORMATION BULK DENSITY [CALCULATED FROM DPOWS, M=2.71, F=1.0]
DPHILSED.V/V   : DENSITY POROSITY LIMESTONE [M=2.71, F=1.0] FROM DISFL-CNFD LOG
DPHISSED.V/V   : DENSITY POROSITY SANDSTONE [M=2.65, F=1.0] FROM DISFL-CNFD LOG
DPOWS   .V/V   : DENSITY POROSITY LIMESTONE [DPHISSED CONVERTED TO LIMESTONE ([M=2.71, F=1.0) & SPLICED WITH DPHILSED @ 6774']
DRESWS  .OHMM  : DEEP RESISTIVITY [ILDED]
DRHOED  .G/C3  : BULK DENSITY CORRECTION FROM DISFL-CNFD LOG
GRRED   .GAPI  : GAMMA RAY FROM DISFL-CNFD LOG
GRWS    .GAPI  : GAMMA RAY [GRRED]
ILDED   .OHMM  : DEEP INDUCTION FROM DISFL-CNFD LOG
ILMED   .OHMM  : MEDIUM INDUCTION FROM DISFL-CNFD LOG
MRESWS  .OHMM  : MEDIUM RESISTIVITY [ILMED]
NPHILSED.V/V   : NEUTRON POROSITY LIMESTONE FROM DISFL-CNFD LOG
NPHISSED.V/V   : NEUTRON POROSITY SANDSTONE FROM DISFL-CNFD LOG
NPOWS   .V/V   : NEUTRON POROSITY LIMESTONE [NPHISSED CONVERTED TO LIMESTONE MATRIX & SPLICED WITH NPHILSED @ 6769']
SFLUED  .OHMM  : SHALLOW FOCUSED INDUCTION (UNAVERAGED) FROM DISFL-CNFD LOG
SPRED   .MV    : SPONTANEOUS POTENTIAL FROM DISFL-CNFD LOG
SPWS    .MV    : SPONTANEOUS POTENTIAL [BASELINE 0 MV, SPRED]
SRESWS  .OHMM  : SHALLOW RESISTIVITY [SFLUED]
~Params ----------------------------------------------------
PD  .                     GL : PERMANENT DATUM
EPD .FT                  348 : ELEVATION PERMANENT DATUM
LMF .                     KB : LOG MEASURED FROM
DAPD.FT                   18 : FEET ABOVE PERMANENT DATUM
DMF .                     KB : DRILLING MEASURED FROM
EKB .FT                  348 : KELLY BUSHING
EDF .FT                  347 : DRILLING FLOOR
EGL .FT                  330 : GROUND LEVEL
DATE.               09/23/80 : RUN DATE
RUN .                      1 : RUN NUMBER
DD  .FT                 8621 : DEPTH DRILLER
DL  .FT                 8617 : DEPTH LOGGER
BLI .FT                 8611 : BOTTOM LOG INTERVAL
TLI .FT                 4018 : TOP LOG INTERVAL
CS  .IN                9.625 : CASING SIZE
CBD .FT                 4021 : CASING BOTTOM DRILLER
CBL .FT                 4018 : CASING BOTTOM LOGGER
BS  .IN                 8.75 : BIT SIZE
BSD .FT                 8621 : BIT SIZE AT DEPTH
DFT .                  BENEX : DRILLING FLUID TYPE
DFD .                    9.5 : DRILLING FLUID DENSITY
DFV .                     40 : DRILLING FLUID VISCOSITY
DFPH.                    9.5 : DRILLING FLUID PH
DFL .                      7 : DRILLING FLUID LOSS
MSS .                   TANK : MUD SAMPLE SOURCE
RMS .OHMM                1.7 : RESISTIVITY MUD SAMPLE
MST .DEGF                110 : MUD SAMPLE TEMPERATURE
RMF .OHMM               1.28 : RESISTIVITY MUD FILTRATE SAMPLE
MFST.DEGF                110 : MUD FILTRATE SAMPLE TEMPERATURE
RMC .OHMM               2.56 : RESISTIVITY MUD CAKE
MCST.DEGF                110 : MUD CAKE SAMPLE TEMPERATURE
MFSS.                      M : MUD FILTRATE SAMPLE SOURCE
MCSS.                      C : MUD CAKE SAMPLE SOURCE
RMB .OHMM               0.91 : RESISTIVITY MUD AT BHT
TCS .HRS                2000 : TIME CIRCULATED STOPPED
TLAB.HRS                 100 : TIME LOGGER AT BOTTOM
LUN .                   8141 : LOGGING UNIT NUMBER
LUL .                LRENHAM : LOGGING UNIT LOCATION
ENGI.              GILLILAND : RECORDING ENGINEER
WITN.                 SCHELL : WITNESSED BY
CLNT.                A2DTECH : CLIENT CODE
ORIG.          1" 2.5" PRINT : ORIGIN OF DATA
UWI .         42051309940000 : UNIQUE WELL ID
DICO. A2D Technologies, Inc. : DIGITIZING COMPANY
~Other -----------------------------------------------------
~ASCII -----------------------------------------------------
# ...
 7200.00000   10.23340  406.27290    1.48340    0.04440    2.61390    0.05620    -999.25    0.05620    2.46140    0.04440   89.92210   89.92210    2.46140    2.55800    2.55800    0.17450    -999.25    0.17450    3.21110   -5.08130   -1.88890    3.21110
 7250.00000    9.97980  427.25910    1.22980    0.01250    2.57710    0.07770    -999.25    0.07770    2.34050    0.01250   75.39990   75.39990    2.34050    2.43150    2.43150    0.19920    -999.25    0.19920    3.27000   -4.35810   -1.45860    3.27000
 7300.00000   10.74160  505.71460    1.99160    0.05910    2.57130    0.08110    -999.25    0.08110    1.97740    0.05910   93.31100   93.31100    1.97740    2.41370    2.41370    0.21260    -999.25    0.21260    3.33410   -8.66760   -5.90280    3.33410
 7350.00000   13.71350  644.95320    4.96350    0.15140    2.57180    0.08080    -999.25    0.08080    1.55050    0.15140   97.96010   97.96010    1.55050    1.61090    1.61090    0.29370    -999.25    0.29370    2.14870  -10.06690   -7.30210    2.14870
 7400.00000   13.34380  607.05400    4.59380    0.11640    2.54340    0.09740    -999.25    0.09740    1.64730    0.11640   99.05900   99.05900    1.64730    1.71160    1.71160    0.27260    -999.25    0.27260    2.18190   -8.14000   -5.37520    2.18190
 7450.00000   13.13780  622.58750    4.38780    0.11840    2.55370    0.09140    -999.25    0.09140    1.60620    0.11840  100.67400  100.67400    1.60620    1.66960    1.66960    0.26180    -999.25    0.26180    2.12380   -7.30800   -4.54320    2.12380
 7500.00000   13.22720  655.30800    4.47720    0.14560    2.56570    0.08440    -999.25    0.08440    1.52600    0.14560  111.20540  111.20540    1.52600    1.58930    1.58930    0.27260    -999.25    0.27260    2.04290   -8.99820   -6.23340    2.04290
 7550.00000   11.84660  555.06220    3.09660    0.12360    2.57880    0.07670    -999.25    0.07670    1.80160    0.12360  110.55230  110.55230    1.80160    1.90120    1.90120    0.24810    -999.25    0.24810    2.44620   -4.85910   -1.92670    2.44620
 7600.00000   12.47230  610.57520    3.72230    0.16450    2.60880    0.05920    -999.25    0.05920    1.63780    0.16450  105.80800  105.80800    1.63780    1.73180    1.73180    0.25530    -999.25    0.25530    2.26170   -5.66000   -2.39240    2.26170
 7650.00000   12.22800  590.87690    3.47800    0.09260    2.58280    0.07440    -999.25    0.07440    1.69240    0.09260  116.28200  116.28200    1.69240    1.75830    1.75830    0.25510    -999.25    0.25510    2.31090   -4.73040   -1.12760    2.31090
 7700.00000   12.69210  645.45280    3.94210    0.10480    2.56380    0.08550    -999.25    0.08550    1.54930    0.10480  108.33510  108.33510    1.54930    1.61800    1.61800    0.27790    -999.25    0.27790    2.13030   -9.57850   -6.18670    2.13030
 7750.00000   10.05300  431.33200    1.30300    0.03690    2.29020    0.24550    -999.25    0.24550    2.31840    0.03690  120.97940  120.97940    2.31840    3.05680    3.05680    0.21540    -999.25    0.21540    2.66390   -6.53920   -3.66560    2.66390
 7800.00000   11.00590  147.84810    2.25590    0.20420    2.72740   -0.01020    -999.25   -0.01020    6.76370    0.20420   37.49680   37.49680    6.76370    7.02400    7.02400    0.05010    -999.25    0.05010    8.31140  -11.24980   -9.55930    8.31140
 7850.00000   10.74200  144.14620    1.99200    0.04650    2.68400    0.01520    -999.25    0.01520    6.93740    0.04650   38.17660   38.17660    6.93740    7.95870    7.95870    0.04290    -999.25    0.04290   11.54070  -13.73580  -13.40530   11.54070
 7900.00000   10.87620  164.55220    2.12620    0.02670    2.63250    0.04530    -999.25    0.04530    6.07710    0.02670   59.62650   59.62650    6.07710    6.30930    6.30930    0.06630    -999.25    0.06630    8.59130  -12.24680  -13.27620    8.59130
 7950.00000   10.43720   80.99200    1.68720    0.07160    2.62840    0.04770    -999.25    0.04770   12.34690    0.07160   56.99490   56.99490   12.34690   14.47850   14.47850    0.05430    -999.25    0.05430   14.82670  -15.54130  -16.61150   14.82670
 8000.00000   10.04530   69.79440    1.29530    0.01180    2.59700    0.06610    -999.25    0.06610   14.32780    0.01180   39.88270   39.88270   14.32780   15.25650   15.25650    0.06760    -999.25    0.06760   21.79940  -28.05500  -29.12520   21.79940
 8050.00000    9.74340   49.83650    0.99340    0.16350    2.40940    0.17580    -999.25    0.17580   20.06560    0.16350   63.46760   63.46760   20.06560   21.05490   21.05490    0.06520    -999.25    0.06520   41.25310  -34.52720  -35.59740   41.25310
 8100.00000    9.23440   86.15420    0.48440    0.01660    2.59250    0.06870    -999.25    0.06870   11.60710    0.01660   34.45080   34.45080   11.60710   13.65150   13.65150    0.06160    -999.25    0.06160   52.05150  -28.83090  -29.90110   52.05150
 8150.00000   14.20680  648.08810    5.45680    0.08450    2.51920    0.11160    -999.25    0.11160    1.54300    0.08450  108.76170  108.76170    1.54300    1.60390    1.60390    0.30860    -999.25    0.30860    2.27830  -15.39440  -16.46460    2.27830
 8200.00000   14.11960  572.11510    5.36960    0.19820    2.40650    0.17750    -999.25    0.17750    1.74790    0.19820  111.00590  111.00590    1.74790    1.65860    1.65860    0.34330    -999.25    0.34330    2.32180  -10.01790  -11.08810    2.32180
 8250.00000   12.29290  263.91490    3.54290    0.13810    2.60240    0.06290    -999.25    0.06290    3.78910    0.13810  128.96560  128.96560    3.78910    2.96870    2.96870    0.28570    -999.25    0.28570    4.86430   -8.45240   -9.52260    4.86430
 8300.00000    9.73180  146.36790    0.98180    0.06730    2.61580    0.05510    -999.25    0.05510    6.83210    0.06730  116.26500  116.26500    6.83210    7.53990    7.53990    0.22030    -999.25    0.22030   15.19330    0.09330   -0.97690   15.19330
 8350.00000   10.76020  172.90570    2.01020    0.03960    2.56670    0.08380    -999.25    0.08380    5.78350    0.03960  147.29820  147.29820    5.78350    5.97090    5.97090    0.25320    -999.25    0.25320   11.04580    0.01700   -1.05320   11.04580
 8400.00000   13.29030  388.75710    4.54030    0.17230    2.35860    0.20550    -999.25    0.20550    2.57230    0.17230  122.23310  122.23310    2.57230    2.41710    2.41710    0.35740    -999.25    0.35740    5.16540  -11.55760  -12.62780    5.16540
 8450.00000    9.78520   32.39520    1.03520    0.05830    2.72090   -0.00640    -999.25   -0.00640   30.86880    0.05830   28.03120   28.03120   30.86880   29.40820   29.40820    0.01660    -999.25    0.01660   56.19580  -12.09820  -13.16840   56.19580
 8500.00000    9.63330   42.36070    0.88330    0.02600    2.73120   -0.01240    -999.25   -0.01240   23.60680    0.02600   29.34550   29.34550   23.60680   24.84860   24.84860    0.00740    -999.25    0.00740   50.99680   -7.52330   -8.59350   50.99680
 8550.00000    9.24120   22.92780    0.49120    0.01480    2.67580    0.02000    -999.25    0.02000   43.61520    0.01480   21.85840   21.85840   43.61520   37.36790   37.36790    0.01400    -999.25    0.01400   78.76430  -22.90370  -23.97390   78.76430
 8600.00000    8.25680   53.15950   -0.49320    0.20190    2.68860    0.01250    -999.25    0.01250   18.81130    0.20190    -999.25    -999.25   18.81130   17.35010   17.35010    -999.25    -999.25    -999.25   24.62800   -5.39950   -6.46970   24.62800
