~Version ---------------------------------------------------
VERS. 2.0 : CWLS log ASCII Standard -VERSION 2.0
WRAP. YES : MULTIPLE LINES PER DEPTH STEP
~Well ------------------------------------------------------
STRT.FT                       2050.0 : START DEPTH
STOP.FT                      10550.0 : STOP DEPTH
STEP.FT                     50.00000 : STEP LENGTH
NULL.                        -999.25 : NULL VALUE
COMP. QUINTANA PETROLEUM CORPORATION : COMPANY
WELL.                       HARLE #1 : WELL
FLD .                        BUCKLEY : FIELD
LOC .                                : LOCATION
CNTY.                       LA SALLE : COUNTY
STAT.                          TEXAS : STATE
CTRY.       UNITED STATES OF AMERICA : COUNTRY
SRVC.    HALLIBURTON Sperry Drilling : SERVICE COMPANY
DATE.                    12-Nov-1991 : LOGDATE
API .                 42283314640000 : API NUMBER
UWI .                 42283314640000 : UNIQUE WELL ID
SLAT.WGS84             28.3427642272 : SURFACE LATITUDE
SLON.WGS84            -99.0284847769 : SURFACE LONGITUDE
~Curve Information -----------------------------------------
DEPT    .FT    : DEPTH FEET
CALRED  .IN    : CALIPER FROM RESISTIVITY LOG
CALWS   .IN    : CALIPER [DCALRED+8.75]
CONDWS  .MMHO  : CONDUCTIVITY [1000/DRESWS]
DCALRED .IN    : DIFFERENTIAL CALIPER FROM RESISTIVITY LOG
DCORWS  .G/C3  : DENSITY CORRECTION [DRHOED]
DENWS   .G/C3  : BULK DENSITY  [CALCULATED FROM DPOWS][M=2.65 F=1.0]<9190>[M=2.71 F=1.0]
DFLED   .OHMM  : DIGITALLY FOCUSED LATEROLOG
DPHILSED.V/V   : DENSITY POROSITY [M=2.71 F=1.0] FROM DENSITY LOG
DPHISSED.V/V   : DENSITY POROSITY [M=2.65 F=1.0] FROM DENSITY LOG
DPOWS   .V/V   : DENSITY POROSITY [DPHISSED]<9190>DPHILSED
DRESWS  .OHMM  : DEEP RESISTIVITY [HDRSED]
DRHOED  .G/C3  : DENSITY CORRECTION FROM RES. LOG, DEPTH ADJUSTED WITH [GRRED]
DTED    .US/F  : DELTA TIME FROM SONIC LOG
DTWS    .US/F  : DELTA TIME [DTED]
GRKTED  .GAPI  : GAMMA RAY KT FROM SPECTRAL LOG, DEPTH ADJUSTED WITH [GRRED]
GRKUTED .GAPI  : GAMMA RAY KUT FROM SPECTRAL LOG, DEPTH ADJUSTED WITH [GRRED]
GRR1ED  .GAPI  : GAMMA RAY FROM INDUCTION [ILDED] LOG, DEPTH ADJUSTED WITH [GRRED]
GRRED   .GAPI  : GAMMA RAY FROM RESISTIVITY LOG
GRTHED  .GAPI  : GAMMA RAY TH FROM SPECTRAL LOG, DEPTH ADJUSTED WITH [GRRED]
GRWS    .GAPI  : GAMMA RAY [GRRED]
GUARDED .OHMM  : GUARD LOG RESISTIVITY
HDRSED  .OHMM  : HRI DEEP RESISTIVITY
HMRSED  .OHMM  : HRI MEDIUM RESISTIVITY
ILDED   .OHMM  : INDUCTION LOG DEEP RESISTIVITY , DEPTH ADJUSTED WITH [GRRED]
ILMED   .OHMM  : INDUCTION LOG MEDIUM RESISTIVITY, DEPTH ADJUSTED WITH [GRRED]
MRESWS  .OHMM  : MEDIUM RESISTIVITY [HMRSED]
NPHILSED.V/V   : NEUTRON POROSITY LIMESTONE FROM DENSITY LOG
NPHISSED.V/V   : NEUTRON POROSITY SANDSTONE FROM DENSITY LOG
NPOWS   .V/V   : NEUTRON POROSITY SANDSTONE [NPHISSED]<9190>LIMESTONE [NPHILSED]
SFLED   .OHMM  : SPHERICALLY FOCUSED LOG RESISTIVITY
SPRED   .MV    : SPONTANEOUS POTENTIAL FROM RESISTIVITY LOG
SPWS    .MV    : SPONTANEOUS POTENTIAL [BASELINE 0 MV] [SPRED]
SRESWS  .OHMM  : SHALLOW RESISTIVITY [DFLED]
TENRED  .LBF   : TENSION FROM RESISTIVITY LOG
~Params ----------------------------------------------------
PD  .                     GL : PERMANENT DATUM
EPD .F                 379.7 : ELEVATION PERMANENT DATUM
LMF .                    TKB : LOG MEASURED FROM
DAPD.F                    19 : FEET ABOVE PERMANENT DATUM
DMF .                    TKB : DRILLING MEASURED FROM
EKB .F                 398.7 : KELLING BUSHING
EDF .F                 397.7 : DRILLING FLOOR
EGL .F                 379.7 : GROUND LEVEL
DATE.             11-12-1991 : RUN DATE
RUN .                      1 : RUN NUMBER
DD  .F                 10615 : DEPTH DRILLER
DL  .F                 10568 : DEPTH LOGGER
BLI .F                 10566 : BOTTOM LOG INTERVAL
TLI .F                  2010 : TOP LOG INTERVAL
CS  .IN                9.625 : CASING SIZE
CBD .F                  2012 : CASING BOTTOM DRILLER
CBL .F                  2010 : CASING BOTTOM LOGGER
BS  .IN                 8.75 : BIT SIZE
BSD .F                 10615 : BIT SIZE AT DEPTH
DFT .              LIGNO-HFI : DRILLING FLUID TYPE
DFD .                   10.3 : DRILLING FLUID DENSITY
DFV .                     42 : DRILLING FLUID VISCOSITY
DFPH.                   10.5 : DRILLING FLUID PH
DFL .                    5.7 : DRILLING FLUID LOSS
MSS .               FLOWLINE : MUD SAMPLE SOURCE
RMS .OHMM               1.31 : RESISTIVITY MUD SAMPLE
MST .F                    75 : MUD SAMPLE TEMPERATURE
RMF .OHMM               1.04 : RESISTIVITY MUD FILTRATE SAMPLE
MFST.F                    75 : MUD FILTRATE SAMPLE TEMPERATURE
RMC .OHMM                2.6 : RESISTIVITY MUD CAKE
MCST.F                    75 : MUD CAKE SAMPLE TEMPERATURE
MFSS.                   MEAS : MUD FILTRATE SAMPLE SOURCE
MCSS.                   MEAS : MUD CAKE SAMPLE SOURCE
RMB .OHMM               0.43 : RESISTIVITY MUD AT BHT
TCS .HRS                16.5 : TIME CURCULATED STOPPED
TLAB.HRS                1200 : TIME LOGGER AT BOTTOM
LUN .                  51561 : LOGGING UNIT NUMBER
LUL .                  ALICE : LOGGING UNIT LOCATION
ENGI.                MERRELL : RECORDING ENGINEER
WITN.  MR. EVANS/MR. DUCKETT : WITNESSED BY
CLNT.                A2DTECH : CLIENT CODE
ORIG.               5" PRINT : ORIGIN OF DATA
UWI .         42283314640000 : UNIQUE WELL ID
DICO. A2D Technologies, Inc. : DIGITIZING COMPANY
~Other -----------------------------------------------------
~ASCII -----------------------------------------------------
# ...
 3100.00000    -999.25    9.13930   27.74390    0.38930    0.06470    2.26420   20.77260    -999.25    0.23380    0.23380   36.04390    0.06470   90.45000   90.45000    -999.25    -999.25   44.44240   44.19830    -999.25   44.19830   19.93690   36.04390   25.63350   30.40690   22.09980   25.63350    -999.25    0.30660    0.30660   20.08760  -54.87210  -22.19110   20.77260    -999.25
 3150.00000    -999.25    9.13990   21.28080    0.38990    0.05310    2.16560   21.30640    -999.25    0.29360    0.29360   46.99070    0.05310   93.15380   93.15380    -999.25    -999.25   32.64780   29.50080    -999.25   29.50080   21.95440   46.99070   28.82120   40.02260   25.52670   28.82120    -999.25    0.30080    0.30080   22.21050  -53.67170  -20.46430   21.30640    -999.25
 3200.00000    -999.25   12.26710  342.90020    3.51710    0.13380    2.08700    3.57640    -999.25    0.34120    0.34120    2.91630    0.13380  116.57660  116.57660    -999.25    -999.25   67.61720   78.79180    -999.25   78.79180    4.49450    2.91630    2.62560    2.73380    2.52950    2.62560    -999.25    0.51400    0.51400    4.61080  -38.37640   -4.64260    3.57640    -999.25
 3250.00000    -999.25    9.52680   23.51670    0.77680    0.03200    2.13720   21.35450    -999.25    0.31080    0.31080   42.52300    0.03200   94.50440   94.50440    -999.25    -999.25   49.51750   54.21570    -999.25   54.21570   19.80260   42.52300   27.65370   32.37650   23.67340   27.65370    -999.25    0.30880    0.30880   20.65080  -49.00790  -14.74780   21.35450    -999.25
 3300.00000    -999.25    9.58630   22.72050    0.83630    0.03780    2.13780   21.35470    -999.25    0.31040    0.31040   44.01320    0.03780   94.24240   94.24240    -999.25    -999.25   48.63150   47.95210    -999.25   47.95210   20.34640   44.01320   29.42400   33.01410   24.33140   29.42400    -999.25    0.32590    0.32590   21.96820  -48.27590  -13.48940   21.35470    -999.25
 3350.00000    -999.25   10.12230   19.52530    1.37230    0.02570    2.16900   24.85490    -999.25    0.29150    0.29150   51.21560    0.02570   91.95220   91.95220    -999.25    -999.25   49.83620   50.12230    -999.25   50.12230   26.23330   51.21560   30.87930   44.33870   26.40680   30.87930    -999.25    0.31420    0.31420   26.19210  -50.07500  -14.76210   24.85490    -999.25
 3400.00000    -999.25   10.32970   20.34940    1.57970    0.03780    2.17150   22.90710    -999.25    0.29000    0.29000   49.14160    0.03780  100.06010  100.06010    -999.25    -999.25   36.50440   48.79100    -999.25   48.79100   22.24660   49.14160   30.45470   41.39490   23.82210   30.45470    -999.25    0.33680    0.33680   22.23080  -53.70130  -17.86200   22.90710    -999.25
 3450.00000    -999.25   10.98600  201.74310    2.23600    0.12180    2.35320    4.61660    -999.25    0.17990    0.17990    4.95680    0.12180   97.20720   97.20720    -999.25    -999.25   72.89010   83.39220    -999.25   83.39220    5.29420    4.95680    4.90790    4.32890    4.17320    4.90790    -999.25    0.40280    0.40280    5.30990  -40.77180   -4.40610    4.61660    -999.25
 3500.00000    -999.25    9.43670   62.98020    0.68670    0.07980    2.37810   14.19040    -999.25    0.16480    0.16480   15.87800    0.07980   89.09910   89.09910    -999.25    -999.25   66.84820   72.81580    -999.25   72.81580   13.29270   15.87800   14.18880   14.89270   13.39620   14.18880    -999.25    0.30140    0.30140   13.73690  -54.27290  -17.38080   14.19040    -999.25
 3550.00000    -999.25    9.43550   22.10320    0.68550    0.05590    2.17320   21.27090    -999.25    0.28900    0.28900   45.24240    0.05590   93.15320   93.15320    -999.25    -999.25   29.43360   33.73120    -999.25   33.73120   20.91600   45.24240   28.03750   39.45590   23.33360   28.03750    -999.25    0.29200    0.29200   21.21100  -50.07500  -12.65650   21.27090    -999.25
 3600.00000    -999.25    9.37680   23.68000    0.62680    0.05900    2.18090   21.52710    -999.25    0.28430    0.28430   42.22970    0.05900   90.30030   90.30030    -999.25    -999.25   39.37060   39.37780    -999.25   39.37780   21.05720   42.22970   26.62520   37.10020   23.99590   26.62520    -999.25    0.29150    0.29150   21.18350  -55.19010  -17.24520   21.52710    -999.25
 3650.00000    -999.25   10.33150   43.26610    1.58150    0.01330    2.29990   15.93280    -999.25    0.21220    0.21220   23.11280    0.01330   85.94670   85.94670    -999.25    -999.25   46.58080   50.76170    -999.25   50.76170   15.89250   23.11280   18.53420   19.87090   16.46270   18.53420    -999.25    0.32480    0.32480   15.64400  -69.26540  -30.79410   15.93280 2173.73070
 3700.00000    -999.25    9.82100   84.11350    1.07100    0.05840    2.35880   12.24940    -999.25    0.17650    0.17650   11.88870    0.05840   89.39970   89.39970    -999.25    -999.25   69.59470   75.73750    -999.25   75.73750   12.75610   11.88870   11.62430   10.35160   10.82860   11.62430    -999.25    0.32610    0.32610   11.30340  -58.17090  -19.17320   12.24940 2137.73930
 3750.00000    -999.25   11.16310  184.36580    2.41310    0.17580    2.43150    5.48550    -999.25    0.13240    0.13240    5.42400    0.17580   89.84960   89.84960    -999.25    -999.25   76.53240   78.99490    -999.25   78.99490    6.03050    5.42400    5.39710    4.69900    4.81840    5.39710    -999.25    0.33510    0.33510    5.76680  -41.35970   -1.83560    5.48550 2182.70920
 3800.00000    -999.25   10.56910  217.62790    1.81910    0.10350    2.43450    5.38370    -999.25    0.13060    0.13060    4.59500    0.10350   88.04800   88.04800    -999.25    -999.25   82.85390   83.38450    -999.25   83.38450    4.16420    4.59500    4.80030    3.38230    3.32930    4.80030    -999.25    0.32550    0.32550    5.38030  -42.08800   -2.03750    5.38370 2144.86430
 3850.00000    -999.25   10.03350  145.64310    1.28350    0.06160    2.46640    6.93600    -999.25    0.11130    0.11130    6.86610    0.06160   89.09950   89.09950    -999.25    -999.25   89.15190   98.31130    -999.25   98.31130    7.51890    6.86610    6.91750    7.24860    7.22760    6.91750    -999.25    0.31170    0.31170    7.19810  -51.77820  -12.05290    6.93600 2242.40450
 3900.00000    -999.25    9.76170  157.44060    1.01170    0.08820    2.45120    5.73770    -999.25    0.12050    0.12050    6.35160    0.08820   85.64660   85.64660    -999.25    -999.25   80.96050   86.39210    -999.25   86.39210    6.96620    6.35160    5.86250    7.09360    7.17250    5.86250    -999.25    0.27690    0.27690    6.81810  -56.12110  -16.83710    5.73770 2221.50660
 3950.00000    -999.25    9.55590  176.08110    0.80590    0.12510    2.45460    5.07570    -999.25    0.11840    0.11840    5.67920    0.12510   87.89790   87.89790    -999.25    -999.25   77.20280   82.80390    -999.25   82.80390    9.11180    5.67920    4.73460    6.49200    6.65600    4.73460    -999.25    0.28460    0.28460    5.53400  -49.78290  -10.94020    5.07570 2228.46020
 4000.00000    -999.25    9.52500  148.99800    0.77500    0.07020    2.37960    8.07220    -999.25    0.16390    0.16390    6.71150    0.07020   88.79880   88.79880    -999.25    -999.25   75.66780   82.19990    -999.25   82.19990    8.21260    6.71150    6.91750    5.93670    6.42580    6.91750    -999.25    0.31160    0.31160    6.39660  -49.77510  -11.37370    8.07220 2209.71750
 4050.00000    -999.25    9.79490  113.11060    1.04490    0.06760    2.33120    8.70620    -999.25    0.19320    0.19320    8.84090    0.06760   89.24960   89.24960    -999.25    -999.25   67.73540   74.09930    -999.25   74.09930    7.36250    8.84090    8.78520    6.99980    7.03220    8.78520    -999.25    0.29700    0.29700    8.54460  -63.50200  -25.54190    8.70620 2263.09330
 4100.00000    -999.25    9.37510   89.49110    0.62510    0.05470    2.24430   12.02610    -999.25    0.24590    0.24590   11.17430    0.05470   89.69950   89.69950    -999.25    -999.25   50.31740   44.48210    -999.25   44.48210    9.75710   11.17430   10.75410    7.30190    7.79240   10.75410    -999.25    0.26780    0.26780   10.65190  -62.22120  -24.70240   12.02610 2249.93820
