~Version ---------------------------------------------------
VERS.      2.0 : CWLS log ASCII Standard -VERSION 2.0
WRAP.      YES : Multiple lines per depth step
CREA. 09/17/12 : LAS Creation Date
~Well ------------------------------------------------------
STRT.FT                   3250.0 : START DEPTH
STOP.FT                   8300.0 : STOP DEPTH
STEP.FT                 50.00000 : STEP LENGTH
NULL.                    -999.25 : NULL VALUE
COMP. CHAMPLIN PETROLEUM COMPANY : COMPANY
WELL.       L W BRINKMAN UNIT #1 : WELL
FLD .                   GIDDINGS : FIELD
LOC .                            : LOCATION
CNTY.                   BURLESON : COUNTY
STAT.                      TEXAS : STATE
CTRY.   UNITED STATES OF AMERICA : COUNTRY
SRVC.               Schlumberger : SERVICE COMPANY
DATE.                19-Jul-1980 : LOGDATE
API .             42051307850000 : API NUMBER
UWI .             42051307850000 : UNIQUE WELL ID
SLAT.WGS84         30.3775896841 : SURFACE LATITUDE
SLON.WGS84        -96.7431946132 : SURFACE LONGITUDE
~Curve Information -----------------------------------------
DEPT    .FT    : DEPTH FEET
CALDED  .IN    : CALIPER FROM CNFD LOG [ADJ. TO GRRED]
CALWS   .IN    : CALIPER [CALDED]
CONDWS  .MMHO  : CONDUCTIVITY [1000/DRESWS]
DCORWS  .G/C3  : DENSITY CORRECTION [DRHOED]
DENWS   .G/C3  : FORMATION BULK DENSITY [RHOBED]
DPHILSED.V/V   : DENSITY POROSITY LIMESTONE [M=2.71 F=1.0] FROM CNFD LOG  [ADJ. TO GRRED]
DPOWS   .V/V   : DENSITY POROSITY LIMESTONE [DPHILSED]
DRESWS  .OHMM  : DEEP RESISTIVITY [ILDED]
DRHOED  .G/C3  : BULK DENSITY CORRECTION FROM CNFD LOG  [ADJ. TO GRRED]
DTED    .US/F  : DELTA-T (INTERVAL TRANSIT TIME)  FROM ISF SONIC LOG  [ADJ. TO GRRED]
DTWS    .US/F  : COMPRESSIONAL SONIC [DTED]
GRDED   .GAPI  : GAMMA RAY FROM CNFD LOG  [ADJ. TO GRRED]
GRED    .GAPI  : CASED HOLE GAMMA RAY FROM CEMENT LOG  [ADJ. TO GRRED]
GRRED   .GAPI  : GAMMA RAY FROM ISF SONIC LOG
GRWS    .GAPI  : GAMMA RAY [GRED SPL. TO GRDED @ 3799']
ILDED   .OHMM  : DEEP INDUCTION FROM ISF SONIC LOG
ILMED   .OHMM  : MEDIUM INDUCTION FROM ISF SONIC LOG
MRESWS  .OHMM  : MEDIUM RESISTIVITY [ILMED]
NPHILSED.V/V   : NEUTRON POROSITY LIMESTONE FROM CNFD LOG  [ADJ. TO GRRED]
NPOWS   .V/V   : NEUTRON POROSITY LIMESTONE [NPHILSED]
RHOBED  .G/C3  : BULK DENSITY FROM CNFD LOG  [ADJ. TO GRRED]
SFLUED  .OHMM  : SHALLOW FOCUSED RESISTIVITY (UNAVERAGED) FROM ISF SONIC LOG
SPHILSED.V/V   : SONIC POROSITY LIMESTONE FROM DEN-SON PLAYBACK LOG  [ADJ. TO DTED]
SPOWS   .V/V   : SONIC POROSITY LIMESTONE [SPHILSED]
SPRED   .MV    : SPONTANEOUS POTENTIAL FROM ISF SONIC LOG
SPWS    .MV    : SPONTANEOUS POTENTIAL [BASELINE 0 MV, SPRED]
SRESWS  .OHMM  : SHALLOW RESISTIVITY [SFLUED]
~Params ----------------------------------------------------
PD  .                     GL : PERMANENT DATUM
EPD .FT                  331 : ELEVATION PERMANENT DATUM
LMF .                     KB : LOG MEASURED FROM
DAPD.FT                 16.6 : FEET ABOVE PERMANENT DATUM
DMF .                     KB : DRILLING MEASURED FROM
EKB .FT                347.6 : KELLY BUSHING
EDF .FT                346.6 : DRILLING FLOOR
EGL .FT                  331 : GROUND LEVEL
DATE.             07/19/1980 : RUN DATE
RUN .                      1 : RUN NUMBER
BLI .FT                 8334 : BOTTOM LOG INTERVAL
TLI .FT                 3812 : TOP LOG INTERVAL
CS  .IN                9.625 : CASING SIZE
CBD .FT                 3818 : CASING BOTTOM DRILLER
CBL .FT                 3812 : CASING BOTTOM LOGGER
BS  .IN                 8.75 : BIT SIZE
DFT .                 BEN EX : DRILLING FLUID TYPE
DFD .                    9.3 : DRILLING FLUID DENSITY
DFV .                     45 : DRILLING FLUID VISCOSITY
DFPH.                      9 : DRILLING FLUID PH
DFL .                    5.8 : DRILLING FLUID LOSS
MSS .               MUD TANK : MUD SAMPLE SOURCE
RMS .OHMM               2.08 : RESISTIVITY MUD SAMPLE
MST .DEGF                 80 : MUD SAMPLE TEMPERATURE
RMF .OHMM               1.36 : RESISTIVITY MUD FILTRATE SAMPLE
MFST.DEGF                 80 : MUD FILTRATE SAMPLE TEMPERATURE
RMC .OHMM               3.12 : RESISTIVITY MUD CAKE
MCST.DEGF                 80 : MUD CAKE SAMPLE TEMPERATURE
MFSS.                      C : MUD FILTRATE SAMPLE SOURCE
MCSS.                      C : MUD CAKE SAMPLE SOURCE
RMB .OHMM              0.891 : RESISTIVITY MUD AT BHT
TCS .HRS                1330 : TIME CIRCULATED STOPPED
TLAB.HRS                2200 : TIME LOGGER AT BOTTOM
LUN .                   8176 : LOGGING UNIT NUMBER
LUL .                BRENHAM : LOGGING UNIT LOCATION
ENGI. KRONENBITTER ALEXANDER : RECORDING ENGINEER
WITN.                 SCHELL : WITNESSED BY
CLNT.                A2DTECH : CLIENT CODE
UWI .         42051307850000 : UNIQUE WELL ID
DICO. A2D Technologies, Inc. : DIGITIZING COMPANY
~Other -----------------------------------------------------
~ASCII -----------------------------------------------------
 3250.00000    -999.25    -999.25    -999.25    -999.25    -999.25    -999.25    -999.25    -999.25    -999.25    -999.25    -999.25    -999.25   33.29390    -999.25   33.29390    -999.25    -999.25    -999.25    -999.25    -999.25    -999.25    -999.25    -999.25    -999.25    -999.25    -999.25    -999.25
 3300.00000    -999.25    -999.25    -999.25    -999.25    -999.25    -999.25    -999.25    -999.25    -999.25    -999.25    -999.25    -999.25   23.20510    -999.25   23.20510    -999.25    -999.25    -999.25    -999.25    -999.25    -999.25    -999.25    -999.25    -999.25    -999.25    -999.25    -999.25
 3350.00000    -999.25    -999.25    -999.25    -999.25    -999.25    -999.25    -999.25    -999.25    -999.25    -999.25    -999.25    -999.25   16.92850    -999.25   16.92850    -999.25    -999.25    -999.25    -999.25    -999.25    -999.25    -999.25    -999.25    -999.25    -999.25    -999.25    -999.25
 3400.00000    -999.25    -999.25    -999.25    -999.25    -999.25    -999.25    -999.25    -999.25    -999.25    -999.25    -999.25    -999.25   29.33250    -999.25   29.33250    -999.25    -999.25    -999.25    -999.25    -999.25    -999.25    -999.25    -999.25    -999.25    -999.25    -999.25    -999.25
 3450.00000    -999.25    -999.25    -999.25    -999.25    -999.25    -999.25    -999.25    -999.25    -999.25    -999.25    -999.25    -999.25   18.64930    -999.25   18.64930    -999.25    -999.25    -999.25    -999.25    -999.25    -999.25    -999.25    -999.25    -999.25    -999.25    -999.25    -999.25
 3500.00000    -999.25    -999.25    -999.25    -999.25    -999.25    -999.25    -999.25    -999.25    -999.25    -999.25    -999.25    -999.25   32.15440    -999.25   32.15440    -999.25    -999.25    -999.25    -999.25    -999.25    -999.25    -999.25    -999.25    -999.25    -999.25    -999.25    -999.25
 3550.00000    -999.25    -999.25    -999.25    -999.25    -999.25    -999.25    -999.25    -999.25    -999.25    -999.25    -999.25    -999.25   37.93780    -999.25   37.93780    -999.25    -999.25    -999.25    -999.25    -999.25    -999.25    -999.25    -999.25    -999.25    -999.25    -999.25    -999.25
 3600.00000    -999.25    -999.25    -999.25    -999.25    -999.25    -999.25    -999.25    -999.25    -999.25    -999.25    -999.25    -999.25   36.04670    -999.25   36.04670    -999.25    -999.25    -999.25    -999.25    -999.25    -999.25    -999.25    -999.25    -999.25    -999.25    -999.25    -999.25
 3650.00000    -999.25    -999.25    -999.25    -999.25    -999.25    -999.25    -999.25    -999.25    -999.25    -999.25    -999.25    -999.25   37.34440    -999.25   37.34440    -999.25    -999.25    -999.25    -999.25    -999.25    -999.25    -999.25    -999.25    -999.25    -999.25    -999.25    -999.25
 3700.00000    -999.25    -999.25    -999.25    -999.25    -999.25    -999.25    -999.25    -999.25    -999.25    -999.25    -999.25    -999.25   22.94950    -999.25   22.94950    -999.25    -999.25    -999.25    -999.25    -999.25    -999.25    -999.25    -999.25    -999.25    -999.25    -999.25    -999.25
 3750.00000    -999.25    -999.25    -999.25    -999.25    -999.25    -999.25    -999.25    -999.25    -999.25    -999.25    -999.25    -999.25   19.92350    -999.25   19.92350    -999.25    -999.25    -999.25    -999.25    -999.25    -999.25    -999.25    -999.25    -999.25    -999.25    -999.25    -999.25
 3800.00000    -999.25    -999.25    -999.25    -999.25    -999.25    -999.25    -999.25    -999.25    -999.25    -999.25    -999.25   36.50720   31.65770    -999.25   36.50720    -999.25    -999.25    -999.25    0.39040    0.39040    -999.25    -999.25    -999.25    -999.25    -999.25    -999.25    -999.25
 3850.00000   11.84870   11.84870   55.94530    0.03800    2.13400    0.33670    0.33670   17.87460    0.03800   97.70400   97.70400   27.43550   20.69490   48.33260   27.43550   17.87460   16.65820   16.65820    0.30780    0.30780    2.13400   14.94550    -999.25    -999.25  -16.51810   -6.56840   14.94550
 3900.00000    9.56930    9.56930   70.59010    0.02170    2.24290    0.27230    0.27230   14.16630    0.02170   98.96840   98.96840   61.03970   46.48070   79.75450   61.03970   14.16630   13.70180   13.70180    0.26430    0.26430    2.24290   13.84750    -999.25    -999.25  -28.30790  -16.66620   13.84750
 3950.00000   10.54120   10.54120  266.83740    0.07240    1.95580    0.42960    0.42960    3.74760    0.07240  125.85800  125.85800   66.70100   50.44720   82.70130   66.70100    3.74760    4.25640    4.25640    0.47280    0.47280    1.95580    3.08700    -999.25    -999.25  -18.41390   -5.08030    3.08700
 4000.00000   10.53810   10.53810  159.89260    0.03150    2.19500    0.30550    0.30550    6.25420    0.03150  102.92050  102.92050   38.83490   30.04220   57.20730   38.83490    6.25420    6.49930    6.49930    0.29210    0.29210    2.19500    6.96910    -999.25    -999.25  -33.59640  -18.57090    6.96910
 4050.00000   10.28570   10.28570  144.06940    0.02160    2.18520    0.30540    0.30540    6.94110    0.02160  102.12510  102.12510   45.27680   37.02370   60.34350   45.27680    6.94110    7.97570    7.97570    0.31390    0.31390    2.18520   10.23640    -999.25    -999.25  -33.17840  -16.46100   10.23640
 4100.00000   10.15420   10.15420  141.76150    0.02480    2.24400    0.27000    0.27000    7.05410    0.02480   93.37410   93.37410   90.92630   69.66610  110.63160   90.92630    7.05410    7.87700    7.87700    0.26560    0.26560    2.24400   10.08710    -999.25    -999.25  -28.80330  -10.88210   10.08710
 4150.00000    9.98890    9.98890  145.83850    0.03200    2.23740    0.28200    0.28200    6.85690    0.03200   99.27220   99.27220   54.06130   37.90010   72.70360   54.06130    6.85690    7.60360    7.60360    0.30780    0.30780    2.23740    9.82120    -999.25    -999.25  -29.81330  -12.91210    9.82120
 4200.00000    9.64790    9.64790  171.26220    0.02000    2.16530    0.32130    0.32130    5.83900    0.02000   98.38810   98.38810   54.73380   42.19770   71.26930   54.73380    5.83900    6.55380    6.55380    0.30490    0.30490    2.16530    9.30300    -999.25    -999.25  -32.42040  -16.53910    9.30300
 4250.00000    9.30570    9.30570  102.87960    0.02940    2.47920    0.13650    0.13650    9.72010    0.02940   63.10350   63.10350   47.63740   36.92800   66.88180   47.63740    9.72010   13.86080   13.86080    0.10200    0.10200    2.47920   99.62610    -999.25    -999.25  -42.45940  -27.56930   99.62610
 4300.00000    9.18950    9.18950  192.07130    0.02080    2.28770    0.25050    0.25050    5.20640    0.02080   98.14160   98.14160   81.43400   51.34310  100.77240   81.43400    5.20640    5.49960    5.49960    0.31180    0.31180    2.28770    5.77800    -999.25    -999.25  -26.31400  -12.36380    5.77800
 4350.00000    9.08470    9.08470  202.90150    0.02790    2.31190    0.23190    0.23190    4.92850    0.02790   97.15860   97.15860   79.25420   46.06010   92.71890   79.25420    4.92850    5.33560    5.33560    0.30480    0.30480    2.31190    5.63310    -999.25    -999.25  -29.79850  -16.78820    5.63310
 4400.00000    9.71400    9.71400  300.20110    0.05390    2.37700    0.19660    0.19660    3.33110    0.05390   97.43710   97.43710   90.98440   69.67890  110.81690   90.98440    3.33110    3.46210    3.46210    0.31850    0.31850    2.37700    3.36270    -999.25    -999.25  -14.12450   -1.89520    3.36270
 4450.00000   10.63160   10.63160  373.02300    0.15860    2.42120    0.16860    0.16860    2.68080    0.15860  100.02120  100.02120   79.85320   56.50140  104.39950   79.85320    2.68080    2.78180    2.78180    0.30260    0.30260    2.42120    2.96460    -999.25    -999.25  -12.55720   -0.73800    2.96460
 4500.00000   10.30360   10.30360  325.03410    0.08730    2.42870    0.16330    0.16330    3.07660    0.08730   96.84810   96.84810   84.10890   49.36900   95.90700   84.10890    3.07660    3.22920    3.22920    0.27920    0.27920    2.42870    3.48350    -999.25    -999.25  -13.45050   -2.04140    3.48350
