~Version ---------------------------------------------------
VERS. 2.0 : CWLS log ASCII Standard -VERSION 2.0
WRAP.  NO : ONE LINE PER DEPTH STEP
~Well ------------------------------------------------------
STRT.F                  2500.0 : START DEPTH
STOP.F                 14650.0 : STOP DEPTH
STEP.F                50.00000 : STEP LENGTH
NULL.                  -999.25 : NULL VALUE
COMP.     MARATHON OIL COMPANY : COMPANY
WELL.           BROUNKOWSKI #1 : WELL
FLD .                  WILDCAT : FIELD
LOC .                          : LOCATION
CNTY.                ROBERTSON : COUNTY
STAT.                    TEXAS : STATE
CTRY. UNITED STATES OF AMERICA : COUNTRY
SRVC.             Schlumberger : SERVICE COMPANY
DATE.              02-Oct-1995 : LOGDATE
API .           42395304350000 : API NUMBER
UWI .           42395304350000 : UNIQUE WELL ID
SLAT.WGS84       31.2546896053 : SURFACE LATITUDE
SLON.WGS84      -96.3452160282 : SURFACE LONGITUDE
~Curve Information -----------------------------------------
DEPT.F                 : 
SPR .MV   06 010 01 00 : SPONTANEOUS POTENTIAL
AO20.OHMM 06 120 20 00 : 20-IN. RESISTIVITY, 1-FT RESOLUTION
AO30.OHMM 06 120 30 00 : 30-IN. RESISTIVITY, 1-FT RESOLUTION
AO90.OHMM 06 120 90 00 : 90-IN. RESISTIVITY, 1-FT RESOLUTION
IMPH.OHMM 06 120 44 00 : INDUCTION MEDIUM PHASOR RES.
IDPH.OHMM 06 120 46 00 : INDUCTION DEEP PHASOR RES.
SFLU.OHMM 06 220 01 00 : SPHERICALLY FOCUSED LOG RESISTIVITY
DCAL.IN   06 280 30 00 : DIFFERENTIAL CALIPER
GRR .GAPI 06 310 01 00 : GAMMA RAY
DTLN.US/F 60 523 00 00 : ACOUSTIC TRANSIT TIME, LONG SPACED, NEAR ARRAY
NPHI.DEC  42 890 01 00 : NEUTRON POROSITY LIMESTONE
DPHI.DEC  45 890 10 00 : DENSITY POROSITY LIMESTONE
PEF .B/E  45 358 01 00 : PHOTOELECTRIC FACTOR
DRHO.G/C3 45 356 01 00 : DENSITY CORRECTION
TEND.LB   45 635 01 00 : TENSION FROM DENSITY LOG
AO60.OHMM 06 120 60 00 : 60-IN. RESISTIVITY, 1-FT RESOLUTION
DTLF.US/F 60 523 00 00 : ACOUSTIC TRANSIT TIME, LONG SPACED, FAR ARRAY
~Params ----------------------------------------------------
EKB .F                    414.0 : Kelly bushing
EGL .F                    383.0 : Ground level
EDF .F                    413.0 : Drilling floor
EPD .F                    383.0 : Permanent datum
TD  .F                  14691.0 : Total depth
DATE.               02-OCT-1995 : DATE LOGGED
CLNT.                   A2DTECH : CLIENT CODE
SL  . 17650' FNWL & 22170' FNEL : SURFACE LOCATION
PD  .                        GL : PERMANENT DATUM
LMF .                       RKB : LOG MEASURED FROM
DMF .                       RKB : DRILLING MEASURED FROM
DL  .F                    14691 : DEPTH LOGGER
BLI .F                    14685 : BOTTOM LOG INTERVAL
CS1 .IN                       7 : CASING SIZE
CBD1.                7" @ 3340' : CASING DRILLER 1
BS1 .IN                   5.875 : BIT SIZE
DFT .                   THERMEX : TYPE FLUID IN HOLE
DFD .                      16.7 : DENSITY
DFV .                        44 : VISCOSITY
DFPH.                       9.1 : PH
DFL .                         3 : FLUID LOSS
MSS .                  FLOWLINE : SOURCE OF SAMPLE
RMS .OHMM                 1.665 : RM
RMF .OHMM                 0.856 : RMF
RMC .OHMM                 1.875 : RMC
MFSS.                      MEAS : SOURCE RMF.
MCSS.                      CALC : SOURCE RMC.
RMB .OHMM                 0.494 : RM. AT BHT
BHT .F                      323 : BHT.
TCS .HRS                    200 : TIME CIRC. STOPPED
TLAB.                      1530 : TIME LOGGER AT BOTTOM
LUN .                      2019 : LOGGING UNIT NUMBER
LUL .                     TYLER : LOGGING UNIT LOCATION
ENGI.                   GARDNER : RECORDED BY
WITN.              EICHELBERGER : WITNESSED BY
ORIG.                  5" PRINT : ORIGIN OF DATA
UWI .            42395304350000 : UNIQUE WELL ID
DICO.    A2D TECHNOLOGIES, INC. : DIGITIZING COMPANY
DD  .F                    14706 : Depth driller
TLI .F                    10122 : Top log interval
CBL1.F                    10322 : Casing logger 1
BSD1.F                    14706 : Depth drilled with bit1
~Other -----------------------------------------------------
~ASCII -----------------------------------------------------
# ...
 10700.00000  -68.38680    -999.25    -999.25    -999.25   50.95260   48.04520   45.83990   -0.00440   26.70780   58.02970    0.00920    0.08540    2.75760   -0.00780 7756.40380    -999.25   57.96410
 10750.00000  -55.96270    -999.25    -999.25    -999.25   42.98660   44.12000   58.58690   -0.03100   38.65420   57.28720    0.00380    0.07280    3.22730    0.01060 7776.96440    -999.25   56.91900
 10800.00000  -47.89090    -999.25    -999.25    -999.25   39.69020   41.39630   48.86830   -0.07300   62.35380   57.59260    0.01760    0.05730    3.63640    0.00880 7927.56690    -999.25   56.76530
 10850.00000  -37.51110    -999.25    -999.25    -999.25   13.71610   22.08890   55.48650   -0.01480   45.30320   54.95470    0.01060    0.08150    5.51250   -0.00550 7987.95260    -999.25   55.00070
 10900.00000  -60.03720    -999.25    -999.25    -999.25   76.97180  114.97210   82.45740   -0.00020   20.88170   56.59020    0.00450    0.08240    3.07920    0.00910 8048.00100    -999.25   56.41630
 10950.00000  -51.47760    -999.25    -999.25    -999.25  319.92530   33.45760   73.66230   -0.01750   33.47760   58.79670    0.03810    0.24410    4.15170   -0.00150 7807.22900    -999.25   54.67060
 11000.00000  -22.38660    -999.25    -999.25    -999.25   28.85770   27.32650   30.54900    0.24690   60.33490   58.05550    0.03010    0.03950    3.26870    0.02090 8108.62350    -999.25   58.11380
 11050.00000  -57.34860    -999.25    -999.25    -999.25   76.88850  108.69500  117.29960   -0.00010   32.45170   57.74530    0.00110    0.06690    2.80300    0.02270 7957.80660    -999.25   56.84040
 11100.00000  -58.80160    -999.25    -999.25    -999.25  141.70690  234.87340  181.69680   -0.02260   29.80320   54.96590   -0.00250    0.06530    2.42410    0.00710 8108.43410    -999.25   56.01620
 11150.00000  -68.07480    -999.25    -999.25    -999.25   51.66110   84.96220   60.49370   -0.00460   17.61320   58.31010    0.01740    0.10070    2.95480    0.01160 8138.55470    -999.25   58.70980
 11200.00000  -23.59420    -999.25    -999.25    -999.25   19.19080   20.47150   21.17550    0.29830   52.66460   57.38320    0.02910    0.05890    3.70060    0.03750 7988.48240    -999.25   56.31450
 11250.00000  -52.30360    -999.25    -999.25    -999.25  117.73520  143.16970  105.41930    0.00500   17.95260   57.59580   -0.00200    0.07190    2.45450    0.01820 8168.38960    -999.25   57.96280
 11300.00000  -59.92050    -999.25    -999.25    -999.25  219.65760 1774.73130  206.54570   -0.17290   19.22830   53.04840   -0.00160    0.04400    3.65370    0.07590 8228.02640    -999.25   53.17210
 11350.00000  -68.92470    -999.25    -999.25    -999.25  265.34420  465.68980  229.77800    0.00850   22.32420   56.58240    0.00160    0.04730    2.69200    0.04390 8108.43210    -999.25   56.61520
 11400.00000  -66.51160    -999.25    -999.25    -999.25   77.46650   99.75590   80.12590   -0.00120   29.68510   57.09890   -0.00030    0.08410    2.95510    0.00310 7988.58890    -999.25   56.46930
 11450.00000  -71.44630    -999.25    -999.25    -999.25   63.91620  119.65960   84.24710   -0.00780   19.01240   57.43830    0.00110    0.07600    2.31820    0.00300 8105.38330    -999.25   58.11680
 11500.00000  -39.85130    -999.25    -999.25    -999.25   30.41480   35.80780   42.53820    0.18540   46.56060   58.05380    0.01290    0.05500    2.62130    0.00910 8289.15720    -999.25   57.96170
 11550.00000  -73.10110    -999.25    -999.25    -999.25  224.12600  136.08470  121.09640    0.00120   31.15040   55.97350    0.00840    0.06100    2.34840    0.00300 8182.95120    -999.25   53.02400
 11600.00000  -78.71000    -999.25    -999.25    -999.25   23.20580   32.78650   32.57540    0.04980   50.13430   55.01530    0.00560    0.05710    3.07070    0.01460 8289.15620    -999.25   55.26730
 11650.00000 -102.17050    -999.25    -999.25    -999.25   22.74990   16.70680   49.92340    0.00600   30.27440   59.86860    0.01380    0.10430    4.10610    0.01060 8259.18070    -999.25   59.91390
 11700.00000 -103.22870    -999.25    -999.25    -999.25   29.02660   27.92540   48.21140    0.09970   15.04630   60.68320    0.00740    0.11820    4.07180    0.00300 8289.58690    -999.25   60.66150
 11750.00000  -59.98200    -999.25    -999.25    -999.25   60.49370   35.33590   36.24140    0.00030   36.25170   60.37360    0.03140    0.21300    4.12130    0.02730 8439.61620    -999.25   60.06100
 11800.00000  -52.45180    -999.25    -999.25    -999.25   48.38930   47.67920   67.32090   -0.00050   94.82990   58.66850    0.06430    0.05530    3.66710    0.00610 8524.64650    -999.25   58.71260
 11850.00000  -83.39320    -999.25    -999.25    -999.25   26.54380   17.07030   25.20880   -0.00030   40.44170   56.35800    0.05080    0.07240    3.19700    0.02980 8379.27250    -999.25   57.51360
 11900.00000  -33.53900    -999.25    -999.25    -999.25  108.88190   22.06900   71.76530    0.72450  110.46530   63.91980    0.15600    0.14110    6.17780    0.13990 8355.17580    -999.25   63.65270
 11950.00000  -40.69820    -999.25    -999.25    -999.25   24.00300   22.06490   26.02780    0.00920   58.68460   57.74480    0.03410    0.06570    3.85360   -0.00300 8258.96390    -999.25   57.06590
 12000.00000  -39.71300    -999.25    -999.25    -999.25   33.99230   77.17580   74.09840    2.22900   43.05020   48.96900    0.02310    0.16710    9.70710    0.16730 8353.32520    -999.25   47.33420
 12050.00000  -26.17500    -999.25    -999.25    -999.25   11.64290   11.60820   16.27110    1.69780   75.88760   62.90670    0.06650    0.00720    5.05560   -0.00760 8379.27730    -999.25   67.09450
 12100.00000  -53.48840    -999.25    -999.25    -999.25   55.84780   52.49100   55.55180    2.52750   43.45980   50.72180    0.04530    0.31770   10.12980    0.06290 8299.52930    -999.25    -999.25
 12150.00000  -73.01930    -999.25    -999.25    -999.25  155.92220  112.48920  206.52930    0.34110   27.05460   58.36690   -0.00200    0.08740    2.56060    0.01820 8379.51760    -999.25   58.71260
 12200.00000  -19.68740    -999.25    -999.25    -999.25    9.24270    7.40790   10.72880    2.25210   75.28610   66.07860    0.10770    0.33690    9.83240    0.02350 8409.87990    -999.25   66.64370
 12250.00000  -26.04550    -999.25    -999.25    -999.25   13.75680   13.34300   21.47540    0.91330   80.88290   65.56770    0.07690    0.12210    4.81820    0.01820 8439.75880    -999.25    -999.25
 12300.00000  -20.42840    -999.25    -999.25    -999.25   12.24770   12.11820   16.18180    0.49170   97.63700   61.74100    0.05620    0.04590    2.90930    0.00210 8526.45310    -999.25   62.45700
 12350.00000  -63.18530    -999.25    -999.25    -999.25   40.86430   38.91120   58.58680    3.89770   24.61180   57.32200   -0.00070    0.45000   10.21850    0.02270 8228.91600    -999.25   61.55550
 12400.00000  -64.53290    -999.25    -999.25    -999.25   50.99920   57.79810   49.39190    1.42270   21.25760   59.90890    0.00400    0.23290    5.30300    0.13340 8474.82910    -999.25   59.61200
 12450.00000  -40.31130    -999.25    -999.25    -999.25   32.22570   32.42990   36.23640    0.86450   43.64760   59.81760    0.00250    0.17970    3.60630    0.05910 8560.12210    -999.25   59.41070
 12500.00000  -17.42750    -999.25    -999.25    -999.25    8.82700    9.68950    8.85480    1.00110   56.35400   57.90120    0.05890    0.12770    3.99980    0.01040 8537.52830    -999.25   55.54020
 12550.00000  -14.85790    -999.25    -999.25    -999.25    6.62800    8.06870    8.10080    2.54570   78.26370   77.08030    0.13420    -999.25    -999.25   -0.01060 8620.48340    -999.25   76.37720
 12600.00000  -48.10270    -999.25    -999.25    -999.25   30.21810   37.32660   35.92640    0.32760   29.44590   60.76800    0.00560    0.02850    3.24440    0.03030 8466.33110    -999.25   56.61680
 12650.00000  -29.27900    -999.25    -999.25    -999.25   18.83180   17.62330   33.02360    3.10300   69.18110   67.16290    0.00650    0.30430    6.57580    0.02930 8771.08400    -999.25   68.44310
