~Version ---------------------------------------------------
VERS. 2.0 : CWLS log ASCII Standard -VERSION 2.0
WRAP. YES : Multiple lines per depth step
~Well ------------------------------------------------------
STRT.FT                         300.0 : START DEPTH
STOP.FT                       13900.0 : STOP DEPTH
STEP.FT                      50.00000 : STEP LENGTH
NULL.                         -999.25 : NULL VALUE
COMP. MOBIL PRODUCING TX. & N.M. INC. : COMPANY
WELL.               J. V. FORD JR. #1 : WELL
FLD .                         WILDCAT : FIELD
LOC .                                 : LOCATION
CNTY.                             BEE : COUNTY
STAT.                           TEXAS : STATE
CTRY.        UNITED STATES OF AMERICA : COUNTRY
SRVC.                    Schlumberger : SERVICE COMPANY
DATE.                     24-Oct-1988 : LOGDATE
API .                  42025324790000 : API NUMBER
UWI .                  42025324790000 : UNIQUE WELL ID
SLAT.WGS84              28.6662336968 : SURFACE LATITUDE
SLON.WGS84             -98.0215217404 : SURFACE LONGITUDE
~Curve Information -----------------------------------------
DEPT    .FT    : DEPTH FEET
CALMED  .IN    : CALIPER FROM MSFL [DEP ADJ TO SFLUED]
CALWS   .IN    : CALIPER [DCALED+BITED]
CONDWS  .MMHO  : CONDUCTIVITY [1000/DRESWS]
DCALED  .IN    : DIFFERENTIAL CALIPER FROM DENSITY LOG [DEP ADJ TO GRRED]
DCORWS  .G/C3  : DENSITY CORRECTION [DRHOED]
DENWS   .G/C3  : BULK DENSITY [M=2.71, F= 1] [CAL FROM DPOLSWS]
DPHILSED.V/V   : DENSITY POROSITY [M=2.71 F=1.0] FROM DENSITY LOG [DEP ADJ TO GRRED]
DPHISSED.V/V   : DENSITY POROSITY [M=2.68 F=1.0] FROM DENSITY LOG [DEP ADJ TO GRRED]
DPOLSWS .V/V   : DENSITY POROSITY [M=2.71, F= 1] [76 DPOLSCAL 12989 DPHILSED]
DRESWS  .OHMM  : DEEP RESISTIVITY [ILDED]
DRHOED  .G/C3  : DENSITY CORRECTION FROM DENSITY LOG [DEP ADJ TO GRRED]
DTED    .US/F  : DELTA TIME FROM SONIC LOG
DTLED   .US/F  : DELTA TIME LONG SPACING FROM SONIC LOG
DTWS    .US/F  : DELTA TIME [76 DTED 543.5 DTLED 1373.5 DTED 2134 DTLED 3009.5 DTED 3022 DTLED 3172 DTED 8805 DTLED 8815 DTED 9717.5 DTLED 9901 DTED 12984.5 DTLED 13003.5 DTED]
GRDED   .GAPI  : GAMMA RAY FROM DENSITY LOG [DEP ADJ TO GRRED]
GRMED   .GAPI  : GAMMA RAY FROM MSFL LOG [DEP ADJ TO GRRED]
GRRED   .GAPI  : GAMMA RAY FROM RESISTIVITY LOG
GRWS    .GAPI  : GAMMA RAY [76 GRRED 3494.5 GRDEDNRM 3506 GRDED 9027 GRRED 13030.5 GRDED]
ILDED   .OHMM  : INDUCTION LOG DEEP RESISTIVITY
ILMED   .OHMM  : INDUCTION LOG MEDIUM RESISTIVITY
MRESWS  .OHMM  : MEDIUM RESISTIVITY [ILMED]
MSFLED  .OHMM  : MICROSPHERICALLY FOCUSED LOG RESISTIVITY [DEP ADJ TO SFLUED]
NPHILSED.V/V   : NEUTRON POROSITY LIMESTONE FROM DENSITY LOG [DEP ADJ TO GRRED]
NPHISSED.V/V   : NEUTRON POROSITY SANDSTONE FROM DENSITY LOG [DEP ADJ TO GRRED]
NPOLSWS .V/V   : NEUTRON POROSITY LIMESTONE [76 NPOLSCAL 12989 NPHILSED]
SFLUED  .OHMM  : SPHERICALLY FOCUSED LOG RESISTIVITY
SPRED   .MV    : SPONTANEOUS POTENTIAL FROM RESISTIVITY LOG
SPWS    .MV    : SPONTANEOUS POTENTIAL [BASELINE 0 MV] [SPRED]
SRESWS  .OHMM  : SHALLOW RESISTIVITY [SFLUED]
TENDED  .LBF   : TENSION FROM DENSITY LOG [DEP ADJ TO GRRED]
TENMED  .LBF   : TENSION FROM MSFL LOG [DEP ADJ TO SFLUED]
TENRED  .LBF   : TENSION FROM RESISTIVITY LOG
~Params ----------------------------------------------------
PD  .                     GL : PERMANENT DATUM
EPD .FT                  350 : ELEVATION PERMANENT DATUM
LMF .                     KB : LOG MEASURED FROM
DAPD.FT                 26.5 : FEET ABOVE PERMANENT DATUM
DMF .                     KB : DRILLING MEASURED FROM
EKB .FT                376.5 : KELLY BUSHING
EDF .FT                375.5 : DRILLING FLOOR
EGL .FT                  350 : GROUND LEVEL
DATE.               10/14/88 : RUN DATE
RUN .                      2 : RUN NUMBER
DD  .FT                13900 : DEPTH DRILLER
DL  .FT                13881 : DEPTH LOGGER
BLI .FT                13881 : BOTTOM LOG INTERVAL
TLI .FT                 3505 : TOP LOG INTERVAL
CS  .IN                9.625 : CASING SIZE
CBD .FT                 3510 : CASING BOTTOM DRILLER
CBL .FT                 3505 : CASING BOTTOM LOGGER
BS  .IN                  8.5 : BIT SIZE
BSD .FT                13900 : BIT SIZE AT DEPTH
DFT .            LIGNITE CLS : DRILLING FLUID TYPE
DFD .                   11.6 : DRILLING FLUID DENSITY
DFV .                     23 : DRILLING FLUID VISCOSITY
DFPH.                     10 : DRILLING FLUID PH
DFL .                    5.9 : DRILLING FLUID LOSS
MSS .               MUD TANK : MUD SAMPLE SOURCE
RMS .OHMM               1.08 : RESISTIVITY MUD SAMPLE
MST .DEGF                 75 : MUD SAMPLE TEMPERATURE
RMF .OHMM               0.72 : RESISTIVITY MUD FILTRATE SAMPLE
MFST.DEGF                 75 : MUD FILTRATE SAMPLE TEMPERATURE
RMC .OHMM               1.59 : RESISTIVITY MUD CAKE
MCST.DEGF                 75 : MUD CAKE SAMPLE TEMPERATURE
MFSS.                   MEAS : MUD FILTRATE SAMPLE SOURCE
MCSS.                   CALC : MUD CAKE SAMPLE SOURCE
RMB .OHMM              0.289 : RESISTIVITY MUD AT BHT
TCS .HRS                1500 : TIME CIRCULATED STOPPED
TLAB.HRS                1500 : TIME LOGGER AT BOTTOM
LUN .                   8248 : LOGGING UNIT NUMBER
LUL .             PLEASANTON : LOGGING UNIT LOCATION
ENGI.                 HOOPER : RECORDING ENGINEER
WITN.           WEIMER CARAM : WITNESSED BY
CLNT.                A2DTECH : CLIENT CODE
ORIG.               5" PRINT : ORIGIN OF DATA
UWI .         42025324790000 : UNIQUE WELL ID
DICO. A2D Technologies, Inc. : DIGITIZING COMPANY
~Other -----------------------------------------------------
~ASCII -----------------------------------------------------
# ...
 3600.00000    -999.25   12.45780 1230.31490    3.95780   -0.00010    2.04240    -999.25    0.39040    0.39040    0.81280   -0.00010  148.09130  144.05290  148.09130   60.31010    -999.25   55.94550   60.31010    0.81280    0.76830    0.76830    -999.25    -999.25    0.51400    0.47230    0.89060   -4.75280   -3.85210    0.89060 1580.51260    -999.25 1678.38450
 3650.00000    -999.25   12.89680 1182.45240    4.39680   -0.00840    2.10860    -999.25    0.35170    0.35170    0.84570   -0.00840  148.97290  141.24990  148.97290   57.65060    -999.25   58.31510   57.65060    0.84570    0.77810    0.77810    -999.25    -999.25    0.49910    0.45740    0.85820   -3.53540   -2.26450    0.85820 1605.82530    -999.25 1677.34570
 3700.00000    -999.25   12.83460 1192.46360    4.33460   -0.01780    2.16400    -999.25    0.31930    0.31930    0.83860   -0.01780  133.06850  130.70060  133.06850   54.86500    -999.25   54.93590   54.86500    0.83860    0.78030    0.78030    -999.25    -999.25    0.52040    0.47870    0.89620   -4.06110   -2.52270    0.89620 1606.15940    -999.25 1693.32290
 3750.00000    -999.25   12.66800 1626.54530    4.16800   -0.01400    2.15630    -999.25    0.32380    0.32380    0.61480   -0.01400  142.72140  135.67600  142.72140   64.67980    -999.25   60.26290   64.67980    0.61480    0.59270    0.59270    -999.25    -999.25    0.54620    0.50450    0.73400   -3.39250   -1.82630    0.73400 1626.62670    -999.25 1751.86270
 3800.00000    -999.25   12.39440  994.82680    3.89440   -0.00640    2.21510    -999.25    0.28940    0.28940    1.00520   -0.00640  121.61240  118.35510  121.61240   55.14950    -999.25   56.01110   55.14950    1.00520    0.95300    0.95300    -999.25    -999.25    0.49130    0.44960    1.10430   -3.74450   -2.15050    1.10430 1638.20340    -999.25 1785.33760
 3850.00000    -999.25   13.75210  984.54270    5.25210   -0.01080    2.23510    -999.25    0.27770    0.27770    1.01570   -0.01080  123.29970  144.06400  123.29970   57.07620    -999.25   51.86790   57.07620    1.01570    1.00570    1.00570    -999.25    -999.25    0.52170    0.48000    0.97880   -5.02190   -3.40010    0.97880 1639.80220    -999.25 1763.26310
 3900.00000    -999.25   13.67450  751.87970    5.17450   -0.00060    2.25920    -999.25    0.26360    0.26360    1.33000   -0.00060  119.68630  117.18480  119.68630   57.06650    -999.25   52.46750   57.06650    1.33000    1.19850    1.19850    -999.25    -999.25    0.44770    0.40600    1.18300   -4.72150   -3.07190    1.18300 1655.56620    -999.25 1772.47470
 3950.00000    -999.25   11.89270  863.48330    3.39270   -0.00380    2.10810    -999.25    0.35200    0.35200    1.15810   -0.00380  111.92490  114.69330  111.92490   57.95900    -999.25   52.00140   57.95900    1.15810    1.07570    1.07570    -999.25    -999.25    0.46690    0.42520    1.23040   -6.31180   -4.63440    1.23040 1671.21350    -999.25 1818.94430
 4000.00000    -999.25   12.55530 1247.19380    4.05530   -0.00420    2.26470    -999.25    0.26040    0.26040    0.80180   -0.00420  122.77620  121.37850  122.77620   62.90020    -999.25   54.32710   62.90020    0.80180    0.80060    0.80060    -999.25    -999.25    0.44010    0.39810    0.83090   -3.65670   -1.95150    0.83090 1666.15940    -999.25 1808.97460
 4050.00000    -999.25   11.73860 1076.42630    3.23860   -0.00440    2.20690    -999.25    0.29420    0.29420    0.92900   -0.00440  117.27280  118.28900  117.27280   65.40880    -999.25   57.81200   65.40880    0.92900    0.89480    0.89480    -999.25    -999.25    0.44830    0.40660    0.97350   -3.37460   -1.64160    0.97350 1685.94310    -999.25 1832.37430
 4100.00000    -999.25   11.13750 1378.35970    2.63750    0.00480    2.22130    -999.25    0.28580    0.28580    0.72550    0.00480  121.95380  122.54270  121.95380   68.02010    -999.25   59.24360   68.02010    0.72550    0.70170    0.70170    -999.25    -999.25    0.42380    0.38140    0.82420   -2.71170   -0.95090    0.82420 1719.60450    -999.25 1855.82900
 4150.00000    -999.25   10.34420 1317.00260    1.84420   -0.00410    2.26040    -999.25    0.26290    0.26290    0.75930   -0.00410  124.86110  122.27510  124.86110   64.75770    -999.25   63.30520   64.75770    0.75930    0.72660    0.72660    -999.25    -999.25    0.45780    0.41610    0.87180   -3.30790   -1.51940    0.87180 1768.24120    -999.25 1893.15270
 4200.00000    -999.25   11.32600  823.85900    2.82600   -0.00730    2.29810    -999.25    0.24090    0.24090    1.21380   -0.00730  103.51400  137.19700  103.51400   54.48740    -999.25   49.13290   54.48740    1.21380    1.15830    1.15830    -999.25    -999.25    0.26900    0.22500    1.24560   -9.62530   -7.74820    1.24560 1756.16200    -999.25 1805.36220
 4250.00000    -999.25   13.04560  802.11760    4.54560   -0.00050    2.30440    -999.25    0.23720    0.23720    1.24670   -0.00050  138.17490  136.24410  138.17490   57.41330    -999.25   45.71610   57.41330    1.24670    1.18450    1.18450    -999.25    -999.25    0.46600    0.42430    1.30780   -5.88140   -3.84730    1.30780 1788.08280    -999.25 1875.65620
 4300.00000    -999.25   11.28480  467.18050    2.78480   -0.00060    2.44750    -999.25    0.15350    0.15350    2.14050   -0.00060   90.71350   92.18770   90.71350   63.99820    -999.25   47.84150   63.99820    2.14050    2.07320    2.07320    -999.25    -999.25    0.28910    0.24510    2.40770   -9.74770   -7.55660    2.40770 1781.04600    -999.25 1886.09200
 4350.00000    -999.25   12.02100  729.02230    3.52100   -0.00980    2.35690    -999.25    0.20650    0.20650    1.37170   -0.00980  110.80230  128.11660  110.80230   57.96170    -999.25   55.88770   57.96170    1.37170    1.33520    1.33520    -999.25    -999.25    0.33360    0.28980    1.41860   -7.75180   -5.40360    1.41860 1805.23550    -999.25 1938.10490
 4400.00000    -999.25   10.77100 1110.49410    2.27100    0.00240    2.19070    -999.25    0.30370    0.30370    0.90050    0.00240  135.08560  128.84750  135.08560   73.17740    -999.25   60.68610   73.17740    0.90050    0.87290    0.87290    -999.25    -999.25    0.46420    0.42250    0.91870   -4.67650   -2.17130    0.91870 1831.49410    -999.25 1957.43210
 4450.00000    -999.25    9.93130  502.73990    1.43130   -0.00250    2.45010    -999.25    0.15200    0.15200    1.98910   -0.00250   93.75050  103.05420   93.75050   59.64380    -999.25   52.74410   59.64380    1.98910    2.17830    2.17830    -999.25    -999.25    0.27420    0.23020    2.67300  -14.98380  -12.39620    2.67300 1829.18910    -999.25 1938.87520
 4500.00000    -999.25   11.53610  720.56490    3.03610    0.00780    2.23510    -999.25    0.27770    0.27770    1.38780    0.00780  102.77360  105.64320  102.77360   68.30770    -999.25   60.67960   68.30770    1.38780    1.32670    1.32670    -999.25    -999.25    0.41220    0.36960    1.62620   -6.92950   -4.48310    1.62620 1858.93820    -999.25 1935.66300
 4550.00000    -999.25   10.44500  738.55240    1.94500    0.01000    2.23150    -999.25    0.27980    0.27980    1.35400    0.01000  113.74080  112.80710  113.74080   59.67800    -999.25   62.68130   59.67800    1.35400    1.33630    1.33630    -999.25    -999.25    0.48620    0.44450    1.29290  -13.51950  -11.21440    1.29290 1879.20810    -999.25 2003.69350
 4600.00000    -999.25    9.59850  544.30650    1.09850    0.02650    2.24450    -999.25    0.27220    0.27220    1.83720    0.02650  100.99880  100.19650  100.99880   67.37220    -999.25   70.58460   67.37220    1.83720    1.87880    1.87880    -999.25    -999.25    0.32720    0.28340    1.72370  -13.51030  -11.34650    1.72370 1911.53100    -999.25 1960.74150
 4650.00000    -999.25   10.18410  692.85660    1.68410    0.02950    2.07950    -999.25    0.36870    0.36870    1.44330    0.02950  106.42990  108.31680  106.42990   64.98250    -999.25   67.47150   64.98250    1.44330    1.47720    1.47720    -999.25    -999.25    0.43020    0.38800    1.41290   -8.24440   -6.22190    1.41290 1874.43100    -999.25 2012.11540
