~Version ---------------------------------------------------
VERS. 2.0 : CWLS log ASCII Standard -VERSION 2.0
WRAP. YES : Multiple lines per depth step
~Well ------------------------------------------------------
STRT.FT                  300.0 : START DEPTH
STOP.FT                24000.0 : STOP DEPTH
STEP.FT               50.00000 : STEP LENGTH
NULL.                  -999.25 : NULL VALUE
COMP.       PLACID OIL COMPANY : COMPANY
WELL.                PEELER #1 : WELL
FLD .                  WILDCAT : FIELD
LOC .                          : LOCATION
CNTY.                MC MULLEN : COUNTY
STAT.                    TEXAS : STATE
CTRY. UNITED STATES OF AMERICA : COUNTRY
SRVC.             Schlumberger : SERVICE COMPANY
DATE.              01-Jan-1984 : LOGDATE
API .           42311317850000 : API NUMBER
UWI .           42311317850000 : UNIQUE WELL ID
SLAT.WGS84       28.5959255047 : SURFACE LATITUDE
SLON.WGS84      -98.4401225914 : SURFACE LONGITUDE
~Curve Information -----------------------------------------
DEPT  .FT    : 
CALDED.IN    : CALIPER FROM DENSITY LOG (ADJ TO RES.)
CALWS .IN    : CALIPER (CALDED)
CILDED.MMHO  : CONDUCTIVITY FROM LOG
CONDWS.MMHO  : CONDUCTIVITY (1000/DRESws)
DCORWS.G/C3  : DENSITY CORRECTION (DRHOED)
DENWS .G/C3  : BULK DENSITY  (FROM DPOws LS)
DPHIED.V/V   : DENSITY POROSITY  (ADJ TO RES.)
DPOWS .V/V   : DENSITY POROSITY (M=2.71 F=1 DPHIED)
DRESWS.OHMM  : DEEP RESISTIVITY (ILDED)
DRHOED.G/C3  : DENSITY CORRECTION (ADJ TO RES.)
DTED  .US/F  : DELTA TIME
DTWS  .US/F  : DELTA TIME  (DTED)
GRWS  .GAPI  : GAMMA RAY (GRRED)
GRRED .GAPI  : GAMMA RAY FROM RESISTIVITY LOG
ILDED .OHMM  : DEEP INDUCTION RESISTIVITY
ILMED .OHMM  : MEDIUM INDUCTION RESISTIVITY
MRESWS.OHMM  : MEDIUM RESISTIVITY (ILMED)
NPHIED.V/V   : NEUTRON POROSITY (ADJ TO RES.)
NPOWS .V/V   : NEUTRON POROSITY LIMESTONE (NPHIED)
RHOBED.G/C3  : BULK DENSITY (ADJ TO RES.)
SFLAED.OHMM  : SPHERICALLY FOCUSED RESISTIVITY
SPWS  .MV    : SPONTANEOUS POTENTIAL BASELINE 0 MV (SPRED)
SPRED .MV    : SPONTANEOUS POTENTIAL FROM RESISTIVITY
SRESWS.OHMM  : SHALLOW RESISTIVITY (SFLAED)
~Params ----------------------------------------------------
PD  .                     GL : PERMANENT DATUM
EPD .F                   336 : ELEVATION PERMANENT DATUM
LMF .                     KB : LOG MEASURED FROM
DMF .                     KB : DRILLING MEASURED FROM
EKB .F                   368 : KELLING BUSHING
EDF .F                   367 : DRILLING FLOOR
EGL .F                   336 : GROUND LEVEL
DATE.               1-1-1984 : RUN DATE
RUN .                      7 : RUN NUMBER
DD  .F                 24031 : DEPTH DRILLER
DL  .F                 24037 : DEPTH LOGGER
BLI .F                 24030 : BOTTOM LOG INTERVAL
TLI .F                 21000 : TOP LOG INTERVAL
CS  .IN                8.625 : CASING SIZE
CBD .F                 19500 : CASING BOTTOM DRILLER
CBL .F                 19500 : CASING BOTTOM LOGGER
BS  .IN                  7.5 : BIT SIZE
BSD .F                 24031 : BIT SIZE AT DEPTH
DFT .               INVERMUL : DRILLING FLUID TYPE
DFV .                     83 : DRILLING FLUID VISCOSITY
TCS .HRS                 800 : TIME CURCULATED STOPPED
TLAB.HRS                 200 : TIME LOGGER AT BOTTOM
LUL .               EDINBURG : LOGGING UNIT LOCATION
ENGI.              NEWMISTER : RECORDING ENGINEER
WITN.                   LONG : WITNESSED BY
CLNT.                A2DTECH : CLIENT CODE
ORIG.            1",5" PRINT : ORIGIN OF DATA
UWI .         42311317850000 : UNIQUE WELL ID
DICO. A2D Technologies, Inc. : DIGITIZING COMPANY
~Other -----------------------------------------------------
~ASCII -----------------------------------------------------
# ...
 17700.00000   14.37200   14.37200   79.84750   80.75000   -0.00500    2.64280    0.03930    0.03930   12.38390   -0.00500    -999.25    -999.25  132.38720  132.38720   12.38390    -999.25    -999.25    0.20200    0.20200    2.64200   13.02450  -16.05280  -33.60120   13.02450
 17750.00000   13.65100   13.65100  242.25030  174.59320   -0.00900    2.66350    0.02720    0.02720    5.72760   -0.00900    -999.25    -999.25  123.46420  123.46420    5.72760    -999.25    -999.25    0.21800    0.21800    2.65900    7.16040  -13.12710  -31.34160    7.16040
 17800.00000   12.95300   12.95300  223.12270  175.64200    0.00200    2.68180    0.01650    0.01650    5.69340    0.00200    -999.25    -999.25   91.21460   91.21460    5.69340    -999.25    -999.25    0.16900    0.16900    2.67900    6.34540  -19.35610  -38.23660    6.34540
 17850.00000   14.05100   14.05100  454.95600  287.15000    0.00600    2.64690    0.03690    0.03690    3.48250    0.00600    -999.25    -999.25  134.54010  134.54010    3.48250    -999.25    -999.25    0.22100    0.22100    2.65700    5.00460  -12.82520  -32.37170    5.00460
 17900.00000   13.21200   13.21200  215.24550  174.59320   -0.00400    2.66670    0.02530    0.02530    5.72760   -0.00400    -999.25    -999.25  111.05210  111.05210    5.72760    -999.25    -999.25    0.12400    0.12400    2.67200    6.38890  -12.58670  -32.79930    6.38890
 17950.00000   13.23000   13.23000  202.45480  192.83800   -0.01300    2.63950    0.04120    0.04120    5.18570   -0.01300    -999.25    -999.25   86.54740   86.54740    5.18570    -999.25    -999.25    0.14600    0.14600    2.64600    5.81790  -13.43710  -34.31570    5.81790
 18000.00000   12.50500   12.50500  154.49830  137.26270    0.01600    2.68670    0.01360    0.01360    7.28530    0.01600    -999.25    -999.25  105.53440  105.53440    7.28530    -999.25    -999.25    0.12700    0.12700    2.68800    7.90120  -10.28790  -31.83260    7.90120
 18050.00000   13.61100   13.61100  261.17480  201.87340   -0.00700    2.63990    0.04100    0.04100    4.95360   -0.00700    -999.25    -999.25   84.73930   84.73930    4.95360    -999.25    -999.25    0.17000    0.17000    2.64800    5.97220   -9.69440  -31.90510    5.97220
 18100.00000   16.56000   16.56000  273.25580  230.71240    0.00500    2.53400    0.10290    0.10290    4.33440    0.00500    -999.25    -999.25  104.46930  104.46930    4.33440    -999.25    -999.25    0.24900    0.24900    2.54100    5.39170   -8.26400  -31.14070    5.39170
 18150.00000   16.10700   16.10700  218.41080  215.33160    0.00400    2.59700    0.06610    0.06610    4.64400    0.00400    -999.25    -999.25   89.83340   89.83340    4.64400    -999.25    -999.25    0.28700    0.28700    2.60100    5.32400   -4.70760  -28.25040    5.32400
 18200.00000   14.42700   14.42700  471.57620  212.89730   -0.00400    2.53270    0.10370    0.10370    4.69710   -0.00400    -999.25    -999.25  112.94610  112.94610    4.69710    -999.25    -999.25    0.28000    0.28000    2.53900    5.41900   -7.26860  -31.47740    5.41900
 18250.00000   15.02500   15.02500  184.49350  189.99850   -0.00400    2.50870    0.11770    0.11770    5.26320   -0.00400    -999.25    -999.25  100.95200  100.95200    5.26320    -999.25    -999.25    0.25800    0.25800    2.51100    7.98350  -13.98990  -38.86470    7.98350
 18300.00000   14.67900   14.67900  180.62160  179.50420   -0.00900    2.51030    0.11680    0.11680    5.57090   -0.00900    -999.25    -999.25  112.63950  112.63950    5.57090    -999.25    -999.25    0.22500    0.22500    2.52900    9.32140   -9.82460  -35.36550    9.32140
 18350.00000   14.80300   14.80300  202.32560  161.52220   -0.01600    2.35110    0.20990    0.20990    6.19110   -0.01600    -999.25    -999.25  110.39990  110.39990    6.19110    -999.25    -999.25    0.20000    0.20000    2.34500   12.89960   -8.30320  -34.51010   12.89960
 18400.00000   15.00300   15.00300  197.32990  170.00150    0.00900    2.56380    0.08550    0.08550    5.88230    0.00900    -999.25    -999.25  122.07840  122.07840    5.88230    -999.25    -999.25    0.23200    0.23200    2.56500    9.37030   -8.95900  -35.83200    9.37030
 18450.00000   15.35500   15.35500  352.45480  331.38920    0.00500    2.58820    0.07120    0.07120    3.01760    0.00500    -999.25    -999.25  137.98600  137.98600    3.01760    -999.25    -999.25    0.25900    0.25900    2.59300    4.07440   -2.61650  -30.15550    4.07440
 18500.00000   16.32200   16.32200  306.97670  322.99740    0.00400    2.57820    0.07710    0.07710    3.09600    0.00400    -999.25    -999.25  126.43860  126.43860    3.09600    -999.25    -999.25    0.29000    0.29000    2.58800    4.32100   -7.38450  -35.58950    4.32100
 18550.00000   16.46700   16.46700  324.16020  349.18640   -0.01300    2.53830    0.10040    0.10040    2.86380   -0.01300    -999.25    -999.25  130.09480  130.09480    2.86380    -999.25    -999.25    0.27600    0.27600    2.53500    4.30050   -3.76980  -33.07150    4.30050
 18600.00000   13.72400   13.72400  208.26870  161.50130    0.00300    2.50690    0.11880    0.11880    6.19190    0.00300    -999.25    -999.25  149.68940  149.68940    6.19190    -999.25    -999.25    0.27300    0.27300    2.50700    7.24070   -3.72070  -34.76500    7.24070
 18650.00000   15.11300   15.11300  195.12470  189.99850   -0.00500    2.53970    0.09960    0.09960    5.26320   -0.00500    -999.25    -999.25  127.05900  127.05900    5.26320    -999.25    -999.25    0.28500    0.28500    2.53900    5.69940   -4.68970  -37.47660    5.69940
 18700.00000   14.78800   14.78800  326.56250  201.87750   -0.00600    2.57640    0.07810    0.07810    4.95350   -0.00600    -999.25    -999.25  126.97010  126.97010    4.95350    -999.25    -999.25    0.26000    0.26000    2.57600    3.88880   -6.52970  -41.05920    3.88880
 18750.00000   15.24200   15.24200  298.50260  215.33160    0.00300    2.57110    0.08120    0.08120    4.64400    0.00300    -999.25    -999.25  115.76090  115.76090    4.64400    -999.25    -999.25    0.24100    0.24100    2.57300    4.22820   -5.72170  -41.99380    4.22820
 18800.00000   13.82600   13.82600  201.89930  179.44300   -0.00500    2.55220    0.09230    0.09230    5.57280   -0.00500    -999.25    -999.25  135.09320  135.09320    5.57280    -999.25    -999.25    0.20600    0.20600    2.55900    6.67250   -8.34040  -46.35510    6.67250
 18850.00000   12.58800   12.58800  392.97100  253.33130    0.00400    2.66300    0.02750    0.02750    3.94740    0.00400    -999.25    -999.25  131.14520  131.14520    3.94740    -999.25    -999.25    0.20000    0.20000    2.66100    3.54900   -9.12930  -48.88660    3.54900
 18900.00000   10.94900   10.94900    9.37500   72.58420    0.00900    2.68140    0.01670    0.01670   13.77710    0.00900    -999.25    -999.25   41.52410   41.52410   13.77710    -999.25    -999.25    0.00400    0.00400    2.67900   31.56530  -15.34100  -56.47980   31.56530
 18950.00000   11.47700   11.47700  142.64320  211.80160   -0.01100    2.59950    0.06460    0.06460    4.72140   -0.01100    -999.25    -999.25  127.71090  127.71090    4.72140    -999.25    -999.25    0.11500    0.11500    2.60400    4.79420  -20.65420  -57.51810    4.79420
 19000.00000   12.97000   12.97000  492.96870  369.11270   -0.00300    2.67890    0.01820    0.01820    2.70920   -0.00300    -999.25    -999.25  183.77220  183.77220    2.70920    -999.25    -999.25    0.24100    0.24100    2.67600    2.90120  -15.83560  -48.42450    2.90120
 19050.00000   13.99600   13.99600  528.12500  461.42490    0.01400    2.71960   -0.00560   -0.00560    2.16720    0.01400    -999.25    -999.25  146.50080  146.50080    2.16720    -999.25    -999.25    0.23500    0.23500    2.72400    2.62340  -25.67350  -53.98750    2.62340
 19100.00000   10.55800   10.55800  128.12500   95.94070    0.01000    2.61940    0.05300    0.05300   10.42310    0.01000    -999.25    -999.25  152.42110  152.42110   10.42310    -999.25    -999.25    0.05100    0.05100    2.61900    9.81480  -28.31340  -52.35240    9.81480
