~Version ---------------------------------------------------
VERS. 2.0 : CWLS log ASCII Standard -VERSION 2.0
WRAP. YES : MULTIPLE LINES PER DEPTH STEP
~Well ------------------------------------------------------
STRT.FT                   400.0 : START DEPTH
STOP.FT                  7700.0 : STOP DEPTH
STEP.FT                50.00000 : STEP LENGTH
NULL.                   -999.25 : NULL VALUE
COMP. ENCANA OIL & GAS USA INC. : COMPANY
WELL.            BARCLAY 162 #2 : WELL
FLD .                   CHITTIM : FIELD
LOC .                           : LOCATION
CNTY.                  MAVERICK : COUNTY
STAT.                     TEXAS : STATE
CTRY.  UNITED STATES OF AMERICA : COUNTRY
SRVC.              Schlumberger : SERVICE COMPANY
DATE.               22-Oct-2006 : LOGDATE
API .            42323329160000 : API NUMBER
UWI .            42323329160000 : UNIQUE WELL ID
SLAT.WGS84        28.8174515047 : SURFACE LATITUDE
SLON.WGS84      -100.3519501945 : SURFACE LONGITUDE
~Curve Information -----------------------------------------
DEPT  .FT    : DEPTH FEET
AF10ED.OHMM  : 10 INCH ARRAY RESISTIVITY FOUR FOOT RESOLUTION
AF20ED.OHMM  : 20 INCH ARRAY RESISTIVITY FOUR FOOT RESOLUTION
AF30ED.OHMM  : 30 INCH ARRAY RESISTIVITY FOUR FOOT RESOLUTION
AF60ED.OHMM  : 60 INCH ARRAY RESISTIVITY FOUR FOOT RESOLUTION
AF90ED.OHMM  : 90 INCH ARRAY RESISTIVITY FOUR FOOT RESOLUTION
BITED .IN    : BIT SIZE FROM LOG HEADER
CALWS .IN    : CALIPER [(DCALED+BITED)]
CONDWS.MMHO  : CONDUCTIVITY [1000/DRESWS]
DCALED.IN    : DIFFERENTIAL CALIPER FROM DENSITY LOG
DCORWS.G/C3  : DENSITY CORRECTION [HDRAED]
DENWS .G/C3  : BULK DENSITY [M=2.71 F=1.0] [CALCULATED FROM DPOWS]
DPHZED.V/V   : DENSITY POROSITY [M=2.71 F=1.0] FROM DENSITY LOG
DPOWS .V/V   : DENSITY POROSITY [M=2.71 F=1.0] [DPHZED]
DRESWS.OHMM  : DEEP RESISTIVITY [AF90ED]
DT1ED .US/F  : DELTA TIME SHEAR LOWER DIPOLE FROM DIPOLE SONIC LOG
DT4PED.US/F  : DELTA TIME COMP - P & S FROM DIPOLE SONIC LOG
DTSWS .US/F  : DELTA TIME SHEAR [DT1ED]
DTWS  .US/F  : DELTA TIME [DT4PED]
GRRED .GAPI  : GAMMA RAY FROM RESISTIVITY LOG
GRWS  .GAPI  : GAMMA RAY [GRRED. CASED ABOVE 620]
HDRAED.G/C3  : DENSITY CORRECTION FROM DENSITY LOG
MRESWS.OHMM  : MEDIUM RESISTIVITY [AF30ED]
NPOWS .V/V   : NEUTRON POROSITY LIMESTONE [TNPHED. CASED ABOVE 620]
PEFWS .B/E   : PHOTOELECTRIC FACTOR [PEFZED]
PEFZED.B/E   : PHOTOELECTRIC FACTOR STANDARD RESOLUTION FROM DENSITY LOG
SPHIED.V/V   : SONIC POROSITY FROM SONIC LOG
SPOWS .V/V   : SONIC POROSITY [SPHIED]
SPRED .MV    : SPONTANEOUS POTENTIAL FROM RESISTIVITY LOG
SPWS  .MV    : SPONTANEOUS POTENTIAL [BASELINE 0 MV] [SPRED]
SRESWS.OHMM  : SHALLOW RESISTIVITY [AF20ED]
TENRED.LBF   : TENSION FROM RESISTIVITY LOG
TNPHED.V/V   : THERMAL NEUTRON POROSITY LIMESTONE FROM DENSITY LOG
~Params ----------------------------------------------------
PD  .                           GL : PERMANENT DATUM
EPD .FT                      770.7 : ELEVATION PERMANENT DATUM
LMF .                           KB : LOG MEASURED FROM
DAPD.FT                         25 : FEET ABOVE PERMANENT DATUM
DMF .                           KB : DRILLING MEASURED FROM
EKB .FT                      795.7 : KELLY BUSHING
EDF .FT                      794.7 : DRILLING FLOOR
EGL .FT                      770.7 : GROUND LEVEL
DATE.                     10/22/08 : RUN DATE
RUN .                            2 : RUN NUMBER
DD  .FT                       7700 : DEPTH DRILLER
DL  .FT                       7716 : DEPTH LOGGER
BLI .FT                       7708 : BOTTOM LOG INTERVAL
TLI .FT                       6610 : TOP LOG INTERVAL
CS  .IN                      7.875 : CASING SIZE
CBD .FT                       6600 : CASING BOTTOM DRILLER
CBL .FT                       6610 : CASING BOTTOM LOGGER
BS  .IN                       6.75 : BIT SIZE
BSD .FT                       7700 : BIT SIZE AT DEPTH
DFT .                    FRESH MUD : DRILLING FLUID TYPE
DFD .                         16.4 : DRILLING FLUID DENSITY
DFV .                           64 : DRILLING FLUID VISCOSITY
DFPH.                         10.1 : DRILLING FLUID PH
DFL .                          5.2 : DRILLING FLUID LOSS
MSS .                    FLOW LINE : MUD SAMPLE SOURCE
RMS .OHMM                    0.425 : RESISTIVITY MUD SAMPLE
MST .DEGF                      114 : MUD SAMPLE TEMPERATURE
RMF .OHMM                    0.306 : RESISTIVITY MUD FILTRATE SAMPLE
MFST.DEGF                      114 : MUD FILTRATE SAMPLE TEMPERATURE
RMC .OHMM                     0.55 : RESISTIVITY MUD CAKE
MCST.DEGF                      114 : MUD CAKE SAMPLE TEMPERATURE
MFSS.                     COMPUTED : MUD FILTRATE SAMPLE SOURCE
MCSS.                     COMPUTED : MUD CAKE SAMPLE SOURCE
RMB .OHMM                    0.241 : RESISTIVITY MUD AT BHT
TCS .HRS                      1330 : TIME CIRCULATED STOPPED
TLAB.HRS                      2342 : TIME LOGGER AT BOTTOM
LUN .                         2024 : LOGGING UNIT NUMBER
LUL .                    LAREDO TX : LOGGING UNIT LOCATION
ENGI. CARLOS DOSTAL CURT LADBETLER : RECORDING ENGINEER
WITN.                   JEFF FABER : WITNESSED BY
CLNT.                      A2DTECH : CLIENT CODE
ORIG.               1" 2" 5" PRINT : ORIGIN OF DATA
UWI .               42323329160000 : UNIQUE WELL ID
DICO.       A2D Technologies, Inc. : DIGITIZING COMPANY
~Other -----------------------------------------------------
1. CURVE AF20ED WAS CHOSEN FOR SRESWS BECAUSE AF10ED SEEMED TO BEHAVE ERRATICALLY OVER PART OF RUN 1.
~ASCII -----------------------------------------------------
# ...
 2600.00000   54.17390   18.68660   15.76210   16.58570   17.80580    9.87500    9.94940   56.16150    0.07440    0.00300    2.56500    0.08480    0.08480   17.80580  147.14650   79.49570  147.14650   79.49570   53.47720   53.47720    0.00300   15.76210    0.15290    4.42790    4.42790    0.22640    0.22640   -8.63030   -5.81150   18.68660 2244.34810    0.15290
 2650.00000   23.11180   19.38740   16.24650   16.96860   18.09320    9.87500    9.91740   55.26940    0.04240    0.00740    2.61030    0.05830    0.05830   18.09320  127.49470   69.33040  127.49470   69.33040   43.07110   43.07110    0.00740   16.24650    0.14210    4.18380    4.18380    0.15440    0.15440   -5.84310   -2.51660   19.38740 2290.28520    0.14210
 2700.00000  235.50140   27.04480   23.27310   24.11070   25.79580    9.87500   10.03380   38.76600    0.15880    0.00570    2.49390    0.12640    0.12640   25.79580  152.42840   83.88540  152.42840   83.88540   74.95570   74.95570    0.00570   23.27310    0.17340    4.09190    4.09190    0.25680    0.25680  -14.03250  -10.16660   27.04480 2263.78710    0.17340
 2750.00000  489.90260   50.09350   34.65750   44.16890   48.27510    9.87500    9.91620   20.71460    0.04120    0.00420    2.49040    0.12840    0.12840   48.27510  143.24790   77.27870  143.24790   77.27870   99.96710   99.96710    0.00420   34.65750    0.16890    4.21590    4.21590    0.20550    0.20550  -19.01900  -14.60980   50.09350 2410.45430    0.16890
 2800.00000 2000.00000   91.12020   56.50790   81.76040   88.35810    9.87500    9.93010   11.31760    0.05510   -0.00130    2.40820    0.17650    0.17650   88.35810  145.28410   82.23060  145.28410   82.23060  101.17640  101.17640   -0.00130   56.50790    0.19400    4.17290    4.17290    0.24380    0.24380  -29.18890  -24.23630   91.12020 2324.14160    0.19400
 2850.00000   15.93150   14.28940    9.71150   10.33910   11.74260    9.87500    9.86230   85.16000   -0.01270    0.00630    2.48960    0.12890    0.12890   11.74260  156.37940   74.67860  156.37940   74.67860   73.86650   73.86650    0.00630    9.71150    0.11910    4.66190    4.66190    0.20180    0.20180  -12.60160   -7.10570   14.28940 2337.41580    0.11910
 2900.00000    -999.25   12.82080   13.06500   14.77170   15.46610    9.87500    9.88240   64.65750    0.00740    0.00610    2.62640    0.04890    0.04890   15.46610  110.84220   59.07070  110.84220   59.07070   17.11680   17.11680    0.00610   13.06500    0.06880    4.86310    4.86310    0.08280    0.08280  -20.13930  -17.36240   12.82080 2360.84300    0.06880
 2950.00000    7.44890   19.92540   20.36640   22.95700   23.91690    9.87500    9.86070   41.81140   -0.01430    0.00050    2.62040    0.05240    0.05240   23.91690  107.07470   55.94580  107.07470   55.94580   13.15620   13.15620    0.00050   20.36640    0.04160    4.99390    4.99390    0.06180    0.06180  -17.15280  -17.76310   19.92540 2447.18140    0.04160
 3000.00000    7.42110   18.18690   19.65420   21.18400   22.10100    9.87500    9.88520   45.24680    0.01020   -0.00490    2.62040    0.05240    0.05240   22.10100  108.12190   57.96720  108.12190   57.96720   14.90470   14.90470   -0.00490   19.65420    0.04670    5.04060    5.04060    0.07190    0.07190  -16.34640  -20.34380   18.18690 2442.52370    0.04670
 3050.00000    1.40820    2.24490    2.30340    2.37780    2.50090    9.87500   11.13520  399.85600    1.26020    0.08200    2.49130    0.12790    0.12790    2.50090   89.39990   94.13010   89.39990   94.13010   81.80350   81.80350    0.08200    2.30340    0.30810    5.00520    5.00520    0.33270    0.33270    8.34000    0.95540    2.24490 2479.54690    0.30810
 3100.00000    1.11860    1.70280    1.74090    1.87410    1.95060    9.87500   11.95100  512.66280    2.07600    0.10230    2.45370    0.14990    0.14990    1.95060   98.38500   99.44220   98.38500   99.44220   75.73250   75.73250    0.10230    1.74090    0.32330    5.53570    5.53570    0.36430    0.36430    9.19330   -1.57840    1.70280 2509.96920    0.32330
 3150.00000    1.18240    1.72600    1.76390    1.94400    2.02280    9.87500   12.91450  494.36430    3.03950    0.09290    2.45380    0.14980    0.14980    2.02280   97.42250  100.86720   97.42250  100.86720   86.32240   86.32240    0.09290    1.76390    0.30600    5.08180    5.08180    0.37400    0.37400    9.62910   -2.92200    1.72600 2592.33280    0.30600
 3200.00000    1.36590    2.03920    2.13270    2.22640    2.31610    9.87500   12.07770  431.76030    2.20270    0.07680    2.49510    0.12570    0.12570    2.31610   93.08500   95.26340   93.08500   95.26340   83.44000   83.44000    0.07680    2.13270    0.31120    4.97040    4.97040    0.33760    0.33760   11.58750   -1.75750    2.03920 2520.48240    0.31120
 3250.00000    1.51550    2.40990    2.46280    2.62280    2.70710    9.87500   11.29910  369.39900    1.42410    0.09530    2.51730    0.11270    0.11270    2.70710  205.45710   91.86210  205.45710   91.86210   70.92840   70.92840    0.09530    2.46280    0.24500    5.66450    5.66450    0.31190    0.31190   11.88650   -2.25240    2.40990 2513.71610    0.24500
 3300.00000    3.89750    7.05940    7.22360    7.59160    7.90460    9.87500    9.95040  126.50860    0.07540    0.00380    2.67510    0.02040    0.02040    7.90460  137.20920   68.09660  137.20920   68.09660   36.92360   36.92360    0.00380    7.22360    0.09730    4.50770    4.50770    0.14330    0.14330    9.79140   -3.82790    7.05940 2554.27690    0.09730
 3350.00000    5.85620   13.58230   12.06950   13.90260   13.98600    9.87500    9.87240   71.50010   -0.00260   -0.00120    2.68380    0.01530    0.01530   13.98600  117.37270   61.67670  117.37270   61.67670   16.52170   16.52170   -0.00120   12.06950    0.03500    5.02940    5.02940    0.10050    0.10050    0.66530  -11.59450   13.58230 2587.84500    0.03500
 3400.00000    6.32420   19.69940   15.34030   18.10660   19.00110    9.87500    9.89390   52.62850    0.01890    0.00350    2.64020    0.04080    0.04080   19.00110  109.79200   56.82390  109.79200   56.82390   13.66940   13.66940    0.00350   15.34030    0.03680    4.85570    4.85570    0.06510    0.06510   -9.55530  -20.45560   19.69940 2607.29150    0.03680
 3450.00000    7.32720   41.61960   27.00700   38.56290   39.44380    9.87500    9.92250   25.35250    0.04750    0.00420    2.66610    0.02570    0.02570   39.44380  102.89210   53.79820  102.89210   53.79820   17.09030   17.09030    0.00420   27.00700    0.01630    5.04810    5.04810    0.04620    0.04620   -5.50230  -15.04320   41.61960 2678.37210    0.01630
 3500.00000    6.23260   17.27870   14.38240   16.17180   16.51200    9.87500    9.92320   60.56200    0.04820    0.00530    2.64430    0.03840    0.03840   16.51200  110.18110   57.20110  110.18110   57.20110   14.35150   14.35150    0.00530   14.38240    0.03470    4.86770    4.86770    0.06690    0.06690   -7.39160  -15.57300   17.27870 2686.30660    0.03470
 3550.00000    6.42930   22.69150   17.48100   21.19760   21.68310    9.87500    9.99560   46.11890    0.12060   -0.00250    2.68780    0.01300    0.01300   21.68310  110.31130   56.94030  110.31130   56.94030   19.23290   19.23290   -0.00250   17.48100    0.02050    4.92120    4.92120    0.06820    0.06820   -1.82470   -8.64660   22.69150 2746.56200    0.02050
 3600.00000    6.22510   26.08540   19.42400   23.56110   24.32910    9.87500    9.94630   41.10300    0.07130   -0.00030    2.66010    0.02920    0.02920   24.32910  110.30970   55.17320  110.30970   55.17320   20.84860   20.84860   -0.00030   19.42400    0.01710    4.97420    4.97420    0.05640    0.05640   -0.17040   -5.49420   26.08540 2731.66750    0.01710
 3650.00000    7.08540   41.61740   24.85090   36.12490   37.90250    9.87500    9.97510   26.38350    0.10010    0.00540    2.69340    0.00970    0.00970   37.90250  107.11380   54.80640  107.11380   54.80640   16.80720   16.80720    0.00540   24.85090    0.03250    5.31610    5.31610    0.04960    0.04960   -1.53140   -5.14020   41.61740 2731.80620    0.03250
