~Version ---------------------------------------------------
VERS.      2.0 : CWLS log ASCII Standard -VERSION 2.0
WRAP.      YES : Multiple lines per depth step
CREA. 03/28/16 : LAS Creation Date
~Well ------------------------------------------------------
STRT.FT                                      300.0 : START DEPTH
STOP.FT                                    14300.0 : STOP DEPTH
STEP.FT                                   50.00000 : STEP LENGTH
NULL.                                      -999.25 : NULL VALUE
COMP.               COLUMBIA GAS DEVELOPMENT CORP. : COMPANY
WELL.                                 UNION FEE #1 : WELL
FLD .                                      WILDCAT : FIELD
LOC .                                              : LOCATION
CNTY.                                       GRIMES : COUNTY
STAT.                                        TEXAS : STATE
CTRY.                     UNITED STATES OF AMERICA : COUNTRY
SRVC. ATLAS WIRELINE SERVICES / WESTERN ATLAS INTL : SERVICE COMPANY
DATE.                                  20-Jul-1990 : LOGDATE
API .                               42185304230000 : API NUMBER
UWI .                               42185304230000 : UNIQUE WELL ID
SLAT.WGS84                           30.6748360809 : SURFACE LATITUDE
SLON.WGS84                          -95.9134095283 : SURFACE LONGITUDE
~Curve Information -----------------------------------------
DEPT    .FT    : DEPTH FEET
ACED    .US/F  : DELTA TIME (ACOUSTIC) FROM DIND-FOC/BHC SONIC LOG
C13ED   .IN    : CALIPER 1-3 FROM COMPENSATED Z-DENSILOG/CN/GR LOG
CALDED  .IN    : CALIPER FROM DENSITY LOG [DSH TO GRRED]
CALRED  .IN    : CALIPER FROM DIND-FOC/BHC SONIC LOG
CALWS   .IN    : CALIPER [TOP CALRED 11608' CALDED 11850' C13ED TD]
CNCLSED .V/V   : NEUTRON POROSITY LIMESTONE FROM COMPENSATED Z-DENSILOG/CN/GR LOG [DSH TO GRRED]
CNCSSED .V/V   : NEUTRON POROSITY SANDSTONE FROM COMPENSATED Z-DENSILOG/CN/GR LOG [DSH TO GRRED]
CONDWS  .MMHO  : DEEP CONDUCTIVITY [1000/DRESWS]
DCORWS  .G/C3  : DENSITY CORRECTION [ZCORED]
DENWS   .G/C3  : BULK DENSITY [CALCULATED FROM DPOLSWS, M=2.71,F=1.0]
DPOLSWS .V/V   : DENSITY POROSITY (LS) [TOP PORZLSED 11338' PORZSSED CONVERTED TO LIMESTONE 11850' PORZLSED TD]
DRESWS  .OHMM  : DEEP RESISTIVITY [RILDED]
DTWS    .US/F  : DELTA TIME COMPRESSIONAL [ACED]
GRDED   .GAPI  : GAMMA RAY FROM COMPENSATED Z-DENSILOG/CN/GR LOG [DSH TO GRRED]
GRMED   .GAPI  : GAMMA RAY MICROLOG [DSH TO GRRED]
GRN1ED  .GAPI  : GAMMA RAY FROM GRN LOG (HALLIBURTON) [DSH TO GRRED]
GRNED   .CU    : GAMMA RAY FROM GRN LOG (PENWOOD) [DSH TO GRRED]
GRRED   .GAPI  : GAMMA RAY FROM DIND-FOC/BHC SONIC LOG
GRWS    .GAPI  : GAMMA RAY [TOP GRRED 10990 GRDED 11250 GRRED 14107 GRDED 14250 GRMED TD (IN CASING 3012-2965 GRRED+15)]
MCALED  .IN    : CALIPER FROM MICROLOG [DSH TO GRRED]
MRESWS  .OHMM  : MEDIUM RESISTIVITY [RILMED]
NEUT1ED .NAPI  : NEUTRON FROM GRN LOG (HALLIBURTON) [DSH TO GRRED]
NEUTED  .CU    : NEUTRON FROM GRN LOG (PENWOOD [DSH TO GRRED])
NPOLSWS .V/V   : NEUTRON POROSITY LIMESTONE [TOP CNCLSED 11338' CNCSSED CONVERTED TO LIMESTONE 11850' CNCLSED TD]
PEFED   .B/E   : PHOTOELECTRIC FACTOR FROM COMPENSATED Z-DENSILOG/CN/GR LOG [DSH TO GRRED]
PEFWS   .B/E   : PHOTOELECTRIC FACTOR [PEFED]
PORZLSED.V/V   : DENSITY POROSITY (LS) [M=2.71 F=1.0] FROM COMPENSATED Z-DENSILOG/CN/GR LOG [DSH TO GRRED]
PORZSSED.V/V   : DENSITY POROSITY (SS) [M=2.65 F=1.0] FROM COMPENSATED Z-DENSILOG/CN/GR LOG [DSH TO GRRED]
RFOCED  .OHMM  : FOCUSED RESISTIVITY FROM DIND-FOC/BHC SONIC LOG
RILDED  .OHMM  : INDUCTION LOG DEEP RESISTIVITY FROM DIND-FOC/BHC SONIC LOG
RILMED  .OHMM  : INDUCTION LOG MEDIUM RESISTIVITY FROM DIND-FOC/BHC SONIC LOG
SPRED   .MV    : SPONTANEOUS POTENTIAL FROM DIND-FOC/BHC SONIC LOG
SPWS    .MV    : SPONTANEOUS POTENTIAL [BASELINE 0 MV] [SPRED]
SRESWS  .OHMM  : SHALLOW RESISTIVITY [RFOCED]
TENDED  .LBF   : TENSION FROM COMPENSATED Z-DENSILOG/CN/GR LOG [DSH TO GRRED]
TENRED  .LBF   : TENSION FROM DIND-FOC/BHC SONIC LOG
ZCORED  .G/C3  : DENSITY CORRECTION FROM COMPENSATED Z-DENSILOG/CN/GR LOG [DSH TO GRRED]
~Params ----------------------------------------------------
PD  .                     GL : PERMANENT DATUM
EPD .FT                  366 : ELEVATION PERMANENT DATUM
LMF .                    RKB : LOG MEASURED FROM
DAPD.FT                   21 : FEET ABOVE PERMANENT DATUM
DMF .                    RKB : DRILLING MEASURED FROM
EKB .FT                  387 : KELLY BUSHING
EDF .FT                  386 : DRILLING FLOOR
EGL .FT                  366 : GROUND LEVEL
DATE.               07/20/90 : RUN DATE
RUN .                      1 : RUN NUMBER
DD  .FT                14300 : DEPTH DRILLER
DL  .FT                14300 : DEPTH LOGGER
BLI .FT                14297 : BOTTOM LOG INTERVAL
TLI .FT                11428 : TOP LOG INTERVAL
CS  .IN                9.625 : CASING SIZE
CBD .FT                 3814 : CASING BOTTOM DRILLER
CBL .FT                 3814 : CASING BOTTOM LOGGER
BS  .IN                 8.75 : BIT SIZE
BSD .FT                14300 : BIT SIZE AT DEPTH
DFT .                        : DRILLING FLUID TYPE
DFD .                    9.9 : DRILLING FLUID DENSITY
DFV .                     36 : DRILLING FLUID VISCOSITY
DFPH.                    9.5 : DRILLING FLUID PH
DFL .                    6.8 : DRILLING FLUID LOSS
MSS .                    PIT : MUD SAMPLE SOURCE
RMS .OHMM               1.26 : RESISTIVITY MUD SAMPLE
MST .DEGF                 78 : MUD SAMPLE TEMPERATURE
RMF .OHMM               0.78 : RESISTIVITY MUD FILTRATE SAMPLE
MFST.DEGF                 78 : MUD FILTRATE SAMPLE TEMPERATURE
RMC .OHMM               1.68 : RESISTIVITY MUD CAKE
MCST.DEGF                 78 : MUD CAKE SAMPLE TEMPERATURE
MFSS.                   MEAS : MUD FILTRATE SAMPLE SOURCE
MCSS.                   MEAS : MUD CAKE SAMPLE SOURCE
RMB .OHMM               0.32 : RESISTIVITY MUD AT BHT
TCS .HRS                  18 : TIME CIRCULATED STOPPED
TLAB.HRS                   0 : TIME LOGGER AT BOTTOM
LUN .                HL 6428 : LOGGING UNIT NUMBER
LUL .               BEALMONT : LOGGING UNIT LOCATION
ENGI.                SHERRIN : RECORDING ENGINEER
WITN.                  SADDO : WITNESSED BY
CLNT.                A2DTECH : CLIENT CODE
ORIG.               5" PRINT : ORIGIN OF DATA
UWI .         42185304230000 : UNIQUE WELL ID
DICO. A2D Technologies, Inc. : DIGITIZING COMPANY
OS  .                        : OTHER SERVICES
PWI .                        : PRIMARY WELL IDENTIFIER
R1  .                        : REMARKS 1
R2  .                        : REMARKS 2
LSRV.                        : LOG MNEMONIC
~Other -----------------------------------------------------
~ASCII -----------------------------------------------------
# ...
 10300.00000   78.68940    -999.25    -999.25   13.98540   13.98540    -999.25    -999.25  402.59270    -999.25    -999.25    -999.25    2.48390   78.68940    -999.25    -999.25    -999.25    -999.25   65.15520   65.15520    -999.25    2.17520    -999.25    -999.25    -999.25    -999.25    -999.25    -999.25    -999.25    2.43790    2.48390    2.17520  -14.01150    1.02130    2.43790    -999.25   18.92950    -999.25
 10350.00000   63.90340    -999.25    -999.25   11.63570   11.63570    -999.25    -999.25  121.12400    -999.25    -999.25    -999.25    8.25600   63.90340    -999.25    -999.25    -999.25    -999.25   42.94340   42.94340    -999.25    7.47410    -999.25    -999.25    -999.25    -999.25    -999.25    -999.25    -999.25    5.85000    8.25600    7.47410  -27.59520  -12.51550    5.85000    -999.25   22.61620    -999.25
 10400.00000   69.21580    -999.25    -999.25   12.20260   12.20260    -999.25    -999.25  191.72880    -999.25    -999.25    -999.25    5.21570   69.21580    -999.25    -999.25    -999.25    -999.25   55.45520   55.45520    -999.25    5.05600    -999.25    -999.25    -999.25    -999.25    -999.25    -999.25    -999.25    5.31760    5.21570    5.05600  -19.62040   -4.49940    5.31760    -999.25   18.19460    -999.25
 10450.00000   69.50030    -999.25    -999.25   11.59680   11.59680    -999.25    -999.25  189.94070    -999.25    -999.25    -999.25    5.26480   69.50030    -999.25    -999.25    -999.25    -999.25   53.21660   53.21660    -999.25    4.86560    -999.25    -999.25    -999.25    -999.25    -999.25    -999.25    -999.25    5.32360    5.26480    4.86560  -20.25530   -5.09300    5.32360    -999.25   14.12000    -999.25
 10500.00000   70.21480    -999.25    -999.25   12.94570   12.94570    -999.25    -999.25  204.90540    -999.25    -999.25    -999.25    4.88030   70.21480    -999.25    -999.25    -999.25    -999.25   56.71130   56.71130    -999.25    4.67140    -999.25    -999.25    -999.25    -999.25    -999.25    -999.25    -999.25    5.27980    4.88030    4.67140  -19.38890   -4.18530    5.27980    -999.25   13.99790    -999.25
 10550.00000   70.48110    -999.25    -999.25   12.64870   12.64870    -999.25    -999.25  201.99980    -999.25    -999.25    -999.25    4.95050   70.48110    -999.25    -999.25    -999.25    -999.25   57.87900   57.87900    -999.25    4.57360    -999.25    -999.25    -999.25    -999.25    -999.25    -999.25    -999.25    5.31330    4.95050    4.57360  -20.14150   -4.89660    5.31330    -999.25   13.87580    -999.25
 10600.00000   76.89900    -999.25    -999.25   11.60620   11.60620    -999.25    -999.25  183.77290    -999.25    -999.25    -999.25    5.44150   76.89900    -999.25    -999.25    -999.25    -999.25   62.75890   62.75890    -999.25    4.16360    -999.25    -999.25    -999.25    -999.25    -999.25    -999.25    -999.25    5.37220    5.44150    4.16360  -24.10280   -8.81660    5.37220    -999.25   16.59690    -999.25
 10650.00000   68.60830    -999.25    -999.25   12.51420   12.51420    -999.25    -999.25  150.61150    -999.25    -999.25    -999.25    6.63960   68.60830    -999.25    -999.25    -999.25    -999.25   61.56860   61.56860    -999.25    6.21130    -999.25    -999.25    -999.25    -999.25    -999.25    -999.25    -999.25    7.03290    6.63960    6.21130  -22.87250   -7.54510    7.03290    -999.25   19.91750    -999.25
 10700.00000   67.40390    -999.25    -999.25   13.31890   13.31890    -999.25    -999.25  161.22010    -999.25    -999.25    -999.25    6.20270   67.40390    -999.25    -999.25    -999.25    -999.25   52.94580   52.94580    -999.25    6.05740    -999.25    -999.25    -999.25    -999.25    -999.25    -999.25    -999.25    6.47110    6.20270    6.05740  -23.69440   -8.32570    6.47110    -999.25   23.06810    -999.25
 10750.00000   76.75230    -999.25    -999.25   13.65250   13.65250    -999.25    -999.25  208.36370    -999.25    -999.25    -999.25    4.79930   76.75230    -999.25    -999.25    -999.25    -999.25   68.79170   68.79170    -999.25    4.37580    -999.25    -999.25    -999.25    -999.25    -999.25    -999.25    -999.25    4.87780    4.79930    4.37580  -24.28330   -8.87330    4.87780    -999.25   18.81590    -999.25
 10800.00000   71.57720    -999.25    -999.25   13.52680   13.52680    -999.25    -999.25  222.35070    -999.25    -999.25    -999.25    4.49740   71.57720    -999.25    -999.25    -999.25    -999.25   71.24340   71.24340    -999.25    4.33090    -999.25    -999.25    -999.25    -999.25    -999.25    -999.25    -999.25    5.30150    4.49740    4.33090  -23.23200   -7.78070    5.30150    -999.25   14.56360    -999.25
 10850.00000   78.55630    -999.25   15.01160   14.68760   14.68760    0.26590    -999.25  274.05520    -999.25    -999.25    -999.25    3.64890   78.55630   73.71660    -999.25    -999.25    -999.25   69.06830   69.06830    -999.25    3.33800    -999.25    -999.25    0.26590    -999.25    -999.25    -999.25    -999.25    4.03070    3.64890    3.33800  -22.64670   -7.15410    4.03070    -999.25   13.75570    -999.25
 10900.00000   79.54370    -999.25   14.28460   14.21570   14.21570    0.26680    -999.25  262.82590    0.12950    2.61830    0.05360    3.80480   79.54370   80.78590    -999.25    -999.25    -999.25   71.45280   71.45280    -999.25    3.43690    -999.25    -999.25    0.26680    4.59390    4.59390    0.05360    -999.25    3.97500    3.80480    3.43690  -22.31940   -6.78550    3.97500    7.85030   17.53030    0.12950
 10950.00000   79.94370    -999.25   13.01760   14.11930   14.11930    0.32020    -999.25  294.13490    0.15720    2.40130    0.18050    3.39980   79.94370   77.08370    -999.25    -999.25    -999.25   77.09470   77.09470    -999.25    3.17550    -999.25    -999.25    0.32020    4.46150    4.46150    0.18050    -999.25    3.62380    3.39980    3.17550  -22.05620   -6.48110    3.62380    9.65860   13.78600    0.15720
 11000.00000   80.72810    -999.25   13.64490   13.93420   13.93420    0.37020    -999.25  303.84980    0.24880    2.38240    0.19160    3.29110   80.72810   74.31480    -999.25    -999.25    -999.25   69.23920   74.31480    -999.25    3.04720    -999.25    -999.25    0.37020    4.95980    4.95980    0.19160    -999.25    3.57070    3.29110    3.04720  -19.16400   -3.54760    3.57070    4.97350   26.45970    0.24880
 11050.00000   77.21170    -999.25   14.23640   13.95930   13.95930    0.33520    -999.25  315.03010    0.24370    2.47780    0.13580    3.17430   77.21170   76.67520    -999.25    -999.25    -999.25   68.53200   76.67520    -999.25    3.03200    -999.25    -999.25    0.33520    4.49500    4.49500    0.13580    -999.25    3.40950    3.17430    3.03200  -18.84270   -3.18500    3.40950    7.64560   39.58350    0.24370
 11100.00000   69.14550    -999.25   11.09490   10.61160   10.61160    0.14600    -999.25  132.35740    0.03980    2.62090    0.05210    7.55530   69.14550   57.05320    -999.25    -999.25    -999.25   47.39740   57.05320    -999.25    7.26040    -999.25    -999.25    0.14600    4.36600    4.36600    0.05210    -999.25    7.58830    7.55530    7.26040  -18.35990   -3.36080    7.58830   10.51440    6.80230    0.03980
 11150.00000   69.01400    -999.25   10.92520   10.19410   10.19410    0.13630    -999.25  154.24720    0.02570    2.62360    0.05050    6.48310   69.01400   62.02960    -999.25    -999.25    -999.25   51.00690   62.02960    -999.25    6.74110    -999.25    -999.25    0.13630    4.58220    4.58220    0.05050    -999.25    7.77530    6.48310    6.74110  -16.93240   -2.70580    7.77530    2.03800   27.62420    0.02570
 11200.00000   62.08970    -999.25   10.70580    9.77440    9.77440    0.09160    -999.25  131.65000    0.05830    2.59150    0.06930    7.59590   62.08970   51.05180    -999.25   73.07630    -999.25   24.84080   51.05180    -999.25    8.25330    4.13710    -999.25    0.09160    4.91000    4.91000    0.06930    -999.25   14.62620    7.59590    8.25330  -17.18430   -3.73030   14.62620   -1.32340   15.33310    0.05830
 11250.00000   60.88610    -999.25   10.86630    9.51110    9.51110    0.08510    -999.25   32.57460    0.07940    2.56740    0.08340   30.69880   60.88610   46.69260    -999.25   84.85360    -999.25   45.34640   46.69260    -999.25   21.77360    3.17130    -999.25    0.08510    5.84130    5.84130    0.08340    -999.25   25.84080   30.69880   21.77360  -34.97000  -22.28850   25.84080   11.72870   34.21430    0.07940
