~Version ---------------------------------------------------
VERS. 2.0 : CWLS log ASCII Standard -VERSION 2.0
WRAP.  NO : ONE LINE PER DEPTH STEP
~Well ------------------------------------------------------
STRT.F                   3800.0 : START DEPTH
STOP.F                   8750.0 : STOP DEPTH
STEP.F                 50.00000 : STEP LENGTH
NULL.                   -999.25 : NULL VALUE
COMP. WINDSOR PRODUCING COMPANY : COMPANY
WELL.               MAE UNIT #1 : WELL
FLD .                  GIDDINGS : FIELD
LOC .                           : LOCATION
CNTY.                       LEE : COUNTY
STAT.                     TEXAS : STATE
CTRY.  UNITED STATES OF AMERICA : COUNTRY
SRVC.              Schlumberger : SERVICE COMPANY
DATE.               20-Feb-1980 : LOGDATE
API .            42287306420000 : API NUMBER
UWI .            42287306420000 : UNIQUE WELL ID
SLAT.WGS84        30.1872257744 : SURFACE LATITUDE
SLON.WGS84       -96.8800783206 : SURFACE LONGITUDE
~Curve Information -----------------------------------------
DEPT   .F    0   1   0  0 : 1 MEASURED DEPTH
GRR    .GAPI 07 310 01 00 : GAMMA RAY FROM RESISTIVITY LOG
DT     .US/F 60 500 00 00 : DELTA-T (INTERVAL TRANSIT TIME)
ILD    .OHMM 07 120 46 00 : INDUCTION DEEP RESISTIVITY
ILM    .OHMM 07 120 44 00 : INDUCTION MEDIUM RESISTIVITY
SFLU   .OHMM 07 220 06 00 : SHALLOW FOCUSED RESISTIVITY (UNAVERAGED)
SPR    .MV   07 010 01 00 : SPONTANEOUS POTENTIAL FROM RESISTIVITY LOG
DPHI_LS.DEC  45 890 10 00 : DENSITY POROSITY LIMESTONE
DRHO   .G/C3 45 356 01 00 : BULK DENSITY CORRECTION
RHOB   .G/C3 45 350 01 00 : BULK DENSITY
CALD   .IN   45 280 60 00 : CALIPER FROM DENSITY LOG
~Params ----------------------------------------------------
PD  .                     GL : PERMANENT DATUM
EPD .FT                  410 : ELEVATION PERMANENT DATUM
LMF .                     KB : LOG MEASURED FROM
DAPD.FT                   15 : FEET ABOVE PERMANENT DATUM
DMF .                     KB : DRILLING MEASURED FROM
EKB .FT                  425 : KELLY BUSHING
EDF .FT                  424 : DRILLING FLOOR
EGL .FT                  410 : GROUND LEVEL
DATE.               02/20/80 : RUN DATE
RUN .                      1 : RUN NUMBER
DD  .FT                 8806 : DEPTH DRILLER
DL  .FT                 8793 : DEPTH LOGGER
BLI .FT                 8786 : BOTTOM LOG INTERVAL
TLI .FT                 3810 : TOP LOG INTERVAL
CS  .IN                9.625 : CASING SIZE
CBD .FT                 3820 : CASING BOTTOM DRILLER
CBL .FT                 3810 : CASING BOTTOM LOGGER
BS  .IN                 8.75 : BIT SIZE
BSD .FT                 8806 : BIT SIZE AT DEPTH
DFT .                    GEL : DRILLING FLUID TYPE
DFD .                    9.7 : DRILLING FLUID DENSITY
DFV .                     37 : DRILLING FLUID VISCOSITY
DFPH.                      9 : DRILLING FLUID PH
DFL .                    8.8 : DRILLING FLUID LOSS
MSS .               CIRC PIT : MUD SAMPLE SOURCE
RMS .OHMM               1.03 : RESISTIVITY MUD SAMPLE
MST .DEGF                 83 : MUD SAMPLE TEMPERATURE
RMF .OHMM                1.1 : RESISTIVITY MUD FILTRATE SAMPLE
MFST.DEGF                 75 : MUD FILTRATE SAMPLE TEMPERATURE
RMC .OHMM               1.51 : RESISTIVITY MUD CAKE
MCST.DEGF                 83 : MUD CAKE SAMPLE TEMPERATURE
MFSS.                      M : MUD FILTRATE SAMPLE SOURCE
MCSS.                      C : MUD CAKE SAMPLE SOURCE
TCS .HRS                2300 : TIME CIRCULATED STOPPED
TLAB.HRS                 400 : TIME LOGGER AT BOTTOM
LUN .                   8096 : LOGGING UNIT NUMBER
LUL .                BRENHAM : LOGGING UNIT LOCATION
ENGI.               HENDRICK : RECORDING ENGINEER
WITN.      MONTGOMERY BRYANT : WITNESSED BY
CLNT.                A2DTECH : CLIENT CODE
ORIG.            2" 5" PRINT : ORIGIN OF DATA
UWI .         42287306420000 : UNIQUE WELL ID
DICO. A2D Technologies, Inc. : DIGITIZING COMPANY
~Other -----------------------------------------------------
~ASCII -----------------------------------------------------
# ...
 7100.00000  119.57130   92.81130    1.69000    1.77690    1.85900    2.87690    -999.25    -999.25    -999.25    -999.25
 7150.00000  104.70410   85.14040    2.18960    2.31350    2.57440    6.72720    -999.25    -999.25    -999.25    -999.25
 7200.00000  108.90960   89.94720    1.91080    1.99400    2.18630  -19.28190    -999.25    -999.25    -999.25    -999.25
 7250.00000  116.44200   85.91570    2.34360    2.49380    2.55820  -17.78990    -999.25    -999.25    -999.25    -999.25
 7300.00000  103.99290   91.63480    1.88880    2.03870    2.07090  -17.83930    -999.25    -999.25    -999.25    -999.25
 7350.00000   88.52170   92.43170    2.05600    2.16070    2.25120  -25.22100    -999.25    -999.25    -999.25    -999.25
 7400.00000   89.69240   84.66580    2.50060    2.66550    2.81760  -20.45850    0.08930    0.06470    2.55130   11.36550
 7450.00000   42.16950   66.44950    6.33320    6.64160    7.19590  -21.87690    0.15680    0.23200    2.45560   10.55150
 7500.00000   57.80620   66.48780    6.17640    7.13860    7.26500  -20.20810    0.06690    0.00130    2.58860   10.02110
 7550.00000   79.41890   78.88790    3.70510    3.84330    3.92260  -17.07310    0.07160   -0.00200    2.57840   10.54410
 7600.00000   92.86340   86.87000    2.75970    2.88960    2.94200  -19.56980    0.08890    0.02270    2.54830   11.32220
 7650.00000  100.55480   84.60610    2.91880    3.02650    3.19070  -16.95890    0.09470   -0.00530    2.54340   10.95230
 7700.00000   96.22470   84.42050    2.94860    3.12220    3.30450  -16.72980    0.07340    0.00440    2.57470   10.64020
 7750.00000  111.77350   84.81800    2.81500    3.00840    3.19040  -16.73020    0.08460   -0.00060    2.55590   10.69690
 7800.00000   93.95030   80.79200    3.32420    3.69500    4.08270  -16.71830    0.06910    0.01770    2.58050   10.46620
 7850.00000   68.47760   75.29330    6.82660    6.40450    7.66130  -16.17090    0.05770    0.00160    2.59940   10.33070
 7900.00000   44.65680   67.11390    8.02500    8.38420   10.97210  -24.83000    0.05340    0.00390    2.60690    9.78530
 7950.00000   31.74770   62.18080    9.17680    9.55460   11.58130  -21.59970    0.03720    0.01390    2.64240    9.79280
 8000.00000   31.35760   58.99310   16.71980   18.15970   24.09890  -20.90540    0.03980   -0.00490    2.63180    9.71550
 8050.00000   36.29960   60.96240   10.55640   11.21840   13.64620  -17.75960    0.04840   -0.00850    2.62030    9.66810
 8100.00000   20.27260   57.08490   15.81660   16.43870   18.70080  -26.84160    0.03540   -0.00740    2.64100    9.67700
 8150.00000   29.28990   58.47630   10.91810   11.26800   12.34530  -19.58880    0.04700    0.00430    2.62380    9.71220
 8200.00000   43.66130   59.61990    7.52210    8.40400   11.76570  -17.76950    0.05050   -0.00070    2.61370    9.61020
 8250.00000   60.05610   68.78220    5.56030    5.76710    6.05070  -13.73960    0.03710    0.00590    2.63930    9.53730
 8300.00000   38.92230   62.24660    7.92450    8.27220    9.03900  -19.42900    0.02830    0.00140    2.65240    9.44960
 8350.00000   34.72710   65.56230    6.32560    6.74000    8.11770  -32.69720    0.13300    0.05820    2.46770    9.63440
 8400.00000   46.09220   66.82680    9.22580    9.83470   12.21210  -28.24170    0.05300    0.00240    2.61070    9.63330
 8450.00000   61.84680   67.66410   11.47270   12.31300    8.45000  -35.21100    0.05630   -0.00450    2.60540    9.37420
 8500.00000   46.60370   60.20480   30.79860   38.89700   30.52380  -27.15530    0.06690   -0.00070    2.58920    9.40380
 8550.00000   68.85340   70.86420   14.36890   12.09000   11.87900  -27.69860    0.06890    0.00010    2.58420    9.25830
 8600.00000   60.81150   66.72200   15.94930   14.66590   17.71580  -27.77560    0.06740    0.00650    2.58670    9.17060
 8650.00000  131.17210   92.26290    4.04800    4.44330    5.42850  -11.72750    0.10610    0.01700    2.51180    9.24920
 8700.00000   94.94380   85.31200   13.83610   13.27510   22.01920    5.53860    0.12280    0.01060    2.49800    9.19110
 8750.00000  132.08580   97.40310    2.92670    2.64240    3.99120  -19.48730    0.09000    0.15470    2.54900    9.63890
