~Version ---------------------------------------------------
VERS. 2.0 : CWLS log ASCII Standard -VERSION 2.0
WRAP.  NO : ONE LINE PER DEPTH STEP
~Well ------------------------------------------------------
STRT.F                  3500.0 : START DEPTH
STOP.F                  8200.0 : STOP DEPTH
STEP.F                50.00000 : STEP LENGTH
NULL.                  -999.25 : NULL VALUE
COMP.                GSI, INC. : COMPANY
WELL.         WEHMEYER A.P. #1 : WELL
FLD .                   KURTEN : FIELD
LOC .                          : LOCATION
CNTY.                   BRAZOS : COUNTY
STAT.                    TEXAS : STATE
CTRY. UNITED STATES OF AMERICA : COUNTRY
SRVC.            Dresser Atlas : SERVICE COMPANY
DATE.              09-Jul-1983 : LOGDATE
API .           42041309670000 : API NUMBER
UWI .           42041309670000 : UNIQUE WELL ID
SLAT.WGS84       30.7774840832 : SURFACE LATITUDE
SLON.WGS84      -96.4022918234 : SURFACE LONGITUDE
~Curve Information -----------------------------------------
DEPT   .F    0   1   0  0 : 1 MEASURED DEPTH
GRR    .GAPI 06 310 01 00 : GAMMA RAY FROM RESISTIVITY LOG
CALR   .IN   06 280 01 00 : CALIPER FROM RESISTIVITY LOG
RILD   .OHMM 06 120 46 00 : INDUCTION DEEP RESISTIVITY
SPR    .MV   06 010 01 00 : SPONTANEOUS POTENTIAL FROM RESISTIVITY LOG
RILM   .OHMM 06 120 44 00 : INDUCTION MEDIUM RESISTIVITY
RFOC   .OHMM 06 220 06 00 : SHALLOW FOCUSED LOG RESISTIVITY
CORR   .G/C3 45 356 01 00 : DENSITY CORRECTION
PORD_SS.DEC  45 890 12 00 : DENSITY POROSITY [SANDSTONE]
PORD_LS.DEC  45 890 10 00 : DENSITY POROSITY [LIMESTONE]
~Params ----------------------------------------------------
PD  .                     GL : PERMANENT DATUM
LMF .                     KB : LOG MEASURED FROM
DAPD.FT                 12.3 : FEET ABOVE PERMANENT DATUM
DMF .                     KB : DRILLING MEASURED FROM
EKB .FT                  385 : KELLY BUSHING
EDF .FT                  384 : DRILLING FLOOR
EGL .FT                  373 : GROUND LEVEL
DATE.               07/09/83 : RUN DATE
RUN .                      1 : RUN NUMBER
DD  .FT                 8273 : DEPTH DRILLER
DL  .FT                 8213 : DEPTH LOGGER
BLI .FT                 8211 : BOTTOM LOG INTERVAL
CS  .IN                9.625 : CASING SIZE
CBL .FT                 3477 : CASING BOTTOM LOGGER
BS  .IN                 8.75 : BIT SIZE
BSD .FT                 8273 : BIT SIZE AT DEPTH
DFT .                  LIGNO : DRILLING FLUID TYPE
DFD .                    9.1 : DRILLING FLUID DENSITY
DFV .                     39 : DRILLING FLUID VISCOSITY
DFPH.                      9 : DRILLING FLUID PH
DFL .                    5.8 : DRILLING FLUID LOSS
MSS .               FLOWLINE : MUD SAMPLE SOURCE
RMS .OHMM               2.35 : RESISTIVITY MUD SAMPLE
MST .DEGF                 75 : MUD SAMPLE TEMPERATURE
RMF .OHMM               1.76 : RESISTIVITY MUD FILTRATE SAMPLE
MFST.DEGF                 75 : MUD FILTRATE SAMPLE TEMPERATURE
RMC .OHMM               2.93 : RESISTIVITY MUD CAKE
MCST.DEGF                 75 : MUD CAKE SAMPLE TEMPERATURE
MFSS.                   CALC : MUD FILTRATE SAMPLE SOURCE
MCSS.                   CALC : MUD CAKE SAMPLE SOURCE
RMB .OHMM              1.081 : RESISTIVITY MUD AT BHT
MRT .DEGF                175 : MAXIMUM RECORDED TEMPERATURE
LUN .                 HL6300 : LOGGING UNIT NUMBER
LUL .                  BRYAN : LOGGING UNIT LOCATION
ENGI.                 POWELL : RECORDING ENGINEER
WITN.               STATHALL : WITNESSED BY
CLNT.                A2DTECH : CLIENT CODE
ORIG.               5" PRINT : ORIGIN OF DATA
UWI .         42041309670000 : UNIQUE WELL ID
DICO. A2D Technologies, Inc. : DIGITIZING COMPANY
~Other -----------------------------------------------------
~ASCII -----------------------------------------------------
 3500.00000   63.07680   12.60770    6.77310 -131.61630    7.72020    8.71010    -999.25    -999.25    -999.25
 3550.00000   58.45900   12.87000    6.93010 -134.55880    7.29050    9.27490    -999.25    -999.25    -999.25
 3600.00000   76.85060   13.71300    5.13530 -123.16420    5.44600    5.80070    -999.25    -999.25    -999.25
 3650.00000   51.28360   11.38020    4.82490 -155.66690    7.30560   11.39440    -999.25    -999.25    -999.25
 3700.00000   80.59540   11.15610    4.42520 -134.30640    5.15490    6.70960    -999.25    -999.25    -999.25
 3750.00000   82.07850   12.29850    1.84130 -110.32190    1.94230    2.53540    -999.25    -999.25    -999.25
 3800.00000   79.83740   11.22300    2.01970 -109.39120    2.10580    2.60800    -999.25    -999.25    -999.25
 3850.00000   83.52860   11.33000    1.93180 -112.33260    2.01300    2.46520    -999.25    -999.25    -999.25
 3900.00000   82.60560   11.00600    2.47990 -112.19760    2.59690    2.91960    0.08890    0.21980    -999.25
 3950.00000   82.94820   11.49100    2.40870 -113.99790    2.51210    2.89330    0.04100    0.25500    -999.25
 4000.00000   88.25640   11.22880    2.12620 -115.64490    2.49570    2.93950    0.12750    0.24390    -999.25
 4050.00000   83.75300   11.48050    1.87500 -114.68210    1.95330    2.48320    0.12220    0.24900    -999.25
 4100.00000   84.34220   10.84200    1.77270 -114.01230    1.65520    2.23750    -999.25    -999.25    -999.25
 4150.00000   87.93860   10.23210    1.70740 -111.63420    1.63600    2.00980    -999.25    -999.25    -999.25
 4200.00000   86.45340   11.55880    1.73680 -113.26270    1.62620    2.16840    -999.25    -999.25    -999.25
 4250.00000   86.56450   12.37060    1.69790 -113.52360    1.58610    2.01160    -999.25    -999.25    -999.25
 4300.00000  101.09590   11.81340    1.84360 -110.88520    1.60920    2.22510    -999.25    -999.25    -999.25
 4350.00000  102.89360   10.24210    2.06360 -112.83610    1.96110    2.46470    -999.25    -999.25    -999.25
 4400.00000   98.02740    9.33500    1.80260 -112.22730    1.68820    2.26970    0.08090    0.28040    -999.25
 4450.00000   78.37220   11.83070    1.16580 -112.10620    1.22360    1.88780    0.13670    0.38560    -999.25
 4500.00000   75.76620   10.41800    1.95490 -109.92890    1.99690    2.48830    0.03530    0.19150    -999.25
 4550.00000   82.51090   11.38980    1.02860 -107.66070    1.07310    1.67520    0.06670    0.29040    -999.25
 4600.00000   82.50530   11.25130    1.30220 -107.63350    1.37470    1.83420    0.04450    0.24930    -999.25
 4650.00000   79.38960   10.43670    1.79820 -109.16620    1.45530    2.01870    0.09060    0.20120    -999.25
 4700.00000   82.66890    9.88230    0.98210 -107.73760    1.02590    1.64430    0.08670    0.23810    -999.25
 4750.00000   86.03630    9.82480    1.96490 -110.78600    2.04710    2.41280    0.00040    0.21170    -999.25
 4800.00000   79.34880   10.72890    1.35860 -116.20740    1.43250    1.93950    0.08770    0.26820    -999.25
 4850.00000   82.93010   10.61250    1.09270 -114.75810    1.13870    1.77050    -999.25    -999.25    -999.25
 4900.00000   80.09280   11.74430    1.00960 -110.81000    1.05220    1.70230    -999.25    -999.25    -999.25
 4950.00000   80.96410   11.89450    1.04150 -111.22390    1.09000    1.67110    -999.25    -999.25    -999.25
 5000.00000   79.87530   12.47360    0.94650 -113.21270    0.99070    1.67760    -999.25    -999.25    -999.25
 5050.00000   85.29900   10.95440    0.87050 -108.25020    0.91710    1.58660    -999.25    -999.25    -999.25
 5100.00000   83.16430   10.30530    1.41890 -112.57800    1.30820    1.96960    -999.25    -999.25    -999.25
 5150.00000   79.18300    9.10910    2.00100 -108.77310    2.10970    2.62770    -999.25    -999.25    -999.25
 5200.00000   75.38940    8.97800    1.42850 -111.38030    1.48850    2.09070    -999.25    -999.25    -999.25
 5250.00000   58.29020    8.17740    2.17810 -109.84590    2.28150    2.69310    -999.25    -999.25    -999.25
 5300.00000   52.91850    8.02980    2.47390 -108.81620    2.57740    2.93190    -999.25    -999.25    -999.25
 5350.00000   94.38710    8.90170    0.93840 -106.13100    0.98510    1.65670    -999.25    -999.25    -999.25
 5400.00000   81.39860    9.74630    0.74630 -104.91230    0.79830    1.35150    -999.25    -999.25    -999.25
 5450.00000   90.52470   10.79980    1.06200 -108.17590    1.16510    1.65040    -999.25    -999.25    -999.25
 5500.00000   96.71820   10.46590    1.26480 -104.08670    1.31780    1.80150    -999.25    -999.25    -999.25
 5550.00000   92.26560    9.78890    1.33950 -107.49530    1.39760    1.88280    -999.25    -999.25    -999.25
 5600.00000   92.10380    8.66660    1.06700 -107.91490    1.13160    1.60900    -999.25    -999.25    -999.25
 5650.00000   89.84200    9.90450    0.95600 -103.89340    0.99480    1.47740    -999.25    -999.25    -999.25
 5700.00000  100.13800   10.73090    0.86740 -104.58300    0.90360    1.45100    -999.25    -999.25    -999.25
 5750.00000   98.36100   10.48170    1.40490 -102.61290    1.46370    1.91510    -999.25    -999.25    -999.25
 5800.00000   86.79240   10.39220    1.42960 -107.25860    1.50630    2.01740    -999.25    -999.25    -999.25
 5850.00000   81.96660   11.13370    1.30140 -105.03500    1.35670    1.90050    -999.25    -999.25    -999.25
 5900.00000   95.63290   10.90400    1.22260 -105.48780    1.27650    1.83040    -999.25    -999.25    -999.25
 5950.00000   87.54600   10.39250    1.31120 -107.92190    1.36630    1.95810    -999.25    -999.25    -999.25
 6000.00000   90.28630    9.95830    1.34070 -105.79320    1.40150    1.97130    -999.25    -999.25    -999.25
 6050.00000   89.69710   10.12900    1.00210 -103.61010    1.07780    1.69770    -999.25    -999.25    -999.25
 6100.00000   95.39770   10.16410    1.24460 -107.70060    1.29680    1.83740    -999.25    -999.25    -999.25
 6150.00000   88.59530   10.17820    1.56900 -104.47480    1.63580    2.10190    -999.25    -999.25    -999.25
 6200.00000   80.79630   10.18240    1.41580 -105.11900    1.47680    2.01910    -999.25    -999.25    -999.25
 6250.00000   79.95170   10.34730    1.27820 -104.58720    1.33450    1.94220    -999.25    -999.25    -999.25
 6300.00000   88.91710   10.14770    1.14590 -104.98080    1.22520    1.87470    -999.25    -999.25    -999.25
 6350.00000   75.25030    9.43050    2.24040 -103.90190    2.33620    2.73410    -999.25    -999.25    -999.25
 6400.00000   67.51710    9.48650    2.49980 -107.00770    2.60450    3.19040    -999.25    -999.25    -999.25
 6450.00000   78.46570    9.35640    1.51590 -100.89360    1.58090    2.23380    -999.25    -999.25    -999.25
 6500.00000   83.66260   10.49920    1.47610 -101.10490    1.53790    2.24370    -999.25    -999.25    -999.25
 6550.00000   88.34250   10.86960    1.28420 -103.18500    1.33880    1.95110    -999.25    -999.25    -999.25
 6600.00000   86.06950   10.68850    1.50580 -101.31670    1.56890    2.16310    -999.25    -999.25    -999.25
 6650.00000   78.04980   10.31960    1.69620  -99.77280    1.85730    2.35020    -999.25    -999.25    -999.25
 6700.00000   90.79650   11.90100    1.32670 -103.56510    1.39210    2.17620    -999.25    -999.25    -999.25
 6750.00000   83.90180   12.42840    1.28030 -100.68680    1.33580    2.00280    -999.25    -999.25    -999.25
 6800.00000   85.95000   12.36580    1.28730  -99.75240    1.35630    2.03950    -999.25    -999.25    -999.25
 6850.00000   95.11650   13.14060    1.30110 -100.41290    1.35560    2.03030    -999.25    -999.25    -999.25
 6900.00000   91.52560   13.40540    1.38320 -100.58080    1.44170    2.02150    -999.25    -999.25    -999.25
 6950.00000   81.14160   12.87280    1.40040  -99.68640    1.45920    2.01720    0.08430    -999.25    -999.25
 7000.00000   84.54150   12.82640    1.26000 -100.56930    1.35780    2.03400    0.07790    -999.25    0.17580
 7050.00000   79.20870   10.73190    1.87490  -94.81470    1.96560    2.51930    0.05800    -999.25    0.22140
 7100.00000   83.79230   11.83180    1.99200  -99.44300    2.09650    2.85180    0.11450    -999.25    0.11930
