~Version ---------------------------------------------------
VERS. 2.0 : CWLS log ASCII Standard -VERSION 2.0
WRAP. YES : MULTIPLE LINES PER DEPTH STEP
~Well ------------------------------------------------------
STRT.FT                 3400.0 : START DEPTH
STOP.FT                 8300.0 : STOP DEPTH
STEP.FT               50.00000 : STEP LENGTH
NULL.                  -999.25 : NULL VALUE
COMP.      SAGE ENERGY COMPANY : COMPANY
WELL.       VAN DRESAR UNIT #1 : WELL
FLD .                 GIDDINGS : FIELD
LOC .                          : LOCATION
CNTY.                 BURLESON : COUNTY
STAT.                    TEXAS : STATE
CTRY. UNITED STATES OF AMERICA : COUNTRY
SRVC.            Dresser Atlas : SERVICE COMPANY
DATE.              05-Jan-1984 : LOGDATE
API .           42051326100000 : API NUMBER
UWI .           42051326100000 : UNIQUE WELL ID
SLAT.WGS84       30.5520329185 : SURFACE LATITUDE
SLON.WGS84      -96.5959283516 : SURFACE LONGITUDE
~Curve Information -----------------------------------------
DEPT    .FT    : DEPTH FEET
CALRED  .IN    : CALIPER FROM RESISTIVITY LOG
CALWS   .IN    : CALIPER [CALRED]
CNLSED  .V/V   : NEUTRON POROSITY LIMESTONE FROM COMPOSITE LOG
CNSSED  .V/V   : NEUTRON POROSITY SANDTONE FROM COMPOSITE LOG
CONDWS  .MMHO  : CONDUCTIVITY [1000/DRESWS]
DENWS   .G/C3  : BULK DENSITY [CALCULATED FROM DPOWS][M=2.65 F=1.0]<5850>[M=2.71 F=1.0]
DPOWS   .V/V   : DENSITY POROSITY [M=2.65 F=1.0] [PORDSSED]<5850>[M=2.71 F=1.0] [PORDLSED]
DRESWS  .OHMM  : DEEP RESISTIVITY [RILDED]
GRNED   .CPS   : GAMMA RAY FROM NEUTRON LOG, DEPTH ADJUSTED WITH [GRRED]
GRRED   .GAPI  : GAMMA RAY FROM RESISTIVITY LOG
GRWS    .GAPI  : GAMMA RAY [GRRED]
MRESWS  .OHMM  : MEDIUM RESISTIVITY [RILMED]
NEUTED  .NAPI  : NEUTRON FROM NEUTRON LOG, DEPTH ADJUSTED WITH [GRRED]
NEUTWS  .NAPI  : NEUTRON [NEUTED]
NPOWS   .V/V   : NEUTRON POROSITY SANDSTONE [CNSSED]<5850>[CNLSED]
PORDLSED.V/V   : DENSITY POROSITY LIMESTONE FROM COMPOSITE LOG
PORDSSED.V/V   : DENSITY POROSITY SANDSTONE FROM COMPOSITE LOG
RFOCED  .OHMM  : FOCUSED RESISTIVITY
RILDED  .OHMM  : INDUCTION LOG DEEP RESISTIVITY
RILMED  .OHMM  : INDUCTION LOG MEDIUM RESISTIVITY
SPRED   .MV    : SPONTANEOUS POTENTIAL FROM RESISTIVITY LOG
SPWS    .MV    : SPONTANEOUS POTENTIAL [BASELINE 0 MV] [SPRED]
SRESWS  .OHMM  : SHALLOW RESISTIVITY [RFOCED]
TENRED  .LBF   : TENSION FROM RESISTIVITY LOG
~Params ----------------------------------------------------
PD  .                     GL : PERMANENT DATUM
EPD .FT                  375 : ELEVATION PERMANENT DATUM
LMF .                     KB : LOG MEASURED FROM
DAPD.FT                   16 : FEET ABOVE PERMANENT DATUM
DMF .                     KB : DRILLING MEASURED FROM
EKB .FT                  391 : KELLY BUSHING
EDF .FT                  390 : DRILLING FLOOR
EGL .FT                  375 : GROUND LEVEL
DATE.               01/05/84 : RUN DATE
RUN .                      1 : RUN NUMBER
DD  .FT                 8320 : DEPTH DRILLER
DL  .FT                 8317 : DEPTH LOGGER
BLI .FT                 8314 : BOTTOM LOG INTERVAL
TLI .FT                 3403 : TOP LOG INTERVAL
CS  .IN                8.625 : CASING SIZE
CBD .FT                 3415 : CASING BOTTOM DRILLER
CBL .FT                 3403 : CASING BOTTOM LOGGER
BS  .IN                7.875 : BIT SIZE
BSD .FT                 8320 : BIT SIZE AT DEPTH
DFT .        LINGOSULPHONATE : DRILLING FLUID TYPE
DFD .                    9.5 : DRILLING FLUID DENSITY
DFV .                     44 : DRILLING FLUID VISCOSITY
DFPH.                    9.5 : DRILLING FLUID PH
DFL .                    7.4 : DRILLING FLUID LOSS
MSS .               FLOWLINE : MUD SAMPLE SOURCE
RMS .OHMM               2.79 : RESISTIVITY MUD SAMPLE
MST .DEGF                 75 : MUD SAMPLE TEMPERATURE
RMF .OHMM               4.44 : RESISTIVITY MUD FILTRATE SAMPLE
MFST.DEGF                 75 : MUD FILTRATE SAMPLE TEMPERATURE
RMC .OHMM               3.63 : RESISTIVITY MUD CAKE
MCST.DEGF                 75 : MUD CAKE SAMPLE TEMPERATURE
MFSS.               MEASURED : MUD FILTRATE SAMPLE SOURCE
MCSS.               MEASURED : MUD CAKE SAMPLE SOURCE
RMB .OHMM              1.125 : RESISTIVITY MUD AT BHT
TCS .HRS                   6 : TIME CIRCULATED STOPPED
LUN .                HL 6304 : LOGGING UNIT NUMBER
LUL .                  BRYAN : LOGGING UNIT LOCATION
ENGI.            KIRK WRIGHT : RECORDING ENGINEER
WITN.                  BAKER : WITNESSED BY
CLNT.                A2DTECH : CLIENT CODE
ORIG.            2" 5" PRINT : ORIGIN OF DATA
UWI .         42051326100000 : UNIQUE WELL ID
DICO. A2D Technologies, Inc. : DIGITIZING COMPANY
~Other -----------------------------------------------------
~ASCII -----------------------------------------------------
 3400.00000    -999.25    -999.25    -999.25    -999.25    -999.25    -999.25    -999.25    -999.25    -999.25   66.84070   66.84070    -999.25    -999.25    -999.25    -999.25    -999.25    -999.25    -999.25    -999.25    -999.25    -999.25    -999.25    -999.25    -999.25
 3450.00000    9.70500    9.70500    -999.25    -999.25   65.33260    -999.25    -999.25   15.30630    -999.25   49.79480   49.79480   16.79270    -999.25    -999.25    -999.25    -999.25    -999.25   14.59530   15.30630   16.79270  -24.66430  -23.35060   14.59530    3.63680
 3500.00000    9.43760    9.43760    -999.25    -999.25   66.77130    -999.25    -999.25   14.97650    -999.25   56.74770   56.74770   16.62390    -999.25    -999.25    -999.25    -999.25    -999.25   14.47110   14.97650   16.62390  -22.94700  -21.55430   14.47110    7.74810
 3550.00000    9.48910    9.48910    -999.25    -999.25   67.66040    -999.25    -999.25   14.77970    -999.25   50.75730   50.75730   16.18170    -999.25    -999.25    -999.25    -999.25    -999.25   14.56610   14.77970   16.18170  -23.70780  -22.23620   14.56610    2.45690
 3600.00000    8.67060    8.67060    -999.25    -999.25  136.65120    -999.25    -999.25    7.31790    -999.25   71.86800   71.86800    8.06220    -999.25    -999.25    -999.25    -999.25    -999.25    9.08270    7.31790    8.06220  -26.95330  -25.43010    9.08270    1.36800
 3650.00000    8.98250    8.98250    -999.25    -999.25  143.73390    -999.25    -999.25    6.95730    -999.25   60.73340   60.73340    9.78030    -999.25    -999.25    -999.25    -999.25    -999.25   13.07530    6.95730    9.78030  -48.57280  -47.08470   13.07530   13.28640
 3700.00000   10.04100   10.04100    -999.25    -999.25  171.52070    -999.25    -999.25    5.83020    -999.25   64.91590   64.91590    6.50190    -999.25    -999.25    -999.25    -999.25    -999.25    7.15760    5.83020    6.50190  -26.37240  -24.91940    7.15760    0.00000
 3750.00000    8.51060    8.51060    -999.25    -999.25  139.18270    -999.25    -999.25    7.18480    -999.25   55.55110   55.55110   10.71960    -999.25    -999.25    -999.25    -999.25    -999.25   14.84150    7.18480   10.71960  -50.17180  -48.75380   14.84150    8.85230
 3800.00000    8.57740    8.57740    -999.25    -999.25  206.35570    -999.25    -999.25    4.84600    -999.25   57.02510   57.02510    7.29410    -999.25    -999.25    -999.25    -999.25    -999.25   11.37640    4.84600    7.29410  -52.22580  -50.84290   11.37640    1.64370
 3850.00000    9.30570    9.30570    -999.25    -999.25  153.69480    -999.25    -999.25    6.50640    -999.25   55.44790   55.44790    7.97080    -999.25    -999.25    -999.25    -999.25    -999.25    8.74720    6.50640    7.97080  -32.26540  -30.91760    8.74720    2.01270
 3900.00000    9.20910    9.20910    -999.25    -999.25  231.92170    -999.25    -999.25    4.31180    -999.25   70.75110   70.75110    5.37030    -999.25    -999.25    -999.25    -999.25    -999.25    5.82820    4.31180    5.37030  -26.43520  -25.12250    5.82820    9.04150
 3950.00000    8.58780    8.58780    -999.25    -999.25  265.64660    -999.25    -999.25    3.76440    -999.25   81.62130   81.62130    4.41370    -999.25    -999.25    -999.25    -999.25    -999.25    4.85590    3.76440    4.41370  -13.47520  -12.19760    4.85590   11.12460
 4000.00000    8.72210    8.72210    -999.25    -999.25  294.22150    -999.25    -999.25    3.39880    -999.25   91.70760   91.70760    3.87980    -999.25    -999.25    -999.25    -999.25    -999.25    4.88810    3.39880    3.87980  -13.99930  -12.75680    4.88810    3.79270
 4050.00000    8.43060    8.43060    -999.25    -999.25  207.43880    -999.25    -999.25    4.82070    -999.25   65.55300   65.55300    5.64070    -999.25    -999.25    -999.25    -999.25    -999.25    9.69630    4.82070    5.64070  -32.37110  -31.16370    9.69630    9.05730
 4100.00000    9.31420    9.31420    -999.25    -999.25  491.23150    -999.25    -999.25    2.03570    -999.25   93.69360   93.69360    2.07710    -999.25    -999.25    -999.25    -999.25    -999.25    2.76210    2.03570    2.07710   -3.39520   -2.22290    2.76210   14.15110
 4150.00000    8.62240    8.62240    -999.25    -999.25  483.86320    -999.25    -999.25    2.06670    -999.25   87.71550   87.71550    2.17800    -999.25    -999.25    -999.25    -999.25    -999.25    2.69590    2.06670    2.17800   -2.00820   -0.87100    2.69590    2.24740
 4200.00000    8.94710    8.94710    -999.25    -999.25  469.48360    -999.25    -999.25    2.13000    -999.25   90.79440   90.79440    2.21650    -999.25    -999.25    -999.25    -999.25    -999.25    2.70240    2.13000    2.21650   -3.91340   -2.81130    2.70240    3.31520
 4250.00000    8.13780    8.13780    -999.25    -999.25  432.37630    -999.25    -999.25    2.31280    -999.25   87.94720   87.94720    2.47840    -999.25    -999.25    -999.25    -999.25    -999.25    3.08460    2.31280    2.47840   -8.31210   -7.24510    3.08460    7.07430
 4300.00000    8.37240    8.37240    -999.25    -999.25  394.94470    -999.25    -999.25    2.53200    -999.25   91.50490   91.50490    2.64740    -999.25    -999.25    -999.25    -999.25    -999.25    3.21710    2.53200    2.64740   -7.86420   -6.83230    3.21710    4.00140
 4350.00000    9.48060    9.48060    -999.25    -999.25  499.47560    -999.25    -999.25    2.00210    -999.25   88.95130   88.95130    2.13030    -999.25    -999.25    -999.25    -999.25    -999.25    2.61690    2.00210    2.13030   -2.97570   -1.97890    2.61690    0.00000
 4400.00000   10.33900   10.33900    -999.25    -999.25  483.79300    -999.25    -999.25    2.06700    -999.25   99.89460   99.89460    2.13550    -999.25    -999.25    -999.25    -999.25    -999.25    2.82810    2.06700    2.13550   -2.57840   -1.61670    2.82810    5.88430
 4450.00000   11.37070   11.37070    -999.25    -999.25  671.90750    -999.25    -999.25    1.48830    -999.25   98.22880   98.22880    1.52530    -999.25    -999.25    -999.25    -999.25    -999.25    2.14070    1.48830    1.52530   -5.46550   -4.53890    2.14070    4.54910
 4500.00000   11.46760   11.46760    -999.25    -999.25  627.43130    -999.25    -999.25    1.59380    -999.25   94.22650   94.22650    1.62730    -999.25    -999.25    -999.25    -999.25    -999.25    2.20580    1.59380    1.62730   -4.97830   -4.08680    2.20580   10.28380
 4550.00000   11.55900   11.55900    -999.25    -999.25  615.08180    -999.25    -999.25    1.62580    -999.25   90.44610   90.44610    1.68640    -999.25    -999.25    -999.25    -999.25    -999.25    2.25270    1.62580    1.68640   -6.71220   -5.85580    2.25270   15.47700
 4600.00000   11.67430   11.67430    -999.25    -999.25  718.39080    -999.25    -999.25    1.39200    -999.25   89.92530   89.92530    1.44580    -999.25    -999.25    -999.25    -999.25    -999.25    2.10180    1.39200    1.44580   -4.35310   -3.53180    2.10180    2.56340
 4650.00000   11.38890   11.38890    -999.25    -999.25  729.28820    -999.25    -999.25    1.37120    -999.25   90.57240   90.57240    1.38080    -999.25    -999.25    -999.25    -999.25    -999.25    2.01230    1.37120    1.38080   -3.98180   -3.19560    2.01230    8.17320
 4700.00000   11.82870   11.82870    -999.25    -999.25  731.04760    -999.25    -999.25    1.36790    -999.25   90.30950   90.30950    1.40720    -999.25    -999.25    -999.25    -999.25    -999.25    1.81740    1.36790    1.40720   -9.80000   -9.04890    1.81740   10.24130
 4750.00000    9.67360    9.67360    -999.25    -999.25  618.58220    -999.25    -999.25    1.61660    -999.25  107.59420  107.59420    1.68440    -999.25    -999.25    -999.25    -999.25    -999.25    2.23160    1.61660    1.68440   -0.91520   -0.19920    2.23160   36.36100
 4800.00000   10.16640   10.16640    -999.25    -999.25  826.65120    -999.25    -999.25    1.20970    -999.25   94.18170   94.18170    1.26610    -999.25    -999.25    -999.25    -999.25    -999.25    1.81390    1.20970    1.26610   -4.73250   -4.05160    1.81390    2.56770
