~Version ---------------------------------------------------
VERS.      2.0 : CWLS log ASCII Standard -VERSION 2.0
WRAP.      YES : Multiple lines per depth step
CREA. 07/19/18 : LAS Creation Date
~Well ------------------------------------------------------
STRT.FT                           4000.0 : START DEPTH
STOP.FT                          13600.0 : STOP DEPTH
STEP.FT                         50.00000 : STEP LENGTH
NULL.                            -999.25 : NULL VALUE
COMP. TEXSTAR NORTH AMERICA INCORPORATED : COMPANY
WELL.                         HOMEYER #2 : WELL
FLD .                     CENTRAL KENEDY : FIELD
LOC .                                    : LOCATION
CNTY.                             KARNES : COUNTY
STAT.                              TEXAS : STATE
CTRY.           UNITED STATES OF AMERICA : COUNTRY
SRVC.                       Schlumberger : SERVICE COMPANY
DATE.                        30-Mar-1990 : LOGDATE
API .                     42255312470000 : API NUMBER
UWI .                     42255312470000 : UNIQUE WELL ID
SLAT.WGS84                 28.7726896993 : SURFACE LATITUDE
SLON.WGS84                -97.8709093626 : SURFACE LONGITUDE
~Curve Information -----------------------------------------
DEPT    .FT    : DEPTH FEET
CALWS   .IN    : CALIPER [DCALDED+BIT]
CONDWS  .MMHO  : DEEP CONDUCTIVITY [1000/DRESWS]
DCALDED .IN    : DIFFERENTIAL CALIPER FROM DENSITY LOG
DCORWS  .G/C3  : DENSITY CORRECTION [DRHOED]
DENWS   .G/C3  : BULK DENSITY [TOP CALC. DPHISSED M=2.68 F=1.0, 12400' DPHISSED M=2.71 F=1.0]]
DPHILSED.V/V   : DENSITY POROSITY (LS) [M=2.71 F=1.0] FROM DENSITY LOG
DPHISSED.V/V   : DENSITY POROSITY (SS) [M=2.68 F=1.0] FROM DENSITY LOG
DPOLSWS .V/V   : DENSITY POROSITY LIMESTONE [M=2.71 F=1.0] [CALC. FROM DENWS]
DRESWS  .OHMM  : DEEP RESISTIVITY [ILDED]
DRHOED  .G/C3  : DENSITY CORRECTION FROM DENSITY LOG
DTED    .US/F  : DELTA TIME FROM DIL/SONIC LOG
DTLED   .US/F  : DELTA TIME LONG SPACING FROM DIL/SONIC LOG
DTWS    .US/F  : DELTA TIME COMPRESSIONAL [DTED]
GRDED   .GAPI  : GAMMA RAY FROM DENSITY LOG
GRRED   .GAPI  : GAMMA RAY FROM RESISTIVITY LOG
GRWS    .GAPI  : GAMMA RAY [TOP GRDED 6100' GRRED 13560' GRDED]
ILDED   .OHMM  : INDUCTION LOG DEEP RESISTIVITY
ILMED   .OHMM  : INDUCTION LOG MEDIUM RESISTIVITY
MRESWS  .OHMM  : MEDIUM RESISTIVITY [ILMED]
NPHILSED.V/V   : NEUTRON POROSITY LIMESTONE FROM DENSITY LOG
NPHISSED.V/V   : NEUTRON POROSITY SANDSTONE FROM DENSITY LOG
NPOLSWS .V/V   : NEUTRON POROSITY LIMESTONE [TOP CONVERSED NPHISSED TO LIME FROM POWER LOG; 12400' NPHILSED]
PEFED   .B/E   : PHOTOELECTRIC FACTOR FROM DENSITY LOG
PEFWS   .B/E   : PHOTOELECTRIC FACTOR [PEFED]
SFLUED  .OHMM  : SPHERICALLY FOCUSED LOG RESISTIVITY
SPHILSED.V/V   : SONIC POROSITY (LS) [DTM=49 DTF=189] FROM DIL/SONIC LOG
SPHISSED.V/V   : SONIC POROSITY (SS) [DTM=55.6 DTF=189] FROM DIL/SONIC LOG
SPOLSWS .V/V   : SONIC POROSITY (LS) [DTM=49 DTF=189] [CALC. FROM DTWS]
SPRED   .MV    : SPONTANEOUS POTENTIAL FROM RESISTIVITY LOG
SPWS    .MV    : SPONTANEOUS POTENTIAL [BASELINE 0 MV] [SPRED]
SRESWS  .OHMM  : SHALLOW RESISTIVITY [SFLUED]
TENDED  .LBF   : TENSION FROM DENSITY LOG
TENRED  .LBF   : TENSION FROM RESISTIVITY LOG
~Params ----------------------------------------------------
PD  .                     GL : PERMANENT DATUM
EPD .FT                  455 : ELEVATION PERMANENT DATUM
LMF .                     KB : LOG MEASURED FROM
DAPD.FT                   23 : MEASUREMENT ABOVE PERMANENT DATUM
DMF .                     KB : DRILLING MEASURED FROM
EKB .FT                  478 : KELLY BUSHING
EDF .FT                  477 : DRILLING FLOOR
EGL .FT                  455 : GROUND LEVEL
DATE.               03/30/90 : RUN DATE
RUN .                      1 : RUN NUMBER
DD  .FT                13600 : DEPTH DRILLER
DL  .FT                13608 : DEPTH LOGGER
BLI .FT                13602 : BOTTOM LOG INTERVAL
TLI .FT                 3954 : TOP LOG INTERVAL
CS  .IN                9.625 : CASING SIZE
CBD .FT                 3950 : CASING BOTTOM DRILLER
CBL .FT                 3954 : CASING BOTTOM LOGGER
BS  .IN                  8.5 : BIT SIZE
BSD .FT                13600 : BIT SIZE AT DEPTH
DFT .               KCL KLIG : DRILLING FLUID TYPE
DFD .                   10.7 : DRILLING FLUID DENSITY
DFV .                     41 : DRILLING FLUID VISCOSITY
DFPH.                   11.5 : DRILLING FLUID PH
DFL .                    9.4 : DRILLING FLUID LOSS
MSS .               CIRC PIT : MUD SAMPLE SOURCE
RMS .OHMM               0.63 : RESISTIVITY MUD SAMPLE
MST .DEGF                 75 : MUD SAMPLE TEMPERATURE
RMF .OHMM               0.55 : RESISTIVITY MUD FILTRATE SAMPLE
MFST.DEGF                 75 : MUD FILTRATE SAMPLE TEMPERATURE
RMC .OHMM               0.95 : RESISTIVITY MUD CAKE
MCST.DEGF                 75 : MUD CAKE SAMPLE TEMPERATURE
MFSS.                   MEAS : MUD FILTRATE SAMPLE SOURCE
MCSS.                   CALC : MUD CAKE SAMPLE SOURCE
RMB .OHMM              0.167 : RESISTIVITY MUD AT BHT
TCS .HRS                1530 : TIME CIRCULATED STOPPED
TLAB.HRS                  50 : TIME LOGGER AT BOTTOM
LUN .                   8268 : LOGGING UNIT NUMBER
LUL .             PLEASANTON : LOGGING UNIT LOCATION
ENGI.                 WILKIE : RECORDING ENGINEER
WITN.         REQUARTH GIBBS : WITNESSED BY
CLNT.                A2DTECH : CLIENT CODE
ORIG.            1" 5" PRINT : ORIGIN OF DATA
UWI .         42255312470000 : UNIQUE WELL ID
DICO. A2D Technologies, Inc. : DIGITIZING COMPANY
~Other -----------------------------------------------------
GRR SATURATED AT 5988'.
~ASCII -----------------------------------------------------
# ...
 11700.00000    -999.25  378.34360    -999.25    -999.25    -999.25    -999.25    -999.25    -999.25    2.64310    -999.25   78.15620   78.97500   78.15620    -999.25   82.84860   82.84860    2.64310    2.73000    2.73000    -999.25    -999.25    -999.25    -999.25    -999.25    3.21760    -999.25    0.18090    0.20830  -13.55190   -3.93070    3.21760    -999.25 3872.38380
 11750.00000    -999.25  138.28960    -999.25    -999.25    -999.25    -999.25    -999.25    -999.25    7.23120    -999.25   76.61450   77.02690   76.61450    -999.25   63.07700   63.07700    7.23120    7.01700    7.01700    -999.25    -999.25    -999.25    -999.25    -999.25   10.07000    -999.25    0.17200    0.19720  -11.60330   -1.87810   10.07000    -999.25 3865.35910
 11800.00000    -999.25  400.20810    -999.25    -999.25    -999.25    -999.25    -999.25    -999.25    2.49870    -999.25   78.17740   78.61050   78.17740    -999.25   81.18130   81.18130    2.49870    2.69250    2.69250    -999.25    -999.25    -999.25    -999.25    -999.25    3.15710    -999.25    0.18070    0.20840  -13.20670   -3.37750    3.15710    -999.25 3910.63750
 11850.00000   11.92620  317.26890    3.42620    -999.25    -999.25    -999.25    -999.25    -999.25    3.15190    -999.25   76.62680   77.05980   76.62680   79.98270   70.53160   70.53160    3.15190    3.25560    3.25560    -999.25    -999.25    -999.25    -999.25    -999.25    3.28980    -999.25    0.17280    0.19730  -12.14870   -2.21540    3.28980 4785.79180 3945.20870
 11900.00000   12.34120  404.57980    3.84120    -999.25    -999.25    -999.25    -999.25    -999.25    2.47170    -999.25   81.96850   84.17340   81.96850   97.01820   94.17100   94.17100    2.47170    2.58840    2.58840    -999.25    -999.25    -999.25    -999.25    -999.25    2.93410    -999.25    0.20620    0.23550  -12.04020   -1.80640    2.93410 4813.73220 3909.02710
 11950.00000   12.05200  472.67910    3.55200    -999.25    -999.25    -999.25    -999.25    -999.25    2.11560    -999.25   85.78130   86.21440   85.78130   84.08590   80.58650   80.58650    2.11560    2.18510    2.18510    -999.25    -999.25    -999.25    -999.25    -999.25    2.55000    -999.25    0.22010    0.26270  -12.72350   -2.13050    2.55000 4788.13750 3964.43700
 12000.00000   12.10040  497.73530    3.60040    -999.25    -999.25    -999.25    -999.25    -999.25    2.00910    -999.25   88.34650   88.77950   88.34650   89.77940   74.78780   74.78780    2.00910    2.07520    2.07520    -999.25    -999.25    -999.25    -999.25    -999.25    2.32270    -999.25    0.23310    0.28100  -14.44590   -3.49370    2.32270 4828.70910 3955.56370
 12050.00000   12.40120  411.94640    3.90120    -999.25    -999.25    -999.25    -999.25    -999.25    2.42750    -999.25   82.99680   83.42980   82.99680   89.14050   81.16500   81.16500    2.42750    2.50720    2.50720    -999.25    -999.25    -999.25    -999.25    -999.25    2.75350    -999.25    0.20560    0.24280  -13.99500   -2.68360    2.75350 4684.20090 3978.12280
 12100.00000   12.34630  434.08430    3.84630    -999.25    -999.25    -999.25    -999.25    -999.25    2.30370    -999.25   85.15760   85.59050   85.15760   91.52900   85.40030   85.40030    2.30370    2.37950    2.37950    -999.25    -999.25    -999.25    -999.25    -999.25    2.59500    -999.25    0.21880    0.25830  -16.45230   -4.78170    2.59500 4818.86550 3987.06250
 12150.00000   12.04910  417.24040    3.54910    -999.25    -999.25    -999.25    -999.25    -999.25    2.39670    -999.25   85.94430   86.37740   85.94430   90.60840   88.81280   88.81280    2.39670    2.47540    2.47540    -999.25    -999.25    -999.25    -999.25    -999.25    2.75440    -999.25    0.22230    0.26390  -17.28110   -5.25130    2.75440 4891.43110 3984.77830
 12200.00000   11.95460  431.23890    3.45460    -999.25    -999.25    -999.25    -999.25    -999.25    2.31890    -999.25   84.88710   85.32020   84.88710   87.88720   91.12390   91.12390    2.31890    2.39520    2.39520    -999.25    -999.25    -999.25    -999.25    -999.25    2.78340    -999.25    0.21600    0.25630  -17.39230   -5.00330    2.78340 4849.95200 3997.77000
 12250.00000   11.72130  438.46190    3.22130    -999.25    -999.25    -999.25    -999.25    -999.25    2.28070    -999.25   85.26300   86.68030   85.26300   84.22830   94.09270   94.09270    2.28070    2.36420    2.36420    -999.25    -999.25    -999.25    -999.25    -999.25    2.77200    -999.25    0.21500    0.25900  -18.54630   -5.79810    2.77200 5002.02240 4039.28050
 12300.00000   11.63130  350.25040    3.13130    -999.25    -999.25    -999.25    -999.25    -999.25    2.85510    -999.25   82.26690   82.70000   82.26690   94.52300   79.70740   79.70740    2.85510    2.94900    2.94900    -999.25    -999.25    -999.25    -999.25    -999.25    3.34490    -999.25    0.20400    0.23760  -17.92460   -4.81720    3.34490 4878.15350 4064.68040
 12350.00000   11.13890  381.97100    2.63890    -999.25    -999.25    -999.25    -999.25    -999.25    2.61800    -999.25   83.00900   83.44200   83.00900   95.57540   91.90680   91.90680    2.61800    2.71090    2.71090    -999.25    -999.25    -999.25    -999.25    -999.25    3.12720    -999.25    0.20790    0.24290  -18.49110   -5.02450    3.12720 4709.45490 4082.08500
 12400.00000   11.10880  231.19250    2.60880    -999.25    2.66180    0.02820    -999.25    0.02820    4.32540    -999.25   74.24960   73.26200   74.24960   79.18110   75.83420   75.83420    4.32540    4.55000    4.55000    0.15990    -999.25    0.15990    3.21450    3.21450    5.05220    0.21100    -999.25    0.18040  -18.26720   -4.44140    5.05220 5199.59160 4071.57080
 12450.00000   10.14950  145.57740    1.64950    0.00590    2.64260    0.03940    -999.25    0.03940    6.86920    0.00590   67.00120   66.04760   67.00120   49.01190   53.36000   53.36000    6.86920    7.57560    7.57560    0.07720    -999.25    0.07720    4.79970    4.79970   11.64170    0.16340    -999.25    0.12860  -19.76570   -5.58070   11.64170 5048.66130 4074.08280
 12500.00000    9.97800  212.78860    1.47800    0.03280    2.62130    0.05190    -999.25    0.05190    4.69950    0.03280   73.40710   74.68150   73.40710   68.20940   72.21860   72.21860    4.69950    4.99250    4.99250    0.14240    -999.25    0.14240    4.01650    4.01650    6.67990    0.21030    -999.25    0.17430  -19.03230   -4.48810    6.67990 5109.64130 4111.13380
 12550.00000    9.79800  373.34330    1.29800    0.01090    2.61560    0.05520    -999.25    0.05520    2.67850    0.01090   83.87160   82.96570   83.87160   87.25730   91.08770   91.08770    2.67850    2.74790    2.74790    0.16630    -999.25    0.16630    3.99020    3.99020    3.48790    0.25670    -999.25    0.24910  -17.99080   -3.08740    3.48790 4928.00430 4096.66700
 12600.00000   10.00400  425.24240    1.50400    0.01790    2.60430    0.06180    -999.25    0.06180    2.35160    0.01790   84.68610   83.77360   84.68610   71.98980   81.83290   81.83290    2.35160    2.42270    2.42270    0.16600    -999.25    0.16600    4.03000    4.03000    3.25220    0.26080    -999.25    0.25490  -18.60720   -3.34470    3.25220 5082.56400 4137.73580
 12650.00000   10.08410  218.11200    1.58410    0.04000    2.50920    0.11740    -999.25    0.11740    4.58480    0.04000   78.14200   78.13210   78.14200   88.97160   82.20930   82.20930    4.58480    4.15860    4.15860    0.15680    -999.25    0.15680    4.27950    4.27950    6.52830    0.23080    -999.25    0.20820  -18.09340   -2.47170    6.52830 5122.89600 4170.86180
 12700.00000    9.98290   32.01920    1.48290    0.01070    2.44920    0.15250    -999.25    0.15250   31.23130    0.01070   82.93660   81.95550   82.93660   99.53670   97.45130   97.45130   31.23130   29.10450   29.10450    0.14890    -999.25    0.14890    3.98890    3.98890   46.04830    0.25370    -999.25    0.24240  -24.22500   -8.24410   46.04830 5167.60130 4181.32670
 12750.00000   10.13830   33.57240    1.63830    0.01770    2.50090    0.12230    -999.25    0.12230   29.78640    0.01770   80.12530   79.25780   80.12530  104.84460  126.58290  126.58290   29.78640   26.90900   26.90900    0.16650    -999.25    0.16650    4.04060    4.04060   41.75730    0.23850    -999.25    0.22230  -33.75530  -15.53440   41.75730 5111.36180 4195.34130
