~Version ---------------------------------------------------
VERS. 2.0 : CWLS log ASCII Standard -VERSION 2.0
WRAP. YES : MULTIPLE LINES PER DEPTH STEP
~Well ------------------------------------------------------
STRT.FT                  300.0 : START DEPTH
STOP.FT                18600.0 : STOP DEPTH
STEP.FT               50.00000 : STEP LENGTH
NULL.                  -999.25 : NULL VALUE
COMP.        SHELL OIL COMPANY : COMPANY
WELL. PAWELEK BEN A ET AL A #1 : WELL
FLD .    PERSON AREA (WILDCAT) : FIELD
LOC .                          : LOCATION
CNTY.                   KARNES : COUNTY
STAT.                    TEXAS : STATE
CTRY. UNITED STATES OF AMERICA : COUNTRY
SRVC.             Schlumberger : SERVICE COMPANY
DATE.              22-May-1978 : LOGDATE
API .           42255305980000 : API NUMBER
UWI .           42255305980000 : UNIQUE WELL ID
SLAT.WGS84       29.0241796548 : SURFACE LATITUDE
SLON.WGS84      -97.8796797249 : SURFACE LONGITUDE
~Curve Information -----------------------------------------
DEPT    .FT    : DEPTH FEET
CALDED  .IN    : CALIPER FROM DENSITY LOG [DEP ADJ TO GRSED]
CALMED  .IN    : CALIPER FROM MICROLOG [DEP ADJ TO SFLED]
CALSED  .IN    : CALIPER FROM SONIC LOG
CALWS   .IN    : CALIPER [10 CALDED 4845.5 CALMED 4849 CALDED 17451 CALSED 17577 CALDED]
CONDWS  .MMHO  : CONDUCTIVITY [1000/DRESWS]
DCORWS  .G/C3  : DENSITY CORRECTION [DRHOED]
DENWS   .G/C3  : BULK DENSITY [M=2.71 F=1.0] [RHOBED]
DPHILSED.V/V   : DENSITY POROSITY [M=2.71 F=1.0] FROM DENSITY LOG [DEP ADJ TO GRSED/RHOBED]
DPHISSED.V/V   : DENSITY POROSITY [M=2.65 F=1.0] FROM DENSITY LOG [DEP ADJ TO GRSED/RHOBED]
DPOLSWS .V/V   : DENSITY POROSITY [M=2.71 F=1.0] [CAL FR DENWS]
DRESWS  .OHMM  : DEEP RESISTIVITY [ILDED]
DRHOED  .G/C3  : DENSITY CORRECTION FROM DENSITY LOG [DEP ADJ TO GRSED]
DTED    .US/F  : DELTA TIME FROM SONIC LOG
DTWS    .US/F  : DELTA TIME [DTED]
GRDED   .GAPI  : GAMMA RAY FROM DENSITY LOG
GRRED   .GAPI  : GAMMA RAY FROM RESISTIVITY LOG [DEP ADJ TO GRSED]
GRSED   .GAPI  : GAMMA RAY FROM SONIC LOG
GRWS    .GAPI  : GAMMA RAY [70 GRDED 4800.5 GRDEDNRM [0-100 TO 0-140]4844.5 GRSED 4853.5 GRDED 12903.5 GRSED 12939.5 GRDED 12962 GRSED 17526 GRDED 17550 GRRED 18607 GRDED]
ILDED   .OHMM  : INDUCTION LOG DEEP RESISTIVITY
ILMED   .OHMM  : INDUCTION LOG MEDIUM RESISTIVITY
MRESWS  .OHMM  : MEDIUM RESISTIVITY [ILMED]
NPHILSED.V/V   : NEUTRON POROSITY LISTONE FROM DENSITY LOG [DEP ADJ TO GRSED/RHOBED]
NPHISSED.V/V   : NEUTRON POROSITY SANDSTONE FROM DENSITY LOG [DEP ADJ TO GRSED/RHOBED]
NPOLSWS .V/V   : NEUTRON POROSITY LIMESTONE [10 NPOLSCAL 9446 NPHILSED] [NPHISSED IS CONVERTED TO NPOLSCAL USING POWERLOG MODULE]
PROXED  .OHMM  : PROXIMITY RESISTIVITY FROM MICROLOG [DEP ADJ TO SFLED]
RHOBED  .G/C3  : BULK DENSITY FROM DENSITY LOG [DEP ADJ TO GRSED]
SFLED   .OHMM  : SPHERICALLY FOCUSED LOG RESISTIVITY
SPRED   .MV    : SPONTANEOUS POTENTIAL FROM RESISTIVITY LOG [SHIFTS ARE REMOVED]
SPWS    .MV    : SPONTANEOUS POTENTIAL [BASELINE 0 MV] [SPRED][PL. USE W/ RESERVATIONS]
SRESWS  .OHMM  : SHALLOW RESISTIVITY [SFLED]
TENDED  .LBF   : TENSION FROM DENSITY LOG [DEP ADJ TO GRSED]
~Params ----------------------------------------------------
PD  .                     GL : PERMANENT DATUM
EPD .FT                  335 : ELEVATION PERMANENT DATUM
LMF .                     KB : LOG MEASURED FROM
DAPD.FT                   28 : FEET ABOVE PERMANENT DATUM
DMF .                     KB : DRILLING MEASURED FROM
EKB .FT                  363 : KELLY BUSHING
EDF .FT                  362 : DRILLING FLOOR
EGL .FT                  335 : GROUND LEVEL
DATE.               05/22/78 : RUN DATE
RUN .                      4 : RUN NUMBER
DD  .FT                18626 : DEPTH DRILLER
DL  .FT                18642 : DEPTH LOGGER
BLI .FT                18637 : BOTTOM LOG INTERVAL
TLI .FT                17550 : TOP LOG INTERVAL
CS  .IN                    7 : CASING SIZE
CBD .FT                17544 : CASING BOTTOM DRILLER
CBL .FT                17550 : CASING BOTTOM LOGGER
BS  .IN                    6 : BIT SIZE
BSD .FT                18626 : BIT SIZE AT DEPTH
DFT .               INVERMUL : DRILLING FLUID TYPE
DFD .                   17.6 : DRILLING FLUID DENSITY
DFV .                     70 : DRILLING FLUID VISCOSITY
DFL .                      2 : DRILLING FLUID LOSS
LUN .                   7799 : LOGGING UNIT NUMBER
LUL .                  PLEAS : LOGGING UNIT LOCATION
ENGI.             TURBEVILLE : RECORDING ENGINEER
WITN.                JARRELL : WITNESSED BY
CLNT.                A2DTECH : CLIENT CODE
ORIG.            2" 5" PRINT : ORIGIN OF DATA
UWI .         42255305980000 : UNIQUE WELL ID
DICO. A2D Technologies, Inc. : DIGITIZING COMPANY
~Other -----------------------------------------------------
~ASCII -----------------------------------------------------
# ...
 8350.00000   15.47720   12.86820   12.79350   15.47720  595.13180    0.10590    2.49680    -999.25    0.09980    0.12470    1.68030    0.10590   93.15610   93.15610   71.90840    -999.25   75.58530   71.90840    1.68030    1.71760    1.71760    -999.25    0.33060    0.28680    1.36990    2.49680    2.15090  -51.08810   -7.34750    2.15090 9694.06930
 8400.00000   16.40720   13.02640   13.47440   16.40720  601.28670    0.07710    2.44540    -999.25    0.12380    0.15470    1.66310    0.07710   94.94040   94.94040   70.67520    -999.25   78.90690   70.67520    1.66310    1.69750    1.69750    -999.25    0.35800    0.31450    1.02580    2.44540    2.16290  -49.81450   -6.14720    2.16290 9672.32620
 8450.00000   16.36670   13.03140   13.22700   16.36670  652.44340    0.07930    2.45230    -999.25    0.11330    0.15070    1.53270    0.07930   97.16870   97.16870   74.59870    -999.25   73.92880   74.59870    1.53270    1.57680    1.57680    -999.25    0.34740    0.30370    0.98480    2.45230    2.05920  -48.92930   -5.33530    2.05920 9701.28420
 8500.00000   16.41030   12.97630   13.92690   16.41030  589.44890    0.09600    2.44240    -999.25    0.14060    0.15650    1.69650    0.09600   96.36050   96.36050   69.39420    -999.25   73.09560   69.39420    1.69650    1.73260    1.73260    -999.25    0.39210    0.34910    0.83710    2.44240    2.19390  -47.89680   -4.37590    2.19390 9627.42090
 8550.00000   15.75600   12.92940   13.35090   15.75600  690.36930    0.06590    2.43530    -999.25    0.13170    0.16060    1.44850    0.06590  100.48370  100.48370   79.16590    -999.25   79.86710   79.16590    1.44850    1.47960    1.47960    -999.25    0.36400    0.32050    0.92170    2.43530    1.95720  -45.97750   -2.50980    1.95720 9625.91210
 8600.00000   15.77200   12.75670   13.33000   15.77200  595.09640    0.09140    2.37980    -999.25    0.17010    0.19310    1.68040    0.09140   94.89580   94.89580   66.70110    -999.25   73.15230   66.70110    1.68040    1.71560    1.71560    -999.25    0.38710    0.34400    1.02300    2.37980    2.31380  -50.40780   -6.99320    2.31380 9547.89940
 8650.00000   14.23130   12.31390   10.38860   14.23130  358.57720    0.04600    2.46010    -999.25    0.11440    0.14610    2.78880    0.04600   88.60800   88.60800   71.05270    -999.25   73.29090   71.05270    2.78880    3.22310    3.22310    -999.25    0.28170    0.23770    4.26530    2.46010    4.27700  -51.05680   -7.69540    4.27700 9504.03710
 8700.00000   14.13350   11.86820   10.77990   14.13350  411.98040    0.11400    2.37130    -999.25    0.17890    0.19810    2.42730    0.11400  106.12670  106.12670   89.75560    -999.25  101.81650   89.75560    2.42730    2.80380    2.80380    -999.25    0.36620    0.32280    4.54610    2.37130    3.02370  -51.01130   -7.70310    3.02370 9430.73240
 8750.00000   13.89440   11.96100   10.32910   13.89440  382.42380    0.04470    2.44910    -999.25    0.11860    0.15260    2.61490    0.04470   88.10870   88.10870   69.44430    -999.25   74.58050   69.44430    2.61490    2.90770    2.90770    -999.25    0.28970    0.24570    3.50370    2.44910    3.69270  -52.11100   -8.85600    3.69270    -999.25
 8800.00000   14.09140   12.00210   10.71530   14.09140  565.73880    0.06150    2.40570    -999.25    0.15140    0.17800    1.76760    0.06150   89.03070   89.03070   81.71070    -999.25   81.98950   81.71070    1.76760    1.84480    1.84480    -999.25    0.35200    0.30840    1.43250    2.40570    2.18670  -48.94430   -5.74240    2.18670 9696.07520
 8850.00000   13.77790   11.83930   10.70470   13.77790  504.10850    0.09850    2.40560    -999.25    0.14810    0.17800    1.98370    0.09850   83.09750   83.09750   75.69770    -999.25   82.04940   75.69770    1.98370    2.08440    2.08440    -999.25    0.33820    0.29440    1.30010    2.40560    2.43580  -47.52320   -4.37450    2.43580 9608.17190
 8900.00000   13.77910   12.20140   10.41530   13.77910  502.99280    0.10780    2.41370    -999.25    0.14680    0.17330    1.98810    0.10780   85.19370   85.19370   99.96270    -999.25  111.13310   99.96270    1.98810    2.02990    2.02990    -999.25    0.35720    0.31360    1.96210    2.41370    2.52430  -45.56170   -2.46620    2.52430 9606.59670
 8950.00000   13.26580   11.73830   10.20190   13.26580  340.40230    0.05870    2.43310    -999.25    0.13780    0.16190    2.93770    0.05870   85.16360   85.16360   59.37530    -999.25   63.29720   59.37530    2.93770    3.50190    3.50190    -999.25    0.25780    0.21390    4.52580    2.43310    4.08900  -49.69430   -7.04350    4.08900 9497.81050
 9000.00000   14.00250   12.28850   10.72730   14.00250  473.30560    0.10540    2.38810    -999.25    0.15400    0.18820    2.11280    0.10540   86.63870   86.63870   76.84130    -999.25   83.69690   76.84130    2.11280    2.29880    2.29880    -999.25    0.33980    0.29610    2.91830    2.38810    2.79000  -47.34070   -5.49610    2.79000 9521.02830
 9050.00000   14.66140   13.01040   10.60790   14.66140  523.47800    0.14930    2.46780    -999.25    0.11620    0.14160    1.91030    0.14930   83.80660   83.80660   74.52080    -999.25   84.21820   74.52080    1.91030    2.08940    2.08940    -999.25    0.32710    0.28330    1.84650    2.46780    2.67600  -44.68640   -3.64800    2.67600 9485.09280
 9100.00000   14.74750   13.17300   10.67510   14.74750  480.12290    0.09190    2.49230    -999.25    0.09480    0.12730    2.08280    0.09190   89.38980   89.38980  104.93280    -999.25  115.01680  104.93280    2.08280    2.35400    2.35400    -999.25    0.27950    0.23550    3.18590    2.49230    3.04910  -43.48000   -3.13720    3.04910 9417.74900
 9150.00000   15.11340   13.19470   10.49300   15.11340  410.40800    0.04580    2.50870    -999.25    0.08050    0.11770    2.43660    0.04580   80.87090   80.87090   71.32500    -999.25   71.79240   71.32500    2.43660    2.60870    2.60870    -999.25    0.27360    0.22960    3.34060    2.50870    3.06440  -51.17000  -10.94240    3.06440 9432.25290
 9200.00000   16.09590   13.77180   11.05580   16.09590  557.10310    0.08870    2.43000    -999.25    0.13060    0.16370    1.79500    0.08870   90.43980   90.43980   82.29430    -999.25   88.97820   82.29430    1.79500    1.83270    1.83270    -999.25    0.35480    0.31120    1.28140    2.43000    2.37750  -47.93360   -7.82110    2.37750 9394.98830
 9250.00000   16.21080   13.94980   10.81840   16.21080  474.13590    0.11780    2.47840    -999.25    0.10850    0.13540    2.10910    0.11780   85.53750   85.53750   78.19620    -999.25   80.74620   78.19620    2.10910    2.15260    2.15260    -999.25    0.30960    0.26570    1.48730    2.47840    2.85610  -47.80030   -7.80290    2.85610 9738.18360
 9300.00000   16.02970   13.78260   10.92780   16.02970  597.37160    0.08110    2.42810    -999.25    0.13110    0.16490    1.67400    0.08110   92.25010   92.25010   87.49980    -999.25  102.44310   87.49980    1.67400    1.85430    1.85430    -999.25    0.33790    0.29410    1.12530    2.42810    2.21790  -45.58570   -5.70340    2.21790 9744.40720
 9350.00000   15.03510   13.52750   10.83270   15.03510  487.90010    0.09660    2.43890    -999.25    0.13370    0.15850    2.04960    0.09660   89.18340   89.18340  109.81400    -999.25  118.14140  109.81400    2.04960    2.09210    2.09210    -999.25    0.29280    0.24880    2.28360    2.43890    2.72820  -45.12420   -5.35700    2.72820 9663.26950
 9400.00000   14.69260   13.56880   10.80420   14.69260  451.99780    0.11400    2.44130    -999.25    0.13050    0.15710    2.21240    0.11400   85.47600   85.47600   77.54870    -999.25   77.65000   77.54870    2.21240    2.26220    2.26220    -999.25    0.34750    0.30380    2.26870    2.44130    2.86530  -43.84150   -4.18940    2.86530 9649.84080
 9450.00000   13.71200   12.78660   10.55610   13.71200  313.20470    0.06060    2.48720    0.14160    -999.25    0.13030    3.19280    0.06060   81.38970   81.38970   72.45880    -999.25   79.09800   72.45880    3.19280    3.25890    3.25890    0.22610    -999.25    0.22610    4.43060    2.48720    4.20720  -52.26360  -12.72660    4.20720 9629.40820
