~Version ---------------------------------------------------
VERS. 2.0 : CWLS log ASCII Standard -VERSION 2.0
WRAP.  NO : ONE LINE PER DEPTH STEP
~Well ------------------------------------------------------
STRT.F                  4000.0 : START DEPTH
STOP.F                  8750.0 : STOP DEPTH
STEP.F                50.00000 : STEP LENGTH
NULL.                  -999.25 : NULL VALUE
COMP.       CHAMPLIN PETROLEUM : COMPANY
WELL.         EDWIN ZGABAY #1D : WELL
FLD .                 GIDDINGS : FIELD
LOC .                          : LOCATION
CNTY.                 BURLESON : COUNTY
STAT.                    TEXAS : STATE
CTRY. UNITED STATES OF AMERICA : COUNTRY
SRVC.             Schlumberger : SERVICE COMPANY
DATE.              04-Aug-1981 : LOGDATE
API .           42051317340000 : API NUMBER
UWI .           42051317340000 : UNIQUE WELL ID
SLAT.WGS84       30.3500605199 : SURFACE LATITUDE
SLON.WGS84      -96.7387544116 : SURFACE LONGITUDE
~Curve Information -----------------------------------------
DEPT.F                 : 
GRR .GAPI 07 310 01 00 : GAMMA RAY FROM RESISTIVITY LOG
SPR .MV   07 010 01 00 : SPONTANEOUS POTENTIAL FROM RESISTIVITY LOG
ILD .OHMM 07 120 46 00 : INDUCTION DEEP RESISTIVITY
ILM .OHMM 07 120 44 00 : INDUCTION MEDIUM RESISTIVITY
SFLU.OHMM 07 220 01 00 : SHALLOW FOCUSED RESISTIVITY (UNAVERAGED)
DCAL.IN   07 280 01 00 : DIFFERENTIAL CALIPER
DTL .US/F 60 501 00 00 : DELTA-T LONG SPACING
GRN .GAPI 35 310 01 00 : GAMMA RAY FROM GRN LOG
NEUT.NAPI 35 330 01 00 : NEUTRON
~Params ----------------------------------------------------
PD  .                     GL : PERMANENT DATUM
EPD .FT                  313 : ELEVATION PERMANENT DATUM
LMF .                    RKB : LOG MEASURED FROM
DAPD.FT                   14 : FEET ABOVE PERMANENT DATUM
DMF .                    RKB : DRILLING MEASURED FROM
EKB .FT                  327 : KELLY BUSHING
EDF .FT                  325 : DRILLING FLOOR
EGL .FT                  313 : GROUND LEVEL
DATE.               08/04/81 : RUN DATE
RUN .                      1 : RUN NUMBER
DD  .FT                 8800 : DEPTH DRILLER
DL  .FT                 8793 : DEPTH LOGGER
BLI .FT                 8787 : BOTTOM LOG INTERVAL
TLI .FT                 3959 : TOP LOG INTERVAL
CS  .IN                9.625 : CASING SIZE
CBD .FT                 3950 : CASING BOTTOM DRILLER
CBL .FT                 3959 : CASING BOTTOM LOGGER
BS  .IN                 8.75 : BIT SIZE
BSD .FT                 8800 : BIT SIZE AT DEPTH
DFT .                    LNS : DRILLING FLUID TYPE
DFD .                    9.3 : DRILLING FLUID DENSITY
DFV .                     46 : DRILLING FLUID VISCOSITY
DFPH.                      9 : DRILLING FLUID PH
DFL .                     10 : DRILLING FLUID LOSS
MSS .                   TANK : MUD SAMPLE SOURCE
RMS .OHMM               2.39 : RESISTIVITY MUD SAMPLE
MST .DEGF                 98 : MUD SAMPLE TEMPERATURE
RMF .OHMM               1.79 : RESISTIVITY MUD FILTRATE SAMPLE
MFST.DEGF                 98 : MUD FILTRATE SAMPLE TEMPERATURE
RMC .OHMM               3.59 : RESISTIVITY MUD CAKE
MCST.DEGF                 98 : MUD CAKE SAMPLE TEMPERATURE
MFSS.               MEASURED : MUD FILTRATE SAMPLE SOURCE
MCSS.             CALCULATED : MUD CAKE SAMPLE SOURCE
RMB .OHMM                1.2 : RESISTIVITY MUD AT BHT
TCS .HRS                 100 : TIME CIRCULATED STOPPED
TLAB.HRS                 600 : TIME LOGGER AT BOTTOM
LUN .                   8101 : LOGGING UNIT NUMBER
LUL .                BRENHAM : LOGGING UNIT LOCATION
ENGI.         STEVE BERDINIS : RECORDING ENGINEER
WITN.             DALE VODAK : WITNESSED BY
CLNT.                A2DTECH : CLIENT CODE
ORIG.            2" 5" PRINT : ORIGIN OF DATA
UWI .         42051317340000 : UNIQUE WELL ID
DICO. A2D Technologies, Inc. : DIGITIZING COMPANY
~Other -----------------------------------------------------
~ASCII -----------------------------------------------------
 4000.00000   70.35360  -30.38430    6.57550    8.94060   12.08880    1.12040   94.20540    -999.25    -999.25
 4050.00000   77.90480  -26.68110    7.64050    8.66920    9.97800    0.53270   85.89990    -999.25    -999.25
 4100.00000   99.02650  -11.37170    4.51180    4.75810    4.91580    1.00810   89.34960    -999.25    -999.25
 4150.00000   99.53720   -5.66600    2.66740    2.75650    2.80620    1.21350  101.50070    -999.25    -999.25
 4200.00000   68.73480  -33.87680    6.01710    7.76280    9.66820    0.08500   99.35710    -999.25    -999.25
 4250.00000   49.24360  -41.64690    4.99480    6.54460   10.33080    0.14580  100.17280    -999.25    -999.25
 4300.00000   52.68210  -36.29760    5.10170    6.63340    9.14040    0.02260  103.51210    -999.25    -999.25
 4350.00000   67.35910  -38.84820    5.59170    7.10490   10.22580   -0.15130   93.26670    -999.25    -999.25
 4400.00000   67.78410  -28.25330    5.79210    7.15390    8.81150   -0.06770   87.31360    -999.25    -999.25
 4450.00000  115.52170  -11.10110    3.57000    3.66460    4.09510    0.30150  101.80220    -999.25    -999.25
 4500.00000  109.33210   -5.61420    2.90320    3.07030    3.97950    0.45410   94.54490    -999.25    -999.25
 4550.00000  121.95290   -0.22680    2.39070    2.42720    2.99710    0.66970   93.76760    -999.25    -999.25
 4600.00000  109.45760   -2.52730    3.26790    3.40290    3.50330    0.56490   97.55590    -999.25    -999.25
 4650.00000  114.51100    0.11610    2.61940    2.79820    3.03890    0.63830  101.31540    -999.25    -999.25
 4700.00000  112.20160   -4.96470    3.27050    3.41320    4.38190    0.74210   91.69170    -999.25    -999.25
 4750.00000  106.50740  -27.34490    3.16470    3.89350    6.02530   -0.25680   91.28170    -999.25    -999.25
 4800.00000  106.92910   -3.96980    2.22760    2.34770    2.48340    0.50500  100.41980    -999.25    -999.25
 4850.00000   98.53620   -5.25510    2.46960    2.55980    2.67050    1.10610  100.41090    -999.25    -999.25
 4900.00000  103.35650   -5.51470    2.85330    2.93000    3.57250    0.79380   92.37910    -999.25    -999.25
 4950.00000  108.09930   -2.31090    2.30310    2.39830    2.70390    1.20530   92.98640    -999.25    -999.25
 5000.00000  109.62830   -2.07560    2.02900    2.17430    2.35730    2.19600   94.62990    -999.25    -999.25
 5050.00000  109.10070   -4.98850    1.57700    1.49010    1.82160    2.82130  101.18450    -999.25    -999.25
 5100.00000  104.12860   -3.42360    1.63230    1.45040    1.80520    3.22520   99.37190    -999.25    -999.25
 5150.00000  100.03350   -3.40630    1.67860    1.59230    1.91680    2.88960   98.33970    -999.25    -999.25
 5200.00000   96.44080   -1.40200    1.58800    1.51060    1.79250    2.24730  100.41680    -999.25    -999.25
 5250.00000  106.64590   -3.14210    1.57330    1.40710    1.81700    1.77890  101.47620    -999.25    -999.25
 5300.00000  110.42230   -2.56900    1.33670    1.19830    1.53650    1.47760  104.55250    -999.25    -999.25
 5350.00000  100.72490   -4.54790    1.48570    1.42140    1.67970    1.96460   96.67160    -999.25    -999.25
 5400.00000  103.83590   -1.47550    1.42510    1.33940    1.63870    1.91250   99.72810    -999.25    -999.25
 5450.00000   97.13430   -1.17800    1.21750    1.14170    1.43320    1.98780  100.42600    -999.25    -999.25
 5500.00000   86.24540   -4.16760    1.97830    2.07710    2.42430    0.48870   88.01910    -999.25    -999.25
 5550.00000   95.63780   -4.17300    1.44880    1.48760    1.63260    1.16430   96.50520    -999.25    -999.25
 5600.00000   78.35180   -8.77710    1.45010    1.43910    1.68590    0.43450   93.66050    -999.25    -999.25
 5650.00000   92.25030   -5.28230    0.99020    0.93580    1.15110    3.79110  113.77320    -999.25    -999.25
 5700.00000   97.83690   -4.67500    1.05230    0.97980    1.24310    2.93270  106.79820    -999.25    -999.25
 5750.00000   81.58350   -4.06300    1.76190    1.82480    2.14100    0.80940   86.19660    -999.25    -999.25
 5800.00000   75.27830  -10.90680    1.71930    1.83320    3.60560    0.81020   86.37100    -999.25    -999.25
 5850.00000   93.23240  -10.26810    1.60670    1.66580    1.91210    2.41230   91.92330    -999.25    -999.25
 5900.00000   97.27800   -9.70170    1.10180    1.03250    1.31190    3.49750  106.71850    -999.25    -999.25
 5950.00000   91.99780   -7.58360    1.05110    0.96860    1.23960    3.48770  109.02050    -999.25    -999.25
 6000.00000  103.65780  -10.06110    0.91780    0.87080    1.18350    1.92310  104.68130    -999.25    -999.25
 6050.00000   85.23660   -6.60480    1.58250    1.65240    1.90590    0.44020   95.55260    -999.25    -999.25
 6100.00000  113.87720   -5.61280    1.09690    1.15140    1.26010    2.06140  104.31350    -999.25    -999.25
 6150.00000  109.50990   -4.06050    1.16620    1.22730    1.29180    1.05850   95.33330    -999.25    -999.25
 6200.00000  111.51160   -1.96630    1.05040    1.01590    1.17650    2.07510   99.46260    -999.25    -999.25
 6250.00000   84.49690   -5.61970    1.74930    1.83390    2.12260    1.36080   84.33990    -999.25    -999.25
 6300.00000   99.00650   -7.88790    1.35730    1.26800    1.59910    2.10500   93.91350    -999.25    -999.25
 6350.00000   98.30830  -12.61290    1.32350    1.23620    1.41170    2.16470   92.20010    -999.25    -999.25
 6400.00000  103.89370   -6.20810    1.29520    1.24170    1.47510    3.70410   94.38870    -999.25    -999.25
 6450.00000   93.65580  -10.97920    1.24660    1.17740    1.27770    3.68210  100.70640    -999.25    -999.25
 6500.00000  101.51820   -6.43260    1.13040    1.06600    1.23910    2.98730  103.27990    -999.25    -999.25
 6550.00000  106.70710   -7.55190    1.41060    1.35390    1.58890    3.18110  100.41750    -999.25    -999.25
 6600.00000  102.99680   -7.59240    1.63720    1.69830    1.90460    0.64780   95.06380    -999.25    -999.25
 6650.00000  101.72460   -4.81900    1.67080    1.74390    2.02830    1.47900   88.29550    -999.25    -999.25
 6700.00000  104.00180   -6.97540    1.63030    1.68620    1.94900    2.32390   91.84010    -999.25    -999.25
 6750.00000   93.09610  -14.04630    1.46920    1.39290    1.55460    4.79980   97.56170    -999.25    -999.25
 6800.00000   91.81990  -10.62910    1.29790    1.34270    1.53560    5.08320   98.77530    -999.25    -999.25
 6850.00000   90.76070   -4.58030    1.28580    1.32270    1.60880    3.44980   98.05840    -999.25    -999.25
 6900.00000  101.91050   -4.90390    1.52960    1.61500    1.98540    1.53180   89.43420    -999.25    -999.25
 6950.00000   54.15120   -3.03810    3.05490    3.71680    5.88950    1.06050   73.35830    -999.25    -999.25
 7000.00000   50.25340   -3.95410    4.64790    4.69350    5.83920    0.94600   77.95700    -999.25    -999.25
 7050.00000   82.03950    1.18640    3.29110    3.39340    4.08470    1.20520   81.23270    -999.25    -999.25
 7100.00000   84.74630   -7.06060    1.36740    1.45960    1.64390    5.26500  100.12080    -999.25    -999.25
 7150.00000   83.11170    1.26780    1.92050    2.07540    2.57940    2.46080   86.91220    -999.25    -999.25
 7200.00000   84.61820    0.78050    2.09100    2.20150    2.46370    2.62750   89.03270    -999.25    -999.25
 7250.00000   89.25710  -21.44460    2.68490    2.80180    3.00900    2.09130   83.22250    -999.25    -999.25
 7300.00000   93.27720  -24.51440    2.04060    2.17770    2.57860    2.53870   85.36830    -999.25    -999.25
 7350.00000   75.60360  -20.83590    2.55510    2.77410    3.38420    1.43680   82.36440    -999.25    -999.25
 7400.00000   85.05330  -26.95440    1.74180    1.81650    2.14420    4.67700   92.06270    -999.25    -999.25
 7450.00000   97.13150  -24.55110    1.77850    1.85630    2.42410    4.00210   87.57420    -999.25    -999.25
 7500.00000   91.21730  -20.76160    2.15140    2.23580    2.76440    2.53900   83.67550    -999.25    -999.25
 7550.00000   88.31350  -23.54330    1.86680    1.95490    2.43950    4.27680   91.00530    -999.25    -999.25
 7600.00000   92.60050  -21.81790    1.89760    1.96970    2.47920    2.80430   90.03030    -999.25    -999.25
