~Version ---------------------------------------------------
VERS. 2.0 : CWLS log ASCII Standard -VERSION 2.0
WRAP.  NO : ONE LINE PER DEPTH STEP
~Well ------------------------------------------------------
STRT.F                     1250.0 : START DEPTH
STOP.F                     8000.0 : STOP DEPTH
STEP.F                   50.00000 : STEP LENGTH
NULL.                     -999.25 : NULL VALUE
COMP.  CHAMPLIN PETROLEUM COMPANY : COMPANY
WELL. STEADMAN RANCH BETTY ANN #2 : WELL
FLD .                     WILDCAT : FIELD
LOC .                             : LOCATION
CNTY.                      DIMMIT : COUNTY
STAT.                       TEXAS : STATE
CTRY.    UNITED STATES OF AMERICA : COUNTRY
SRVC.               Dresser Atlas : SERVICE COMPANY
DATE.                 15-Nov-1978 : LOGDATE
API .              42127317560000 : API NUMBER
UWI .              42127317560000 : UNIQUE WELL ID
SLAT.WGS84          28.2575413645 : SURFACE LATITUDE
SLON.WGS84         -99.9698949429 : SURFACE LONGITUDE
~Curve Information -----------------------------------------
DEPT.F                 : 
CALD.IN   45 280 60 00 : CALIPER FROM DENSITY LOG
DPHI.DEC  45 890 12 00 : DENSITY POROSITY SANDSTONE
GRD .GAPI 45 310 01 00 : GAMMA RAY FROM DENSITY LOG
NPHI.DEC  42 890 03 00 : NEUTRON POROSITY SANDSTONE
RHOB.G/C3 45 350 01 00 : BULK DENSITY
DRHO.G/C3 45 356 01 00 : DENSITY CORRECTION
DT  .US/F 60 520 42 00 : INTERVAL TRANSIT TIME
ILD .OHMM 07 120 46 00 : INDUCTION LOG DEEP
ILM .OHMM 07 120 44 00 : INDUCTION LOG MEDIUM
SFL .OHMM 07 220 01 00 : SHALLOW FOCUSED LOG RESISTIVITY
SPR .MV   07 010 01 00 : SPONTANEOUS POTENTIAL FROM RES. LOG
~Params ----------------------------------------------------
EKB .F                 757.9 : Kelly bushing
EGL .F                 746.9 : Ground level
EDF .F                 756.9 : Drilling floor
EPD .F                 746.9 : Permanent datum
TD  .F                8050.0 : Total depth
DATE.            16-NOV-1978 : Date logged
CLNT.                A2DTECH : Client Code
SL  .   1500' FWL & 330' FNL : Surface Location
PD  .                     GL : Permanent Datum
LMF .                     KB : Log Measured From
DMF .                     KB : Drilling Measured From
DAPD.F                    11 : Feet Above Permanent Datum
DD  .F                  8050 : Depth driller
DL  .F                  8046 : Depth logger
BLI .F                  8044 : Bottom log interval
TLI .F                  1215 : Top log interval
CS1 .IN                8.625 : Casing size
CBD1.         8.625" @ 1215' : Casing driller 1
CBL1.F                  1215 : Casing logger 1
BS1 .IN                7.875 : Bit size
BSD1.F                  8050 : Depth drilled with bit1
DFT .                  BENEX : Type fluid in hole
DFD .                    9.2 : Density
DFV .                     73 : Viscosity
DFPH.                    7.7 : pH
DFL .                    7.3 : Fluid loss
MSS .               FLOWLINE : Source of sample
RMS .OHMM               0.89 : Rm
RMF .OHMM               0.85 : Rmf
RMC .OHMM               1.11 : Rmc
MFSS.                   MEAS : Source Rmf.
MCSS.                   CALC : Source Rmc.
RMB .OHMM               0.35 : Rm. at BHT
BHT .F                   191 : BHT.
TCS .HRS                  32 : Time Circ. stopped
LUN .                   6160 : Logging unit number
LUL .                  ALICE : Logging unit location
ENGI.  BOYKIN/KENDALL/CHAVEZ : Recorded By
WITN.      KRANER/MONTGOMERY : Witnessed by
ORIG.               5" PRINT : Origin of data
UWI .         42127317560000 : Unique Well ID
DICO. A2D TECHNOLOGIES, INC. : Digitizing Company
~Other -----------------------------------------------------
~ASCII -----------------------------------------------------
# ...
 4300.00000   12.07870    0.30130  145.08630    0.30590    2.15570   -0.00680  102.31080    6.26840    6.84920    5.07250  -46.22860
 4350.00000   11.72750    0.35960  141.06870    0.29590    2.07440    0.00080   88.86770    4.29360    5.09330    4.29750  -45.52800
 4400.00000   11.57580    0.31810  140.83350    0.27260    2.16840   -0.00380   88.95750    4.93900    5.53260    4.84770  -45.02260
 4450.00000   12.43250    0.31990  134.51870    0.30040    2.13910   -0.00680   84.40730    4.61150    5.64130    4.54270  -45.28060
 4500.00000    9.33330    0.10430  123.51690    0.23890    2.49900   -0.00380   82.98880    5.23620    5.92410    5.21240  -47.40150
 4550.00000   10.64670    0.22890  147.00760    0.25960    2.30900   -0.00680   88.90180    4.76450    5.57420    4.50540  -46.27890
 4600.00000    8.92920    0.21270  130.80100    0.23770    2.31190   -0.00680   84.17240    4.98800    5.86240    5.49760  -44.42090
 4650.00000    7.78790    0.08300  118.82430    0.19280    2.52580   -0.00680   83.06120    5.05980    5.70380    5.25000  -45.79720
 4700.00000    8.15130    0.10080  132.71830    0.23800    2.49810   -0.00530   86.62670    4.78390    5.38550    5.02590  -45.71230
 4750.00000    8.71200    0.23240  151.78740    0.22940    2.29250   -0.00230   88.33080    4.28340    5.13140    4.79730  -46.26220
 4800.00000    8.42090    0.20990  195.67020    0.23130    2.37380   -0.00530   96.93600    4.14460    4.55070    5.41020  -45.07240
 4850.00000    9.55670    0.11760  133.14500    0.20470    2.47080   -0.00830   82.31860    5.39510    6.21680    5.86440  -44.48670
 4900.00000   10.07540    0.17570  143.96720    0.25000    2.36820   -0.00680   88.48850    4.26070    5.04450    4.88500  -47.04390
 4950.00000   10.24870    0.13830  140.01410    0.22630    2.44080   -0.00230   86.96590    4.54610    5.25020    5.35950  -62.36350
 5000.00000   10.56350    0.15420  144.50030    0.22440    2.41200   -0.00380   83.20520    4.91750    5.47970    5.32350  -42.76060
 5050.00000   10.99990    0.14500  138.70340    0.22640    2.43080   -0.00530   82.73720    4.55030    5.24560    5.36540  -42.91090
 5100.00000    8.72720    0.07720  133.70700    0.18470    2.53470   -0.00380   76.25710    5.39590    6.12800    5.95440  -42.92750
 5150.00000    9.64930    0.11570  134.10630    0.21610    2.44880   -0.00380   80.61190    5.24400    5.60670    6.08640  -43.40960
 5200.00000    9.16030    0.14790  154.51760    0.24200    2.41190   -0.00230   84.34810    4.35500    5.01010    5.18380  -43.65360
 5250.00000   10.40900    0.22270  155.91160    0.26490    2.28120   -0.00080   85.69210    3.91340    4.51790    4.60600  -42.55420
 5300.00000   10.79950    -999.25  147.09230    0.26020    2.21400    0.11880   91.41870    3.32180    3.92090    4.45000  -43.57090
 5350.00000    9.07560    0.06270   88.10170    0.14120    2.59620    0.07670   70.04270    9.36520    9.53630   10.75400  -41.03280
 5400.00000    8.99320    0.04750   71.73070    0.09640    2.62330    0.03990   61.87910   15.65750   14.65850   20.27790  -40.09530
 5450.00000    8.76860    0.04460   60.37930    0.08150    2.62370    0.03710   59.15500   24.69570   19.86480   34.69590  -42.62440
 5500.00000    8.94400    0.03930   74.56780    0.10270    2.63300    0.03420   61.43090   17.17170   17.50050   26.35180  -42.79030
 5550.00000    9.03030    0.05320   88.37000    0.12900    2.61190    0.05520   66.63600   11.21730   13.29380   15.81020  -42.04430
 5600.00000    8.87880    0.04550   80.76520    0.10580    2.62450    0.03000   65.07770   15.69000   15.11260   17.38200  -41.70120
 5650.00000    8.63920    0.09840  109.44180    0.11900    2.54710    0.02220   77.14420    7.81580    7.56040   11.47430  -41.70440
 5700.00000    8.46680    0.03820   48.51040    0.06670    2.63210    0.02650   60.76080   18.98430   17.65850   12.58230  -41.55350
 5750.00000    8.53010    0.06310   60.53280    0.04180    2.59580    0.03650   54.44280   15.80470   15.69890   18.52250  -38.23530
 5800.00000    8.30610    0.07480   76.12950    0.07160    2.56290    0.03720   63.80990   11.28140   11.74240   10.03720  -41.86200
 5850.00000    8.51310    0.11450   48.95210    0.06500    2.51180    0.01450   53.14180   14.09650   24.90590   44.10600  -43.78660
 5900.00000    8.35010    0.03870   59.15720    0.03890    2.63010    0.02630   56.44480   32.03840   44.38820   47.62470  -47.05040
 5950.00000    8.33330    0.04610   56.92590    0.03680    2.62360    0.01630   58.69630   38.81860   36.27110   47.78080  -43.15900
 6000.00000    8.67480    0.09500  160.28480    0.09790    2.43440    0.06590   73.77400    4.94090    5.10470   33.34700  -44.49140
 6050.00000    8.40910    0.01850   50.92240    0.04710    2.66580    0.02420   61.38530   32.67930   47.68760   26.89920  -43.21270
 6100.00000    8.33100    0.05230   51.19340    0.05320    2.61950    0.02360   57.34110   35.02630   58.12250  115.09040  -41.63040
 6150.00000    8.33340    0.05130   70.99470    0.08430    2.61290    0.01220   61.74840   22.40600   29.38960   32.57160  -41.93900
 6200.00000    8.21200    0.03000   63.81610    0.05140    2.64980    0.03980   58.58510   72.94970   80.35380   78.88430  -32.62000
 6250.00000    8.16700    0.09160   60.99000    0.08080    2.58500    0.01840   60.37120   26.04830   46.11470  154.97350  -36.46310
 6300.00000    8.32360    0.06520   73.87050    0.05520    2.59880    0.02950   63.71770   77.65990   96.50910  154.15130  -44.91120
 6350.00000    8.47920    0.09860   60.66380    0.10530    2.54280   -0.00370   64.88230   47.57550   63.98370  143.65390  -33.25790
 6400.00000    8.59740    0.08200   75.00000    0.08680    2.57050    0.03250   69.16090   21.47750   31.66480   40.67780  -35.48140
 6450.00000    8.47770    0.09560   68.63700    0.13330    2.54540    0.05040   72.78900   22.42040   28.44160   37.59180  -38.49920
 6500.00000    9.16290    0.13280  102.99840    0.19050    2.48550    0.02720   87.62090    9.97670   11.79970   13.05980  -40.46600
 6550.00000    8.73750    0.20250   92.16610    0.17670    2.39840    0.01320   86.80470   44.61440   44.67680   73.09780  -28.43080
 6600.00000    8.91920    0.17800   97.89980    0.21140    2.40100    0.02640   91.08050   31.27550   33.27100   70.72950  -34.21290
 6650.00000    8.55570    0.10750  113.98780    0.12940    2.51590    0.03410   72.58060   44.49710   40.62390   72.33380  -30.52840
 6700.00000    9.61540    0.14460   35.84850    0.02670    2.38430    0.20650   51.74180  134.06970   45.32030  351.33240  -19.45120
 6750.00000    8.90910    0.22650   32.27080    0.01610    2.31130    0.19260   50.91380  117.75900  119.36330  283.74830  -22.08010
 6800.00000    8.51820    0.03380   72.28030    0.04490    2.65270    0.06540   54.43750   24.26280   27.88550   68.07010  -40.83780
 6850.00000   11.00000    0.16520  114.09930    0.23700    2.43620    0.21450   81.72490    3.49130    4.21630    5.04680  -43.66960
 6900.00000   10.00180    0.45160  106.21010    0.23280    2.00000    0.06270   87.01760    3.57170    4.81370    3.69400  -40.26120
 6950.00000    8.38920    0.01910   62.51150    0.07730    2.68790    0.01210   61.18900   11.25850   12.16570   13.49420  -35.28720
 7000.00000    9.47440    0.23940   28.10510    0.03410    2.29130    0.20310   50.49770  155.08020  108.48080  217.66070  -26.88090
 7050.00000    9.74260    0.20240   29.89320    0.03080    2.37820    0.24130   50.49770  163.46870  246.56700  182.86790  -39.94120
 7100.00000    8.01680    0.02070   45.43290    0.01810    2.67750    0.04610   52.27370   34.90680   50.27300  219.63940  -29.63660
 7150.00000    8.45940    0.04130   38.93000    0.00370    2.63400    0.22820   51.83260  180.33870  225.18360   95.10560  -31.49200
 7200.00000    9.35730    0.17600   33.47170    0.00000    2.43230    0.23370   48.78690  111.34470  121.43030  783.17510  -17.89120
 7250.00000    8.42420    0.12510   40.88800   -0.00270    2.52060    0.23470   49.40630  297.24050  420.54920  304.39580  -10.50460
 7300.00000    9.70190    0.26500   32.91870    0.00620    2.33150    0.22920   50.16150  136.04430  269.94790  343.58720  -21.94570
