~Version ---------------------------------------------------
VERS. 2.0 : CWLS log ASCII Standard -VERSION 2.0
WRAP. YES : MULTIPLE LINES PER DEPTH STEP
~Well ------------------------------------------------------
STRT.FT                   1650.0 : START DEPTH
STOP.FT                   8150.0 : STOP DEPTH
STEP.FT                 50.00000 : STEP LENGTH
NULL.                    -999.25 : NULL VALUE
COMP. CHAMPLIN PETROLEUM COMPANY : COMPANY
WELL. STEDMAN RANCH BETTY ANN #1 : WELL
FLD .                    WILDCAT : FIELD
LOC .                            : LOCATION
CNTY.                     DIMMIT : COUNTY
STAT.                      TEXAS : STATE
CTRY.   UNITED STATES OF AMERICA : COUNTRY
SRVC.               Schlumberger : SERVICE COMPANY
DATE.                02-May-1978 : LOGDATE
API .             42127316900000 : API NUMBER
UWI .             42127316900000 : UNIQUE WELL ID
SLAT.WGS84         28.2409522221 : SURFACE LATITUDE
SLON.WGS84        -99.9298835912 : SURFACE LONGITUDE
~Curve Information -----------------------------------------
DEPT  .FT    : DEPTH FEET
SPWS  .MV    : SPONTANEOUS POTENTIAL [BASELINE 0 MV] [SPRED.  REVERSED IN SHALLOW SECTION]
CALWS .IN    : CALIPER [CALDED]
DCORWS.G/C3  : DENSITY CORRECTION [CORRED]
GRWS  .GAPI  : GAMMA RAY [GRDED]
SRESWS.OHMM  : SHALLOW RESISTIVITY [LL8ED]
MRESWS.OHMM  : MEDIUM RESISTIVITY [ILMED]
SPRED .MV    : SPONTANEOUS POTENTIAL FROM RESISTIVITY LOG
DTED  .US/F  : DELTA TIME FROM SONIC LOG
LL8ED .OHMM  : 8 INCH LATEROLOG RESISTIVITY
ILDED .OHMM  : INDUCTION LOG DEEP RESISTIVITY
ILMED .OHMM  : INDUCTION LOG MEDIUM RESISTIVITY
NPHIED.V/V   : NEUTRON POROSITY SANDSTONE AND LIMESTONE FROM DENSITY LOG [MATRIX CHANGE AT 5822 TO LIMESTONE] [DEPTH SHIFTED TO RES.]
CALDED.IN    : CALIPER FROM DENSITY LOG [DEPTH SHIFTED TO RES.]
CORRED.G/C3  : DENSITY CORRECTION FROM DENSITY LOG [DEPTH SHIFTED TO RES.]
DRESWS.OHMM  : DEEP RESISTIVITY [ILDED]
GRDED .GAPI  : GAMMA RAY FROM DENSITY LOG [DEPTH SHIFTED TO RES.]
RHOBED.G/C3  : BULK DENSITY FROM DENSITY LOG [DEPTH SHIFTED TO RES.]
CONDWS.MMHO  : CONDUCTIVITY [1000/DRESws]
NPOWS .V/V   : NEUTRON POROSITY SANDSTONE AND LIMESTONE [NPHIED.  MATRIX CHANGE TO LIMESTONE AT 5822]
DENWS .G/C3  : BULK DENSITY [M=2.68 F=1.0 TO 5838 FEET, THEN 2.71, 1 TO TD] [RHOBED]
DPOWS .V/V   : DENSITY POROSITY [M=2.68 F=1.0 TO 5838 FEET, THEN 2.71, 1 TO TD] [CALCULATED FROM DENws]
DTWS  .US/F  : DELTA TIME [DTED]
~Params ----------------------------------------------------
PD  .                     GL : PERMANENT DATUM
EPD .FT                  821 : ELEVATION PERMANENT DATUM
LMF .                     KB : LOG MEASURED FROM
DAPD.FT                  9.7 : FEET ABOVE PERMANENT DATUM
DMF .                     KB : DRILLING MEASURED FROM
EKB .FT                830.7 : KELLY BUSHING
EDF .FT                829.7 : DRILLING FLOOR
EGL .FT                821.0 : GROUND LEVEL
DATE.               05/02/78 : RUN DATE
RUN .                      1 : RUN NUMBER
DD  .FT                 8186 : DEPTH DRILLER
DL  .FT                 8167 : DEPTH LOGGER
BLI .FT                 8166 : BOTTOM LOG INTERVAL
TLI .FT                 1612 : TOP LOG INTERVAL
CS  .IN                8.625 : CASING SIZE
CBD .FT                 1610 : CASING BOTTOM DRILLER
CBL .FT                 1612 : CASING BOTTOM LOGGER
BS  .IN                7.875 : BIT SIZE
BSD .FT                 8186 : BIT SIZE AT DEPTH
DFT .   SPER GEL  SALT WATER : DRILLING FLUID TYPE
DFD .                    9.5 : DRILLING FLUID DENSITY
DFV .                     45 : DRILLING FLUID VISCOSITY
DFPH.                    8.5 : DRILLING FLUID PH
MSS .               FLOWLINE : MUD SAMPLE SOURCE
RMS .OHMM              0.456 : RESISTIVITY MUD SAMPLE
MST .FT                   86 : MUD SAMPLE TEMPERATURE
RMF .OHMM                378 : RESISTIVITY MUD FILTRATE SAMPLE
MFST.FT                   86 : MUD FILTRATE SAMPLE TEMPERATURE
RMC .OHMM               0.41 : RESISTIVITY MUD CAKE
MCST.FT                   86 : MUD CAKE SAMPLE TEMPERATURE
MFSS.                      M : MUD FILTRATE SAMPLE SOURCE
MCSS.                      C : MUD CAKE SAMPLE SOURCE
RMB .OHMM               0.24 : RESISTIVITY MUD AT BHT
TCS .HRS                 100 : TIME CURCULATED STOPPED
TLAB.HRS                 700 : TIME LOGGER AT BOTTOM
LUN .                   7769 : LOGGING UNIT NUMBER
LUL .                 LAREDO : LOGGING UNIT LOCATION
ENGI.                  FOGAL : RECORDING ENGINEER
WITN.                 PONDER : WITNESSED BY
CLNT.                A2DTECH : CLIENT CODE
ORIG.               5" PRINT : ORIGIN OF DATA
UWI .         42127316900000 : UNIQUE WELL ID
DICO. A2D Technologies, Inc. : DIGITIZING COMPANY
~Other -----------------------------------------------------
~ASCII -----------------------------------------------------
# ...
 3250.00000   -1.90200   11.77980    0.21750   83.92220    4.33160    4.18420  -29.09630   88.42310    4.33160    4.06690    4.18420    0.31320   11.77980    0.21750    4.06690   83.92220    2.24280  245.88750    0.31320    2.24280    0.26020   88.42310
 3300.00000   -1.63170    9.33770    0.16010   76.77980    7.14030    4.95070  -28.79730   81.15340    7.14030    5.13540    4.95070    0.28540    9.33770    0.16010    5.13540   76.77980    2.36790  194.72680    0.28540    2.36790    0.18580   81.15340
 3350.00000   -0.86320   13.31150    0.19320   81.39880    4.04760    3.21950  -27.96500   90.68820    4.04760    3.33960    3.21950    0.32110   13.31150    0.19320    3.33960   81.39880    2.14860  299.43700    0.32110    2.14860    0.31630   90.68820
 3400.00000   -1.01090   13.43060    0.19140   78.71900    3.78600    2.96490  -27.96730   93.21360    3.78600    3.49130    2.96490    0.35470   13.43060    0.19140    3.49130   78.71900    2.14250  286.42620    0.35470    2.14250    0.31990   93.21360
 3450.00000   -1.47930   12.79560    0.18280   81.86960    4.31550    4.20490  -28.29040   93.41320    4.31550    4.29030    4.20490    0.33500   12.79560    0.18280    4.29030   81.86960    2.27470  233.08390    0.33500    2.27470    0.24130   93.41320
 3500.00000   -0.91030    9.87240    0.06160   88.46360    6.00020    4.23720  -27.69670   84.03910    6.00020    6.47290    4.23720    0.28880    9.87240    0.06160    6.47290   88.46360    2.39210  154.49030    0.28880    2.39210    0.17140   84.03910
 3550.00000   -0.46290   10.61360    0.13630   76.63690    6.02780    5.82180  -27.24930   81.76500    6.02780    5.55470    5.82180    0.25940   10.61360    0.13630    5.55470   76.63690    2.44240  180.02770    0.25940    2.44240    0.14140   81.76500
 3600.00000   -0.18950   10.55360    0.05490   82.56170    6.16730    5.24030  -26.97590   83.14170    6.16730    4.99630    5.24030    0.29370   10.55360    0.05490    4.99630   82.56170    2.48530  200.14810    0.29370    2.48530    0.11590   83.14170
 3650.00000   -0.80320   12.27980    0.19910   80.97400    5.19450    4.25810  -27.58960   88.82240    5.19450    4.31550    4.25810    0.29880   12.27980    0.19910    4.31550   80.97400    2.25680  231.72290    0.29880    2.25680    0.25190   88.82240
 3700.00000   -1.26000   12.75400    0.22180   79.27080    6.25230    5.67950  -27.98810   81.76120    6.25230    5.89130    5.67950    0.28050   12.75400    0.22180    5.89130   79.27080    2.33610  169.74180    0.28050    2.33610    0.20470   81.76120
 3750.00000   -1.66240   11.42660    0.14570  112.21150    4.05590    3.97410  -27.90530   90.51900    4.05590    3.52550    3.97410    0.33190   11.42660    0.14570    3.52550  112.21150    2.27950  283.64770    0.33190    2.27950    0.23840   90.51900
 3800.00000   -3.14900   10.92650    0.02420   65.81810    7.09800    7.26480  -28.90670   74.87880    7.09800    8.01720    7.26480    0.20450   10.92650    0.02420    8.01720   65.81810    2.55560  124.73180    0.20450    2.55560    0.07400   74.87880
 3850.00000  -13.58760    8.66860    0.11030   43.22450   29.75800   13.08780  -38.86010   67.96320   29.75800   13.57600   13.08780    0.14210    8.66860    0.11030   13.57600   43.22450    2.36890   73.65940    0.14210    2.36890    0.18520   67.96320
 3900.00000  -34.02820    8.51740    0.05550   26.69970   12.06260   10.24080  -58.81540   71.15740   12.06260    7.82480   10.24080    0.17390    8.51740    0.05550    7.82480   26.69970    2.41540  127.79880    0.17390    2.41540    0.15750   71.15740
 3950.00000   -6.59900   10.45440    0.23860   67.50150    8.27620    6.89080  -30.90100   79.03690    8.27620    6.11110    6.89080    0.22320   10.45440    0.23860    6.11110   67.50150    2.50990  163.63670    0.22320    2.50990    0.10120   79.03690
 4000.00000   -3.13270   10.59330    0.18690   68.89880    8.04270    5.13540  -26.94950   76.79270    8.04270    4.72920    5.13540    0.29570   10.59330    0.18690    4.72920   68.89880    2.26920  211.45230    0.29570    2.26920    0.24450   76.79270
 4050.00000   -1.68090   12.40800    0.17770  127.82740    4.07530    3.61590  -25.11510   99.20950    4.07530    3.57750    3.61590    0.37040   12.40800    0.17770    3.57750  127.82740    2.10810  279.52480    0.37040    2.10810    0.34040   99.20950
 4100.00000   -1.97220    9.09720    0.03050   77.58390    3.55120    3.16030  -25.16790  125.32150    3.55120    3.29400    3.16030    0.51870    9.09720    0.03050    3.29400   77.58390    1.52990  303.58230    0.51870    1.52990    0.68460  125.32150
 4150.00000   -3.81630    9.20640    0.19780   87.64880   10.43920    9.27350  -27.01200   78.24350   10.43920    8.24280    9.27350    0.25900    9.20640    0.19780    8.24280   87.64880    2.40370  121.31800    0.25900    2.40370    0.16450   78.24350
 4200.00000  -12.69470    8.75770   -0.00120   52.84600   10.79660    7.75350  -35.89040   72.07250   10.79660    7.14030    7.75350    0.20030    8.75770   -0.00120    7.14030   52.84600    2.48410  140.05010    0.20030    2.48410    0.11660   72.07250
 4250.00000  -28.72100    8.68510    0.09360   50.16070    6.57550    6.02780  -51.91670   49.50100    6.57550    5.13230    6.02780    0.25800    8.68510    0.09360    5.13230   50.16070    2.46920  194.84440    0.25800    2.46920    0.12550   49.50100
 4300.00000  -10.90610    8.76620   -0.00340   59.46430    6.95430    6.60640  -34.10180   75.35810    6.95430    6.05540    6.60640    0.22620    8.76620   -0.00340    6.05540   59.46430    2.48690  165.14190    0.22620    2.48690    0.11490   75.35810
 4350.00000   -1.62480   13.88210    0.12720   87.58270    3.35390    2.58440  -24.75230   98.38560    3.35390    3.04740    2.58440    0.40090   13.88210    0.12720    3.04740   87.58270    1.82610  328.14860    0.40090    1.82610    0.50830   98.38560
 4400.00000   -3.42430   10.64050    0.00990  146.03530    6.85850    6.10150  -26.09730   82.90200    6.85850    6.35270    6.10150    0.25040   10.64050    0.00990    6.35270  146.03530    2.46720  157.41340    0.25040    2.46720    0.12670   82.90200
 4450.00000   -3.12460   16.04960    0.05670   82.99440    2.76490    2.53260  -25.34310  101.20910    2.76490    2.69300    2.53260    0.37960   16.04960    0.05670    2.69300   82.99440    1.98040  371.33310    0.37960    1.98040    0.41640  101.20910
 4500.00000   -4.45590    9.30360    0.18490   70.68450    7.47470   12.03240  -26.21990   78.03920    7.47470    7.80410   12.03240    0.27990    9.30360    0.18490    7.80410   70.68450    2.36440  128.13780    0.27990    2.36440    0.18790   78.03920
 4550.00000   -1.84790   12.32690    0.13920   75.06760    3.50030    3.08960  -23.15740   96.97340    3.50030    3.26400    3.08960    0.39370   12.32690    0.13920    3.26400   75.06760    1.90720  306.37260    0.39370    1.90720    0.46000   96.97340
 4600.00000   -1.71600   10.13690    0.15910   82.58930    6.05540    5.26130  -22.80880   81.98060    6.05540    5.58220    5.26130    0.26300   10.13690    0.15910    5.58220   82.58930    2.42450  179.14080    0.26300    2.42450    0.15210   81.98060
 4650.00000   -0.61180    9.64960    0.14440   73.89110    8.26670    5.20040  -21.83010   76.04790    8.26670    5.52270    5.20040    0.22430    9.64960    0.14440    5.52270   73.89110    2.51190  181.07090    0.22430    2.51190    0.10010   76.04790
 4700.00000   -1.92800   13.72470    0.17880   82.53530    5.42540    4.19850  -23.27190   82.77480    5.42540    4.47640    4.19850    0.25420   13.72470    0.17880    4.47640   82.53530    2.26700  223.39380    0.25420    2.26700    0.24580   82.77480
 4750.00000   -0.74180    9.04560    0.14180   96.87500    4.59960    4.25290  -22.21120   94.81040    4.59960    6.22400    4.25290    0.25770    9.04560    0.14180    6.22400   96.87500    2.49500  160.66840    0.25770    2.49500    0.11010   94.81040
 4800.00000   -2.12360   12.07950    0.18730   97.35770    5.00120    4.55430  -23.71860   83.03390    5.00120    4.72420    4.55430    0.27680   12.07950    0.18730    4.72420   97.35770    2.27760  211.67610    0.27680    2.27760    0.23950   83.03390
