~Version ---------------------------------------------------
VERS. 2.0 : CWLS log ASCII Standard -VERSION 2.0
WRAP.  NO : ONE LINE PER DEPTH STEP
~Well ------------------------------------------------------
STRT.FT                 3800.0 : START DEPTH
STOP.FT                10100.0 : STOP DEPTH
STEP.FT               50.00000 : STEP LENGTH
NULL.                  -999.25 : NULL VALUE
COMP.   PATTERSON PETROLEUM LP : COMPANY
WELL.           WEIDER UNIT #1 : WELL
FLD .                 GIDDINGS : FIELD
LOC .                          : LOCATION
CNTY.                      LEE : COUNTY
STAT.                    TEXAS : STATE
CTRY. UNITED STATES OF AMERICA : COUNTRY
SRVC.             Baker Hughes : SERVICE COMPANY
DATE.              17-Nov-2000 : LOGDATE
API .           42287325060000 : API NUMBER
UWI .           42287325060000 : UNIQUE WELL ID
SLAT.WGS84        30.109798312 : SURFACE LATITUDE
SLON.WGS84      -96.8938886142 : SURFACE LONGITUDE
~Curve Information -----------------------------------------
DEPT  .FT    : DEPTH FEET
M1R6ED.OHMM  : 60 INCH DOI RESISTIVITY FROM HDI/CD/CN LOG
M1RXED.OHMM  : 120 INCH DOI RESISTIVITY FROM HDI/CD/CN LOG
TENRED.LBF   : TENSION FROM RESISTIVITY LOG
GRRED .GAPI  : GAMMA RAY FROM RESISTIVITY LOG
CALRED.IN    : CALIPER FROM RESISTIVITY LOG
SPRED .MV    : SPONTANEOUS POTENTIAL FROM RESISTIVITY LOG
M1R2ED.OHMM  : 20 INCH DOI RESISTIVITY FROM HDI/CD/CN LOG
M1R3ED.OHMM  : 30 INCH DOI RESISTIVITY FROM HDI/CD/CN LOG
M1R9ED.OHMM  : 90 INCH DOI RESISTIVITY FROM HDI/CD/CN LOG
ZCORED.G/C3  : DENSITY CORRECTION FROM HDI/CD/CN LOG
CNCFED.V/V   : NEUTRON POROSITY LIMESTONE
PEFED .B/E   : PHOTOELECTRIC FACTOR FROM DENSITY LOG
PORZED.V/V   : DENSITY POROSITY FROM HDI/CD/CN LOG
SPWS  .MV    : SPONTANEOUS POTENTIAL [BASELINE 0 MV] [SPRED]
GRWS  .GAPI  : GAMMA RAY [GRRED]
DCORWS.G/C3  : DENSITY CORRECTION [ZCORED]
CALWS .IN    : CALIPER [CALRED]
DRESWS.OHMM  : DEEP RESISTIVITY [M1R9ED]
MRESWS.OHMM  : MEDIUM RESISTIVITY [M1R3ED]
SRESWS.OHMM  : SHALLOW RESISTIVITY [M1R2ED]
CONDWS.MMHO  : CONDUCTIVITY [1000/DRESWS]
NPOWS .V/V   : NEUTRON POROSITY [CNCFED]
PEFWS .B/E   : PHOTOELECTRIC FACTOR [PEFED]
DENWS .G/C3  : BULK DENSITY [M=2.71 F=1.0] [CALCULATED FROM PORDED]
DPOWS .V/V   : DENSITY POROSITY [M=2.71 F=1] [CALCULATED FROM DENWS]
~Params ----------------------------------------------------
PD  .                     GL : PERMANENT DATUM
EPD .FT                  379 : ELEVATION PERMANENT DATUM
LMF .                     KB : LOG MEASURED FROM
DAPD.FT                   20 : FEET ABOVE PERMANENT DATUM
DMF .                     KB : DRILLING MEASURED FROM
EKB .FT                  399 : KELLY BUSHING
EDF .FT                  398 : DRILLING FLOOR
EGL .FT                  379 : GROUND LEVEL
DATE.               11/17/00 : RUN DATE
RUN .                      1 : RUN NUMBER
DD  .FT                10130 : DEPTH DRILLER
DL  .FT                10128 : DEPTH LOGGER
BLI .FT                10120 : BOTTOM LOG INTERVAL
TLI .FT                 3820 : TOP LOG INTERVAL
CS  .IN                8.625 : CASING SIZE
CBD .FT                 3820 : CASING BOTTOM DRILLER
CBL .FT                 3820 : CASING BOTTOM LOGGER
BS  .IN                7.875 : BIT SIZE
BSD .FT                10130 : BIT SIZE AT DEPTH
DFT .                  FRESH : DRILLING FLUID TYPE
DFD .                    9.8 : DRILLING FLUID DENSITY
DFV .                     37 : DRILLING FLUID VISCOSITY
DFPH.                    8.5 : DRILLING FLUID PH
DFL .                    6.8 : DRILLING FLUID LOSS
MSS .               MUD TANK : MUD SAMPLE SOURCE
RMS .OHMM                  3 : RESISTIVITY MUD SAMPLE
MST .FT                   70 : MUD SAMPLE TEMPERATURE
RMF .OHMM                2.7 : RESISTIVITY MUD FILTRATE SAMPLE
MFST.FT                   70 : MUD FILTRATE SAMPLE TEMPERATURE
RMC .OHMM                3.8 : RESISTIVITY MUD CAKE
MCST.FT                   70 : MUD CAKE SAMPLE TEMPERATURE
MFSS.               MEASURED : MUD FILTRATE SAMPLE SOURCE
MCSS.               MEASURED : MUD CAKE SAMPLE SOURCE
RMB .OHMM               0.84 : RESISTIVITY MUD AT BHT
TCS .HRS                   6 : TIME CURCULATED STOPPED
LUN .                HL 6554 : LOGGING UNIT NUMBER
LUL .               VICTORIA : LOGGING UNIT LOCATION
ENGI.                    MAY : RECORDING ENGINEER
WITN.                 NELSON : WITNESSED BY
CLNT.                A2DTECH : CLIENT CODE
ORIG.            1" 5" PRINT : ORIGIN OF DATA
UWI .         42287325060000 : UNIQUE WELL ID
DICO. A2D Technologies, Inc. : DIGITIZING COMPANY
~Other -----------------------------------------------------
ALL LOGS RUN IN COMBO.
LS_2.71 MTRX
~ASCII -----------------------------------------------------
# ...
 9400.00000  117.06380  106.84700  -67.22140   14.95710    7.94790  -32.73660  132.33590  123.45040  112.40850   -0.01970    0.02680    5.70490    0.03640  -60.31570   14.95710   -0.01970    7.94790  112.40850  123.45040  132.33590    8.89610    0.02680    5.70490    2.64780    0.03640
 9450.00000   22.12660   19.92650   28.37110   27.11470    8.17360  -10.96310   23.99140   21.72610   20.40280    0.00230    0.03920    5.72860    0.02440  -35.48540   27.11470    0.00230    8.17360   20.40280   21.72610   23.99140   49.01290    0.03920    5.72860    2.66830    0.02440
 9500.00000   18.05260   15.23450  -59.38230   71.84150    8.16320   17.72160   19.09700   16.44560   15.52120   -0.00070    0.07910    5.36710    0.03180   -3.74380   71.84150   -0.00070    8.16320   15.52120   16.44560   19.09700   64.42800    0.07910    5.36710    2.65560    0.03180
 9550.00000   38.73430   33.17600   -2.09730   84.46740    8.21280  -30.31940   50.32980   32.52710   27.67240    0.03790    0.03910    4.65910    0.01920  -49.88290   84.46740    0.03790    8.21280   27.67240   32.52710   50.32980   36.13710    0.03910    4.65910    2.67720    0.01920
 9600.00000    6.07470    5.52430  -42.55720   18.43900    8.10530  -93.17490    8.10960    6.43780    5.54210    0.10620    0.05130    5.66690    0.06640 -112.80280   18.43900    0.10620    8.10530    5.54210    6.43780    8.10960  180.43700    0.05130    5.66690    2.59650    0.06640
 9650.00000    3.88900    3.52780  -24.09510   14.83240    7.80230 -111.40380    6.92160    4.88030    3.89930    0.14860    0.06170    5.88900    0.08860 -131.09610   14.83240    0.14860    7.80230    3.89930    4.88030    6.92160  256.45630    0.06170    5.88900    2.55850    0.08860
 9700.00000    5.27190    4.52210   -0.90410   14.33670    7.77100 -149.30010   13.31750    7.35750    4.77500    0.13160    0.04730    5.81260    0.08030 -169.05680   14.33670    0.13160    7.77100    4.77500    7.35750   13.31750  209.42410    0.04730    5.81260    2.57270    0.08030
 9750.00000    2.04630    1.98750   -5.20760   14.50390    7.64790 -111.80890    2.68270    2.31260    2.03700    0.11990    0.11910    6.31670    0.15380 -131.63010   14.50390    0.11990    7.64790    2.03700    2.31260    2.68270  490.91800    0.11910    6.31670    2.44700    0.15380
 9800.00000    2.87420    2.37940    5.39360   15.63250    7.73580 -112.14880    3.83650    3.12080    2.57290    0.12190    0.10480    5.74520    0.13260 -132.03440   15.63250    0.12190    7.73580    2.57290    3.12080    3.83650  388.66650    0.10480    5.74520    2.48330    0.13260
 9850.00000    2.34500    1.98910   43.93420   10.27760    7.81790 -126.30200    5.39890    3.12290    2.02820    0.11240    0.08000    5.44860    0.09540 -146.25200   10.27760    0.11240    7.81790    2.02820    3.12290    5.39890  493.04800    0.08000    5.44860    2.54690    0.09540
 9900.00000  165.09880  174.24910  -45.47720   49.83130    7.93270  -65.90130  161.96880  154.85280  146.82930    0.12950    0.02820    6.25780    0.02480  -85.91570   49.83130    0.12950    7.93270  146.82930  154.85280  161.96880    6.81060    0.02820    6.25780    2.66760    0.02480
 9950.00000   25.13930   21.02890  -82.36910   61.25800    7.99250    0.99650   28.37860   27.61680   22.68600   -0.00090    0.08170    4.53240    0.02450  -16.05530   61.25800   -0.00090    7.99250   22.68600   27.61680   28.37860   44.08000    0.08170    4.53240    2.66810    0.02450
 10000.00000   22.49380   20.51000  -58.29960   55.84430    7.92650  -55.81380   24.39400   20.92040   20.34190    0.01810    0.03900    5.34910    0.04690  -74.59310   55.84430    0.01810    7.92650   20.34190   20.92040   24.39400   49.15960    0.03900    5.34910    2.62980    0.04690
 10050.00000   46.03800   37.56840   68.17700   33.33460    7.93080  -88.42580   51.99650   45.01920   37.92370    0.01320    0.02820    5.61750    0.04150 -111.53210   33.33460    0.01320    7.93080   37.92370   45.01920   51.99650   26.36870    0.02820    5.61750    2.63900    0.04150
 10100.00000   12.58110   11.92410    1.49420    -999.25    -999.25   25.66260   14.03910   12.98790   11.83150    -999.25    -999.25    -999.25    -999.25   -1.77070    -999.25    -999.25    -999.25   11.83150   12.98790   14.03910   84.52010    -999.25    -999.25    -999.25    -999.25
