~Version ---------------------------------------------------
VERS. 2.0 : CWLS log ASCII Standard -VERSION 2.0
WRAP.  NO : ONE LINE PER DEPTH STEP
~Well ------------------------------------------------------
STRT.F                    3800.0 : START DEPTH
STOP.F                    8500.0 : STOP DEPTH
STEP.F                  50.00000 : STEP LENGTH
NULL.                    -999.25 : NULL VALUE
COMP. CHAMPLIN PETROLEUM COMPANY : COMPANY
WELL.      PETER B COURT CPC  #1 : WELL
FLD .                   GIDDINGS : FIELD
LOC .                            : LOCATION
CNTY.                   BURLESON : COUNTY
STAT.                      TEXAS : STATE
CTRY.   UNITED STATES OF AMERICA : COUNTRY
SRVC.                            : SERVICE COMPANY
DATE.                            : LOGDATE
API .             42051315580000 : API NUMBER
UWI .             42051315580000 : UNIQUE WELL ID
SLAT.WGS84         30.5624124227 : SURFACE LATITUDE
SLON.WGS84        -96.5585767607 : SURFACE LONGITUDE
~Curve Information -----------------------------------------
DEPT.F                 : 
SPR .MV   07 010 01 00 : SPONTANEOUS POTENTIAL FROM DUAL INDUCTION LOG
ILM .OHMM 07 120 44 00 : INDUCTION LOG, MEDIUM (5FF40) FROM DUAL INDUCTION LOG
ILD .OHMM 07 120 46 00 : DEEP (6FF40) FROM DUAL INDUCTION LOG
SFL .OHMM 07 220 01 00 : SPHERICALLY FOCUSED RESISTIVITY FROM DUAL INDUCTION LOG
GRR .GAPI 07 310 01 00 : GAMMA RAY FROM DUAL INDUCTION LOG
DPHI.DEC  45 890 12 00 : 
NPHI.DEC  42 890 03 00 : 
DCAL.IN   07 280 30 00 : DIFFERENTIAL CALIPER
DRHO.G/C3 45 356 01 00 : DENSITY CORRECTION
TEND.LBS  45 635 01 00 : TENSION FROM DENSITY LOG
~Params ----------------------------------------------------
EKB .F                 282.0 : KELLY BUSHING
EGL .F                   268 : ELEVATION GROUND LEVEL
EDF .F                   281 : ELEVATION DERRICK FLOOR
EPD .F                   268 : ELEVATION PERMANENT DATUM
TD  .F                8493.0 : TOTAL DEPTH
DATE.            26-MAY-1981 : DATE LOGGED
CLNT.                A2DTECH : CLIENT CODE
SL  .  5650' FSL & 4250' FWL : SURFACE LOCATION
PD  .                     GL : PERMANENT DATUM
LMF .                     KB : LOG MEASURED FROM
DMF .                     KB : DRILLING MEASURED FROM
DAPD.F                    14 : FEET ABOVE PERMANENT DATUM
DD  .F                  8493 : DEPTH DRILLER
DL  .F                  8493 : DEPTH LOGGER
BLI .F                  8487 : BOTTOM LOG INTERVAL
TLI .F                  3760 : TOP LOG INTERVAL
CS1 .IN                9.625 : CASING SIZE
CBD1.         9.625" @ 3754' : CASING DRILLER 1
CBL1.F                  3760 : CASING LOGGER 1
BS1 .IN                 8.75 : BIT SIZE
BSD1.F                  8493 : DEPTH DRILLED WITH BIT1
DFT .       CACO/ CYPAN/ ENG : TYPE FLUID IN HOLE
DFD .                    9.5 : DENSITY
DFV .                     39 : VISCOSITY
DFPH.                    9.5 : PH
DFL .                    7.6 : FLUID LOSS
MSS .               FLOWLINE : SOURCE OF SAMPLE
RMS .OHMM               2.11 : RM
RMF .OHMM               2.47 : RMF
RMC .OHMM               3.17 : RMC
MFSS.                   MEAS : SOURCE RMF.
MCSS.                   CALC : SOURCE RMC.
RMB .OHMM               1.23 : RM. AT BHT
BHT .F                   186 : BHT.
TCS .HRS                 930 : TIME CIRC. STOPPED
TLAB.HRS                 600 : TIME LOGGER AT BOTTOM
LUN .                   8096 : LOGGING UNIT NUMBER
LUL .                BRENHAM : LOGGING UNIT LOCATION
ENGI.                MARANUK : RECORDED BY
WITN.         VODAK/ CAMERON : WITNESSED BY
ORIG.               5" PRINT : ORIGIN OF DATA
UWI .         42051315580000 : UNIQUE WELL ID
DICO. A2D TECHNOLOGIES, INC. : DIGITIZING COMPANY
~Other -----------------------------------------------------
~ASCII -----------------------------------------------------
 3800.00000  -37.89400    5.21700    4.73670    5.69950   76.22300    0.27810    0.37420    3.48000    0.08800 1890.41100
 3850.00000  -39.98200    6.90250    6.65430    7.97280   86.08400    0.24930    0.33110    2.21300    0.07000 1933.14900
 3900.00000  -23.09900    3.78110    4.18960    3.44470   91.90000    0.25280    0.38550    2.02700    0.04500 1914.85800
 3950.00000  -33.88100    4.93320    3.90590    6.60120   74.95600    0.24820    0.33680    2.33100    0.04600 1961.06010
 4000.00000  -56.15100    6.99980    5.39210   13.28430   69.93200    0.26980    0.32400    1.97600    0.05200 1949.11900
 4050.00000  -46.94300    5.83510    4.92250    7.35150   67.90200    0.25180    0.32040    1.32500    0.06100 1953.75400
 4100.00000  -12.06900    2.93920    3.14310    3.28720   91.87300    0.23910    0.36130    2.70000    0.03200 1968.68900
 4150.00000   -7.37500    2.07900    2.17700    1.94600   99.58800    0.28700    0.44220    3.34600    0.07800 1988.25810
 4200.00000   -8.72300    2.67900    2.85300    2.76000   90.14200    0.23030    0.33720    2.51100    0.10000 2030.41000
 4250.00000   -8.97700    2.60400    2.61300    2.43800   86.77500    0.23850    0.36750    2.83200    0.10000 2046.96700
 4300.00000   -9.28000    2.17500    2.31800    2.19200   98.46400    0.16140    0.33400    3.31100    0.09700 2119.36600
 4350.00000  -12.60900    2.64900    2.75950    2.90660   81.99300    0.15750    0.30370    1.76500    0.06400 2074.50490
 4400.00000  -12.88700    2.76230    3.00460    3.09540   95.63300    0.17100    0.31490    2.27600    0.05700 2105.67500
 4450.00000  -11.64400    2.29700    2.41200    2.44300   94.17200    0.18590    0.30760    3.02300    -999.25 2112.40210
 4500.00000   -8.68700    2.42100    2.49600    2.54900   89.69300    0.16120    0.30030    3.04900    0.09930 2133.72510
 4550.00000   -9.67700    1.78100    1.86600    1.90700   94.63400    0.21280    0.37550    4.24200    -999.25 2125.24510
 4600.00000  -11.16900    1.51400    1.58400    1.69000   95.82100    0.19750    0.39090    4.74800    -999.25 2110.58200
 4650.00000   -8.00200    1.84700    1.92700    1.89700   97.87400    0.16800    0.36730    4.35300    0.10000 2125.24510
 4700.00000   -5.62500    1.66200    1.71300    1.81800   90.56300    0.16780    0.33700    3.35600    0.08100 2164.38400
 4750.00000   -9.30000    1.49300    1.54200    1.73900   88.15200    0.20580    0.38530    3.73700    0.10000 2183.95290
 4800.00000   -8.12000    1.48300    1.47800    1.68100  105.03700    0.15370    0.37620    4.16300    -999.25 2189.94090
 4850.00000   -7.97500    1.76000    1.85100    1.76000  103.37300    0.16900    0.33900    4.14200    0.07300 2227.97710
 4900.00000   -8.36700    1.37100    1.37900    1.49600   93.69300    0.17410    0.34730    4.43000    -999.25 2209.02590
 4950.00000   -4.17100    1.01200    1.00700    1.06600   89.76900    0.21980    0.37520    3.50900    0.07500 2230.09200
 5000.00000   -2.71500    0.90300    0.87600    1.01600   89.03400    0.19990    0.43860    1.73200    -999.25 2276.90800
 5050.00000   -8.77800    2.42000    2.54300    2.52100   82.24600    0.15050    0.27110    1.32000    0.03600 2320.93900
 5100.00000  -12.74000    2.00700    2.05700    2.14200   79.85200    0.12090    0.28580    1.78000    -999.25 2340.50900
 5150.00000  -10.23600    1.53900    1.51900    1.65500   83.44800    0.15790    0.35740    3.30300    0.10000 2345.69600
 5200.00000  -11.82100    1.69400    1.61000    1.71400   79.54100    0.13130    0.33170    3.29200    0.08500 2365.24290
 5250.00000  -11.97600    1.28600    1.32400    1.48300   82.01700    0.16260    0.34980    3.84900    0.10000 2340.50900
 5300.00000  -10.90400    1.39000    1.41000    1.43000   93.92800    0.14120    0.36850    4.04800    0.10000 2360.07790
 5350.00000   -9.38400    1.29800    1.29400    1.41700   84.87200    0.14770    0.33990    4.29900    0.09100 2379.64790
 5400.00000   -8.67100    1.46500    1.46400    1.50900   87.87200    0.15200    0.30440    3.79200    -999.25 2430.06690
 5450.00000   -9.31600    1.14000    1.10500    1.21000   92.10400    0.17350    0.38100    4.14600    -999.25 2406.89600
 5500.00000   -8.90500    1.21400    1.20200    1.24700   94.06200    0.14130    0.36140    2.94100    0.07500 2426.44600
 5550.00000   -8.41300    2.02000    2.03700    2.46600   85.18100    0.09220    0.34180    1.41700    0.09800 2434.70610
 5600.00000  -10.74800    3.66500    3.74600    4.06100   68.12300    0.06250    0.25990    0.89500    0.03900 2570.33500
 5650.00000  -10.87200    1.62700    1.68100    1.59200   86.01300    0.17670    0.30250    1.45600    -999.25 2496.12500
 5700.00000   -7.45800    1.18900    1.08100    1.29700   92.32300    0.19400    0.30590    2.07200    0.10000 2506.84010
 5750.00000   -7.59900    1.19400    1.13700    1.23700  101.94800    0.19870    0.33930    2.94800    0.09600 2536.20410
 5800.00000  -10.81000    1.46000    1.45900    1.58900  106.66700    0.17900    0.34830    2.12500    0.10000 2571.31300
 5850.00000   -9.62600    1.40000    1.40800    1.39700   96.47200    0.16030    0.36420    2.70900    -999.25 2594.91210
 5900.00000  -15.18000    1.30700    1.31100    1.38200   98.53600    0.18560    0.36690    2.86400    0.07000 2580.84590
 5950.00000  -12.68100    1.08500    1.07200    1.25900  119.90700    0.15030    0.36850    3.36700    0.07000 2594.91210
 6000.00000  -15.70100    1.79200    1.79400    1.90400   85.78600    0.08330    0.29300    3.55400    -999.25 2565.71610
 6050.00000  -15.88300    2.05000    2.03000    2.08800   87.42800    0.07980    0.26860    2.05300    -999.25 2614.48100
 6100.00000  -13.90200    1.94700    1.94600    2.13600   83.70400    0.07220    0.25210    2.31400    0.09400 2599.80400
 6150.00000  -13.60600    1.76500    1.76300    1.93900   88.31500    0.08060    0.27470    2.88200    0.09600 2653.65890
 6200.00000  -17.75500    1.49600    1.50400    1.67200   91.50400    0.09860    0.31300    2.38200    0.09900 2621.62990
 6250.00000  -16.36400    1.58700    1.59200    1.71200   89.12200    0.10500    0.33620    2.20500    0.10000 2653.62010
 6300.00000  -24.00900    1.48900    1.46600    1.72500  102.59200    0.13700    0.33450    3.31700    -999.25 2682.96510
 6350.00000  -22.63300    1.53900    1.51500    1.62600   87.64200    0.14540    0.27760    3.25100    -999.25 2706.97800
 6400.00000  -21.27400    1.39300    1.34500    1.51300   89.38700    0.19120    0.28580    3.71600    -999.25 2691.29100
 6450.00000  -19.64000    1.66600    1.62600    1.68900   78.88700    0.11990    0.25690    2.52900    -999.25 2692.75900
 6500.00000  -21.07800    3.18700    3.13300    2.94700   56.29100    0.07330    0.13950    0.76800    0.02200 2692.75900
 6550.00000  -22.35300    3.47900    3.71000    3.67800   51.86400    0.05510    0.12360    0.93000    0.03400 3489.12300
 6600.00000  -21.27300    4.21300    4.15800    4.00900   54.15400    0.07150    0.12550    0.89000    0.00900 3360.28490
 6650.00000  -31.39600    2.33000    2.35000    2.37300   67.98800    0.13240    0.14410    1.28200    0.01900 2837.66700
 6700.00000  -17.68200    2.42600    2.51300    2.75700   88.67400    0.10430    0.17260    1.05100    -999.25 2785.42410
 6750.00000  -16.09500    3.00400    3.09200    3.44500   73.58100    0.09880    0.15970    0.77600    0.00600 2858.40090
 6800.00000  -17.76200    3.84700    3.99000    4.04900   70.02600    0.07200    0.12900    0.86300    0.02600 2868.88500
 6850.00000  -14.78400    3.19600    3.30800    3.53800   82.53500    0.09630    0.16270    1.11500    0.01200 2917.77910
 6900.00000  -12.27000    2.61500    2.61800    2.97200   84.09500    0.08190    0.20350    0.89000    0.01900 2954.60690
 6950.00000  -15.37000    2.09400    2.14600    2.65700   87.70400    0.08230    0.23480    1.59200    -999.25 3987.43410
 7000.00000  -16.40600    1.60000    1.55600    1.87700   91.45100    0.11140    0.25980    2.90900    -999.25 2956.21900
 7050.00000  -17.46000    2.07100    2.10500    2.27800   99.08100    0.07590    0.25050    2.53800    -999.25 2941.14500
