~Version ---------------------------------------------------
VERS. 2.0 : CWLS log ASCII Standard -VERSION 2.0
WRAP. YES : MULTIPLE LINES PER DEPTH STEP
~Well ------------------------------------------------------
STRT.FT                       800.0 : START DEPTH
STOP.FT                      3900.0 : STOP DEPTH
STEP.FT                    50.00000 : STEP LENGTH
NULL.                       -999.25 : NULL VALUE
COMP.        GENESIS GAS & OIL, LLC : COMPANY
WELL.                BENNETT GGO #1 : WELL
FLD .                       WILDCAT : FIELD
LOC .                               : LOCATION
CNTY.                        ZAVALA : COUNTY
STAT.                         TEXAS : STATE
CTRY.      UNITED STATES OF AMERICA : COUNTRY
SRVC. Weatherford Drilling Services : SERVICE COMPANY
DATE.                   14-Jun-2006 : LOGDATE
API .                42507326870000 : API NUMBER
UWI .                42507326870000 : UNIQUE WELL ID
SLAT.WGS84            29.0017265012 : SURFACE LATITUDE
SLON.WGS84           -99.5866782349 : SURFACE LONGITUDE
~Curve Information -----------------------------------------
DEPT    .FT    : DEPTH FEET
CALWS   .IN    : CALIPER [DCALED+BITED]
CONDWS  .MMHO  : CONDUCTIVITY [1000/DRESWS]
DCALRED .IN    : DIFFERENTIAL CALIPER FROM RESISTIVITY LOG
DCORED  .G/C3  : DENSITY CORRECTION FROM DENSITY LOG
DCORWS  .G/C3  : DENSITY CORRECTION [DCORED]
DENWS   .G/C3  : BULK DENSITY [M=2.71 F=1.0] [CALCULATED FROM DPOWS]
DPORLSED.V/V   : DENSITY POROSITY [M=2.71 F=1.0]
DPOWS   .V/V   : DENSITY POROSITY [M=2.71 F=1.0] [DPORLSED]
DRESWS  .OHMM  : DEEP RESISTIVITY [ILDED]
GRRED   .GAPI  : GAMMA RAY FROM RESISTIVITY LOG
GRWS    .GAPI  : GAMMA RAY [GRRED]
ILDED   .OHMM  : INDUCTION LOG DEEP RESISTIVITY
ILMED   .OHMM  : INDUCTION LOG MEDIUM RESISTIVITY
MRESWS  .OHMM  : MEDIUM RESISTIVITY [ILMED]
NPORLSED.V/V   : NEUTRON POROSITY LIMESTONE FROM DENSITY LOG
NPOWS   .V/V   : NEUTRON POROSITY LIMESTONE [NPORLSED]
PEED    .B/E   : PHOTOELECTRIC FACTOR FROM DENSITY LOG
PEFWS   .B/E   : PHOTOELECTRIC FACTOR [PEED]
SFEED   .OHMM  : SHALLOW FOCUSSED ELECTRIC RESISTIVITY
SPRED   .MV    : SPONTANEOUS POTENTIAL FROM RESISTIVITY LOG
SPWS    .MV    : SPONTANEOUS POTENTIAL [BASELINE 0 MV] [SPRED]
SRESWS  .OHMM  : SHALLOW RESISTIVITY [SFEED]
TENRED  .LBF   : TENSION FROM RESISTIVITY LOG
~Params ----------------------------------------------------
PD  .                     GL : PERMANENT DATUM
EPD .FT                  758 : ELEVATION PERMANENT DATUM
LMF .                     KB : LOG MEASURED FROM
DAPD.FT                 11.5 : FEET ABOVE PERMANENT DATUM
DMF .                     KB : DRILLING MEASURED FROM
EKB .FT                769.5 : KELLY BUSHING
EDF .FT                768.5 : DRILLING FLOOR
EGL .FT                758.0 : GROUND LEVEL
DATE.               06/14/06 : RUN DATE
RUN .                      1 : RUN NUMBER
DD  .FT                 4016 : DEPTH DRILLER
DL  .FT                 3949 : DEPTH LOGGER
BLI .FT                 3948 : BOTTOM LOG INTERVAL
TLI .FT                  812 : TOP LOG INTERVAL
CS  .IN                8.625 : CASING SIZE
CBD .FT                  812 : CASING BOTTOM DRILLER
CBL .FT                  807 : CASING BOTTOM LOGGER
BS  .IN                 7.88 : BIT SIZE
BSD .FT                 4016 : BIT SIZE AT DEPTH
DFT .            WATER BASED : DRILLING FLUID TYPE
DFD .                   10.3 : DRILLING FLUID DENSITY
DFV .                     46 : DRILLING FLUID VISCOSITY
MSS .               FLOWLINE : MUD SAMPLE SOURCE
RMS .OHMM                1.0 : RESISTIVITY MUD SAMPLE
MST .DEGF                102 : MUD SAMPLE TEMPERATURE
RMF .OHMM               0.78 : RESISTIVITY MUD FILTRATE SAMPLE
MFST.DEGF                102 : MUD FILTRATE SAMPLE TEMPERATURE
RMC .OHMM               1.25 : RESISTIVITY MUD CAKE
MCST.DEGF                102 : MUD CAKE SAMPLE TEMPERATURE
MFSS.                   CALC : MUD FILTRATE SAMPLE SOURCE
MCSS.                   CALC : MUD CAKE SAMPLE SOURCE
RMB .OHMM               0.84 : RESISTIVITY MUD AT BHT
TCS .HRS                   2 : TIME CIRCULATED STOPPED
LUN .                    367 : LOGGING UNIT NUMBER
LUL .                  ALICE : LOGGING UNIT LOCATION
ENGI.                 CALLIS : RECORDING ENGINEER
WITN.                 MADDOX : WITNESSED BY
CLNT.                A2DTECH : CLIENT CODE
ORIG.         1" 2" 5" PRINT : ORIGIN OF DATA
UWI .         42507326870000 : UNIQUE WELL ID
DICO. A2D Technologies, Inc. : DIGITIZING COMPANY
~Other -----------------------------------------------------
~ASCII -----------------------------------------------------
  800.00000    -999.25    -999.25    -999.25    -999.25    -999.25    -999.25    -999.25    -999.25    -999.25   85.51440   85.51440    -999.25    -999.25    -999.25    0.37260    0.37260    -999.25    -999.25    -999.25    -999.25    -999.25    -999.25    -999.25
  850.00000    8.33630   36.10360    0.45630    0.02850    0.02850    2.32410    0.22570    0.22570   27.69810   88.78520   88.78520   27.69810   28.11220   28.11220    0.28230    0.28230    2.75120    2.75120   26.63460  -33.90420  -16.09430   26.63460  646.13250
  900.00000   10.16740   62.64290    2.28740    0.10770    0.10770    2.21600    0.28890    0.28890   15.96350  106.32120  106.32120   15.96350   16.18820   16.18820    0.35240    0.35240    2.22570    2.22570   15.81690  -27.83850  -10.42690   15.81690  698.01680
  950.00000    9.71400   71.25500    1.83400    0.02070    0.02070    2.45260    0.15050    0.15050   14.03410   91.82130   91.82130   14.03410   15.07180   15.07180    0.34570    0.34570    3.67860    3.67860   20.72930  -23.01710   -5.88930   20.72930  702.60740
 1000.00000    7.81820   51.99400   -0.06180    0.03160    0.03160    2.20330    0.29630    0.29630   19.23300   71.02690   71.02690   19.23300   21.25690   21.25690    0.38390    0.38390    2.74180    2.74180   23.75090  -27.84920  -10.35740   23.75090  703.74100
 1050.00000    8.45170  104.87130    0.57170    0.09380    0.09380    2.05250    0.38450    0.38450    9.53550   78.27100   78.27100    9.53550    9.73190    9.73190    0.45000    0.45000    2.37470    2.37470   10.42270  -22.55050   -4.69470   10.42270  758.02390
 1100.00000    8.15820   62.19760    0.27820   -0.00580   -0.00580    1.32990    0.80710    0.80710   16.07780   32.47660   32.47660   16.07780   13.92640   13.92640    0.82450    0.82450    1.08190    1.08190   59.83210  -20.99560   -2.77570   59.83210  725.92240
 1150.00000    8.49820  127.22320    0.61820    0.03160    0.03160    2.31290    0.23220    0.23220    7.86020  125.00000  125.00000    7.86020    7.90530    7.90530    0.33910    0.33910    2.62750    2.62750    8.11180  -23.98500   -5.40110    8.11180  751.64620
 1200.00000   11.31120  296.01560    3.43120    0.17030    0.17030    2.00170    0.41420    0.41420    3.37820  103.27100  103.27100    3.37820    3.34490    3.34490    0.40250    0.40250    2.87480    2.87480    3.53430  -21.92850   -2.98060    3.53430  793.25590
 1250.00000    9.92000  313.45010    2.04000    0.10750    0.10750    2.15250    0.32600    0.32600    3.19030  102.57010  102.57010    3.19030    3.22710    3.22710    0.39500    0.39500    3.09120    3.09120    3.12910  -20.99530   -1.68330    3.12910  760.36180
 1300.00000    7.94180  247.51860    0.06180    0.02690    0.02690    2.15890    0.32230    0.32230    4.04010   94.62690   94.62690    4.04010    4.26790    4.26790    0.37560    0.37560    2.65840    2.65840    4.67330  -27.99330   -8.31730    4.67330  753.81020
 1350.00000    8.37460  288.46710    0.49460    0.02050    0.02050    2.23820    0.27590    0.27590    3.46660  101.16800  101.16800    3.46660    3.49180    3.49180    0.34470    0.34470    2.59670    2.59670    3.45910  -22.08400   -2.08970    3.45910  805.77250
 1400.00000    8.00350  225.53000    0.12350    0.02070    0.02070    2.22560    0.28330    0.28330    4.43400   96.79940   96.79940    4.43400    4.55210    4.55210    0.31680    0.31680    2.85070    2.85070    4.67320  -25.66100   -5.71830    4.67320  814.56730
 1450.00000    8.28190  156.48720    0.40190    0.03170    0.03170    2.31620    0.23030    0.23030    6.39030   77.94710   77.94710    6.39030    5.80850    5.80850    0.22170    0.22170    2.84380    2.84380    5.83500  -24.02720   -4.13610    5.83500  855.60530
 1500.00000    8.93100  188.58320    1.05100    0.07670    0.07670    2.39400    0.18480    0.18480    5.30270   74.53350   74.53350    5.30270    5.40690    5.40690    0.26460    0.26460    3.83310    3.83310    5.43180  -23.79470   -3.95520    5.43180  869.16710
 1550.00000    8.22000  175.55870    0.34000    0.06120    0.06120    2.36060    0.20430    0.20430    5.69610   72.89720   72.89720    5.69610    6.03960    6.03960    0.23570    0.23570    3.21480    3.21480    5.87700  -23.79420   -4.00620    5.87700  851.47750
 1600.00000    7.84910  109.47030   -0.03090    0.03010    0.03010    2.48100    0.13390    0.13390    9.13490   57.24300   57.24300    9.13490    9.25570    9.25570    0.16860    0.16860    3.55500    3.55500   10.12840  -22.86160   -3.12520   10.12840  876.31560
 1650.00000    8.18920  203.48360    0.30920    0.06740    0.06740    2.32560    0.22480    0.22480    4.91440   61.21500   61.21500    4.91440    4.96120    4.96120    0.21430    0.21430    3.36940    3.36940    6.13490  -27.99380   -8.30900    6.13490  903.62520
 1700.00000    8.03460  202.57270    0.15460    0.11550    0.11550    2.38440    0.19040    0.19040    4.93650   71.26150   71.26150    4.93650    5.03290    5.03290    0.26270    0.26270    3.36940    3.36940    6.26820  -23.17340   -3.54020    6.26820  877.90510
 1750.00000    9.59570  344.02090    1.71570    0.16060    0.16060    2.11590    0.34740    0.34740    2.90680   92.99080   92.99080    2.90680    2.91900    2.91900    0.35500    0.35500    2.78210    2.78210    3.24330  -22.86080   -3.27920    3.24330  914.09220
 1800.00000    8.40410  306.79550    0.52410    0.12330    0.12330    2.15250    0.32600    0.32600    3.25950   74.53230   74.53230    3.25950    3.25040    3.25040    0.30590    0.30590    2.90570    2.90570    3.50940  -23.01660   -3.48660    3.50940  950.49340
 1850.00000    8.85660  344.00910    0.97660    0.09910    0.09910    2.03560    0.39440    0.39440    2.90690   79.90690   79.90690    2.90690    2.91900    2.91900    0.37920    0.37920    2.84390    2.84390    2.87150  -23.17160   -3.69320    2.87150  921.75450
 1900.00000   10.04380  524.74160    2.16380    0.14040    0.14040    2.07150    0.37340    0.37340    1.90570   98.83230   98.83230    1.90570    1.94000    1.94000    0.43040    0.43040    3.09120    3.09120    2.14070  -22.24030   -2.81350    2.14070  984.09580
 1950.00000   10.35300  499.10170    2.47300    0.08760    0.08760    2.06520    0.37710    0.37710    2.00360   96.73010   96.73010    2.00360    2.02520    2.02520    0.46960    0.46960    3.30750    3.30750    2.28340  -21.77240   -2.39720    2.28340  944.82840
 2000.00000   10.19840  281.54740    2.31840    0.21800    0.21800    2.23030    0.28050    0.28050    3.55180   91.12230   91.12230    3.55180    3.54220    3.54220    0.26930    0.26930    2.59610    2.59610    3.71600  -21.30660   -1.98300    3.71600  974.87390
 2050.00000    8.25680  324.87570    0.37680    0.08600    0.08600    2.21140    0.29160    0.29160    3.07810   54.67370   54.67370    3.07810    3.34490    3.34490    0.42390    0.42390    4.48210    4.48210    4.80900  -21.30640   -2.03440    4.80900  991.87680
 2100.00000    8.81560  312.50980    0.93560    0.00680    0.00680    2.16310    0.31980    0.31980    3.19990  113.78660  113.78660    3.19990    3.36390    3.36390    0.33930    0.33930    2.41110    2.41110    4.70700  -26.90510   -7.68470    4.70700 1027.03310
 2150.00000    8.83830  374.88280    0.95830    0.00220    0.00220    2.27940    0.25180    0.25180    2.66750   47.83020   47.83020    2.66750    2.56570    2.56570    0.55710    0.55710    3.46210    3.46210    2.61630  -20.21790   -1.04900    2.61630  991.65660
 2200.00000    8.77650  474.72110    0.89650    0.03220    0.03220    2.20780    0.29370    0.29370    2.10650   40.53430   40.53430    2.10650    2.11430    2.11430    0.55690    0.55690    3.51560    3.51560    1.99280  -20.37300   -1.25570    1.99280 1052.81480
 2250.00000    8.46740  339.12100    0.58740   -0.00250   -0.00250    2.31360    0.23180    0.23180    2.94880   88.31780   88.31780    2.94880    2.94000    2.94000    0.51800    0.51800    4.01850    4.01850    2.81050  -20.06200   -0.99630    2.81050 1026.03320
 2300.00000    8.80740  385.74290    0.92740    0.01610    0.01610    2.30030    0.23960    0.23960    2.59240  143.45790  143.45790    2.59240    2.69700    2.69700    0.32050    0.32050    2.84390    2.84390    2.83060  -23.63920   -4.62960    2.83060 1045.58300
