~Version ---------------------------------------------------
VERS. 2.0 : CWLS log ASCII Standard -VERSION 2.0
WRAP. YES : MULTIPLE LINES PER DEPTH STEP
~Well ------------------------------------------------------
STRT.FT                  1500.0 : START DEPTH
STOP.FT                  8000.0 : STOP DEPTH
STEP.FT                50.00000 : STEP LENGTH
NULL.                   -999.25 : NULL VALUE
COMP.  AMOCO PRODUCTION COMPANY : COMPANY
WELL.            LEON F CASH #1 : WELL
FLD . CALDWELL, N.E. GEORGETOWN : FIELD
LOC .                           : LOCATION
CNTY.                    BRAZOS : COUNTY
STAT.                     TEXAS : STATE
CTRY.  UNITED STATES OF AMERICA : COUNTRY
SRVC.             Dresser Atlas : SERVICE COMPANY
DATE.               17-Jul-1984 : LOGDATE
API .            42041311700000 : API NUMBER
UWI .            42041311700000 : UNIQUE WELL ID
SLAT.WGS84        30.6324896391 : SURFACE LATITUDE
SLON.WGS84       -96.5352157138 : SURFACE LONGITUDE
~Curve Information -----------------------------------------
DEPT    .FT        : DEPTH FEET
CALDED  .IN        : CALIPER FROM DENSITY LOG [ADJ TO GRRED]
CALWS   .IN        : CALIPER [CALDED]
CNCED   .V/V       : NEUTRON POROSITY SANDSTONE FROM DENSITY LOG [ADJ TO GRRED]
CNCLSED .V/V       : NEUTRON POROSITY LIMESTONE FROM DENSITY LOG [ADJ TO GRRED]
CONDWS  .MMHO      : CONDUCTIVITY [1000/DRESWS]
CORRED  .G/C3      : DENSITY CORRECTION FROM DENSITY LOG [ADJ TO GRRED]
DCORWS  .G/C3      : DENSITY CORRECTION [CORRED]
DENED   .G/C3      : BULK DENSITY FROM DENSITY LOG [ADJ TO GRRED]
DENWS   .G/C3      : BULK DENSITY [M=2.65 F=1.0] [DENED]
DPOWS   .V/V       : DENSITY POROSITY [M=2.65 F=1.0] [SPL PORDED <7162.5F> PORDLSED]
DRESWS  .OHMM      : DEEP RESISTIVITY [RILDED]
GRDED   .GAPI      : GAMMA RAY FROM DENSITY LOG [ADJ TO GRRED]
GRRED   .GAPI      : GAMMA RAY FROM RESISTIVITY LOG
GRTED   .GAPI      : GAMMA RAY FROM TDT LOG [ADJ TO GRRED]
GRWS    .GAPI      : GAMMA RAY [GRRED, CSG ABOVE 1500F]
MRESWS  .OHMM      : MEDIUM RESISTIVITY [RILMED]
NPOWS   .V/V       : NEUTRON POROSITY [SPL CNCED <7155F> CNCLSED, CSG ABOVE 1500F]
PORDED  .V/V       : DENSITY POROSITY [M=2.65 F=1.0] FROM DENSITY LOG [ADJ TO GRRED]
PORDLSED.V/        : DENSITY POROSITY [M=2.71 F=1.0] FROM DENSITY LOG [ADJ TO GRRED]
RATIOED .UNITLESS  : RATIO FROM TDT LOG [ADJ TO GRRED]
RFOCED  .OHMM      : FOCUSED RESISTIVITY
RILDED  .OHMM      : INDUCTION LOG DEEP RESISTIVITY
RILMED  .OHMM      : INDUCTION LOG MEDIUM RESISTIVITY
SIGMED  .CU        : NEUTRON CAPTURE CROSS SECTION FROM TDT LOG [ADJ TO GRRED]
SPRED   .MV        : SPONTANEOUS POTENTIAL FROM RESISTIVITY LOG
SPWS    .MV        : SPONTANEOUS POTENTIAL [BASELINE 0 MV] [SPRED]
SRESWS  .OHMM      : SHALLOW RESISTIVITY [RFOCED]
TENDED  .LBF       : TENSION FROM DENSITY LOG [ADJ TO GRRED]
TENRED  .LBF       : TENSION FROM RESISTIVITY LOG
TENTED  .LBF       : TENSION FROM TDT LOG [ADJ TO GRRED]
~Params ----------------------------------------------------
PD  .                     GL : PERMANENT DATUM
EPD .FT                244.7 : ELEVATION PERMANENT DATUM
LMF .                     KB : LOG MEASURED FROM
DAPD.FT                23.58 : FEET ABOVE PERMANENT DATUM
DMF .                     KB : DRILLING MEASURED FROM
EKB .FT               268.29 : KELLY BUSHING
EDF .FT               267.28 : DRILLING FLOOR
EGL .FT                244.7 : GROUND LEVEL
DATE.               07/17/84 : RUN DATE
RUN .                      1 : RUN NUMBER
DD  .FT                 8835 : DEPTH DRILLER
DL  .FT                 8824 : DEPTH LOGGER
BLI .FT                 8822 : BOTTOM LOG INTERVAL
TLI .FT                 1500 : TOP LOG INTERVAL
CS  .IN                8.625 : CASING SIZE
CBD .FT                 1500 : CASING BOTTOM DRILLER
CBL .FT                 1500 : CASING BOTTOM LOGGER
BS  .IN                7.875 : BIT SIZE
BSD .FT                 8825 : BIT SIZE AT DEPTH
DFT .                 LO SOL : DRILLING FLUID TYPE
DFD .                    9.2 : DRILLING FLUID DENSITY
DFV .                     47 : DRILLING FLUID VISCOSITY
DFPH.                    8.9 : DRILLING FLUID PH
DFL .                    9.2 : DRILLING FLUID LOSS
MSS .               FLOWLINE : MUD SAMPLE SOURCE
RMS .OHMM               3.38 : RESISTIVITY MUD SAMPLE
MST .DEGF                 75 : MUD SAMPLE TEMPERATURE
RMF .OHMM               2.74 : RESISTIVITY MUD FILTRATE SAMPLE
MFST.DEGF                 75 : MUD FILTRATE SAMPLE TEMPERATURE
RMC .OHMM               4.23 : RESISTIVITY MUD CAKE
MCST.DEGF                 75 : MUD CAKE SAMPLE TEMPERATURE
MFSS.               MEASURED : MUD FILTRATE SAMPLE SOURCE
MCSS.             CALCULATED : MUD CAKE SAMPLE SOURCE
RMB .OHMM               1.33 : RESISTIVITY MUD AT BHT
TCS .HRS                   5 : TIME CIRCULATED STOPPED
LUN .                HL 6300 : LOGGING UNIT NUMBER
LUL .                  BRYAN : LOGGING UNIT LOCATION
ENGI.                 WRIGHT : RECORDING ENGINEER
WITN.               DEPAOLIS : WITNESSED BY
CLNT.                A2DTECH : CLIENT CODE
ORIG.            2" 5" PRINT : ORIGIN OF DATA
UWI .         42041311700000 : UNIQUE WELL ID
DICO. A2D Technologies, Inc. : DIGITIZING COMPANY
~Other -----------------------------------------------------
~ASCII -----------------------------------------------------
# ...
 3900.00000    9.00180    9.00180    0.34570    -999.25  458.12720    0.07880    0.07880    2.27460    2.27380    0.22800    2.18280   83.53460   92.84860    -999.25   92.84860    2.25320    0.34570    0.22800    -999.25    -999.25    2.67890    2.18280    2.25320    -999.25  -54.66610   -5.36460    2.67890    0.00000   22.77370    -999.25
 3950.00000    8.98500    8.98500    0.29800    -999.25  366.39430    0.00430    0.00430    2.40740    2.41190    0.14430    2.72930   83.02070   90.53970    -999.25   90.53970    2.80550    0.29800    0.14430    -999.25    -999.25    3.20540    2.72930    2.80550    -999.25  -56.47460   -6.76030    3.20540    1.40760   18.76540    -999.25
 4000.00000    9.30340    9.30340    0.30040    -999.25  432.39500    0.04550    0.04550    2.38280    2.38300    0.16180    2.31270   85.27940   90.44000    -999.25   90.44000    2.37580    0.30040    0.16180    -999.25    -999.25    2.81100    2.31270    2.37580    -999.25  -58.84220   -8.71510    2.81100    3.23790    3.74570    -999.25
 4050.00000    9.97840    9.97840    0.32590    -999.25  512.63650    0.10610    0.10610    2.33820    2.34890    0.18250    1.95070   91.72750   96.03540    -999.25   96.03540    2.04390    0.32590    0.18250    -999.25    -999.25    2.58660    1.95070    2.04390    -999.25  -55.16010   -4.62020    2.58660    6.12850   27.57910    -999.25
 4100.00000   10.74520   10.74520    0.36400    -999.25  655.17920    0.13490    0.13490    2.28930    2.28870    0.21900    1.52630   94.24160  100.52820    -999.25  100.52820    1.57000    0.36400    0.21900    -999.25    -999.25    2.21040    1.52630    1.57000    -999.25  -56.81120   -5.85850    2.21040    0.00000   12.62220    -999.25
 4150.00000   11.24600   11.24600    0.34600    -999.25  553.25040    0.12000    0.12000    2.40910    2.40990    0.14550    1.80750   88.30930   90.91120    -999.25   90.91120    1.85670    0.34600    0.14550    -999.25    -999.25    2.37760    1.80750    1.85670    -999.25  -58.66680   -7.30130    2.37760    0.00000   15.85370    -999.25
 4200.00000   11.55930   11.55930    0.34940    -999.25  657.11660    0.08750    0.08750    2.36920    2.36900    0.17030    1.52180   90.98360   97.90230    -999.25   97.90230    1.56320    0.34940    0.17030    -999.25    -999.25    2.19300    1.52180    1.56320    -999.25  -56.40890   -4.63050    2.19300    0.00000    8.62050    -999.25
 4250.00000   11.85070   11.85070    0.35590    -999.25  721.29250    0.12710    0.12710    2.37240    2.36720    0.17140    1.38640   85.36970   96.56910    -999.25   96.56910    1.43510    0.35590    0.17140    -999.25    -999.25    2.12890    1.38640    1.43510    -999.25  -58.13500   -5.94380    2.12890    1.93700   17.48890    -999.25
 4300.00000   11.63210   11.63210    0.38050    -999.25  795.03890    0.11140    0.11140    2.26040    2.25940    0.23670    1.25780   90.43990   99.41400    -999.25   99.41400    1.29220    0.38050    0.23670    -999.25    -999.25    1.95790    1.25780    1.29220    -999.25  -58.65460   -6.05060    1.95790    6.02370    3.03130    -999.25
 4350.00000    9.81270    9.81270    0.36830    -999.25  575.30780    0.10870    0.10870    2.30600    2.30700    0.20790    1.73820   94.67070  105.67540    -999.25  105.67540    1.76470    0.36830    0.20790    -999.25    -999.25    2.30930    1.73820    1.76470    -999.25  -61.45460   -8.43780    2.30930    0.00000   11.96390    -999.25
 4400.00000    9.87800    9.87800    0.35440    -999.25  601.28670    0.10270    0.10270    2.46480    2.45940    0.11550    1.66310   98.58430  101.70550    -999.25  101.70550    1.74520    0.35440    0.11550    -999.25    -999.25    2.27780    1.66310    1.74520    -999.25  -64.32100  -10.89140    2.27780    0.00000   11.48210    -999.25
 4450.00000   10.53430   10.53430    0.31440    -999.25  782.41140    0.17110    0.17110    2.21430    2.21080    0.26620    1.27810   88.17400   96.78670    -999.25   96.78670    1.31450    0.31440    0.26620    -999.25    -999.25    1.91580    1.27810    1.31450    -999.25  -59.54970   -5.70730    1.91580    0.00000   12.86410    -999.25
 4500.00000   11.58420   11.58420    0.34760    -999.25  892.37910    0.11410    0.11410    2.30420    2.30300    0.21030    1.12060   77.06460   89.13710    -999.25   89.13710    1.16020    0.34760    0.21030    -999.25    -999.25    1.72960    1.12060    1.16020    -999.25  -57.64850   -3.39330    1.72960    0.00000   14.39730    -999.25
 4550.00000   11.11750   11.11750    0.34730    -999.25 1148.36930    0.11640    0.11640    2.33800    2.33900    0.18850    0.87080   84.97700   97.97120    -999.25   97.97120    0.90010    0.34730    0.18850    -999.25    -999.25    1.58520    0.87080    0.90010    -999.25  -56.62220   -1.99040    1.58520    9.63900   18.67680    -999.25
 4600.00000    9.73480    9.73480    0.28060    -999.25  469.70410    0.02880    0.02880    2.43370    2.43240    0.13190    2.12900   88.44820   84.95660    -999.25   84.95660    2.26600    0.28060    0.13190    -999.25    -999.25    2.60690    2.12900    2.26600    -999.25  -61.31070   -6.43810    2.60690    0.01640    7.08230    -999.25
 4650.00000   10.17640   10.17640    0.32310    -999.25  656.59880    0.08700    0.08700    2.31530    2.31670    0.20200    1.52300   85.05200   89.93690    -999.25   89.93690    1.56540    0.32310    0.20200    -999.25    -999.25    2.18650    1.52300    1.56540    -999.25  -58.95580   -3.84250    2.18650    0.85170    4.87240    -999.25
 4700.00000   10.99210   10.99210    0.36040    -999.25  730.72710    0.12840    0.12840    2.29860    2.29720    0.21380    1.36850   76.42520   81.92790    -999.25   81.92790    1.43120    0.36040    0.21380    -999.25    -999.25    2.08410    1.36850    1.43120    -999.25  -65.04320   -9.68910    2.08410    0.00000   12.70550    -999.25
 4750.00000   11.16310   11.16310    0.36140    -999.25  772.67820    0.09150    0.09150    2.35880    2.36120    0.17500    1.29420   78.56320   78.85990    -999.25   78.85990    1.33240    0.36140    0.17500    -999.25    -999.25    2.05050    1.29420    1.33240    -999.25  -65.65740  -10.06260    2.05050    2.74210    7.74720    -999.25
 4800.00000   11.56580   11.56580    0.38310    -999.25  755.80080    0.09880    0.09880    2.35980    2.36110    0.17510    1.32310   75.70960   82.56440    -999.25   82.56440    1.36010    0.38310    0.17510    -999.25    -999.25    1.97260    1.32310    1.36010    -999.25  -68.21520  -12.37970    1.97260    0.00000    6.15540    -999.25
 4850.00000   11.73310   11.73310    0.37190    -999.25 1058.76120    0.14100    0.14100    2.31120    2.31140    0.20520    0.94450   85.73390   93.74760    -999.25   93.74760    1.01150    0.37190    0.20520    -999.25    -999.25    1.72190    0.94450    1.01150    -999.25  -65.86050   -9.78420    1.72190    0.00000   19.55220    -999.25
 4900.00000   10.63330   10.63330    0.36190    -999.25  792.20470    0.11830    0.11830    2.38370    2.38630    0.15980    1.26230   86.89240   92.82380    -999.25   92.82380    1.31010    0.36190    0.15980    -999.25    -999.25    1.77600    1.26230    1.31010    -999.25  -67.82980  -11.51280    1.77600    8.25200    9.37960    -999.25
 4950.00000   11.03020   11.03020    0.39520    -999.25  967.21150    0.17040    0.17040    2.27050    2.27220    0.22900    1.03390   79.97780   84.80650    -999.25   84.80650    1.09340    0.39520    0.22900    -999.25    -999.25    1.70820    1.03390    1.09340    -999.25  -62.77000   -6.21230    1.70820    0.00000   12.36120    -999.25
 5000.00000   11.56820   11.56820    0.39810    -999.25 1028.06620    0.10920    0.10920    2.21690    2.21690    0.26250    0.97270   86.54300   92.58350    -999.25   92.58350    0.99920    0.39810    0.26250    -999.25    -999.25    1.73190    0.97270    0.99920    -999.25  -67.83140  -11.03290    1.73190    9.79980    7.38040    -999.25
 5050.00000   10.79650   10.79650    0.41280    -999.25  901.95720    0.10410    0.10410    2.35150    2.35330    0.17980    1.10870   88.08690   97.79120    -999.25   97.79120    1.13980    0.41280    0.17980    -999.25    -999.25    1.82870    1.10870    1.13980    -999.25  -63.77550   -6.73630    1.82870    0.00000   19.72320    -999.25
