~Version ---------------------------------------------------
VERS. 2.0 : CWLS log ASCII Standard -VERSION 2.0
WRAP. YES : MULTIPLE LINES PER DEPTH STEP
~Well ------------------------------------------------------
STRT.FT                  300.0 : START DEPTH
STOP.FT                18600.0 : STOP DEPTH
STEP.FT               50.00000 : STEP LENGTH
NULL.                  -999.25 : NULL VALUE
COMP.        SHELL OIL COMPANY : COMPANY
WELL. PAWELEK BEN A ET AL A #1 : WELL
FLD .    PERSON AREA (WILDCAT) : FIELD
LOC .                          : LOCATION
CNTY.                   KARNES : COUNTY
STAT.                    TEXAS : STATE
CTRY. UNITED STATES OF AMERICA : COUNTRY
SRVC.             Schlumberger : SERVICE COMPANY
DATE.              22-May-1978 : LOGDATE
API .           42255305980000 : API NUMBER
UWI .           42255305980000 : UNIQUE WELL ID
SLAT.WGS84       29.0241796548 : SURFACE LATITUDE
SLON.WGS84      -97.8796797249 : SURFACE LONGITUDE
~Curve Information -----------------------------------------
DEPT    .FT    : DEPTH FEET
CALDED  .IN    : CALIPER FROM DENSITY LOG [DEP ADJ TO GRSED]
CALMED  .IN    : CALIPER FROM MICROLOG [DEP ADJ TO SFLED]
CALSED  .IN    : CALIPER FROM SONIC LOG
CALWS   .IN    : CALIPER [10 CALDED 4845.5 CALMED 4849 CALDED 17451 CALSED 17577 CALDED]
CONDWS  .MMHO  : CONDUCTIVITY [1000/DRESWS]
DCORWS  .G/C3  : DENSITY CORRECTION [DRHOED]
DENWS   .G/C3  : BULK DENSITY [M=2.71 F=1.0] [RHOBED]
DPHILSED.V/V   : DENSITY POROSITY [M=2.71 F=1.0] FROM DENSITY LOG [DEP ADJ TO GRSED/RHOBED]
DPHISSED.V/V   : DENSITY POROSITY [M=2.65 F=1.0] FROM DENSITY LOG [DEP ADJ TO GRSED/RHOBED]
DPOLSWS .V/V   : DENSITY POROSITY [M=2.71 F=1.0] [CAL FR DENWS]
DRESWS  .OHMM  : DEEP RESISTIVITY [ILDED]
DRHOED  .G/C3  : DENSITY CORRECTION FROM DENSITY LOG [DEP ADJ TO GRSED]
DTED    .US/F  : DELTA TIME FROM SONIC LOG
DTWS    .US/F  : DELTA TIME [DTED]
GRDED   .GAPI  : GAMMA RAY FROM DENSITY LOG
GRRED   .GAPI  : GAMMA RAY FROM RESISTIVITY LOG [DEP ADJ TO GRSED]
GRSED   .GAPI  : GAMMA RAY FROM SONIC LOG
GRWS    .GAPI  : GAMMA RAY [70 GRDED 4800.5 GRDEDNRM [0-100 TO 0-140]4844.5 GRSED 4853.5 GRDED 12903.5 GRSED 12939.5 GRDED 12962 GRSED 17526 GRDED 17550 GRRED 18607 GRDED]
ILDED   .OHMM  : INDUCTION LOG DEEP RESISTIVITY
ILMED   .OHMM  : INDUCTION LOG MEDIUM RESISTIVITY
MRESWS  .OHMM  : MEDIUM RESISTIVITY [ILMED]
NPHILSED.V/V   : NEUTRON POROSITY LISTONE FROM DENSITY LOG [DEP ADJ TO GRSED/RHOBED]
NPHISSED.V/V   : NEUTRON POROSITY SANDSTONE FROM DENSITY LOG [DEP ADJ TO GRSED/RHOBED]
NPOLSWS .V/V   : NEUTRON POROSITY LIMESTONE [10 NPOLSCAL 9446 NPHILSED] [NPHISSED IS CONVERTED TO NPOLSCAL USING POWERLOG MODULE]
PROXED  .OHMM  : PROXIMITY RESISTIVITY FROM MICROLOG [DEP ADJ TO SFLED]
RHOBED  .G/C3  : BULK DENSITY FROM DENSITY LOG [DEP ADJ TO GRSED]
SFLED   .OHMM  : SPHERICALLY FOCUSED LOG RESISTIVITY
SPRED   .MV    : SPONTANEOUS POTENTIAL FROM RESISTIVITY LOG [SHIFTS ARE REMOVED]
SPWS    .MV    : SPONTANEOUS POTENTIAL [BASELINE 0 MV] [SPRED][PL. USE W/ RESERVATIONS]
SRESWS  .OHMM  : SHALLOW RESISTIVITY [SFLED]
TENDED  .LBF   : TENSION FROM DENSITY LOG [DEP ADJ TO GRSED]
~Params ----------------------------------------------------
PD  .                     GL : PERMANENT DATUM
EPD .FT                  335 : ELEVATION PERMANENT DATUM
LMF .                     KB : LOG MEASURED FROM
DAPD.FT                   28 : FEET ABOVE PERMANENT DATUM
DMF .                     KB : DRILLING MEASURED FROM
EKB .FT                  363 : KELLY BUSHING
EDF .FT                  362 : DRILLING FLOOR
EGL .FT                  335 : GROUND LEVEL
DATE.               05/22/78 : RUN DATE
RUN .                      4 : RUN NUMBER
DD  .FT                18626 : DEPTH DRILLER
DL  .FT                18642 : DEPTH LOGGER
BLI .FT                18637 : BOTTOM LOG INTERVAL
TLI .FT                17550 : TOP LOG INTERVAL
CS  .IN                    7 : CASING SIZE
CBD .FT                17544 : CASING BOTTOM DRILLER
CBL .FT                17550 : CASING BOTTOM LOGGER
BS  .IN                    6 : BIT SIZE
BSD .FT                18626 : BIT SIZE AT DEPTH
DFT .               INVERMUL : DRILLING FLUID TYPE
DFD .                   17.6 : DRILLING FLUID DENSITY
DFV .                     70 : DRILLING FLUID VISCOSITY
DFL .                      2 : DRILLING FLUID LOSS
LUN .                   7799 : LOGGING UNIT NUMBER
LUL .                  PLEAS : LOGGING UNIT LOCATION
ENGI.             TURBEVILLE : RECORDING ENGINEER
WITN.                JARRELL : WITNESSED BY
CLNT.                A2DTECH : CLIENT CODE
ORIG.            2" 5" PRINT : ORIGIN OF DATA
UWI .         42255305980000 : UNIQUE WELL ID
DICO. A2D Technologies, Inc. : DIGITIZING COMPANY
~Other -----------------------------------------------------
~ASCII -----------------------------------------------------
# ...
 11800.00000   12.46230    8.99020   10.38960   12.46230  172.16150    0.00350    2.65810    0.02950    -999.25    0.03040    5.80850    0.00350   52.82290   52.82290   32.98400    -999.25   37.15620   32.98400    5.80850   10.15620   10.15620    0.02940    -999.25    0.02940    4.75300    2.65810   23.34410 -129.49400  -89.79160   23.34410 9734.10160
 11850.00000   12.46150    9.56040   10.43800   12.46150  118.16980   -0.00560    2.68300    0.02240    -999.25    0.01580    8.46240   -0.00560   51.55080   51.55080   26.88120    -999.25   33.65040   26.88120    8.46240   11.01250   11.01250    0.03880    -999.25    0.03880   23.09730    2.68300   16.08360  -86.75650  -48.20190   16.08360 9701.72850
 11900.00000   12.52610    9.23690   10.45560   12.52610  251.02920    0.05900    2.70120    0.00040    -999.25    0.00510    3.98360    0.05900   49.78980   49.78980   21.67960    -999.25   22.42130   21.67960    3.98360    6.11830    6.11830    0.05110    -999.25    0.05110    8.01690    2.70120   25.14360 -103.49150  -66.08480   25.14360 9660.50000
 11950.00000   13.77410    9.93320   10.92010   13.77410   41.73850    0.00960    2.64840    0.04050    -999.25    0.03600   23.95870    0.00960   50.19430   50.19430   27.10080    -999.25   16.81470   27.10080   23.95870   38.86860   38.86860    0.02250    -999.25    0.02250    1.60480    2.64840   79.37890  -69.95550  -33.69670   79.37890 9686.25590
 12000.00000   12.78300    9.79460   10.54340   12.78300   59.74430    0.01730    2.65890    0.03360    -999.25    0.02990   16.73800    0.01730   52.50370   52.50370   25.38830    -999.25   29.17660   25.38830   16.73800   31.86870   31.86870    0.02110    -999.25    0.02110   23.99690    2.65890   32.45720  -67.60010  -32.48920   32.45720 9645.68260
 12050.00000   13.33780    9.15920   10.53650   13.33780   59.52420    0.01980    2.63550    0.04340    -999.25    0.04360   16.79990    0.01980   49.90260   49.90260   22.13390    -999.25   24.95440   22.13390   16.79990   31.01350   31.01350    0.02750    -999.25    0.02750   32.98050    2.63550   36.86600  -92.01570  -58.05270   36.86600 9604.01370
 12100.00000   13.49460    8.99500   10.58390   13.49460  284.98960    0.08920    2.56210    0.09430    -999.25    0.08650    3.50890    0.08920   54.09410   54.09410   20.29400    -999.25   22.59910   20.29400    3.50890    5.08410    5.08410    0.07820    -999.25    0.07820   15.56210    2.56210   12.40690 -114.43880  -81.62370   12.40690 9561.74020
 12150.00000   13.49440    9.28110   10.61010   13.49440  120.71750    0.02960    2.68110    0.02870    -999.25    0.01690    8.28380    0.02960   52.66970   52.66970   27.08630    -999.25   25.43640   27.08630    8.28380   15.66680   15.66680    0.04760    -999.25    0.04760    1.50220    2.68110   14.93800 -102.37780  -70.71060   14.93800 9544.89650
 12200.00000   13.99510   11.02730   10.73020   13.99510  108.90750    0.01040    2.65190    0.02980    -999.25    0.03400    9.18210    0.01040   51.07790   51.07790   17.79460    -999.25   20.64440   17.79460    9.18210   12.78910   12.78910    0.02530    -999.25    0.02530   68.22210    2.65190   20.46440 -111.97170  -81.45240   20.46440 9830.60940
 12250.00000   15.09720   11.20360   10.94110   15.09720  109.60830    0.02280    2.68570    0.01830    -999.25    0.01420    9.12340    0.02280   50.92370   50.92370   16.82600    -999.25   17.24560   16.82600    9.12340   11.40960   11.40960    0.02000    -999.25    0.02000   32.61100    2.68570   14.15340  -99.41860  -70.04710   14.15340 9825.17090
 12300.00000   15.25400   11.22140   11.12670   15.25400   59.06150    0.00940    2.69210    0.01680    -999.25    0.01050   16.93150    0.00940   48.92720   48.92720   17.48830    -999.25   20.27740   17.48830   16.93150   22.34240   22.34240    0.00560    -999.25    0.00560   49.48750    2.69210   45.54450  -68.97640  -40.75280   45.54450 9783.42090
 12350.00000   15.42800   11.25230   11.16510   15.42800   63.94640    0.01440    2.68720    0.01330    -999.25    0.01330   15.63810    0.01440   49.58820   49.58820   19.79390    -999.25   25.87110   19.79390   15.63810   21.05800   21.05800    0.00610    -999.25    0.00610  111.99410    2.68720   35.97060  -61.98770  -34.91200   35.97060 9772.05760
 12400.00000   15.53660   11.30740   11.29600   15.53660   56.86630    0.01060    2.67450    0.02610    -999.25    0.02080   17.58510    0.01060   54.02010   54.02010   26.70640    -999.25   26.92100   26.70640   17.58510   19.13260   19.13260    0.02190    -999.25    0.02190  570.55660    2.67450   62.88790  -52.95840  -27.03060   62.88790 9708.05760
 12450.00000   15.55280   11.36130   11.20570   15.55280   46.13930    0.01740    2.68010    0.01420    -999.25    0.01750   21.67350    0.01740   50.12320   50.12320   19.54390    -999.25   21.52710   19.54390   21.67350   22.39560   22.39560    0.00440    -999.25    0.00440   58.30980    2.68010   51.05270  -60.91660  -36.13670   51.05270 9658.45800
 12500.00000   15.72210   11.38910   11.27140   15.72210   36.63780    0.01430    2.66030    0.03200    -999.25    0.02910   27.29420    0.01430   49.68740   49.68740   19.50000    -999.25   25.18280   19.50000   27.29420   29.26480   29.26480    0.00560    -999.25    0.00560  305.04470    2.66030   85.95730  -62.66540  -39.03340   85.95730 9648.33500
 12550.00000   15.56060   11.42620   11.28510   15.56060   42.15460    0.02920    2.70210    0.00710    -999.25    0.00460   23.72220    0.02920   49.17130   49.17130   26.83190    -999.25   23.34690   26.83190   23.72220   26.77520   26.77520    0.00390    -999.25    0.00390 1000.54030    2.70210   67.12850  -46.82270  -24.33860   67.12850 9603.10060
 12600.00000   15.11290   11.45960   11.05250   15.11290   52.18660    0.01240    2.66240    0.03970    -999.25    0.02780   19.16200    0.01240   49.70790   49.70790   19.19420    -999.25   23.28340   19.19420   19.16200   22.52120   22.52120    0.00760    -999.25    0.00760   57.40470    2.66240   53.71180  -78.11940  -56.78320   53.71180 9571.66890
 12650.00000   14.89380   11.50050   11.26150   14.89380   36.87450    0.00560    2.65370    0.03810    -999.25    0.03290   27.11900    0.00560   49.60390   49.60390   29.13220    -999.25   32.93760   29.13220   27.11900   23.26340   23.26340    0.00980    -999.25    0.00980  177.80870    2.65370  104.77340  -65.12130  -44.93300  104.77340 9577.40620
 12700.00000   13.96200   11.11120   10.91630   13.96200   40.88420    0.00940    2.67290    0.03390    -999.25    0.02170   24.45930    0.00940   54.27960   54.27960   44.22780    -999.25   36.41400   44.22780   24.45930   33.67900   33.67900    0.02510    -999.25    0.02510   79.72370    2.67290   51.51210  -43.93010  -24.88960   51.51210 9556.12300
 12750.00000   15.75510   11.62130   11.36500   15.75510  370.35670    0.06120    2.38360    0.19730    -999.25    0.19090    2.70010    0.06120   82.72530   82.72530   85.65370    -999.25   81.29230   85.65370    2.70010    2.35210    2.35210    0.35970    -999.25    0.35970    2.59110    2.38360    4.20790  -21.21580   -3.32320    4.20790 9539.38960
 12800.00000   15.49290   11.12120   11.24630   15.49290  254.40760    0.18320    2.54860    0.09570    -999.25    0.09440    3.93070    0.18320   73.54100   73.54100   74.14380    -999.25   66.27710   74.14380    3.93070    3.47290    3.47290    0.23210    -999.25    0.23210    3.42660    2.54860    6.14330  -22.24030   -4.78850    6.14330 9456.97950
 12850.00000   14.09540   10.75690   10.91600   14.09540  277.66210    0.12110    2.58870    0.06990    -999.25    0.07090    3.60150    0.12110   72.61030   72.61030   82.02520    -999.25   84.38480   82.02520    3.60150    3.93800    3.93800    0.20850    -999.25    0.20850    1.51880    2.58870    6.75610  -21.41430   -4.32470    6.75610 9471.44530
 12900.00000   12.93380    9.98510   10.67080   12.93380  113.19770    0.00280    2.62270    0.05070    -999.25    0.05110    8.83410    0.00280   62.62630   62.62630   62.57870    -999.25   59.83640   62.57870    8.83410   10.49270   10.49270    0.12670    -999.25    0.12670    7.05760    2.62270   14.17470  -22.23200   -5.50450   14.17470 9408.62010
