~Version ---------------------------------------------------
VERS. 2.0 : CWLS log ASCII Standard -VERSION 2.0
WRAP.  NO : One line per depth step
~Well ------------------------------------------------------
STRT.FT                       300.0 : START DEPTH
STOP.FT                     12600.0 : STOP DEPTH
STEP.FT                    50.00000 : STEP LENGTH
NULL.                       -999.25 : NULL VALUE
COMP. STANDARD OIL COMPANY OF TEXAS : COMPANY
WELL.               J T CALLIHAM #1 : WELL
FLD .                      CALLIHAM : FIELD
LOC .                               : LOCATION
CNTY.                     MC MULLEN : COUNTY
STAT.                         TEXAS : STATE
CTRY.      UNITED STATES OF AMERICA : COUNTRY
SRVC.                  Schlumberger : SERVICE COMPANY
DATE.                   25-Aug-1958 : LOGDATE
API .                42311006770000 : API NUMBER
UWI .                42311006770000 : UNIQUE WELL ID
SLAT.WGS84            28.4820300337 : SURFACE LATITUDE
SLON.WGS84           -98.3483794592 : SURFACE LONGITUDE
~Curve Information -----------------------------------------
DEPT  .FT    : DEPTH
ASNED .OHMM  : AMPLIFIED SHORT NORMAL 16 IN.
CILDED.MMHO  : CONDUCTIVITY FROM LOG
CONDWS.MMHO  : CONDUCTIVITY (1000/DRESWS)
DRESWS.OHMM  : DEEP RESISTIVITY (IF ILDED<1, THEN 1000/CILDED)
DTED  .US/F  : DELTA TIME  (ADJ TO RES.)
DTWS  .US/F  : DELTA TIME  (DTE)
ILDED .OHMM  : DEEP INDUCTION RESISTIVITY
SPWS  .MV    : SPONTANEOUS POTENTIAL BASELINE 0 MV (SPRED)
SPRED .MV    : SPONTANEOUS POTENTIAL FROM RESISTIVITY
SRESWS.OHMM  : SHALLOW RESISTIVITY (ASNED)
~Params ----------------------------------------------------
PD  .                     GL : PERMANENT DATUM
LMF .                     GL : LOG MEASURED FROM
DAPD.F                  16.0 : FEET ABOVE PERMANENT DATUM
DMF .                     GL : DRILLING MEASURED FROM
EKB .F                   244 : KELLING BUSHING
EGL .F                   228 : GROUND LEVEL
DATE.                8/25/58 : RUN DATE
RUN .                      2 : RUN NUMBER
DD  .F                 12605 : DEPTH DRILLER
DL  .F                 12632 : DEPTH LOGGER
BLI .F                 12628 : BOTTOM LOG INTERVAL
TLI .F                 12435 : TOP LOG INTERVAL
CBD .F                 12287 : CASING BOTTOM DRILLER
BS  .IN                6.125 : BIT SIZE
BSD .F                 12605 : BIT SIZE AT DEPTH
DFT .     L.B.-13% OIL  EMUL : DRILLING FLUID TYPE
DFD .                   10.3 : DRILLING FLUID DENSITY
DFV .                     71 : DRILLING FLUID VISCOSITY
DFPH.                      9 : DRILLING FLUID PH
DFL .                    3.4 : DRILLING FLUID LOSS
RMS .OHMM                0.6 : RESISTIVITY MUD SAMPLE
MST .F                   120 : MUD SAMPLE TEMPERATURE
RMF .OHMM               0.15 : RESISTIVITY MUD FILTRATE SAMPLE
MFST.F                   270 : MUD FILTRATE SAMPLE TEMPERATURE
RMB .OHMM               0.27 : RESISTIVITY MUD AT BHT
TCS .HRS                   2 : TIME CURCULATED STOPPED
LUN .                   2501 : LOGGING UNIT NUMBER
LUL .                  FREER : LOGGING UNIT LOCATION
ENGI.                  BRITT : RECORDING ENGINEER
WITN.               LINSCOMB : WITNESSED BY
CLNT.                A2DTECH : CLIENT CODE
ORIG.               5",PRINT : ORIGIN OF DATA
UWI .         42311006770000 : UNIQUE WELL ID
DICO. A2D Technologies, Inc. : DIGITIZING COMPANY
~Other -----------------------------------------------------
~ASCII -----------------------------------------------------
# ...
 6900.00000    3.89130  309.76100  268.76660    3.72070    -999.25    -999.25    3.72070  -34.33980  -53.10810    3.89130
 6950.00000    3.30430  356.37450  304.52530    3.28380    -999.25    -999.25    3.28380   -8.48070  -26.91430    3.30430
 7000.00000    3.07250  393.29950  336.36060    2.97300    -999.25    -999.25    2.97300   -5.50470  -23.60360    3.07250
 7050.00000    3.36870  325.89640  303.28760    3.29720    -999.25    -999.25    3.29720  -17.57360  -35.33780    3.36870
 7100.00000    1.57070  769.92270  770.83170    1.29730    -999.25    -999.25    1.29730   -7.02970  -24.45920    1.57070
 7150.00000    2.26900  481.87250  435.29360    2.29730    -999.25    -999.25    2.29730   -4.59440  -21.68920    2.26900
 7200.00000    2.91300  388.64540  474.36080    2.10810    -999.25    -999.25    2.10810   -3.23830  -19.99840    2.91300
 7250.00000    2.09690  543.27690  540.13180    1.85140    -999.25    -999.25    1.85140   -6.08090  -22.90540    2.09690
 7300.00000    1.55790  747.59860  581.15880    1.72070    -999.25    -999.25    1.72070  -10.08920  -26.98210    1.55790
 7350.00000    2.07610  578.68520  515.06570    1.94150    -999.25    -999.25    1.94150   -4.63770  -21.59900    2.07610
 7400.00000    1.50000  747.46730  711.54120    1.40540    -999.25    -999.25    1.40540   -7.29450  -24.32430    1.50000
 7450.00000    1.20930  964.14340  902.44560    1.10810    -999.25    -999.25    1.10810   -7.02350  -24.12170    1.20930
 7500.00000    1.50000  994.62150  867.07700    1.15330    -999.25    -999.25    1.15330   -9.27500  -26.44160    1.50000
 7550.00000    1.21370  894.22310  999.90000    1.00010    -999.25    -999.25    1.00010   -4.38670  -21.62170    1.21370
 7600.00000    2.09420  545.21910  440.47040    2.27030    -999.25    -999.25    2.27030   -7.02210  -24.32460    2.09420
 7650.00000    1.12770  996.71310  996.71300    1.00330    -999.25    -999.25    0.85130   -6.22090  -23.58090    1.12770
 7700.00000    1.56700  776.82620  649.13990    1.54050    -999.25    -999.25    1.54050  -10.96080  -28.37830    1.56700
 7750.00000    1.60050  653.98410  795.60830    1.25690    -999.25    -999.25    1.25690  -12.05150  -29.52650    1.60050
 7800.00000    1.81520  711.35460  578.13490    1.72970    -999.25    -999.25    1.72970  -15.17020  -32.70270    1.81520
 7850.00000    1.76360  678.48610  787.21560    1.27030    -999.25    -999.25    1.27030   -6.80190  -24.39190    1.76360
 7900.00000    1.43480  784.75580  672.72110    1.48650    -999.25    -999.25    1.48650   -5.50570  -23.15320    1.43480
 7950.00000    1.76090  674.90040  606.53850    1.64870    -999.25    -999.25    1.64870  -10.62830  -28.33330    1.76090
 8000.00000    1.70650  645.60670  660.72020    1.51350    -999.25    -999.25    1.51350   -6.83210  -24.59460    1.70650
 8050.00000    1.79710  646.81270  591.99620    1.68920    -999.25    -999.25    1.68920   -8.80160  -26.62160    1.79710
 8100.00000    1.89850  525.15830  587.30250    1.70270    -999.25    -999.25    1.70270   -6.08650  -23.96400    1.89850
 8150.00000    2.14670  516.75120  450.30840    2.22070    -999.25    -999.25    2.22070  -11.07390  -29.00890    2.14670
 8200.00000    2.26450  512.42100  437.00560    2.28830    -999.25    -999.25    2.28830   -6.60210  -24.59460    2.26450
 8250.00000    2.15040  526.53020  596.76560    1.67570    -999.25    -999.25    1.67570   -5.66630  -23.71630    2.15040
 8300.00000    2.09780  518.64190  531.09560    1.88290    -999.25    -999.25    1.88290   -8.06370  -26.17120    2.09780
 8350.00000    2.06340  549.58620  486.83120    2.05410    -999.25    -999.25    2.05410   -6.22690  -24.39190    2.06340
 8400.00000    2.02180  548.24010  528.56920    1.89190    -999.25    -999.25    1.89190   -5.11080  -23.33330    2.02180
 8450.00000    1.86230  612.74900  552.21160    1.81090    -999.25    -999.25    1.81090   -5.43620  -23.71620    1.86230
 8500.00000    2.09780  541.88600  546.80660    1.82880    -999.25    -999.25    1.82880   -3.96020  -22.29770    2.09780
 8550.00000    1.84780  616.22920  552.24210    1.81080    -999.25    -999.25    1.81080   -5.80300  -24.39210    1.84780
 8600.00000    1.75000  661.15540  637.91780    1.56760    -999.25    -999.25    1.56760  -12.30600  -31.62160    1.75000
 8650.00000    2.01810  589.44220  601.57610    1.66230    -999.25    -999.25    1.66230  -14.55250  -34.59460    2.01810
 8700.00000    1.89130  618.12750  587.30250    1.70270    -999.25    -999.25    1.70270   -5.35730  -26.12600    1.89130
 8750.00000    2.15220  542.82870  503.39790    1.98650    -999.25    -999.25    1.98650   -8.53010  -29.27830    2.15220
 8800.00000    1.79340  647.07540  637.91780    1.56760    -999.25    -999.25    1.56760   -3.88980  -24.05410    1.79340
 8850.00000    1.76360  627.09160  573.65770    1.74320    -999.25    -999.25    1.74320   -7.04040  -26.62080    1.76360
 8900.00000    2.15760  524.46620  468.34020    2.13520    -999.25    -999.25    2.13520   -7.12980  -26.12630    2.15760
 8950.00000    1.87140  671.91240  632.47110    1.58110    -999.25    -999.25    1.58110   -5.50630  -23.91890    1.87140
 9000.00000    1.91670  624.04930  516.66240    1.93550    -999.25    -999.25    1.93550   -7.57670  -25.40540    1.91670
 9050.00000    1.67570  668.32670  531.43430    1.88170    -999.25    -999.25    1.88170   -6.74200  -23.98670    1.67570
 9100.00000    1.98370  489.04380  492.68360    2.02970    -999.25    -999.25    2.02970   -6.58250  -23.24330    1.98370
 9150.00000    2.07880  566.39160  560.60100    1.78380    -999.25    -999.25    1.78380   -7.05360  -23.13050    2.07880
 9200.00000    2.35870  471.14960  458.67350    2.18020    -999.25    -999.25    2.18020   -9.91240  -25.40540    2.35870
 9250.00000    2.61590  474.70120  365.12340    2.73880    -999.25    -999.25    2.73880   -9.55040  -24.45950    2.61590
 9300.00000    2.80800  417.33070  336.36060    2.97300    -999.25    -999.25    2.97300   -7.20630  -21.53150    2.80800
 9350.00000    3.99650  291.11550  270.05860    3.70290    -999.25    -999.25    3.70290   -3.42100  -17.16220    3.99650
 9400.00000    2.22830  584.98920  420.43300    2.37850    -999.25    -999.25    2.37850   -9.00220  -22.79280    2.22830
 9450.00000    2.21190  593.02790  471.34240    2.12160    -999.25    -999.25    2.12160   -7.30940  -21.55420    2.21190
 9500.00000    2.11960  554.22670  480.51510    2.08110    -999.25    -999.25    2.08110   -8.27380  -22.97290    2.11960
 9550.00000    2.44020  369.22310  365.72430    2.73430    -999.25    -999.25    2.73430   -6.80640  -21.95970    2.44020
 9600.00000    2.84780  403.32740  336.36060    2.97300    -999.25    -999.25    2.97300   -4.66280  -20.27030    2.84780
 9650.00000    2.55350  450.49800  434.44260    2.30180    -999.25    -999.25    2.30180   -6.73110  -22.79290    2.55350
 9700.00000    2.57430  467.52990  418.86570    2.38740    -999.25    -999.25    2.38740   -6.36670  -22.88270    2.57430
 9750.00000    2.37050  485.45820  450.30840    2.22070    -999.25    -999.25    2.22070   -7.75960  -24.72980    2.37050
 9800.00000    2.44570  436.87250  396.44780    2.52240    -999.25    -999.25    2.52240   -6.08900  -23.51350    2.44570
 9850.00000    2.84510  439.35690  375.62920    2.66220    -999.25    -999.25    2.66220   -3.67540  -21.55410    2.84510
 9900.00000    3.93480  282.04110  262.41210    3.81080    -999.25    -999.25    3.81080   -3.15350  -21.48650    3.93480
 9950.00000    3.39680  345.61750  283.51900    3.52710    -999.25    -999.25    3.52710   -1.95940  -20.33780    3.39680
 10000.00000    2.67380  394.25890  411.11660    2.43240    -999.25    -999.25    2.43240   -5.40540  -23.78380    2.67380
 10050.00000    2.60690  361.03590  445.79170    2.24320    -999.25    -999.25    2.24320   -4.68470  -23.06310    2.60690
 10100.00000    3.19930  387.51310  313.55830    3.18920    -999.25    -999.25    3.18920   -2.92810  -21.30650    3.19930
 10150.00000    2.28800  435.25900  358.07640    2.79270    -999.25    -999.25    2.79270   -4.93240  -23.31080    2.28800
