~Version ---------------------------------------------------
VERS.      2.0 : CWLS log ASCII Standard -VERSION 2.0
WRAP.      YES : Multiple lines per depth step
CREA. 01/19/13 : LAS Creation Date
~Well ------------------------------------------------------
STRT.FT                 1500.0 : START DEPTH
STOP.FT                10050.0 : STOP DEPTH
STEP.FT               50.00000 : STEP LENGTH
NULL.                  -999.25 : NULL VALUE
COMP.     MARATHON OIL COMPANY : COMPANY
WELL.              HOLMES S #1 : WELL
FLD .               BEAR GRASS : FIELD
LOC .                          : LOCATION
CNTY.                     LEON : COUNTY
STAT.                    TEXAS : STATE
CTRY. UNITED STATES OF AMERICA : COUNTRY
SRVC.             Schlumberger : SERVICE COMPANY
DATE.              05-Jul-1991 : LOGDATE
API .           42289311110000 : API NUMBER
UWI .           42289311110000 : UNIQUE WELL ID
SLAT.WGS84       31.3704869151 : SURFACE LATITUDE
SLON.WGS84      -96.2382553647 : SURFACE LONGITUDE
~Curve Information -----------------------------------------
DEPT    .FT    : DEPTH FEET
CALDED  .IN    : CALIPER FROM CN-LDT LOG
CALWS   .IN    : CALIPER [CALDED]
CONDWS  .MMHO  : CONDUCTIVITY [1000/DRESWS]
DCORWS  .G/C3  : DENSITY CORRECTION [DRHOED]
DENWS   .G/C3  : FORMATION BULK DENSITY [CALCULATED FROM DPOWS M=2.71, F=1.0]
DPHILSED.V/V   : DENSITY POROSITY LIMESTONE [M=2.71, F=1.0] FROM CN-LDT LOG
DPOWS   .V/V   : DENSITY POROSITY LIMESTONE [DPHILSED]
DRESWS  .OHMM  : DEEP RESISTIVITY [ILDED]
DRHOED  .G/C3  : BULK DENSITY CORRECTION FROM CN-LDT LOG
GRRED   .GAPI  : GAMMA RAY FROM DIL-SFL LOG
GRWS    .GAPI  : GAMMA RAY [GRRED]
ILDED   .OHMM  : DEEP INDUCTION FROM DIL-SFL LOG
ILMED   .OHMM  : MEDIUM INDUCTION FROM DIL-SFL LOG
MRESWS  .OHMM  : MEDIUM RESISTIVITY [ILMED]
NPHILSED.V/V   : NEUTRON POROSITY LIMESTONE FROM CN-LDT LOG
NPOWS   .V/V   : NEUTRON POROSITY LIMESTONE [NPHILSED]
RHOBED  .G/C3  : BULK DENSITY FROM CN-LDT LOG
SFLUED  .OHMM  : SHALLOW FOCUSED RESISTIVITY (UNAVERAGED) FROM DIL-SFL LOG
SPRED   .MV    : SPONTANEOUS POTENTIAL FROM DIL-SFL LOG
SPWS    .MV    : SPONTANEOUS POTENTIAL [BASELINE 0 MV, SPRED]
SRESWS  .OHMM  : SHALLOW RESISTIVITY [SFLUED]
TENRED  .LBF   : TENSION FROM DIL-SFL LOG
~Params ----------------------------------------------------
PD  .                     GL : PERMANENT DATUM
EPD .FT                  515 : ELEVATION PERMANENT DATUM
LMF .                     KB : LOG MEASURED FROM
DAPD.FT                   23 : FEET ABOVE PERMANENT DATUM
DMF .                     KB : DRILLING MEASURED FROM
EKB .FT                  538 : KELLY BUSHING
EDF .FT                  537 : DRILLING FLOOR
EGL .FT                  515 : GROUND LEVEL
DATE.               06/07/91 : RUN DATE
RUN .                      1 : RUN NUMBER
DD  .FT                10100 : DEPTH DRILLER
DL  .FT                10084 : DEPTH LOGGER
BLI .FT                10080 : BOTTOM LOG INTERVAL
TLI .FT                 4215 : TOP LOG INTERVAL
CS  .IN                8.625 : CASING SIZE
CBD .FT                 1528 : CASING BOTTOM DRILLER
CBL .FT                 1514 : CASING BOTTOM LOGGER
BS  .IN                7.875 : BIT SIZE
BSD .FT                10100 : BIT SIZE AT DEPTH
DFT .                    LIG : DRILLING FLUID TYPE
DFD .                   10.2 : DRILLING FLUID DENSITY
DFV .                     45 : DRILLING FLUID VISCOSITY
DFPH.                    9.8 : DRILLING FLUID PH
DFL .                     10 : DRILLING FLUID LOSS
MSS .                   TANK : MUD SAMPLE SOURCE
RMS .OHMM               3.28 : RESISTIVITY MUD SAMPLE
MST .DEGF                 75 : MUD SAMPLE TEMPERATURE
RMF .OHMM               3.02 : RESISTIVITY MUD FILTRATE SAMPLE
MFST.DEGF                 75 : MUD FILTRATE SAMPLE TEMPERATURE
RMC .OHMM               2.59 : RESISTIVITY MUD CAKE
MCST.DEGF                 75 : MUD CAKE SAMPLE TEMPERATURE
MFSS.                  PRESS : MUD FILTRATE SAMPLE SOURCE
MCSS.                   MEAS : MUD CAKE SAMPLE SOURCE
RMB .OHMM              1.159 : RESISTIVITY MUD AT BHT
TCS .HRS                 400 : TIME CIRCULATED STOPPED
TLAB.HRS                1100 : TIME LOGGER AT BOTTOM
LUN .                   8605 : LOGGING UNIT NUMBER
LUL .                  TYLER : LOGGING UNIT LOCATION
ENGI.                 HIBURN : RECORDING ENGINEER
CLNT.                A2DTECH : CLIENT CODE
ORIG.          1" 2.5" PRINT : ORIGIN OF DATA
UWI .         42289311110000 : UNIQUE WELL ID
DICO. A2D Technologies, Inc. : DIGITIZING COMPANY
~Other -----------------------------------------------------
~ASCII -----------------------------------------------------
# ...
 7900.00000    9.30940    9.30940  108.32830   -0.00870    2.37020    0.19870    0.19870    9.23120   -0.00870   44.12670   44.12670    9.23120   11.92680   11.92680    0.12820    0.12820    2.39540    8.72920  -12.92390  -14.41270    8.72920 3204.76610
 7950.00000    9.52240    9.52240   80.37230    0.02830    2.63130    0.04600    0.04600   12.44210    0.02830   39.47570   39.47570   12.44210   13.08730   13.08730    0.06060    0.06060    2.64360   12.57710  -16.58570  -18.60900   12.57710 3326.61350
 8000.00000    9.15070    9.15070   20.25090   -0.00510    2.68130    0.01680    0.01680   49.38050   -0.00510   41.56200   41.56200   49.38050   50.55290   50.55290    0.01460    0.01460    2.68110  104.22910  -17.67160  -20.22930  104.22910 3331.85910
 8050.00000    9.43880    9.43880   33.54760   -0.00460    2.68950    0.01200    0.01200   29.80840   -0.00460   17.25770   17.25770   29.80840   37.99580   37.99580    0.00640    0.00640    2.68590  222.31010  -10.87770  -13.96990  222.31010 3253.13700
 8100.00000    8.69540    8.69540   12.08830    0.00320    2.68730    0.01330    0.01330   82.72460    0.00320   32.97440   32.97440   82.72460   89.05810   89.05810    0.00940    0.00940    2.69180  227.75970  -26.95030  -30.57690  227.75970 3333.96460
 8150.00000    9.28770    9.28770   15.68160   -0.00660    2.68080    0.01710    0.01710   63.76880   -0.00660   32.98580   32.98580   63.76880   70.17530   70.17530    0.01040    0.01040    2.68200  129.12430  -34.14630  -38.30730  129.12430 3306.19410
 8200.00000    9.41810    9.41810   13.18100    0.00340    2.91590   -0.12040   -0.12040   75.86670    0.00340   11.20780   11.20780   75.86670   85.81620   85.81620   -0.00590   -0.00590    2.91510 1258.78060   -5.56570  -10.26120 1258.78060 3324.12130
 8250.00000    9.16740    9.16740   46.92960    0.00670    2.66110    0.02860    0.02860   21.30850    0.00670   24.40930   24.40930   21.30850   25.16050   25.16050    0.01280    0.01280    2.66150  176.21760  -10.31440  -15.54430  176.21760 3332.39230
 8300.00000    9.59110    9.59110   22.20810    0.02380    2.65050    0.03480    0.03480   45.02870    0.02380   43.19130   43.19130   45.02870   44.36940   44.36940    0.01340    0.01340    2.65410   55.39900  -37.29910  -43.06350   55.39900 3331.87870
 8350.00000    9.11780    9.11780   73.54620   -0.00320    2.66540    0.02610    0.02610   13.59690   -0.00320   10.27740   10.27740   13.59690   21.18530   21.18530    0.01530    0.01530    2.66520   51.32370 -118.77350 -125.07230   51.32370 3331.44410
 8400.00000    9.22330    9.22330   13.85780    0.00800    2.57390    0.07960    0.07960   72.16150    0.00800   32.79130   32.79130   72.16150   81.37130   81.37130    0.00750    0.00750    2.57440   98.26780  -45.90990  -52.74310   98.26780 3326.04130
 8450.00000    9.01090    9.01090  108.80330    0.00280    2.71670   -0.00390   -0.00390    9.19090    0.00280   44.12000   44.12000    9.19090    9.44810    9.44810    0.07920    0.07920    2.71710   11.31060   -2.58450   -9.95220   11.31060 3335.51270
 8500.00000    8.49860    8.49860   17.12460    0.01760    2.67720    0.01920    0.01920   58.39550    0.01760   39.28770   39.28770   58.39550   65.61930   65.61930    0.01700    0.01700    2.67840   86.61410   -9.65180  -17.55390   86.61410 3332.64550
 8550.00000    8.64940    8.64940   38.46630    0.01360    2.69290    0.01000    0.01000   25.99680    0.01360   40.51500   40.51500   25.99680   29.33940   29.33940    0.01540    0.01540    2.69360   94.32550   -1.56840  -10.00500   94.32550 3335.19430
 8600.00000   10.48940   10.48940  274.52160    0.05710    2.31140    0.23310    0.23310    3.64270    0.05710   69.36710   69.36710    3.64270    3.90010    3.90010    0.25050    0.25050    2.32350    4.19980   -6.18690  -15.15790    4.19980 3400.40820
 8650.00000    8.85100    8.85100   88.19900   -0.00200    2.70740    0.00150    0.00150   11.33800   -0.00200   48.48230   48.48230   11.33800   13.81730   13.81730    0.04200    0.04200    2.71040   40.01830    0.05760   -9.44790   40.01830 3411.15940
 8700.00000   10.23870   10.23870  217.60890    0.10150    2.39710    0.18300    0.18300    4.59540    0.10150   76.05160   76.05160    4.59540    4.70240    4.70240    0.21000    0.21000    2.39600    5.90350   -0.29200  -10.33190    5.90350 3441.65750
 8750.00000   12.58080   12.58080  327.58960    0.12720    2.44080    0.15740    0.15740    3.05260    0.12720   95.52620   95.52620    3.05260    3.48000    3.48000    0.27660    0.27660    2.44630    4.59900   -4.56490  -15.13920    4.59900 3406.74370
 8800.00000    8.40520    8.40520   67.25720    0.00700    2.66790    0.02460    0.02460   14.86830    0.00700   56.22590   56.22590   14.86830   17.19760   17.19760    0.08110    0.08110    2.66820   37.25000   -3.22070  -14.32950   37.25000 3458.06740
 8850.00000    9.17780    9.17780  160.13840   -0.04030    1.92800    0.45730    0.45730    6.24460   -0.04030   56.74360   56.74360    6.24460    6.96750    6.96750    0.26460    0.26460    1.89110   47.09830    2.76340   -8.84060   47.09830 3394.37110
 8900.00000   11.94260   11.94260  338.52400    0.10110    2.31520    0.23090    0.23090    2.95400    0.10110   78.28650   78.28650    2.95400    3.17940    3.17940    0.32730    0.32730    2.31250    4.05990    1.96280   -9.39040    4.05990 3474.85940
 8950.00000    8.28420    8.28420   70.73390    0.00130    2.67550    0.02020    0.02020   14.13750    0.00130   54.57370   54.57370   14.13750   11.85440   11.85440    0.11670    0.11670    2.67510   11.68790   -7.72720  -18.82970   11.68790 3473.73290
 9000.00000    8.87390    8.87390   19.17980    0.00190    2.69970    0.00600    0.00600   52.13820    0.00190   46.49100   46.49100   52.13820   60.00060   60.00060    0.00850    0.00850    2.69830  178.29670   -6.66700  -17.51880  178.29670 3431.10010
 9050.00000    8.86060    8.86060   26.71600    0.00160    2.62840    0.04770    0.04770   37.43080    0.00160   24.83810   24.83810   37.43080   39.01880   39.01880    0.01110    0.01110    2.62530   68.21180  -70.10190  -80.70300   68.21180 3429.21360
 9100.00000    8.24980    8.24980   29.52820    0.00780    2.66490    0.02640    0.02640   33.86590    0.00780   34.86390   34.86390   33.86590   34.74380   34.74380    0.01580    0.01580    2.66360   39.06790  -73.04190  -83.39230   39.06790 3432.48190
 9150.00000    8.45460    8.45460   19.53250   -0.01080    2.67700    0.01930    0.01930   51.19660   -0.01080   37.21380   37.21380   51.19660   61.17020   61.17020    0.01290    0.01290    2.67620  114.42760  -51.62700  -61.72660  114.42760 3472.99020
 9200.00000    8.24680    8.24680   42.02930   -0.00210    2.67790    0.01880    0.01880   23.79290   -0.00210   47.26450   47.26450   23.79290   20.04470   20.04470    0.05620    0.05620    2.67660   26.28870   -7.27320  -17.12210   26.28870 3482.68160
 9250.00000    8.60760    8.60760   91.83750   -0.01010    2.61590    0.05500    0.05500   10.88880   -0.01010   54.09730   54.09730   10.88880   11.52490   11.52490    0.04910    0.04910    2.62440   21.60240  -15.19280  -24.79100   21.60240 3448.94680
 9300.00000    8.79480    8.79480  135.97120    0.00740    2.66900    0.02400    0.02400    7.35450    0.00740   58.06760   58.06760    7.35450    7.77760    7.77760    0.10550    0.10550    2.66920   26.19270   -2.97760  -12.32510   26.19270 3488.80420
 9350.00000    8.15860    8.15860  331.66400    0.07350    2.55390    0.09130    0.09130    3.01510    0.07350   77.23090   77.23090    3.01510    3.23880    3.23880    0.15000    0.15000    2.55760    6.24070  -31.13550  -40.23220    6.24070 3489.33200
 9400.00000    8.41130    8.41130  284.33320    0.00250    2.59870    0.06510    0.06510    3.51700    0.00250   92.68720   92.68720    3.51700    3.18370    3.18370    0.12130    0.12130    2.59750    3.94410  -23.55600  -32.40200    3.94410 3561.93380
 9450.00000    8.41960    8.41960  343.94990   -0.00380    2.59680    0.06620    0.06620    2.90740   -0.00380   53.20120   53.20120    2.90740    3.09030    3.09030    0.08970    0.08970    2.60310    5.90870  -41.89280  -50.48810    5.90870 3545.22310
