~Version ---------------------------------------------------
VERS. 2.0 : CWLS log ASCII Standard -VERSION 2.0
WRAP. YES : Multiple lines per depth step
~Well ------------------------------------------------------
STRT.FT                 3500.0 : START DEPTH
STOP.FT                 8350.0 : STOP DEPTH
STEP.FT               50.00000 : STEP LENGTH
NULL.                  -999.25 : NULL VALUE
COMP.      SAGE ENERGY COMPANY : COMPANY
WELL.                  GOLD #1 : WELL
FLD .                 GIDDINGS : FIELD
LOC .                          : LOCATION
CNTY.                 BURLESON : COUNTY
STAT.                    TEXAS : STATE
CTRY. UNITED STATES OF AMERICA : COUNTRY
SRVC.            Dresser Atlas : SERVICE COMPANY
DATE.              03-Dec-1983 : LOGDATE
API .           42051326000000 : API NUMBER
UWI .           42051326000000 : UNIQUE WELL ID
SLAT.WGS84       30.5213843598 : SURFACE LATITUDE
SLON.WGS84      -96.6289898193 : SURFACE LONGITUDE
~Curve Information -----------------------------------------
DEPT    .FT                                                                : Depth Feet
CALRED  .IN                                                                : CALIPER FROM DIFL-CDL-CNL-GR LOG
CALWS   .IN                                                                : CALIPER [CALRED]
CNLSED  .V/V         :   COMPENSATED NEUTRON POROSITY LIMESTONE [M:2.71, F : 1.0] FROM DIFL-CDL-CNL-GR LOG
CNSSED  .V/V         :   COMPENSATED NEUTRON POROSITY SANDSTONE [M:2.65, F : 1.0] FROM DIFL-CDL-CNL-GR LOG
CONDWS  .MMHO                                                              : CONDUCTIVITY [1000/DRESWS]
CORRED  .G/C3                                                              : DENSITY CORRECTION FROM DIFL-CDL-CNL-GR LOG
DCORWS  .G/C3                                                              : DENSITY CORRECTION [CORRED]
DENWS   .G/C3 :   FORMATION BULK DENSITY [CALCULATED FROM DPOWS (M:2.71, F : 1.0)]
DPOWS   .V/V                                                               : DENSITY POROSITY LIMESTONE [PORDSSED CONVERTED TO LIMESTONE (M=2.71, F=1.0) & SPL. TO PORDLSED @ 5854']
DRESWS  .OHMM                                                              : DEEP RESISTIVITY [RILDED]
GRNED   .                                                                  : GAMMA FROM GAMMA-NEUTRON LOG [ADJ. TO GRRED]
GRRED   .GAPI                                                              : GAMMA RAY FROM DIFL-CDL-CNL-GR LOG
GRWS    .GAPI                                                              : GAMMA RAY [GRRED SPL. TO GRNED @ 8320.5']
MRESWS  .OHMM                                                              : MEDIUM RESISTIVITY [RILMED]
NEUTED  .NAPI                                                              : NEUTRON FROM GAMMA-NEUTRON LOG [ADJ. TO GRRED]
NEUTWS  .NAPI                                                              : NEUTRON [NEUTED]
NPOWS   .V/V                                                               : NEUTRON POROSITY LIMESTONE [CNSSED MATRIX CONVERTED TO LIMESTONE & SPL. TO CNLSED @ 5858.5']
PORDLSED.V/V                     :   DENSITY POROSITY LIMESTONE [M:2.71, F : 1.0] FROM DIFL-CDL-CNL-GR LOG
PORDSSED.V/V                     :   DENSITY POROSITY SANDSTONE [M:2.65, F : 1.0]  FROM DIFL-CDL-CNL-GR LOG
RFOCED  .OHMM                                                              : SHALLOW FOCUSED RESISTIVITY FROM DIFL-CDL-CNL-GR LOG
RILDED  .OHMM                                                              : DEEP INDUCTION RESISTIVITY FROM DIFL-CDL-CNL-GR LOG
RILMED  .OHMM                                                              : SPONTANEOUS POTENTIAL FROM RESISTIVITY FROM DIFL-CDL-CNL-GR LOG
SPRED   .MV                                                                : SPONTANEOUS POTENTIAL FROM DIFL-CDL-CNL-GR LOG
SPWS    .MV                                                                : SPONTANEOUS POTENTIAL [BASELINE 0 MV,SPRED]
SRESWS  .OHMM                                                              : SHALLOW RESISTIVITY [RFOCED]
TENRED  .LBF                                                               : TENSION FROM DIFL-CDL-CNL-GR LOG
~Params ----------------------------------------------------
PD  .                     GL : PERMANENT DATUM
EPD .FT                  402 : ELEVATION PERMANENT DATUM
LMF .                     KB : LOG MEASURED FROM
DAPD.FT                   16 : FEET ABOVE PERMANENT DATUM
DMF .                     KB : DRILLING MEASURED FROM
EKB .FT                  418 : KELLY BUSHING
EDF .FT                  417 : DRILLING FLOOR
EGL .FT                  402 : GROUND LEVEL
DATE.               12/03/83 : RUN DATE
RUN .                      1 : RUN NUMBER
DD  .FT                 8442 : DEPTH DRILLER
DL  .FT                 8380 : DEPTH LOGGER
BLI .FT                 8378 : BOTTOM LOG INTERVAL
TLI .FT                 3510 : TOP LOG INTERVAL
CS  .IN                8.625 : CASING SIZE
CBD .FT                 3515 : CASING BOTTOM DRILLER
CBL .FT                 3510 : CASING BOTTOM LOGGER
BS  .IN                7.875 : BIT SIZE
BSD .FT                 8442 : BIT SIZE AT DEPTH
DFT .                  LINGO : DRILLING FLUID TYPE
DFD .                    9.2 : DRILLING FLUID DENSITY
DFV .                     44 : DRILLING FLUID VISCOSITY
DFPH.                      9 : DRILLING FLUID PH
DFL .                      7 : DRILLING FLUID LOSS
MSS .                   FLOW : MUD SAMPLE SOURCE
RMS .OHMM               3.62 : RESISTIVITY MUD SAMPLE
MST .DEGF                 75 : MUD SAMPLE TEMPERATURE
RMF .OHMM               2.71 : RESISTIVITY MUD FILTRATE SAMPLE
MFST.DEGF                 75 : MUD FILTRATE SAMPLE TEMPERATURE
RMC .OHMM               4.52 : RESISTIVITY MUD CAKE
MCST.DEGF                 75 : MUD CAKE SAMPLE TEMPERATURE
MFSS.                      C : MUD FILTRATE SAMPLE SOURCE
MCSS.                      C : MUD CAKE SAMPLE SOURCE
RMB .OHMM              0.917 : RESISTIVITY MUD AT BHT
TCS .HRS                 4.5 : TIME CIRCULATED STOPPED
LUN .                HL 6304 : LOGGING UNIT NUMBER
LUL .                  BRYAN : LOGGING UNIT LOCATION
ENGI.                 POWELL : RECORDING ENGINEER
WITN.                  BOTTO : WITNESSED BY
CLNT.                A2DTECH : CLIENT CODE
ORIG.            2" 5" PRINT : ORIGIN OF DATA
UWI .         42051326000000 : UNIQUE WELL ID
DICO. A2D Technologies, Inc. : DIGITIZING COMPANY
~Other -----------------------------------------------------
~ASCII -----------------------------------------------------
 3500.00000    -999.25    -999.25    -999.25    -999.25    -999.25    -999.25    -999.25    -999.25    -999.25    -999.25    -999.25   75.37240   75.37240    -999.25    -999.25    -999.25    -999.25    -999.25    -999.25    -999.25    -999.25    -999.25    -999.25    -999.25    -999.25    -999.25
 3550.00000   10.71210   10.71210    -999.25    -999.25  128.66540    -999.25    -999.25    -999.25    -999.25    7.77210    -999.25  112.80740  112.80740    8.39410    -999.25    -999.25    -999.25    -999.25    -999.25    9.52400    7.77210    8.39410  -62.38160  -25.10550    9.52400   28.87990
 3600.00000    7.93040    7.93040    -999.25    -999.25   51.79010    -999.25    -999.25    -999.25    -999.25   19.30870    -999.25   74.70710   74.70710   16.76680    -999.25    -999.25    -999.25    -999.25    -999.25   15.50510   19.30870   16.76680  -59.73490  -23.96270   15.50510   12.72350
 3650.00000    8.30690    8.30690    -999.25    -999.25   95.79460    -999.25    -999.25    -999.25    -999.25   10.43900    -999.25   93.24880   93.24880   11.24570    -999.25    -999.25    -999.25    -999.25    -999.25   12.31440   10.43900   11.24570  -48.46510  -14.19690   12.31440   10.67670
 3700.00000    8.38730    8.38730    -999.25    -999.25   83.07230    -999.25    -999.25    -999.25    -999.25   12.03770    -999.25   46.83750   46.83750   13.42360    -999.25    -999.25    -999.25    -999.25    -999.25   15.13920   12.03770   13.42360  -72.25550  -39.49120   15.13920    8.55510
 3750.00000    7.92810    7.92810    -999.25    -999.25   76.09370    -999.25    -999.25    -999.25    -999.25   13.14170    -999.25   62.42670   62.42670   14.66800    -999.25    -999.25    -999.25    -999.25    -999.25   30.45310   13.14170   14.66800  -72.14650  -40.88610   30.45310    6.46600
 3800.00000    9.10020    9.10020    -999.25    -999.25  180.88090    -999.25    -999.25    -999.25    -999.25    5.52850    -999.25  107.90020  107.90020    5.90590    -999.25    -999.25    -999.25    -999.25    -999.25    6.33270    5.52850    5.90590  -46.42270  -14.54340    6.33270   14.46920
 3850.00000    9.05350    9.05350    -999.25    -999.25  145.50320    -999.25    -999.25    -999.25    -999.25    6.87270    -999.25   60.55030   60.55030    7.28520    -999.25    -999.25    -999.25    -999.25    -999.25    8.09740    6.87270    7.28520  -56.07050  -24.41090    8.09740   12.49030
 3900.00000    8.01250    8.01250    -999.25    -999.25  122.84410    -999.25    -999.25    -999.25    -999.25    8.14040    -999.25   60.76310   60.76310   10.23460    -999.25    -999.25    -999.25    -999.25    -999.25   13.25330    8.14040   10.23460  -71.84870  -41.29110   13.25330    7.44080
 3950.00000    7.92190    7.92190    -999.25    -999.25  123.78080    -999.25    -999.25    -999.25    -999.25    8.07880    -999.25   89.51430   89.51430    8.43680    -999.25    -999.25    -999.25    -999.25    -999.25    9.25430    8.07880    8.43680  -57.19650  -27.74090    9.25430   12.44420
 4000.00000    7.61700    7.61700    -999.25    -999.25  216.22090    -999.25    -999.25    -999.25    -999.25    4.62490    -999.25   72.50240   72.50240    4.77110    -999.25    -999.25    -999.25    -999.25    -999.25    5.88670    4.62490    4.77110  -53.37700  -22.98560    5.88670   12.39950
 4050.00000    7.94550    7.94550    -999.25    -999.25  337.88350    -999.25    -999.25    -999.25    -999.25    2.95960    -999.25   97.46100   97.46100    3.07520    -999.25    -999.25    -999.25    -999.25    -999.25    3.66370    2.95960    3.07520  -41.44490   -5.55680    3.66370   17.08290
 4100.00000    8.22470    8.22470    -999.25    -999.25  287.46370    -999.25    -999.25    -999.25    -999.25    3.47870    -999.25   91.15240   91.15240    3.73160    -999.25    -999.25    -999.25    -999.25    -999.25    4.16290    3.47870    3.73160  -41.65350  -11.17770    4.16290   18.53630
 4150.00000    7.44690    7.44690    -999.25    -999.25  223.87890    -999.25    -999.25    -999.25    -999.25    4.46670    -999.25   84.06480   84.06480    5.15080    -999.25    -999.25    -999.25    -999.25    -999.25    6.17470    4.46670    5.15080  -63.97510  -37.32070    6.17470   13.45120
 4200.00000    9.03540    9.03540    -999.25    -999.25  400.81770    -999.25    -999.25    -999.25    -999.25    2.49490    -999.25   96.93450   96.93450    2.59390    -999.25    -999.25    -999.25    -999.25    -999.25    3.22180    2.49490    2.59390  -35.28410   -7.08550    3.22180    7.17410
 4250.00000    8.47480    8.47480    -999.25    -999.25  499.70020    -999.25    -999.25    -999.25    -999.25    2.00120    -999.25   88.56980   88.56980    2.00600    -999.25    -999.25    -999.25    -999.25    -999.25    2.63870    2.00120    2.00600  -36.30570   -4.87540    2.63870    4.14600
 4300.00000    8.93320    8.93320    -999.25    -999.25  564.65270    -999.25    -999.25    -999.25    -999.25    1.77100    -999.25   87.60870   87.60870    1.80460    -999.25    -999.25    -999.25    -999.25    -999.25    2.45840    1.77100    1.80460  -33.40920   -2.14070    2.45840    5.94880
 4350.00000    9.19610    9.19610    -999.25    -999.25  422.97610    -999.25    -999.25    -999.25    -999.25    2.36420    -999.25   94.27120   94.27120    2.44710    -999.25    -999.25    -999.25    -999.25    -999.25    2.91040    2.36420    2.44710  -36.57990   -5.57820    2.91040   13.07260
 4400.00000    9.37830    9.37830    -999.25    -999.25  362.42390    -999.25    -999.25    -999.25    -999.25    2.75920    -999.25  136.30020  136.30020    2.64790    -999.25    -999.25    -999.25    -999.25    -999.25    3.12140    2.75920    2.64790  -39.82600   -9.09110    3.12140    5.43150
 4450.00000   10.57800   10.57800    -999.25    -999.25  420.22100    -999.25    -999.25    -999.25    -999.25    2.37970    -999.25   87.27140   87.27140    2.43870    -999.25    -999.25    -999.25    -999.25    -999.25    2.81190    2.37970    2.43870  -37.41320   -6.94510    2.81190    3.38570
 4500.00000   11.70940   11.70940    -999.25    -999.25  519.61550    -999.25    -999.25    -999.25    -999.25    1.92450    -999.25  100.15260  100.15260    2.02180    -999.25    -999.25    -999.25    -999.25    -999.25    2.50720    1.92450    2.02180  -37.14450   -6.94320    2.50720   17.13630
 4550.00000   11.67860   11.67860    -999.25    -999.25  683.01350    -999.25    -999.25    -999.25    -999.25    1.46410    -999.25  117.12520  117.12520    1.50810    -999.25    -999.25    -999.25    -999.25    -999.25    2.22370    1.46410    1.50810  -40.98440  -11.04990    2.22370    4.48570
 4600.00000   10.82130   10.82130    -999.25    -999.25  510.77740    -999.25    -999.25    -999.25    -999.25    1.95780    -999.25  103.64750  103.64750    2.04540    -999.25    -999.25    -999.25    -999.25    -999.25    2.40530    1.95780    2.04540  -39.05290   -9.38530    2.40530    6.16430
 4650.00000   11.37420   11.37420    -999.25    -999.25  662.73440    -999.25    -999.25    -999.25    -999.25    1.50890    -999.25   98.86620   98.86620    1.56550    -999.25    -999.25    -999.25    -999.25    -999.25    2.14490    1.50890    1.56550  -36.80510   -7.40430    2.14490    4.43230
 4700.00000   11.25670   11.25670    -999.25    -999.25  724.48020    -999.25    -999.25    -999.25    -999.25    1.38030    -999.25  102.51090  102.51090    1.41100    -999.25    -999.25    -999.25    -999.25    -999.25    2.03450    1.38030    1.41100  -34.58720   -5.45320    2.03450   12.28500
 4750.00000   11.00890   11.00890    -999.25    -999.25  717.82360    -999.25    -999.25    -999.25    -999.25    1.39310    -999.25   91.14280   91.14280    1.41680    -999.25    -999.25    -999.25    -999.25    -999.25    2.04950    1.39310    1.41680  -36.84020   -7.97300    2.04950    6.93680
 4800.00000   13.09510   13.09510    -999.25    0.42140  761.44060    0.11760    0.11760    2.37160    0.19790    1.31330    -999.25   88.77780   88.77780    1.35630    -999.25    -999.25    0.37900    -999.25    0.16870    2.00560    1.31330    1.35630  -37.46540   -9.77310    2.00560   15.32880
