~Version ---------------------------------------------------
VERS. 2.0 : CWLS log ASCII Standard -VERSION 2.0
WRAP.  NO : One line per depth step
~Well ------------------------------------------------------
STRT.FT                     1500.0 : START DEPTH
STOP.FT                     8900.0 : STOP DEPTH
STEP.FT                   50.00000 : STEP LENGTH
NULL.                      -999.25 : NULL VALUE
COMP. PAN AMERICAN PETROLEUM CORP. : COMPANY
WELL.       FROST NATIONAL BANK #1 : WELL
FLD .                           WC : FIELD
LOC .                              : LOCATION
CNTY.                       DIMMIT : COUNTY
STAT.                        TEXAS : STATE
CTRY.     UNITED STATES OF AMERICA : COUNTRY
SRVC.                              : SERVICE COMPANY
DATE.                              : LOGDATE
API .               42127301140000 : API NUMBER
UWI .               42127301140000 : UNIQUE WELL ID
SLAT.WGS84           28.4914048015 : SURFACE LATITUDE
SLON.WGS84           -99.834117977 : SURFACE LONGITUDE
~Curve Information -----------------------------------------
DEPT  .FT                                                 : DEPTH
CALSED.IN                                                 : CALIPER FROM SONIC LOG
GRDED .GAPI                                               : GAMMA RAY FROM DENSITY LOG
NPHIED.V/V                                                : NEUTRON POROSITY LIMESTONE FROM DENSITY LOG
SPRED .MV                                                 : SPONTANEOUS POTENTIAL FROM RESISTIVITY LOG [MECH. SHIFT REMOVED@4750 (-16MV)]
CILDED.MMHO                                               : CONDUCTIVITY FROM RESISTIVITY LOG
SPWS  .MV :   SPONTANEOUS POTENTIAL [FROM SPRED. BASELINE : 0MV]
CALDED.IN                                                 : CALIPER FROM DENSITY LOG
ILDED .OHMM                                               : INDUCTION LOG DEEP RESISTIVITY
ALL8ED.OHMM                                               : AMPLIFIED LATEROLOG 8
DTED  .US/F                                               : DELTA TIME FROM SONIC LOG
SPSED .MV                                                 : SPONTANEOUS POTENTIAL FROM SONIC LOG
CALWS .IN                                                 : CALIPER [CALSED]
GRWS  .GAPI                                               : GAMMA RAY [GRDED]
NPOWS .V/V                                                : NEUTRON POROSITY LIMESTONE [NPHIED]
DTWS  .US/F                                               : DELTA TIME [DTED]
DRESWS.OHMM                                               : DEEP RESISTIVITY [=1000/CILDED IF ILDED < 1. ELSE ILDED]
MRESWS.OHMM                                               : MEDIUM RESISTIVITY [ALL8ED]
CONDWS.MMHO                                               : CONDUCTIVITY [1000/DRESWS]
~Params ----------------------------------------------------
EKB .F                 603.3 : Kelly bushing
EGL .F                 590.3 : Ground level
EDF .F                   0.0 : Drilling floor
EPD .F                 590.8 : Permanent datum
TD  .F                8898.0 : Total depth
DATE.            21-NOV-1970 : Date logged
CLNT.                A2DTECH : Client Code
SL  .  660' FNEL & 600' FSEL : Surface Location
PD  .                     GL : Permanent Datum
LMF .                     KB : Log Measured From
DMF .                     KB : Drilling Measured From
DAPD.F                  12.5 : Feet Above Permanent Datum
DD  .F                  8898 : Depth driller
DL  .F                  8894 : Depth logger
BLI .F                  8893 : Bottom log interval
TLI .F                  1500 : Top log interval
CS1 .IN                10.75 : Casing size
CBD1.         10.75" @ 1500' : Casing driller 1
CBL1.F                  1500 : Casing logger 1
BS1 .IN                 8.75 : Bit size
BSD1.F                  8898 : Depth drilled with bit1
DFT .     LOW SOLIDS/POLYMER : Type fluid in hole
DFD .                   10.5 : Density
DFV .                     80 : Viscosity
DFPH.                    8.0 : pH
DFL .                    8.0 : Fluid loss
MSS .               FLOWLINE : Source of sample
RMS .OHMM               1.05 : Rm
RMF .OHMM               1.21 : Rmf
RMC .OHMM               2.42 : Rmc
MFSS.                   MEAS : Source Rmf.
MCSS.                   CALC : Source Rmc.
RMB .OHMM               0.51 : Rm. at BHT
BHT .F                   198 : BHT.
TCS .HRS                   7 : Time Circ. stopped
LUN .                   7027 : Logging unit number
LUL .                  PHARD : Logging unit location
ENGI.                   FETT : Recorded By
WITN.           LEANS/FOCSOM : Witnessed by
ORIG.          5" & 1" PRINT : Origin of data
UWI .         42127301140000 : Unique Well ID
DICO. A2D TECHNOLOGIES, INC. : Digitizing Company
~Other -----------------------------------------------------
~ASCII -----------------------------------------------------
# ...
 5400.00000    8.42950    -999.25    -999.25  -37.54700   27.60000   -3.85010    -999.25   20.77700   27.83810   55.31250  -19.06010    8.42950    -999.25    -999.25   55.31250   20.77700   27.83810   48.13010
 5450.00000    8.41000    -999.25    -999.25  -38.60000   82.40000   -3.96480    -999.25   13.40360   17.87210   61.21030  -22.82210    8.41000    -999.25    -999.25   61.21030   13.40360   17.87210   74.60680
 5500.00000    8.46320    -999.25    -999.25  -38.60000   69.20000   -3.02650    -999.25   15.43680   31.19050   61.29700  -15.47460    8.46320    -999.25    -999.25   61.29700   15.43680   31.19050   64.78030
 5550.00000    8.49520    -999.25    -999.25  -43.38500   48.40000   -7.85360    -999.25   20.33090   33.87650   58.75550  -24.75600    8.49520    -999.25    -999.25   58.75550   20.33090   33.87650   49.18620
 5600.00000    9.26450    -999.25    -999.25  -43.96900   58.80000   -8.65270    -999.25   16.41570   28.89880   58.35440  -24.61020    9.26450    -999.25    -999.25   58.35440   16.41570   28.89880   60.91730
 5650.00000    9.36520    -999.25    -999.25  -47.42000   51.60000  -12.31890    -999.25   19.12650   32.44050   57.53570  -28.20220    9.36520    -999.25    -999.25   57.53570   19.12650   32.44050   52.28350
 5700.00000   10.10150    -999.25    -999.25  -45.77200   78.40000  -10.88600    -999.25   12.65060   20.20440   58.13520  -25.34350   10.10150    -999.25    -999.25   58.13520   12.65060   20.20440   79.04760
 5750.00000   10.35670    -999.25    0.11680  -46.17000   93.20000  -11.49920    -999.25   11.74700   18.23990   69.12130  -23.49940   10.35670    -999.25    0.11680   69.12130   11.74700   18.23990   85.12810
 5800.00000    7.83040   24.58820    0.06740  -41.14400   40.40000   -6.68830   10.45040   28.41340   73.91510   62.03030  -21.29400    7.83040   24.58820    0.06740   62.03030   28.41340   73.91510   35.19470
 5850.00000    8.22100   29.98500    0.10270  -43.23100   25.20000   -8.99050   10.21020   26.12950   72.50240   67.23450  -30.00520    8.22100   29.98500    0.10270   67.23450   26.12950   72.50240   38.27090
 5900.00000    7.92070   55.55560    0.05480  -40.49700   53.20000   -6.47160    9.89500   64.30720  290.09820   63.73410  -27.15910    7.92070   55.55560    0.05480   63.73410   64.30720  290.09820   15.55040
 5950.00000    7.86190   27.32880    0.06920  -39.00900   24.40000   -5.19880    9.74470   39.68370  107.00890   64.27090  -22.33580    7.86190   27.32880    0.06920   64.27090   39.68370  107.00890   25.19930
 6000.00000    7.69670   30.88500    0.09850  -36.70200   41.20000   -3.10690    9.77480   25.66160   67.16730   66.91130  -21.43720    7.69670   30.88500    0.09850   66.91130   25.66160   67.16730   38.96870
 6050.00000    7.80960   25.18740    0.07990  -36.60000   26.80000   -3.22000    9.23440   37.91420  121.74850   65.79670  -16.34760    7.80960   25.18740    0.07990   65.79670   37.91420  121.74850   26.37530
 6100.00000    7.98140   44.07800    0.12750  -35.39900   82.80000   -2.23420    9.24940   14.53300   30.07390   78.09470  -17.09360    7.98140   44.07800    0.12750   78.09470   14.53300   30.07390   68.80890
 6150.00000    8.01840   51.27460    0.14040  -36.60000   38.80000   -3.65030    9.30560   39.19410   92.58270   74.52520  -20.84080    8.01840   51.27460    0.14040   74.52520   39.19410   92.58270   25.51400
 6200.00000    7.98270   51.95240    0.14840  -36.60000   24.40000   -3.86760    9.21170   37.65060  124.58330   76.97380   -9.40630    7.98270   51.95240    0.14840   76.97380   37.65060  124.58330   26.56000
 6250.00000    8.26540   60.51100    0.09370  -35.95300  177.20000   -3.43960    9.47450   25.52710   96.02760   61.21300  -19.66970    8.26540   60.51100    0.09370   61.21300   25.52710   96.02760   39.17410
 6300.00000    8.80870   10.04520    0.10990  -42.66000   14.40000  -10.36550   10.69080   54.66870  184.09000   52.55730  -23.06350    8.80870   10.04520    0.10990   52.55730   54.66870  184.09000   18.29200
 6350.00000    8.37150    8.24550    0.05990  -40.98600   13.20000   -8.91050    9.91000   79.74400  296.03990   51.52790  -35.28110    8.37150    8.24550    0.05990   51.52790   79.74400  296.03990   12.54010
 6400.00000    8.31050   29.12950    0.05750  -35.00800   62.80000   -3.15140    9.42940    7.73820   20.75880   59.10920  -23.25800    8.31050   29.12950    0.05750   59.10920    7.73820   20.75880  129.22900
 6450.00000    8.35430   54.35440    0.31740  -34.60000  343.60000   -2.96230   10.46530    4.14160    4.71730   82.76740  -19.49720    8.35430   54.35440    0.31740   82.76740    4.14160    4.71730  241.45260
 6500.00000    8.50520   47.14710    0.25120  -35.01700  293.20000   -3.59830   10.57060    4.96990    5.83320   76.31000  -17.40210    8.50520   47.14710    0.25120   76.31000    4.96990    5.83320  201.21130
 6550.00000    8.43010   40.32890    0.23890  -34.59800  216.40000   -3.39820   10.01500    6.09940    7.69350   76.04270  -14.66510    8.43010   40.32890    0.23890   76.04270    6.09940    7.69350  163.95050
 6600.00000    8.77490   33.43330    0.13830  -33.42200  100.40000   -2.44120    9.38450   10.84340   16.58720   65.71010   -3.86580    8.77490   33.43330    0.13830   65.71010   10.84340   16.58720   92.22200
 6650.00000    9.26940   11.99450    0.16380  -42.81000   12.00000  -12.06900   11.05110   63.32880  163.40590   53.44050  -21.95220    9.26940   11.99450    0.16380   53.44050   63.32880  163.40590   15.79060
 6700.00000   10.44080    6.89710    0.24880  -41.56600   12.40000  -11.06790   12.95800   87.65060   68.55610   53.21470  -37.83780   10.44080    6.89710    0.24880   53.21470   87.65060   68.55610   11.40890
 6750.00000    9.27180    7.64620    0.33050  -42.52900   15.60000  -12.27390   16.39440   62.50050   98.20110   55.76230  -22.22220    9.27180    7.64620    0.33050   55.76230   62.50050   98.20110   15.99990
 6800.00000    8.34190   14.84170    0.09460  -32.55400   28.40000   -2.54190    9.95500   25.51510   47.47790   54.38370  -17.82030    8.34190   14.84170    0.09460   54.38370   25.51510   47.47790   39.19250
 6850.00000    8.40160    7.19640    0.13380  -37.81800   11.60000   -9.54350    9.65470   75.45180  258.91370   52.53020   -7.02580    8.40160    7.19640    0.13380   52.53020   75.45180  258.91370   13.25350
 6900.00000    7.83490   13.64460    0.01980  -31.80000   15.60000   -5.34180    9.20420   49.39760  178.72060   50.43670  -13.64090    7.83490   13.64460    0.01980   50.43670   49.39760  178.72060   20.24390
 6950.00000    8.12240   17.54070    0.06620  -45.68100    6.00000  -21.03910    9.48960  100.67990  696.38400   50.77360   -3.26470    8.12240   17.54070    0.06620   50.77360  100.67990  696.38400    9.93250
 7000.00000    8.08960   16.64290    0.03590  -45.36400    9.60000  -22.53840    9.35440   93.61310  365.39150   51.65580    -999.25    8.08960   16.64290    0.03590   51.65580   93.61310  365.39150   10.68230
 7050.00000    7.74550    5.39780   -0.00240  -35.24200   10.80000  -14.23280    9.27940  105.34640  980.66960   50.19430    5.88960    7.74550    5.39780   -0.00240   50.19430  105.34640  980.66960    9.49250
 7100.00000    8.45130   25.37590    0.02340  -21.29100   13.20000   -2.09810    9.08410   70.83180  178.60120   51.06820  -27.73230    8.45130   25.37590    0.02340   51.06820   70.83180  178.60120   14.11800
 7150.00000    8.01290   16.21670    0.03350    -999.25   32.80000    -999.25    9.27180   21.64180   49.42040   56.58540    -999.25    8.01290   16.21670    0.03350   56.58540   21.64180   49.42040   46.20690
 7200.00000    7.96650   32.53370    0.07570    -999.25  108.40000    -999.25    9.45950    9.33730   15.74630   65.43690    -999.25    7.96650   32.53370    0.07570   65.43690    9.33730   15.74630  107.09730
 7250.00000    8.61970   15.29350    0.06560    -999.25   17.60000    -999.25   10.78060   48.19170  190.84220   53.09560    -999.25    8.61970   15.29350    0.06560   53.09560   48.19170  190.84220   20.75050
 7300.00000    7.32290   24.58780    0.02780  -28.42100   10.80000  -14.17770    9.12910   79.59490   26.96360   52.91990  -10.65310    7.32290   24.58780    0.02780   52.91990   79.59490   26.96360   12.56360
