~Version ---------------------------------------------------
VERS. 2.0 : CWLS log ASCII Standard -VERSION 2.0
WRAP. YES : Multiple lines per depth step
~Well ------------------------------------------------------
STRT.FT                         300.0 : START DEPTH
STOP.FT                       13900.0 : STOP DEPTH
STEP.FT                      50.00000 : STEP LENGTH
NULL.                         -999.25 : NULL VALUE
COMP. MOBIL PRODUCING TX. & N.M. INC. : COMPANY
WELL.               J. V. FORD JR. #1 : WELL
FLD .                         WILDCAT : FIELD
LOC .                                 : LOCATION
CNTY.                             BEE : COUNTY
STAT.                           TEXAS : STATE
CTRY.        UNITED STATES OF AMERICA : COUNTRY
SRVC.                    Schlumberger : SERVICE COMPANY
DATE.                     24-Oct-1988 : LOGDATE
API .                  42025324790000 : API NUMBER
UWI .                  42025324790000 : UNIQUE WELL ID
SLAT.WGS84              28.6662336968 : SURFACE LATITUDE
SLON.WGS84             -98.0215217404 : SURFACE LONGITUDE
~Curve Information -----------------------------------------
DEPT    .FT    : DEPTH FEET
CALMED  .IN    : CALIPER FROM MSFL [DEP ADJ TO SFLUED]
CALWS   .IN    : CALIPER [DCALED+BITED]
CONDWS  .MMHO  : CONDUCTIVITY [1000/DRESWS]
DCALED  .IN    : DIFFERENTIAL CALIPER FROM DENSITY LOG [DEP ADJ TO GRRED]
DCORWS  .G/C3  : DENSITY CORRECTION [DRHOED]
DENWS   .G/C3  : BULK DENSITY [M=2.71, F= 1] [CAL FROM DPOLSWS]
DPHILSED.V/V   : DENSITY POROSITY [M=2.71 F=1.0] FROM DENSITY LOG [DEP ADJ TO GRRED]
DPHISSED.V/V   : DENSITY POROSITY [M=2.68 F=1.0] FROM DENSITY LOG [DEP ADJ TO GRRED]
DPOLSWS .V/V   : DENSITY POROSITY [M=2.71, F= 1] [76 DPOLSCAL 12989 DPHILSED]
DRESWS  .OHMM  : DEEP RESISTIVITY [ILDED]
DRHOED  .G/C3  : DENSITY CORRECTION FROM DENSITY LOG [DEP ADJ TO GRRED]
DTED    .US/F  : DELTA TIME FROM SONIC LOG
DTLED   .US/F  : DELTA TIME LONG SPACING FROM SONIC LOG
DTWS    .US/F  : DELTA TIME [76 DTED 543.5 DTLED 1373.5 DTED 2134 DTLED 3009.5 DTED 3022 DTLED 3172 DTED 8805 DTLED 8815 DTED 9717.5 DTLED 9901 DTED 12984.5 DTLED 13003.5 DTED]
GRDED   .GAPI  : GAMMA RAY FROM DENSITY LOG [DEP ADJ TO GRRED]
GRMED   .GAPI  : GAMMA RAY FROM MSFL LOG [DEP ADJ TO GRRED]
GRRED   .GAPI  : GAMMA RAY FROM RESISTIVITY LOG
GRWS    .GAPI  : GAMMA RAY [76 GRRED 3494.5 GRDEDNRM 3506 GRDED 9027 GRRED 13030.5 GRDED]
ILDED   .OHMM  : INDUCTION LOG DEEP RESISTIVITY
ILMED   .OHMM  : INDUCTION LOG MEDIUM RESISTIVITY
MRESWS  .OHMM  : MEDIUM RESISTIVITY [ILMED]
MSFLED  .OHMM  : MICROSPHERICALLY FOCUSED LOG RESISTIVITY [DEP ADJ TO SFLUED]
NPHILSED.V/V   : NEUTRON POROSITY LIMESTONE FROM DENSITY LOG [DEP ADJ TO GRRED]
NPHISSED.V/V   : NEUTRON POROSITY SANDSTONE FROM DENSITY LOG [DEP ADJ TO GRRED]
NPOLSWS .V/V   : NEUTRON POROSITY LIMESTONE [76 NPOLSCAL 12989 NPHILSED]
SFLUED  .OHMM  : SPHERICALLY FOCUSED LOG RESISTIVITY
SPRED   .MV    : SPONTANEOUS POTENTIAL FROM RESISTIVITY LOG
SPWS    .MV    : SPONTANEOUS POTENTIAL [BASELINE 0 MV] [SPRED]
SRESWS  .OHMM  : SHALLOW RESISTIVITY [SFLUED]
TENDED  .LBF   : TENSION FROM DENSITY LOG [DEP ADJ TO GRRED]
TENMED  .LBF   : TENSION FROM MSFL LOG [DEP ADJ TO SFLUED]
TENRED  .LBF   : TENSION FROM RESISTIVITY LOG
~Params ----------------------------------------------------
PD  .                     GL : PERMANENT DATUM
EPD .FT                  350 : ELEVATION PERMANENT DATUM
LMF .                     KB : LOG MEASURED FROM
DAPD.FT                 26.5 : FEET ABOVE PERMANENT DATUM
DMF .                     KB : DRILLING MEASURED FROM
EKB .FT                376.5 : KELLY BUSHING
EDF .FT                375.5 : DRILLING FLOOR
EGL .FT                  350 : GROUND LEVEL
DATE.               10/14/88 : RUN DATE
RUN .                      2 : RUN NUMBER
DD  .FT                13900 : DEPTH DRILLER
DL  .FT                13881 : DEPTH LOGGER
BLI .FT                13881 : BOTTOM LOG INTERVAL
TLI .FT                 3505 : TOP LOG INTERVAL
CS  .IN                9.625 : CASING SIZE
CBD .FT                 3510 : CASING BOTTOM DRILLER
CBL .FT                 3505 : CASING BOTTOM LOGGER
BS  .IN                  8.5 : BIT SIZE
BSD .FT                13900 : BIT SIZE AT DEPTH
DFT .            LIGNITE CLS : DRILLING FLUID TYPE
DFD .                   11.6 : DRILLING FLUID DENSITY
DFV .                     23 : DRILLING FLUID VISCOSITY
DFPH.                     10 : DRILLING FLUID PH
DFL .                    5.9 : DRILLING FLUID LOSS
MSS .               MUD TANK : MUD SAMPLE SOURCE
RMS .OHMM               1.08 : RESISTIVITY MUD SAMPLE
MST .DEGF                 75 : MUD SAMPLE TEMPERATURE
RMF .OHMM               0.72 : RESISTIVITY MUD FILTRATE SAMPLE
MFST.DEGF                 75 : MUD FILTRATE SAMPLE TEMPERATURE
RMC .OHMM               1.59 : RESISTIVITY MUD CAKE
MCST.DEGF                 75 : MUD CAKE SAMPLE TEMPERATURE
MFSS.                   MEAS : MUD FILTRATE SAMPLE SOURCE
MCSS.                   CALC : MUD CAKE SAMPLE SOURCE
RMB .OHMM              0.289 : RESISTIVITY MUD AT BHT
TCS .HRS                1500 : TIME CIRCULATED STOPPED
TLAB.HRS                1500 : TIME LOGGER AT BOTTOM
LUN .                   8248 : LOGGING UNIT NUMBER
LUL .             PLEASANTON : LOGGING UNIT LOCATION
ENGI.                 HOOPER : RECORDING ENGINEER
WITN.           WEIMER CARAM : WITNESSED BY
CLNT.                A2DTECH : CLIENT CODE
ORIG.               5" PRINT : ORIGIN OF DATA
UWI .         42025324790000 : UNIQUE WELL ID
DICO. A2D Technologies, Inc. : DIGITIZING COMPANY
~Other -----------------------------------------------------
~ASCII -----------------------------------------------------
# ...
 8000.00000    -999.25   13.10670  317.57120    4.60670   -0.00120    2.46430    -999.25    0.14370    0.14370    3.14890   -0.00120   83.25900   89.06870   83.25900   81.96910    -999.25   62.81680   81.96910    3.14890    3.06410    3.06410    -999.25    -999.25    0.27480    0.23080    3.93190   -7.47670   -8.45540    3.93190 2843.98680    -999.25 2943.22750
 8050.00000    -999.25   12.97770  441.73520    4.47770    0.04030    2.47280    -999.25    0.13870    0.13870    2.26380    0.04030   85.59660   87.24790   85.59660   85.61580    -999.25   66.71020   85.61580    2.26380    2.19130    2.19130    -999.25    -999.25    0.32490    0.28100    2.67510   -5.31670   -6.61840    2.67510 2965.95240    -999.25 2889.53250
 8100.00000    -999.25   13.70300  458.27410    5.20300    0.03910    2.47060    -999.25    0.14000    0.14000    2.18210    0.03910   86.68380   88.00410   86.68380   74.44810    -999.25   64.20250   74.44810    2.18210    2.04950    2.04950    -999.25    -999.25    0.27020    0.22620    2.24480   -3.55190   -5.17650    2.24480 2839.12620    -999.25 3000.03980
 8150.00000    -999.25   13.18550  303.95140    4.68550   -0.00420    2.44200    -999.25    0.15670    0.15670    3.29000   -0.00420   83.42740   84.66980   83.42740   66.21270    -999.25   62.02300   66.21270    3.29000    3.00200    3.00200    -999.25    -999.25    0.25670    0.21280    2.96940  -10.01230  -11.95990    2.96940 2907.97020    -999.25 2925.14990
 8200.00000    -999.25   11.48440  272.94810    2.98440    0.00710    2.54460    -999.25    0.09670    0.09670    3.66370    0.00710   82.79340   84.74570   82.79340   93.31670    -999.25   75.38470   93.31670    3.66370    3.87540    3.87540    -999.25    -999.25    0.25880    0.21490    3.98200   -6.60270   -8.87320    3.98200 2921.55620    -999.25 2990.70090
 8250.00000    -999.25   13.68700  694.63740    5.18700   -0.01630    1.73650    -999.25    0.56930    0.56930    1.43960   -0.01630   95.15110  103.08690   95.15110   63.54160    -999.25   63.92010   63.54160    1.43960    1.28960    1.28960    -999.25    -999.25    0.41000    0.36730    1.54840    2.26470   -0.32880    1.54840 2961.66380    -999.25 2981.99850
 8300.00000    -999.25   13.07250  628.21970    4.57250    0.00620    2.31500    -999.25    0.23100    0.23100    1.59180    0.00620   91.14790   94.44870   91.14790   73.70360    -999.25   66.11250   73.70360    1.59180    1.52890    1.52890    -999.25    -999.25    0.40900    0.36630    1.85800    1.36130   -1.55520    1.85800 2930.85820    -999.25 2954.08150
 8350.00000    -999.25   13.11550  467.94570    4.61550    0.00940    2.51110    -999.25    0.11630    0.11630    2.13700    0.00940   87.71670   90.25110   87.71670   87.02110    -999.25   73.34680   87.02110    2.13700    2.07680    2.07680    -999.25    -999.25    0.28180    0.23780    2.30440   -0.75430   -3.99370    2.30440 2971.94580    -999.25 3045.46560
 8400.00000    -999.25   13.72610  579.40780    5.22610    0.06380    2.41520    -999.25    0.17240    0.17240    1.72590    0.06380   91.02480   91.46800   91.02480   83.57850    -999.25   72.56540   83.57850    1.72590    1.52670    1.52670    -999.25    -999.25    0.31670    0.27280    1.79920    1.53580   -1.89690    1.79920 2901.41280    -999.25 3054.37770
 8450.00000    -999.25   13.72380  831.46250    5.22380    0.03130    2.40530    -999.25    0.17820    0.17820    1.20270    0.03130   97.82480  101.12180   97.82480   89.94940    -999.25   82.54120   89.94940    1.20270    1.09930    1.09930    -999.25    -999.25    0.33120    0.28740    1.24650    2.62340   -0.89210    1.24650 2985.51610    -999.25 3042.50850
 8500.00000    -999.25   13.23460 1065.64370    4.73460    0.02380    2.38900    -999.25    0.18770    0.18770    0.93840    0.02380  101.92080  103.59960  101.92080   96.41620    -999.25   71.51450   96.41620    0.93840    0.91500    0.91500    -999.25    -999.25    0.36250    0.31900    1.07030    1.48560   -2.11270    1.07030 2958.89010    -999.25 3064.53780
 8550.00000    -999.25   12.84210 1166.04480    4.34210    0.00490    2.41450    -999.25    0.17280    0.17280    0.85760    0.00490  104.95090  106.95470  104.95090   90.54480    -999.25   79.87180   90.54480    0.85760    0.82740    0.82740    -999.25    -999.25    0.36460    0.32110    0.98550    1.65030   -2.00480    0.98550 2973.75000    -999.25 3109.69170
 8600.00000    -999.25   12.04850 1149.42530    3.54850   -0.00110    2.34530    -999.25    0.21330    0.21330    0.87000   -0.00110  107.35960  108.24370  107.35960   81.04160    -999.25   68.28130   81.04160    0.87000    0.82050    0.82050    -999.25    -999.25    0.34960    0.30600    0.97400    0.61450   -3.01520    0.97400 2969.32180    -999.25 3111.34060
 8650.00000    -999.25   12.80390 1153.53550    4.30390    0.02150    2.28900    -999.25    0.24620    0.24620    0.86690    0.02150  109.67690  110.91750  109.67690   75.20510    -999.25   75.15230   75.20510    0.86690    0.83340    0.83340    -999.25    -999.25    0.39510    0.35210    0.94560    1.94800   -1.65630    0.94560 3004.31030    -999.25 3099.98410
 8700.00000    -999.25   12.62960 1140.51100    4.12960    0.02220    2.24710    -999.25    0.27070    0.27070    0.87680    0.02220  104.97570  105.50400  104.97570   71.03650    -999.25   59.04400   71.03650    0.87680    0.85190    0.85190    -999.25    -999.25    0.46080    0.41910    0.94500    1.39140   -2.18750    0.94500 3027.45510    -999.25 3153.74660
 8750.00000    -999.25   12.83500 1148.50120    4.33500    0.01390    2.14620    -999.25    0.32970    0.32970    0.87070    0.01390  100.51550  101.97770  100.51550   73.22070    -999.25   62.96410   73.22070    0.87070    0.84220    0.84220    -999.25    -999.25    0.44790    0.40620    0.99270    1.75060   -1.80280    0.99270 3041.15310    -999.25 3196.12700
 8800.00000    -999.25   11.87490  838.01220    3.37490    0.01590    2.23240    -999.25    0.27930    0.27930    1.19330    0.01590   96.54330   97.51630   96.54330   72.39560    -999.25   61.58810   72.39560    1.19330    1.21390    1.21390    -999.25    -999.25    0.35890    0.31540    1.43820   -0.05700   -3.58500    1.43820 3101.28810    -999.25 3096.81570
 8850.00000    -999.25   12.68850  735.67280    4.18850    0.01290    2.09560    -999.25    0.35930    0.35930    1.35930    0.01290   99.23350  101.79420   99.23350   74.25840    -999.25   69.41570   74.25840    1.35930    1.32040    1.32040    -999.25    -999.25    0.37920    0.33600    1.46680    0.21120   -3.29140    1.46680 3061.60840    -999.25 3171.57670
 8900.00000    -999.25   13.41320 1170.82310    4.91320   -0.00570    2.07370    -999.25    0.37210    0.37210    0.85410   -0.00570  105.72470  108.11680  105.72470   70.22690    -999.25   64.37330   70.22690    0.85410    0.81360    0.81360    -999.25    -999.25    0.50540    0.46370    0.95200    0.81430   -2.66290    0.95200 3063.43360    -999.25 3179.55810
 8950.00000    -999.25   12.04800 1101.44290    3.54800   -0.00520    2.08230    -999.25    0.36710    0.36710    0.90790   -0.00520  114.05890  117.32870  114.05890   69.89320    -999.25   67.02440   69.89320    0.90790    0.89580    0.89580    -999.25    -999.25    0.47990    0.43820    1.03890    0.51800   -2.93380    1.03890 3043.49050    -999.25 3169.39750
 9000.00000    -999.25   12.24320  985.99880    3.74320   -0.05110    1.80880    -999.25    0.52700    0.52700    1.01420   -0.05110  100.44630  101.42590  100.44630   72.45790    -999.25   65.94940   72.45790    1.01420    0.98610    0.98610    -999.25    -999.25    0.45850    0.41680    1.27740    1.87440   -1.55200    1.27740 3045.01590    -999.25 3209.03560
 9050.00000    -999.25   12.09010 1101.68550    3.59010   -0.04090    -999.25    -999.25    -999.25    -999.25    0.90770   -0.04090  103.84350  105.84390  103.84350   77.86970    -999.25   77.69710   77.69710    0.90770    0.88800    0.88800    -999.25    -999.25    0.45280    0.41110    1.07620    0.08520   -3.31570    1.07620 3064.36600    -999.25 3238.36960
