~Version ---------------------------------------------------
VERS. 2.0 : CWLS log ASCII Standard -VERSION 2.0
WRAP. YES : MULTIPLE LINES PER DEPTH STEP
~Well ------------------------------------------------------
STRT.FT                      2550.0 : START DEPTH
STOP.FT                      7550.0 : STOP DEPTH
STEP.FT                    50.00000 : STEP LENGTH
NULL.                       -999.25 : NULL VALUE
COMP. ROBINSON BROTHERS DRILLING CO : COMPANY
WELL.                 LESTER J B #1 : WELL
FLD .                          COST : FIELD
LOC .                               : LOCATION
CNTY.                      GONZALES : COUNTY
STAT.                         TEXAS : STATE
CTRY.      UNITED STATES OF AMERICA : COUNTRY
SRVC.                      Gearhart : SERVICE COMPANY
DATE.                   06-Dec-1980 : LOGDATE
API .                42177306900000 : API NUMBER
UWI .                42177306900000 : UNIQUE WELL ID
SLAT.WGS84            29.4106594536 : SURFACE LATITUDE
SLON.WGS84           -97.5279511295 : SURFACE LONGITUDE
~Curve Information -----------------------------------------
DEPT   .FT    : DEPTH FEET
CALWS  .IN    : CALIPER [CALXRED]
CALXED .IN    : CALIPER X FROM DENSITY LOG
CALXRED.IN    : CALIPER X FROM RESISTIVITY LOG
CALYED .IN    : CALIPER Y FROM DENSITY LOG
CDLLSED.V/V   : DENSITY POROSITY LIMESTONE FROM DENSITY LOG
CNCLSED.V/V   : NEUTRON POROSITY LIMESTONE FROM DENSITY LOG
CONDWS .MMHO  : CONDUCTIVITY [1000/DRESWS]
DCORWS .G/C3  : DENSITY CORRECTION [DRHOED]
DENWS  .G/C3  : BULK DENSITY [M=2.71 F=1.0] [CALCULATED FROM DPOWS]
DPOWS  .V/V   : DENSITY POROSITY [M=2.71 F=1.0] [CDLLSED]
DRESWS .OHMM  : DEEP RESISTIVITY [RILDED]
DRHOED .G/C3  : DENSITY CORRECTION FROM DENSITY LOG
DTED   .US/F  : DELTA TIME FROM DIL/BHC LOG
DTWS   .US/F  : DELTA TIME [DTED]
GRDED  .GAPI  : GAMMA RAY FROM DENSITY LOG [DEPTH ADJ TO GRR]
GRED   .GAPI  : GAMMA RAY FROM GR LOG [DEPTH ADJ TO GRR]
GRRED  .GAPI  : GAMMA RAY FROM RESISTIVITY LOG
GRWS   .GAPI  : GAMMA RAY [MERGED GRED/GRRED AT 6014]
MRESWS .OHMM  : MEDIUM RESISTIVITY [RILMED]
NPOWS  .V/V   : NEUTRON POROSITY SANDSTONE [CNCLSED]
RILDED .OHMM  : INDUCTION LOG DEEP RESISTIVITY
RILMED .OHMM  : INDUCTION LOG MEDIUM RESISTIVITY
RLLED  .OHMM  : LATEROLOG RESISTIVITY
SPRED  .MV    : SPONTANEOUS POTENTIAL FROM RESISTIVITY LOG
SPWS   .MV    : SPONTANEOUS POTENTIAL [BASELINE 0 MV] [SPRED]
SRESWS .OHMM  : SHALLOW RESISTIVITY [RLLED]
~Params ----------------------------------------------------
EKB .F                 324.7 : Kelly bushing
EGL .F                 311.0 : Ground level
EDF .F                 323.7 : Drilling floor
EPD .F                 311.0 : Permanent datum
TD  .F                7584.0 : Total depth
CLNT.                A2DTECH : Client Code
PD  .                     GL : Permanent Datum
LMF .                     KB : Log Measured From
DMF .                     KB : Drilling Measured From
DAPD.F                  13.7 : Feet Above Permanent Datum
DATE.            06-DEC-1980 : Date Logged [DD-MMM-YYYY]
DD  .F                  7584 : Depth driller
DL  .F                  7553 : Depth logger
BLI .F                  7552 : Bottom log interval
TLI .F                  2525 : Top log interval
CS1 .IN                8.625 : Casing size
CBD1.         8.625" @ 2524' : Casing driller 1
CBL1.F                  2525 : Casing logger 1
BS1 .IN                7.875 : Bit size
BSD1.F                  7584 : Depth drilled with bit1
DFT .                   CHEM : Type fluid in hole
DFD .                    9.4 : Density
DFV .                     38 : Viscosity
DFPH.                    9.5 : pH
DFL .                    5.8 : Fluid loss
MSS .               FLOWLINE : Source of sample
RMS .OHMM                2.8 : Rm
RMF .OHMM                2.2 : Rmf
MFSS.                   CALC : Source Rmf.
RMC .OHMM                3.6 : Rmc
MCSS.                   CALC : Source Rmc.
RMB .OHMM                115 : Rm. at BHT
BHT .F                   182 : BHT.
TCS .HRS                 300 : Time Circ. stopped
TLAB.HRS                1015 : Time logger at bottom
LUN .                   7561 : Logging unit number
LUL .                   VICT : Logging unit location
ENGI.                 CURRIN : Recorded By
WITN.                   HOCH : Witnessed by
ORIG.          2.5" 5" PRINT : Origin of data
UWI .         42177306900000 : Unique Well ID
DICO. A2D TECHNOLOGIES, INC. : Digitizing Company
SL  .  499' FSEL & 490' FNWL : Surface Location
~Other -----------------------------------------------------
~ASCII -----------------------------------------------------
# ...
 3900.00000    8.48740    -999.25    8.48740    -999.25    -999.25    -999.25  222.73200    -999.25    -999.25    -999.25    4.48970    -999.25   95.54890   95.54890    -999.25    -999.25    -999.25    -999.25    4.17710    -999.25    4.48970    4.17710    6.16940   44.87080  -18.64600    6.16940
 3950.00000    9.01360    -999.25    9.01360    -999.25    -999.25    -999.25  435.71090    -999.25    -999.25    -999.25    2.29510    -999.25  116.77370  116.77370    -999.25    -999.25    -999.25    -999.25    2.35670    -999.25    2.29510    2.35670    3.15090   47.25190  -16.31090    3.15090
 4000.00000    8.35440    -999.25    8.35440    -999.25    -999.25    -999.25  217.22600    -999.25    -999.25    -999.25    4.60350    -999.25   96.06980   96.06980    -999.25    -999.25    -999.25    -999.25    4.43460    -999.25    4.60350    4.43460    7.12750   22.59790  -41.01080    7.12750
 4050.00000    8.71450    -999.25    8.71450    -999.25    -999.25    -999.25  294.14360    -999.25    -999.25    -999.25    3.39970    -999.25   96.33450   96.33450    -999.25    -999.25    -999.25    -999.25    3.70600    -999.25    3.39970    3.70600    5.93790   25.64210  -38.01260    5.93790
 4100.00000    8.11480    -999.25    8.11480    -999.25    -999.25    -999.25  335.04210    -999.25    -999.25    -999.25    2.98470    -999.25   96.01660   96.01660    -999.25    -999.25    -999.25    -999.25    3.20970    -999.25    2.98470    3.20970    5.49260   37.48190  -26.21880    5.49260
 4150.00000    8.17140    -999.25    8.17140    -999.25    -999.25    -999.25  210.41560    -999.25    -999.25    -999.25    4.75250    -999.25   94.41460   94.41460    -999.25    -999.25    -999.25    -999.25    4.23640    -999.25    4.75250    4.23640    8.07240   32.67670  -31.42000    8.07240
 4200.00000    9.45020    -999.25    9.45020    -999.25    -999.25    -999.25  529.52080    -999.25    -999.25    -999.25    1.88850    -999.25   97.67910   97.67910    -999.25    -999.25    -999.25    -999.25    1.92710    -999.25    1.88850    1.92710    2.75130   60.32840   -4.81430    2.75130
 4250.00000    8.60850    -999.25    8.60850    -999.25    -999.25    -999.25  527.95530    -999.25    -999.25    -999.25    1.89410    -999.25  117.40020  117.40020    -999.25    -999.25    -999.25    -999.25    1.95240    -999.25    1.89410    1.95240    2.91290   56.73790   -9.45080    2.91290
 4300.00000    8.01100    -999.25    8.01100    -999.25    -999.25    -999.25  450.16660    -999.25    -999.25    -999.25    2.22140    -999.25   97.73680   97.73680    -999.25    -999.25    -999.25    -999.25    2.60270    -999.25    2.22140    2.60270    5.71120   31.66260  -35.57220    5.71120
 4350.00000    7.92500    -999.25    7.92500    -999.25    -999.25    -999.25  427.29560    -999.25    -999.25    -999.25    2.34030    -999.25   98.14440   98.14440    -999.25    -999.25    -999.25    -999.25    2.60410    -999.25    2.34030    2.60410    6.32480   17.37540  -50.90540    6.32480
 4400.00000    7.95700    -999.25    7.95700    -999.25    -999.25    -999.25  328.34250    -999.25    -999.25    -999.25    3.04560    -999.25   91.78860   91.78860    -999.25    -999.25    -999.25    -999.25    3.30410    -999.25    3.04560    3.30410    8.67200   13.81070  -55.51610    8.67200
 4450.00000    7.94760    -999.25    7.94760    -999.25    -999.25    -999.25  461.36100    -999.25    -999.25    -999.25    2.16750    -999.25  115.75460  115.75460    -999.25    -999.25    -999.25    -999.25    2.47020    -999.25    2.16750    2.47020    5.27800   38.25720  -32.11570    5.27800
 4500.00000    9.18200    -999.25    9.18200    -999.25    -999.25    -999.25  648.59250    -999.25    -999.25    -999.25    1.54180    -999.25   99.63530   99.63530    -999.25    -999.25    -999.25    -999.25    1.64720    -999.25    1.54180    1.64720    2.11930   65.42340   -5.99550    2.11930
 4550.00000    9.21860    -999.25    9.21860    -999.25    -999.25    -999.25  580.38310    -999.25    -999.25    -999.25    1.72300    -999.25   98.38030   98.38030    -999.25    -999.25    -999.25    -999.25    1.75300    -999.25    1.72300    1.75300    2.33880   69.41650   -2.41450    2.33880
 4600.00000    8.20230    -999.25    8.20230    -999.25    -999.25    -999.25  460.72330    -999.25    -999.25    -999.25    2.17050    -999.25  109.78260  109.78260    -999.25    -999.25    -999.25    -999.25    2.21220    -999.25    2.17050    2.21220    3.50100   56.06880  -16.11920    3.50100
 4650.00000    8.66330    -999.25    8.66330    -999.25    -999.25    -999.25  477.19030    -999.25    -999.25    -999.25    2.09560    -999.25   97.04910   97.04910    -999.25    -999.25    -999.25    -999.25    2.13270    -999.25    2.09560    2.13270    2.47530   68.43510   -4.10990    2.47530
 4700.00000    8.23540    -999.25    8.23540    -999.25    -999.25    -999.25  407.61420    -999.25    -999.25    -999.25    2.45330    -999.25   94.93470   94.93470    -999.25    -999.25    -999.25    -999.25    2.39140    -999.25    2.45330    2.39140    3.01330   69.48510   -3.41690    3.01330
 4750.00000    8.62980    -999.25    8.62980    -999.25    -999.25    -999.25  409.38310    -999.25    -999.25    -999.25    2.44270    -999.25  107.08170  107.08170    -999.25    -999.25    -999.25    -999.25    2.61560    -999.25    2.44270    2.61560    2.98890   71.53170   -1.72720    2.98890
 4800.00000    9.34960    -999.25    9.34960    -999.25    -999.25    -999.25  595.69900    -999.25    -999.25    -999.25    1.67870    -999.25   97.95040   97.95040    -999.25    -999.25    -999.25    -999.25    1.64390    -999.25    1.67870    1.64390    2.05080   70.82580   -2.79010    2.05080
 4850.00000    9.97440    -999.25    9.97440    -999.25    -999.25    -999.25  567.21500    -999.25    -999.25    -999.25    1.76300    -999.25   95.55970   95.55970    -999.25    -999.25    -999.25    -999.25    1.82110    -999.25    1.76300    1.82110    2.11920   69.81270   -4.16020    2.11920
 4900.00000   10.42380    -999.25   10.42380    -999.25    -999.25    -999.25  584.52190    -999.25    -999.25    -999.25    1.71080    -999.25   98.54850   98.54850    -999.25    -999.25    -999.25    -999.25    1.66570    -999.25    1.71080    1.66570    1.98410   71.55960   -2.77030    1.98410
 4950.00000   10.62380    -999.25   10.62380    -999.25    -999.25    -999.25  615.30890    -999.25    -999.25    -999.25    1.62520    -999.25   95.48490   95.48490    -999.25    -999.25    -999.25    -999.25    1.65750    -999.25    1.62520    1.65750    2.07930   72.01310   -2.67380    2.07930
 5000.00000   12.18730    -999.25   12.18730    -999.25    -999.25    -999.25  726.79700    -999.25    -999.25    -999.25    1.37590    -999.25  118.46410  118.46410    -999.25    -999.25    -999.25    -999.25    1.40000    -999.25    1.37590    1.40000    1.74790   72.76420   -2.27970    1.74790
 5050.00000   12.57860    -999.25   12.57860    -999.25    -999.25    -999.25  735.99760    -999.25    -999.25    -999.25    1.35870    -999.25  142.40860  142.40860    -999.25    -999.25    -999.25    -999.25    1.38310    -999.25    1.35870    1.38310    1.69940   71.10840   -4.17520    1.69940
 5100.00000   12.80390    -999.25   12.80390    -999.25    -999.25    -999.25  862.88720    -999.25    -999.25    -999.25    1.15890    -999.25  101.73710  101.73710    -999.25    -999.25    -999.25    -999.25    1.17930    -999.25    1.15890    1.17930    1.45580   71.39650   -4.08970    1.45580
 5150.00000   11.79390    -999.25   11.79390    -999.25    -999.25    -999.25  822.03040    -999.25    -999.25    -999.25    1.21650    -999.25  102.02850  102.02850    -999.25    -999.25    -999.25    -999.25    1.27640    -999.25    1.21650    1.27640    1.45610   73.03060   -2.65830    1.45610
 5200.00000   12.20930    -999.25   12.20930    -999.25    -999.25    -999.25  884.01700    -999.25    -999.25    -999.25    1.13120    -999.25  132.44330  132.44330    -999.25    -999.25    -999.25    -999.25    1.19370    -999.25    1.13120    1.19370    1.44490   71.52620   -4.36530    1.44490
