~Version ---------------------------------------------------
VERS. 2.0 : CWLS log ASCII Standard -VERSION 2.0
WRAP. YES : MULTIPLE LINES PER DEPTH STEP
~Well ------------------------------------------------------
STRT.FT                  850.0 : START DEPTH
STOP.FT                 7550.0 : STOP DEPTH
STEP.FT               50.00000 : STEP LENGTH
NULL.                  -999.25 : NULL VALUE
COMP.      REDMAN OPERATING CO : COMPANY
WELL.         J C WALLACE  #11 : WELL
FLD .               JOURDANTON : FIELD
LOC .                          : LOCATION
CNTY.                 ATASCOSA : COUNTY
STAT.                    TEXAS : STATE
CTRY. UNITED STATES OF AMERICA : COUNTRY
SRVC.             Schlumberger : SERVICE COMPANY
DATE.              09-Mar-2006 : LOGDATE
API .           42013342130000 : API NUMBER
UWI .           42013342130000 : UNIQUE WELL ID
SLAT.WGS84       28.8623537028 : SURFACE LATITUDE
SLON.WGS84      -98.6331986757 : SURFACE LONGITUDE
~Curve Information -----------------------------------------
DEPT    .FT    : DEPTH FEET
AT10ED  .OHMM  : 10 INCH RESISTIVITY TWO FOOT RESOLUTION FROM AIT LOG
AT20ED  .OHMM  : 20 INCH RESISTIVITY TWO FOOT RESOLUTION FROM AIT LOG
AT30ED  .OHMM  : 30 INCH RESISTIVITY TWO FOOT RESOLUTION FROM AIT LOG
AT60ED  .OHMM  : 60 INCH RESISTIVITY TWO FOOT RESOLUTION FROM AIT LOG
AT90ED  .OHMM  : 90 INCH RESISTIVITY TWO FOOT RESOLUTION FROM AIT LOG
CALWS   .IN    : CALIPER [DCALED+7.875]
CONDWS  .MMHO  : CONDUCTIVITY [1000/DRESWS]
DCALED  .IN    : DIFFERENTIAL CALIPER FROM DENSITY LOG
DCORWS  .G/C3  : DENSITY CORRECTION [HDRAED]
DENWS   .G/C3  : BULK DENSITY [M=2.71 F=1.0] [CALCULATED FROM DPOWS]
DPHZLSED.V/V   : DENSITY POROSITY [M=2.71 F=1.0] FROM DENSITY LOG
DPHZSSED.V/V   : DENSITY POROSITY [M=2.65 F=1.0] FROM DENSITY LOG
DPOWS   .V/V   : DENSITY POROSITY [M=2.71 F=1.0] [MERGED DPHISSED CONVERTED TO LS/DPHZLSED at 6000]
DRESWS  .OHMM  : DEEP RESISTIVITY [AT90ED]
GRRED   .GAPI  : GAMMA RAY FROM RESISTIVITY LOG
GRWS    .GAPI  : GAMMA RAY [GRRED] *CASED HOLE ABOVE 891 FT*
HDRAED  .G/C3  : DENSITY CORRECTION FROM DENSITY LOG
MRESWS  .OHMM  : MEDIUM RESISTIVITY [AT30ED]
NPOWS   .V/V   : NEUTRON POROSITY LIMESTONE [MERGED TNPHSSED CONVERTED TO LS/TNPHLSED at 6000] *CASED HOLE ABOVE 891 FT*
SPRED   .MV    : SPONTANEOUS POTENTIAL FROM RESISTIVITY LOG
SPWS    .MV    : SPONTANEOUS POTENTIAL [BASELINE 0 MV] [SPRED]
SRESWS  .OHMM  : SHALLOW RESISTIVITY [AT20ED]
TENRED  .LBF   : TENSION FROM RESISTIVITY LOG
TNPHLSED.V/V   : THERMAL NEUTRON POROSITY LIMESTONE FROM LWD LOG
TNPHSSED.V/V   : THERMAL NEUTRON POROSITY SANDSTONE FROM LWD LOG
~Params ----------------------------------------------------
PD  .                     GL : PERMANENT DATUM
EPD .FT                  445 : ELEVATION PERMANENT DATUM
LMF .                     KB : LOG MEASURED FROM
DAPD.FT                   15 : FEET ABOVE PERMANENT DATUM
DMF .                     KB : DRILLING MEASURED FROM
EKB .FT                  445 : KELLY BUSHING
EDF .FT                  460 : DRILLING FLOOR
EGL .FT                  459 : GROUND LEVEL
DATE.             03/09/2006 : RUN DATE
RUN .                      1 : RUN NUMBER
DD  .FT                 7575 : DEPTH DRILLER
DL  .FT                 7570 : DEPTH LOGGER
BLI .FT                 7570 : BOTTOM LOG INTERVAL
TLI .FT                  891 : TOP LOG INTERVAL
CS  .IN                8.625 : CASING SIZE
CBD .FT                  888 : CASING BOTTOM DRILLER
CBL .FT                  891 : CASING BOTTOM LOGGER
BS  .IN                7.875 : BIT SIZE
BSD .FT                 7575 : BIT SIZE AT DEPTH
DFT .  FRESH WATER BASED MUD : DRILLING FLUID TYPE
DFD .                   10.2 : DRILLING FLUID DENSITY
DFV .                     40 : DRILLING FLUID VISCOSITY
DFPH.                    8.7 : DRILLING FLUID PH
DFL .                    5.2 : DRILLING FLUID LOSS
MSS .                MUD PIT : MUD SAMPLE SOURCE
RMS .OHMM              1.006 : RESISTIVITY MUD SAMPLE
MST .FT                   82 : MUD SAMPLE TEMPERATURE
RMF .OHMM              0.754 : RESISTIVITY MUD FILTRATE SAMPLE
MFST.FT                   82 : MUD FILTRATE SAMPLE TEMPERATURE
RMC .OHMM              1.512 : RESISTIVITY MUD CAKE
MCST.FT                   82 : MUD CAKE SAMPLE TEMPERATURE
MFSS.             CALCULATED : MUD FILTRATE SAMPLE SOURCE
MCSS.             CALCULATED : MUD CAKE SAMPLE SOURCE
RMB .OHMM              0.501 : RESISTIVITY MUD AT BHT
TCS .HRS                1200 : TIME CURCULATED STOPPED
TLAB.HRS                1930 : TIME LOGGER AT BOTTOM
LUN .                   2129 : LOGGING UNIT NUMBER
LUL .               VICTORIA : LOGGING UNIT LOCATION
ENGI.         JOSEPH JEPHSON : RECORDING ENGINEER
WITN.         BRIAN MCMICKEN : WITNESSED BY
CLNT.                A2DTECH : CLIENT CODE
ORIG.            1" 5" PRINT : ORIGIN OF DATA
UWI .         42013342130000 : UNIQUE WELL ID
DICO. A2D Technologies, Inc. : DIGITIZING COMPANY
~Other -----------------------------------------------------
~ASCII -----------------------------------------------------
# ...
 3650.00000    7.72850    9.69950    9.82690    9.90590    9.94780    7.79760  100.52470   -0.07740    0.00020    2.12730    -999.25    0.31680    0.34080    9.94780   75.86210   75.86210    0.00020    9.82690    0.28540   11.75910   13.62500    9.69950 1860.48350    -999.25    0.32920
 3700.00000    9.83490   12.40820   11.34340   11.31340   11.21610    7.79150   89.15760   -0.08350    0.00060    2.26920    -999.25    0.23080    0.25780   11.21610   59.71350   59.71350    0.00060   11.34340    0.23940   11.45470   13.08050   12.40820 1758.35660    -999.25    0.28340
 3750.00000   10.20100   12.61070   13.06460   13.44560   14.62300    7.89620   68.38540    0.02120    0.00080    2.10500    -999.25    0.33030    0.35380   14.62300   51.73930   51.73930    0.00080   13.06460    0.28710   12.98740   14.37320   12.61070 1855.56910    -999.25    0.33090
 3800.00000    6.85470    8.38060    8.52950    8.63520    8.91700    7.75860  112.14530   -0.11640   -0.00050    2.18680    -999.25    0.28070    0.30590    8.91700   56.96790   56.96790   -0.00050    8.52950    0.24470    8.16710    9.28630    8.38060 1833.13490    -999.25    0.28870
 3850.00000    8.65350   10.01650   10.58310   10.64520   10.71140    7.78680   93.35850   -0.08820    0.00190    2.17230    -999.25    0.28950    0.31440   10.71140   68.58880   68.58880    0.00190   10.58310    0.25060   11.95860   12.69000   10.01650 1852.15300    -999.25    0.29460
 3900.00000    9.02930    9.17330    9.68680    9.76670    9.81080    7.76560  101.92850   -0.10940   -0.00060    2.18210    -999.25    0.28360    0.30870    9.81080   54.91290   54.91290   -0.00060    9.68680    0.26000   10.40840   10.75200    9.17330 1920.60380    -999.25    0.30400
 3950.00000    3.94760    4.21940    4.29090    4.49240    4.61460    7.80110  216.70350   -0.07390    0.01440    2.33090    -999.25    0.19340    0.22170    4.61460  106.01020  106.01020    0.01440    4.29090    0.26630    2.83080    2.78660    4.21940 1882.46580    -999.25    0.31020
 4000.00000    3.94750    4.27160    4.38200    4.45100    4.49630    7.83140  222.40510   -0.04360    0.00210    2.29190    -999.25    0.21700    0.24450    4.49630  118.39950  118.39950    0.00210    4.38200    0.29380    3.54800    3.11600    4.27160 1924.06990    -999.25    0.33760
 4050.00000    1.77720    1.98460    2.06940    2.08150    2.09190    8.38000  478.03430    0.50500    0.12940    2.27120    -999.25    0.22960    0.25660    2.09190  126.67790  126.67790    0.12940    2.06940    0.38240    6.88570   -2.05420    1.98460 1963.15530    -999.25    0.42470
 4100.00000    3.20960    3.61620    3.70040    3.73320    3.81190    7.92470  262.33640    0.04970    0.05640    2.36970    -999.25    0.16990    0.19900    3.81190  113.42700  113.42700    0.05640    3.70040    0.25840    4.25160   -4.58280    3.61620 1989.76100    -999.25    0.30240
 4150.00000    3.01160    3.24540    3.40450    3.43460    3.45220    8.27400  289.67030    0.39900    0.01660    2.40580    -999.25    0.14800    0.17790    3.45220  117.10830  117.10830    0.01660    3.40450    0.26210    4.89330   -3.83560    3.24540 1993.86780    -999.25    0.30610
 4200.00000    3.06620    3.19270    3.27720    3.30940    3.32840    8.39180  300.44470    0.51680    0.00240    2.40980    -999.25    0.14560    0.17560    3.32840  119.72270  119.72270    0.00240    3.27720    0.24590    3.67270   -4.95070    3.19270 2007.32010    -999.25    0.28990
 4250.00000    2.69110    2.96640    3.00310    3.02660    3.04040    8.50630  328.90410    0.63130    0.07140    2.40550    -999.25    0.14820    0.17810    3.04040  122.82550  122.82550    0.07140    3.00310    0.28350    4.12890   -4.38900    2.96640 1988.16940    -999.25    0.32730
 4300.00000    2.10520    2.30600    2.34630    2.37710    2.38690    8.82500  418.95350    0.95000    0.19970    2.30780    -999.25    0.20740    0.23520    2.38690  117.60090  117.60090    0.19970    2.34630    0.29680    5.48800   -2.92440    2.30600 2014.78690    -999.25    0.34050
 4350.00000    1.55330    1.66330    1.71580    1.72910    1.73700    8.88600  575.70530    1.01100    0.04910    2.40560    -999.25    0.14810    0.17800    1.73700  127.38140  127.38140    0.04910    1.71580    0.31720    5.50270   -2.80420    1.66330 1978.24430    -999.25    0.36070
 4400.00000    1.38370    1.48320    1.50720    1.51900    1.55360    9.12340  643.66630    1.24840    0.06080    2.41010    -999.25    0.14540    0.17540    1.55360  124.39620  124.39620    0.06080    1.50720    0.30320    5.36260   -2.83880    1.48320 2062.04080    -999.25    0.34690
 4450.00000    1.16280    1.28080    1.29670    1.30690    1.31480    9.31890  760.57200    1.44390    0.07420    2.31170    -999.25    0.20500    0.23290    1.31480  120.31870  120.31870    0.07420    1.29670    0.38780    3.98240   -3.10890    1.28080 2046.27830    -999.25    0.43000
 4500.00000    1.50120    1.57120    1.59060    1.60310    1.61040    9.99800  620.96370    2.12300    0.19800    2.29240    -999.25    0.21670    0.24420    1.61040  126.71920  126.71920    0.19800    1.59060    0.31170    2.59520   -2.53020    1.57120 2088.82180    -999.25    0.35530
 4550.00000    1.20930    1.26970    1.29850    1.30870    1.31460    9.35540  760.68770    1.48040    0.25810    2.23950    -999.25    0.24880    0.27520    1.31460  111.97960  111.97960    0.25810    1.29850    0.33890    1.38880   -1.77080    1.26970 2073.91550    -999.25    0.38210
 4600.00000    1.01150    1.04730    1.08380    1.10440    1.10940    8.83800  901.38810    0.96300    0.06230    2.22500    -999.25    0.25760    0.28360    1.10940  117.02260  117.02260    0.06230    1.08380    0.39900   -2.57510   -4.20510    1.04730 2147.45090    -999.25    0.44090
 4650.00000    1.59470    1.71390    1.75960    1.77340    1.79170    8.40810  558.12920    0.53310    0.03230    2.35650    -999.25    0.17790    0.20670    1.79170   90.20900   90.20900    0.03230    1.75960    0.31030   -7.04960   -8.16800    1.71390 2147.89580    -999.25    0.35390
 4700.00000    1.64040    1.70270    1.73930    1.75750    1.76820    8.46040  565.54690    0.58540    0.13260    2.35480    -999.25    0.17890    0.20770    1.76820   90.60750   90.60750    0.13260    1.73930    0.30170   -2.86460   -3.47140    1.70270 2169.49800    -999.25    0.34540
 4750.00000    1.14880    1.19660    1.21190    1.22160    1.22740    9.30850  814.73030    1.43350    0.02430    2.38150    -999.25    0.16270    0.19210    1.22740  100.19140  100.19140    0.02430    1.21190    0.36000    1.33810    0.49760    1.19660 2142.46730    -999.25    0.40280
 4800.00000    1.64810    1.77660    1.79860    1.81270    1.82100    8.96030  549.14880    1.08530    0.17520    2.34660    -999.25    0.18390    0.21250    1.82100   91.79590   91.79590    0.17520    1.79860    0.29280   -1.20630   -2.45530    1.77660 2182.28250    -999.25    0.33660
 4850.00000    1.22030    1.28390    1.30120    1.31220    1.32720    8.39700  753.46590    0.52200    0.11720    2.31460    -999.25    0.20330    0.23130    1.32720  113.11130  113.11130    0.11720    1.30120    0.32510   -1.02820   -2.68580    1.28390 2285.52270    -999.25    0.36850
 4900.00000    1.32590    1.41060    1.42830    1.43960    1.44630    8.30840  691.41950    0.43340    0.08710    2.34140    -999.25    0.18700    0.21550    1.44630  111.12610  111.12610    0.08710    1.42830    0.33630    1.49930   -0.56690    1.41060 2247.65700    -999.25    0.37950
 4950.00000    1.47500    1.54460    1.56460    1.57740    1.58500    9.46430  630.91480    1.58930    0.13600    2.39140    -999.25    0.15670    0.18630    1.58500  100.91730  100.91730    0.13600    1.56460    0.30310   -0.28310   -2.75780    1.54460 2290.44190    -999.25    0.34680
 5000.00000    1.61890    1.69440    1.72030    1.73590    1.74660   10.05250  572.54100    2.17750    0.18290    2.38900    -999.25    0.15820    0.18770    1.74660   94.41850   94.41850    0.18290    1.72030    0.29600   -0.32760   -3.21090    1.69440 2377.08080    -999.25    0.33970
