~Version ---------------------------------------------------
VERS. 2.0 : CWLS log ASCII Standard -VERSION 2.0
WRAP.  NO : ONE LINE PER DEPTH STEP
~Well ------------------------------------------------------
STRT.F                  2450.0 : START DEPTH
STOP.F                 15800.0 : STOP DEPTH
STEP.F                50.00000 : STEP LENGTH
NULL.                  -999.25 : NULL VALUE
COMP.     MARATHON OIL COMPANY : COMPANY
WELL.                 CAZEY #1 : WELL
FLD .                  WILDCAT : FIELD
LOC .                          : LOCATION
CNTY.                ROBERTSON : COUNTY
STAT.                    TEXAS : STATE
CTRY. UNITED STATES OF AMERICA : COUNTRY
SRVC.        STRATAGRAPH, INC. : SERVICE COMPANY
DATE.              30-Dec-1995 : LOGDATE
API .           42395304440000 : API NUMBER
UWI .           42395304440000 : UNIQUE WELL ID
SLAT.WGS84       31.0729547384 : SURFACE LATITUDE
SLON.WGS84      -96.4245842071 : SURFACE LONGITUDE
~Curve Information -----------------------------------------
DEPT.F                 : 
DTCO.US/F 60 523 00 00 : COMPRESSIONAL-WAVE INTERVAL TRANSIT TIME ACAUSTIC SLOWNESS
SPR .MV   07 010 01 00 : SPONTANEOUS POTENTIAL
TEND.LB   45 635 01 00 : TENSION FROM DENSITY LOG
DCAL.IN   07 280 30 00 : DIFFERENTIAL CALIPER
SFLU.OHMM 07 220 01 00 : SPHERICALLY FOCUSED LOG UNAVERAGED RESISTIVITY
ILM .OHMM 07 120 44 00 : INDUCTION LOG MEDIUM
ILD .OHMM 07 120 46 00 : INDUCTION LOG DEEP
PEF .B/E  45 358 01 00 : PHOTOELECTRIC FACTOR
DRHO.G/C3 45 356 01 00 : DENSITY CORRECTION
DT  .US/F 60 520 00 00 : INTERVAL TRANSIT TIME
DPHI.DEC  45 890 10 00 : DENSITY POROSITY LIMESTONE
GRD .GAPI 45 310 01 00 : GAMMA RAY FROM DENSITY LOG
IDPH.OHMM 07 120 46 00 : INDUCTION DEEP PHASOR RES.
IMPH.OHMM 07 120 44 00 : INDUCTION MEDIUM PHASOR RES.
NPHI.DEC  42 890 01 00 : NEUTRON POROSITY LIMESTONE
DTLF.US/F 60 523 00 00 : ACOUSTIC TRANSIT TIME, LONG SPACED, FAR ARRAY
DTLN.US/F 60 523 00 00 : ACOUSTIC TRANSIT TIME, LONG SPACED, NEAR ARRAY
~Params ----------------------------------------------------
EKB .F                 421.0 : Kelly bushing
EGL .F                 390.0 : Ground level
EDF .F                 420.0 : Drilling floor
EPD .F                 390.0 : Permanent datum
TD  .F               15800.0 : Total depth
DATE.            31-DEC-1995 : Date logged
CLNT.                A2DTECH : Client Code
SL  . 344' FNWL & 1230' FNEL : Surface Location
PD  .                     GL : Permanent Datum
LMF .                     KB : Log Measured From
DMF .                     KB : Drilling Measured From
DAPD.F                    31 : Feet Above Permanent Datum
DD  .F                 15800 : Depth driller
DL  .F                 15796 : Depth logger
BLI .F                 15793 : Bottom log interval
CS1 .IN                7.875 : Casing size
CBD1.        7.875" @ 14300' : Casing driller 1
CBL1.F                 14292 : Casing logger 1
BS1 .IN                  8.5 : Bit size
BSD1.F                 15800 : Depth drilled with bit1
DFT .                THERMEX : Type fluid in hole
DFD .                   16.2 : Density
DFPH.                   10.5 : pH
MSS .              CIRC TANK : Source of sample
RMS .OHMM              1.932 : Rm
RMF .OHMM              1.872 : Rmf
RMC .OHMM              2.181 : Rmc
MFSS.                   MEAS : Source Rmf.
MCSS.                   CALC : Source Rmc.
RMB .OHMM              0.423 : Rm. at BHT
BHT .F                   358 : BHT.
TCS .HRS                 130 : Time Circ. stopped
TLAB.HRS                1130 : Time logger at bottom
LUN .                   8400 : Logging unit number
LUL .                    LER : Logging unit location
ENGI.                 CORLEA : Recorded By
WITN.              FAIRHURST : Witnessed by
ORIG.               5" PRINT : Origin of data
UWI .         42395304440000 : Unique Well ID
DICO. A2D TECHNOLOGIES, INC. : Digitizing Company
~Other -----------------------------------------------------
~ASCII -----------------------------------------------------
# ...
 10650.00000    -999.25  -50.72800 4430.94090    0.58700   26.09100   19.23400   27.17600    4.98400    0.01500   60.16100    0.10800   33.51600    -999.25    -999.25    0.01700    -999.25    -999.25
 10700.00000    -999.25  -29.16100 4484.51320    0.81400   21.81400   14.23500   15.86100    6.21700    0.02600   58.67400    0.05100   66.88100    -999.25    -999.25    0.05500    -999.25    -999.25
 10750.00000    -999.25  -65.76100 4519.31590    0.50000   20.60600   28.19700   32.06700    3.81800    0.01000   60.88800    0.07200   35.79100    -999.25    -999.25    0.01600    -999.25    -999.25
 10800.00000    -999.25  -76.59800 4533.82520    0.75800   18.71200   25.67500   31.05800    4.02600    0.01300   59.64100    0.07900   27.83100    -999.25    -999.25    0.01100    -999.25    -999.25
 10850.00000    -999.25  -93.11900 4520.97900    1.13200   27.34500   40.11300   41.19200    9.61900    0.03800   58.48600    0.21200   34.77600    -999.25    -999.25    0.01000    -999.25    -999.25
 10900.00000    -999.25  -62.42000 4564.15920    0.53000   38.47400   29.49200   20.35000    5.56700    0.01500   65.87800    0.15600   33.71700    -999.25    -999.25    0.04300    -999.25    -999.25
 10950.00000    -999.25  -63.42900 4603.98190    0.96200   40.56200   42.32200   44.51000    5.02300    0.04100   59.86600    0.08000   35.08800    -999.25    -999.25    0.00700    -999.25    -999.25
 11000.00000    -999.25  -82.36800 4603.98190    1.08900   54.95700   33.57600   41.02900    4.03700    0.02000   56.97300    0.07400   20.74600    -999.25    -999.25    0.00400    -999.25    -999.25
 11050.00000    -999.25  -32.72600 4643.80520    5.02400    7.33400   31.47100   14.64300   10.15600   -0.06400   74.99500    0.34700   53.97200    -999.25    -999.25    0.30800    -999.25    -999.25
 11100.00000    -999.25  -62.23900 4646.51120    0.87700   35.75000   31.81700   35.51200    3.09100    0.01900   55.45500    0.05700   33.10400    -999.25    -999.25   -0.00100    -999.25    -999.25
 11150.00000    -999.25  -56.62700 4721.87400    0.98300   49.07500   39.67900   43.06000    4.86400    0.02500   55.88900    0.04700   47.43400    -999.25    -999.25    0.01700    -999.25    -999.25
 11200.00000    -999.25  -45.56000 4723.45120    1.38000   25.33500   39.93100   36.64400    4.52900    0.00200   61.72800    0.08600   47.61300    -999.25    -999.25    0.03500    -999.25    -999.25
 11250.00000    -999.25  -35.84000 4723.45120    1.26500   20.21500   20.60600   21.43600    4.64200    0.01300   58.85600    0.03900   54.95200    -999.25    -999.25    0.01500    -999.25    -999.25
 11300.00000    -999.25  -50.19400 4781.58500    0.63800   43.96800   51.75400   51.85300    3.02400    0.00400   56.84900    0.06100   34.97700    -999.25    -999.25   -0.00300    -999.25    -999.25
 11350.00000    -999.25  -12.70600 4840.25680    1.43600   22.38100   15.67200   16.30400    4.83100    0.01400   58.59600    0.02300   59.60700    -999.25    -999.25    0.04600    -999.25    -999.25
 11400.00000    -999.25  -29.44600 4901.68510    0.97500   25.99100   21.18300   22.85900    3.98200    0.05700   59.11300    0.00600   52.92900    -999.25    -999.25    0.04800    -999.25    -999.25
 11450.00000    -999.25  -54.70100 4935.96000    0.44200   65.87900   70.60400   80.98200    3.46900    0.00200   57.92100    0.07100   35.67600    -999.25    -999.25   -0.00400    -999.25    -999.25
 11500.00000    -999.25  -42.11200 4982.87110    0.51800   37.25800   43.95500   54.91900    4.27000    0.02400   60.04000    0.04600   52.50800    -999.25    -999.25    0.00900    -999.25    -999.25
 11550.00000    -999.25  -61.42600 5002.21190    0.34400   45.80900   53.15900   59.51300    3.39700    0.01100   59.24200    0.06300   46.43500    -999.25    -999.25    0.00800    -999.25    -999.25
 11600.00000    -999.25  -41.26600 4930.13280    0.08000  127.79000  191.77800  186.68900    3.52400    0.01100   53.95300    0.03700   19.47100    -999.25    -999.25   -0.00100    -999.25    -999.25
 11650.00000    -999.25  -52.59100 5021.13180    0.33000  135.99800  158.50100  177.94100    3.19100    0.01700   56.59900    0.05500   22.33200    -999.25    -999.25   -0.00300    -999.25    -999.25
 11700.00000    -999.25  -29.34500 5002.21190    0.46500  125.34700  622.59400  175.52400    4.49900   -0.01000   58.34500    0.12000   35.36400    -999.25    -999.25    0.00500    -999.25    -999.25
 11750.00000    -999.25  -28.64800 5054.99510    1.31000   12.04200   35.28700   19.63700    7.41700    0.01300   62.03400    0.18800   78.44200    -999.25    -999.25    0.01000    -999.25    -999.25
 11800.00000    -999.25  -21.98800 5052.27590    0.35700   35.75000   47.91900   42.54800    3.58500   -0.00300   59.29300    0.03000   86.53400    -999.25    -999.25    0.03400    -999.25    -999.25
 11850.00000    -999.25  -27.29500 5010.98680    0.44600   26.04300   25.81200   25.57200    4.14800    0.02400   57.98600    0.01600   61.54800    -999.25    -999.25    0.04600    -999.25    -999.25
 11900.00000    -999.25  -87.18000 5065.27100    0.18200   67.36700  128.70800  113.02600    3.07000    0.00600   57.29900    0.06100   17.51000    -999.25    -999.25   -0.00200    -999.25    -999.25
 11950.00000    -999.25  -94.00000 5029.54000    0.16000   64.18400   90.88400   84.39400    4.75600    0.01800   59.55400    0.08200   34.79800    -999.25    -999.25    0.01700    -999.25    -999.25
 12000.00000    -999.25  -93.42600 5002.21190    0.12000   85.87500  101.43800   90.88400    4.06600   -0.00300   62.33900    0.11700   19.31500    -999.25    -999.25    0.00900    -999.25    -999.25
 12050.00000    -999.25  -55.31900 5042.03520    0.12000   39.50800   51.32700   54.57100    3.85900   -0.00700   59.69600    0.08300   43.40200    -999.25    -999.25    0.01100    -999.25    -999.25
 12100.00000    -999.25  -79.86300 5030.72220    0.15900   28.48300   25.02100   29.13100    3.62600    0.00600   59.78800    0.06800   35.05600    -999.25    -999.25    0.02300    -999.25    -999.25
 12150.00000    -999.25  -58.42900 5081.85790    0.40700   25.33500   31.76600   30.26000    4.20000    0.05900   59.09300    0.01500   71.31800    -999.25    -999.25    0.05400    -999.25    -999.25
 12200.00000    -999.25  -88.07200 5049.43700    0.47900   83.45400   91.52900   79.27700    3.44800    0.02000   58.45300    0.05600   20.02800    -999.25    -999.25    0.00500    -999.25    -999.25
 12250.00000    -999.25  -49.42500 5004.38480    0.71800   33.66800   23.64900   20.96000    3.36000    0.00600   56.56400    0.07200   26.61800    -999.25    -999.25    0.00300    -999.25    -999.25
 12300.00000    -999.25  -33.89100 5081.85790    0.68800   36.24600   32.33500   28.99400    4.71600    0.02800   54.88800   -0.06600   54.35800    -999.25    -999.25    0.05800    -999.25    -999.25
 12350.00000    -999.25  -32.99000 5081.85790    0.50800   30.46500   23.64900   21.25200    4.22700    0.02100   59.81100   -0.00400   83.59600    -999.25    -999.25    0.06600    -999.25    -999.25
 12400.00000    -999.25  -15.19100 5121.68120    1.61700   25.05400   26.32600   18.48100    6.33700   -0.01200   62.31600    0.18100   82.22800    -999.25    -999.25    0.07400    -999.25    -999.25
 12450.00000    -999.25  -23.85700 5201.32710    0.47900  106.13400   54.86400   53.02100    5.02700    0.01200   49.27200   -0.04700   36.97400    -999.25    -999.25    0.01500    -999.25    -999.25
 12500.00000    -999.25  -18.36700 5121.68120    2.68400   91.52800   63.75600   89.03000    6.60400    0.01200   49.69000   -0.01800   27.36600    -999.25    -999.25   -0.00300    -999.25    -999.25
 12550.00000    -999.25   -9.90500 5241.14990    3.77600    3.73400    4.11200    4.48700    9.79800   -0.00400   80.17900    -999.25   82.77900    -999.25    -999.25    0.30900    -999.25    -999.25
 12600.00000    -999.25  -12.36700 5148.21390    1.70600    6.30300    5.72300    5.60500    5.66800    0.04700   71.93300    0.00900   98.09300    -999.25    -999.25    0.14900    -999.25    -999.25
