~Version ---------------------------------------------------
VERS. 2.0 : CWLS log ASCII Standard -VERSION 2.0
WRAP. YES : MULTIPLE LINES PER DEPTH STEP
~Well ------------------------------------------------------
STRT.FT                  850.0 : START DEPTH
STOP.FT                 7550.0 : STOP DEPTH
STEP.FT               50.00000 : STEP LENGTH
NULL.                  -999.25 : NULL VALUE
COMP.      REDMAN OPERATING CO : COMPANY
WELL.         J C WALLACE  #11 : WELL
FLD .               JOURDANTON : FIELD
LOC .                          : LOCATION
CNTY.                 ATASCOSA : COUNTY
STAT.                    TEXAS : STATE
CTRY. UNITED STATES OF AMERICA : COUNTRY
SRVC.             Schlumberger : SERVICE COMPANY
DATE.              09-Mar-2006 : LOGDATE
API .           42013342130000 : API NUMBER
UWI .           42013342130000 : UNIQUE WELL ID
SLAT.WGS84       28.8623537028 : SURFACE LATITUDE
SLON.WGS84      -98.6331986757 : SURFACE LONGITUDE
~Curve Information -----------------------------------------
DEPT    .FT    : DEPTH FEET
AT10ED  .OHMM  : 10 INCH RESISTIVITY TWO FOOT RESOLUTION FROM AIT LOG
AT20ED  .OHMM  : 20 INCH RESISTIVITY TWO FOOT RESOLUTION FROM AIT LOG
AT30ED  .OHMM  : 30 INCH RESISTIVITY TWO FOOT RESOLUTION FROM AIT LOG
AT60ED  .OHMM  : 60 INCH RESISTIVITY TWO FOOT RESOLUTION FROM AIT LOG
AT90ED  .OHMM  : 90 INCH RESISTIVITY TWO FOOT RESOLUTION FROM AIT LOG
CALWS   .IN    : CALIPER [DCALED+7.875]
CONDWS  .MMHO  : CONDUCTIVITY [1000/DRESWS]
DCALED  .IN    : DIFFERENTIAL CALIPER FROM DENSITY LOG
DCORWS  .G/C3  : DENSITY CORRECTION [HDRAED]
DENWS   .G/C3  : BULK DENSITY [M=2.71 F=1.0] [CALCULATED FROM DPOWS]
DPHZLSED.V/V   : DENSITY POROSITY [M=2.71 F=1.0] FROM DENSITY LOG
DPHZSSED.V/V   : DENSITY POROSITY [M=2.65 F=1.0] FROM DENSITY LOG
DPOWS   .V/V   : DENSITY POROSITY [M=2.71 F=1.0] [MERGED DPHISSED CONVERTED TO LS/DPHZLSED at 6000]
DRESWS  .OHMM  : DEEP RESISTIVITY [AT90ED]
GRRED   .GAPI  : GAMMA RAY FROM RESISTIVITY LOG
GRWS    .GAPI  : GAMMA RAY [GRRED] *CASED HOLE ABOVE 891 FT*
HDRAED  .G/C3  : DENSITY CORRECTION FROM DENSITY LOG
MRESWS  .OHMM  : MEDIUM RESISTIVITY [AT30ED]
NPOWS   .V/V   : NEUTRON POROSITY LIMESTONE [MERGED TNPHSSED CONVERTED TO LS/TNPHLSED at 6000] *CASED HOLE ABOVE 891 FT*
SPRED   .MV    : SPONTANEOUS POTENTIAL FROM RESISTIVITY LOG
SPWS    .MV    : SPONTANEOUS POTENTIAL [BASELINE 0 MV] [SPRED]
SRESWS  .OHMM  : SHALLOW RESISTIVITY [AT20ED]
TENRED  .LBF   : TENSION FROM RESISTIVITY LOG
TNPHLSED.V/V   : THERMAL NEUTRON POROSITY LIMESTONE FROM LWD LOG
TNPHSSED.V/V   : THERMAL NEUTRON POROSITY SANDSTONE FROM LWD LOG
~Params ----------------------------------------------------
PD  .                     GL : PERMANENT DATUM
EPD .FT                  445 : ELEVATION PERMANENT DATUM
LMF .                     KB : LOG MEASURED FROM
DAPD.FT                   15 : FEET ABOVE PERMANENT DATUM
DMF .                     KB : DRILLING MEASURED FROM
EKB .FT                  445 : KELLY BUSHING
EDF .FT                  460 : DRILLING FLOOR
EGL .FT                  459 : GROUND LEVEL
DATE.             03/09/2006 : RUN DATE
RUN .                      1 : RUN NUMBER
DD  .FT                 7575 : DEPTH DRILLER
DL  .FT                 7570 : DEPTH LOGGER
BLI .FT                 7570 : BOTTOM LOG INTERVAL
TLI .FT                  891 : TOP LOG INTERVAL
CS  .IN                8.625 : CASING SIZE
CBD .FT                  888 : CASING BOTTOM DRILLER
CBL .FT                  891 : CASING BOTTOM LOGGER
BS  .IN                7.875 : BIT SIZE
BSD .FT                 7575 : BIT SIZE AT DEPTH
DFT .  FRESH WATER BASED MUD : DRILLING FLUID TYPE
DFD .                   10.2 : DRILLING FLUID DENSITY
DFV .                     40 : DRILLING FLUID VISCOSITY
DFPH.                    8.7 : DRILLING FLUID PH
DFL .                    5.2 : DRILLING FLUID LOSS
MSS .                MUD PIT : MUD SAMPLE SOURCE
RMS .OHMM              1.006 : RESISTIVITY MUD SAMPLE
MST .FT                   82 : MUD SAMPLE TEMPERATURE
RMF .OHMM              0.754 : RESISTIVITY MUD FILTRATE SAMPLE
MFST.FT                   82 : MUD FILTRATE SAMPLE TEMPERATURE
RMC .OHMM              1.512 : RESISTIVITY MUD CAKE
MCST.FT                   82 : MUD CAKE SAMPLE TEMPERATURE
MFSS.             CALCULATED : MUD FILTRATE SAMPLE SOURCE
MCSS.             CALCULATED : MUD CAKE SAMPLE SOURCE
RMB .OHMM              0.501 : RESISTIVITY MUD AT BHT
TCS .HRS                1200 : TIME CURCULATED STOPPED
TLAB.HRS                1930 : TIME LOGGER AT BOTTOM
LUN .                   2129 : LOGGING UNIT NUMBER
LUL .               VICTORIA : LOGGING UNIT LOCATION
ENGI.         JOSEPH JEPHSON : RECORDING ENGINEER
WITN.         BRIAN MCMICKEN : WITNESSED BY
CLNT.                A2DTECH : CLIENT CODE
ORIG.            1" 5" PRINT : ORIGIN OF DATA
UWI .         42013342130000 : UNIQUE WELL ID
DICO. A2D Technologies, Inc. : DIGITIZING COMPANY
~Other -----------------------------------------------------
~ASCII -----------------------------------------------------
  850.00000    -999.25    -999.25    -999.25    -999.25    -999.25    -999.25    -999.25    -999.25    -999.25    -999.25    -999.25    -999.25    -999.25    -999.25   51.31140   51.31140    -999.25    -999.25    0.40030    -999.25    -999.25    -999.25    -999.25    -999.25    0.44220
  900.00000    -999.25    -999.25    -999.25    -999.25    -999.25   10.18500    -999.25    2.31000    0.06200    2.11090    -999.25    0.32670    0.35030    -999.25   66.93520   66.93520    0.06200    -999.25    0.31580    -999.25    -999.25    -999.25  960.65610    -999.25    0.35930
  950.00000    8.60020   16.82690   20.11420   25.40470   26.37450    8.45970   37.91540    0.58470    0.00130    2.03490    -999.25    0.37280    0.39480   26.37450   45.96080   45.96080    0.00130   20.11420    0.32520    8.46960   16.06960   16.82690  948.87310    -999.25    0.36860
 1000.00000    8.30260   13.92460   16.01060   18.53110   19.33680    8.06360   51.71490    0.18860   -0.00940    2.01800    -999.25    0.38300    0.40460   19.33680   60.93120   60.93120   -0.00940   16.01060    0.36710    6.44110   14.08780   13.92460  905.95110    -999.25    0.40980
 1050.00000    8.45580   13.05670   14.31760   16.50270   16.57620    8.26120   60.32750    0.38620   -0.00860    2.02470    -999.25    0.37900    0.40080   16.57620   87.02810   87.02810   -0.00860   14.31760    0.34890    1.88930    9.58270   13.05670  951.72290    -999.25    0.39190
 1100.00000    3.85090    3.82270    4.48140    5.50110    5.82330    9.02870  171.72390    1.15370    0.03840    2.17510    -999.25    0.28780    0.31280    5.82330   85.78090   85.78090    0.03840    4.48140    0.36560    0.81750    8.55760    3.82270  970.49010    -999.25    0.40830
 1150.00000    8.52280   11.40980   11.27200   12.31120   12.61290    8.42930   79.28390    0.55430    0.03730    2.24340    -999.25    0.24640    0.27280   12.61290   69.17900   69.17900    0.03730   11.27200    0.26210   -4.57300    3.21380   11.40980  959.67490    -999.25    0.30610
 1200.00000   10.00780   15.78850   18.72350   19.91410   20.43350    8.10320   48.93920    0.22820   -0.00660    2.07910    -999.25    0.34600    0.36890   20.43350   57.15650   57.15650   -0.00660   18.72350    0.32230   -0.23020    7.60330   15.78850  982.80600    -999.25    0.36570
 1250.00000   15.88740   28.07150   31.38760   38.32410   47.66230    9.37900   20.98090    1.50400   -0.00330    2.18210    -999.25    0.28360    0.30870   47.66230   62.47170   62.47170   -0.00330   31.38760    0.23530    3.03630   10.91650   28.07150 1015.94980    -999.25    0.27930
 1300.00000    7.93970   12.98080   14.54870   16.60870   17.14880    8.27490   58.31310    0.39990    0.00140    2.10190    -999.25    0.33220    0.35560   17.14880   81.09630   81.09630    0.00140   14.54870    0.31050   -3.22920    4.69780   12.98080 1020.16740    -999.25    0.35410
 1350.00000   10.06410   18.01540   21.39290   25.68250   28.13690    8.98380   35.54050    1.10880    0.00140    2.11870    -999.25    0.32200    0.34580   28.13690   90.88930   90.88930    0.00140   21.39290    0.29610   -4.70100    3.27270   18.01540 1031.43990    -999.25    0.33980
 1400.00000    6.39740    7.77070    8.38140    9.19130    9.24290    9.80390  108.19120    1.92890    0.01230    2.28950    -999.25    0.21850    0.24590    9.24290  100.90100  100.90100    0.01230    8.38140    0.36530   -3.79390    3.83890    7.77070 1048.67580    -999.25    0.40800
 1450.00000    5.07690    5.59520    5.81880    6.56350    6.69960    9.57660  149.26260    1.70160    0.04620    2.26460    -999.25    0.23360    0.26050    6.69960   92.28650   92.28650    0.04620    5.81880    0.34160   -0.34500    6.85000    5.59520 1121.18410    -999.25    0.38480
 1500.00000   19.15750   38.25240   39.47520   47.51030   51.26910    7.96830   19.50490    0.09330    0.02800    2.49990    -999.25    0.09100    0.12290   51.26910   57.16010   57.16010    0.02800   39.47520    0.14160   -3.49510    3.26220   38.25240 1106.83560    -999.25    0.18480
 1550.00000    7.41900   10.52600   11.59970   12.96080   13.05230    8.74410   76.61480    0.86910    0.05570    2.26320    -999.25    0.23440    0.26130   13.05230   73.45790   73.45790    0.05570   11.59970    0.31170   -2.32140    3.99810   10.52600 1116.27670    -999.25    0.35530
 1600.00000    5.08490    6.87220    6.94520    7.24370    7.35200    9.04580  136.01740    1.17080    0.07650    2.31770    -999.25    0.20140    0.22940    7.35200  102.10700  102.10700    0.07650    6.94520    0.37850   -0.74660    5.13520    6.87220 1150.04900    -999.25    0.42090
 1650.00000   10.33130   28.16260   36.91820   71.40060   72.40490    9.51700   13.81120    1.64200    0.08990    2.07930    -999.25    0.34590    0.36890   72.40490   31.28890   31.28890    0.08990   36.91820    0.30580   -5.18140   -9.85450   28.16260 1161.10020    -999.25    0.34940
 1700.00000   15.07390   29.47210   37.03320   60.11790   65.35760   10.12410   15.30040    2.24910    0.02950    2.01440    -999.25    0.38520    0.40680   65.35760   30.64110   30.64110    0.02950   37.03320    0.29470   -3.70860   -8.96110   29.47210 1199.81870    -999.25    0.33850
 1750.00000   27.55330   32.86090   33.71500   47.28330   47.54600    9.55090   21.03230    1.67590    0.06550    2.06510    -999.25    0.35450    0.37710   47.54600   51.42360   51.42360    0.06550   33.71500    0.32840    0.56340   -5.26850   32.86090 1199.93880    -999.25    0.37180
 1800.00000   14.87180   35.34600   40.38510   60.79470   56.60450    9.33760   17.66640    1.46260    0.03570    2.06790    -999.25    0.35280    0.37550   56.60450   40.68630   40.68630    0.03570   40.38510    0.31490    2.08510   -4.32620   35.34600 1204.58340    -999.25    0.35840
 1850.00000   11.83120   20.88930   23.40500   30.69590   30.89950    9.00430   32.36300    1.12930    0.05010    2.15620    -999.25    0.29930    0.32390   30.89950   61.07270   61.07270    0.05010   23.40500    0.29210    3.36450   -3.62620   20.88930 1197.68380    -999.25    0.33590
 1900.00000   14.36590   32.10440   38.42010   56.42600   55.50340    9.35560   18.01690    1.48060    0.01560    2.08220    -999.25    0.34410    0.36710   55.50340   38.45300   38.45300    0.01560   38.42010    0.29180    3.58650   -4.06360   32.10440 1199.79860    -999.25    0.33560
 1950.00000   13.33620   28.69860   36.68580   57.70700   57.97550    9.71970   17.24870    1.84470    0.00730    2.05020    -999.25    0.36350    0.38580   57.97550   34.52910   34.52910    0.00730   36.68580    0.33620    4.46570   -3.93760   28.69860 1204.73410    -999.25    0.37940
 2000.00000   15.31440   28.86380   35.22750   57.41260   54.84030    9.81950   18.23480    1.94450   -0.00710    2.06380    -999.25    0.35530    0.37790   54.84030   31.90230   31.90230   -0.00710   35.22750    0.30270    4.43060   -4.72590   28.86380 1215.87720    -999.25    0.34640
 2050.00000   30.83900   33.78660   36.85610   42.95720   46.45280   10.50170   21.52720    2.62670    0.03500    2.05470    -999.25    0.36080    0.38320   46.45280   41.37370   41.37370    0.03500   36.85610    0.30800    5.08990   -4.81990   33.78660 1298.74010    -999.25    0.35160
 2100.00000   11.20720   30.11480   35.62440   49.09050   49.31980    8.91530   20.27580    1.04030   -0.00250    2.10570    -999.25    0.32990    0.35340   49.31980   36.82050   36.82050   -0.00250   35.62440    0.27760    8.69230   -1.97070   30.11480 1350.25620    -999.25    0.32150
 2150.00000    9.87000   25.87400   34.68770   54.10590   54.38650    8.77010   18.38690    0.89510    0.03420    2.05220    -999.25    0.36230    0.38470   54.38650   38.98970   38.98970    0.03420   34.68770    0.32160    8.69490   -2.22030   25.87400 1290.10190    -999.25    0.36510
 2200.00000   12.50640   31.80840   36.88240   50.72500   44.77610    9.10060   22.33330    1.22560    0.03300    2.10340    -999.25    0.33130    0.35480   44.77610   40.69870   40.69870    0.03300   36.88240    0.29110    8.43570   -2.40650   31.80840 1359.73800    -999.25    0.33490
