~Version ---------------------------------------------------
VERS. 2.0 : CWLS log ASCII Standard -VERSION 2.0
WRAP. YES : Multiple lines per depth step
~Well ------------------------------------------------------
STRT.FT                         300.0 : START DEPTH
STOP.FT                       13900.0 : STOP DEPTH
STEP.FT                      50.00000 : STEP LENGTH
NULL.                         -999.25 : NULL VALUE
COMP. MOBIL PRODUCING TX. & N.M. INC. : COMPANY
WELL.               J. V. FORD JR. #1 : WELL
FLD .                         WILDCAT : FIELD
LOC .                                 : LOCATION
CNTY.                             BEE : COUNTY
STAT.                           TEXAS : STATE
CTRY.        UNITED STATES OF AMERICA : COUNTRY
SRVC.                    Schlumberger : SERVICE COMPANY
DATE.                     24-Oct-1988 : LOGDATE
API .                  42025324790000 : API NUMBER
UWI .                  42025324790000 : UNIQUE WELL ID
SLAT.WGS84              28.6662336968 : SURFACE LATITUDE
SLON.WGS84             -98.0215217404 : SURFACE LONGITUDE
~Curve Information -----------------------------------------
DEPT    .FT    : DEPTH FEET
CALMED  .IN    : CALIPER FROM MSFL [DEP ADJ TO SFLUED]
CALWS   .IN    : CALIPER [DCALED+BITED]
CONDWS  .MMHO  : CONDUCTIVITY [1000/DRESWS]
DCALED  .IN    : DIFFERENTIAL CALIPER FROM DENSITY LOG [DEP ADJ TO GRRED]
DCORWS  .G/C3  : DENSITY CORRECTION [DRHOED]
DENWS   .G/C3  : BULK DENSITY [M=2.71, F= 1] [CAL FROM DPOLSWS]
DPHILSED.V/V   : DENSITY POROSITY [M=2.71 F=1.0] FROM DENSITY LOG [DEP ADJ TO GRRED]
DPHISSED.V/V   : DENSITY POROSITY [M=2.68 F=1.0] FROM DENSITY LOG [DEP ADJ TO GRRED]
DPOLSWS .V/V   : DENSITY POROSITY [M=2.71, F= 1] [76 DPOLSCAL 12989 DPHILSED]
DRESWS  .OHMM  : DEEP RESISTIVITY [ILDED]
DRHOED  .G/C3  : DENSITY CORRECTION FROM DENSITY LOG [DEP ADJ TO GRRED]
DTED    .US/F  : DELTA TIME FROM SONIC LOG
DTLED   .US/F  : DELTA TIME LONG SPACING FROM SONIC LOG
DTWS    .US/F  : DELTA TIME [76 DTED 543.5 DTLED 1373.5 DTED 2134 DTLED 3009.5 DTED 3022 DTLED 3172 DTED 8805 DTLED 8815 DTED 9717.5 DTLED 9901 DTED 12984.5 DTLED 13003.5 DTED]
GRDED   .GAPI  : GAMMA RAY FROM DENSITY LOG [DEP ADJ TO GRRED]
GRMED   .GAPI  : GAMMA RAY FROM MSFL LOG [DEP ADJ TO GRRED]
GRRED   .GAPI  : GAMMA RAY FROM RESISTIVITY LOG
GRWS    .GAPI  : GAMMA RAY [76 GRRED 3494.5 GRDEDNRM 3506 GRDED 9027 GRRED 13030.5 GRDED]
ILDED   .OHMM  : INDUCTION LOG DEEP RESISTIVITY
ILMED   .OHMM  : INDUCTION LOG MEDIUM RESISTIVITY
MRESWS  .OHMM  : MEDIUM RESISTIVITY [ILMED]
MSFLED  .OHMM  : MICROSPHERICALLY FOCUSED LOG RESISTIVITY [DEP ADJ TO SFLUED]
NPHILSED.V/V   : NEUTRON POROSITY LIMESTONE FROM DENSITY LOG [DEP ADJ TO GRRED]
NPHISSED.V/V   : NEUTRON POROSITY SANDSTONE FROM DENSITY LOG [DEP ADJ TO GRRED]
NPOLSWS .V/V   : NEUTRON POROSITY LIMESTONE [76 NPOLSCAL 12989 NPHILSED]
SFLUED  .OHMM  : SPHERICALLY FOCUSED LOG RESISTIVITY
SPRED   .MV    : SPONTANEOUS POTENTIAL FROM RESISTIVITY LOG
SPWS    .MV    : SPONTANEOUS POTENTIAL [BASELINE 0 MV] [SPRED]
SRESWS  .OHMM  : SHALLOW RESISTIVITY [SFLUED]
TENDED  .LBF   : TENSION FROM DENSITY LOG [DEP ADJ TO GRRED]
TENMED  .LBF   : TENSION FROM MSFL LOG [DEP ADJ TO SFLUED]
TENRED  .LBF   : TENSION FROM RESISTIVITY LOG
~Params ----------------------------------------------------
PD  .                     GL : PERMANENT DATUM
EPD .FT                  350 : ELEVATION PERMANENT DATUM
LMF .                     KB : LOG MEASURED FROM
DAPD.FT                 26.5 : FEET ABOVE PERMANENT DATUM
DMF .                     KB : DRILLING MEASURED FROM
EKB .FT                376.5 : KELLY BUSHING
EDF .FT                375.5 : DRILLING FLOOR
EGL .FT                  350 : GROUND LEVEL
DATE.               10/14/88 : RUN DATE
RUN .                      2 : RUN NUMBER
DD  .FT                13900 : DEPTH DRILLER
DL  .FT                13881 : DEPTH LOGGER
BLI .FT                13881 : BOTTOM LOG INTERVAL
TLI .FT                 3505 : TOP LOG INTERVAL
CS  .IN                9.625 : CASING SIZE
CBD .FT                 3510 : CASING BOTTOM DRILLER
CBL .FT                 3505 : CASING BOTTOM LOGGER
BS  .IN                  8.5 : BIT SIZE
BSD .FT                13900 : BIT SIZE AT DEPTH
DFT .            LIGNITE CLS : DRILLING FLUID TYPE
DFD .                   11.6 : DRILLING FLUID DENSITY
DFV .                     23 : DRILLING FLUID VISCOSITY
DFPH.                     10 : DRILLING FLUID PH
DFL .                    5.9 : DRILLING FLUID LOSS
MSS .               MUD TANK : MUD SAMPLE SOURCE
RMS .OHMM               1.08 : RESISTIVITY MUD SAMPLE
MST .DEGF                 75 : MUD SAMPLE TEMPERATURE
RMF .OHMM               0.72 : RESISTIVITY MUD FILTRATE SAMPLE
MFST.DEGF                 75 : MUD FILTRATE SAMPLE TEMPERATURE
RMC .OHMM               1.59 : RESISTIVITY MUD CAKE
MCST.DEGF                 75 : MUD CAKE SAMPLE TEMPERATURE
MFSS.                   MEAS : MUD FILTRATE SAMPLE SOURCE
MCSS.                   CALC : MUD CAKE SAMPLE SOURCE
RMB .OHMM              0.289 : RESISTIVITY MUD AT BHT
TCS .HRS                1500 : TIME CIRCULATED STOPPED
TLAB.HRS                1500 : TIME LOGGER AT BOTTOM
LUN .                   8248 : LOGGING UNIT NUMBER
LUL .             PLEASANTON : LOGGING UNIT LOCATION
ENGI.                 HOOPER : RECORDING ENGINEER
WITN.           WEIMER CARAM : WITNESSED BY
CLNT.                A2DTECH : CLIENT CODE
ORIG.               5" PRINT : ORIGIN OF DATA
UWI .         42025324790000 : UNIQUE WELL ID
DICO. A2D Technologies, Inc. : DIGITIZING COMPANY
~Other -----------------------------------------------------
~ASCII -----------------------------------------------------
# ...
 12400.00000   13.80390   12.80980  342.64180    4.30980    0.01190    2.52170    -999.25    0.11010    0.11010    2.91850    0.01190   81.54100   83.97660   81.54100   85.94650   90.86790   71.55000   71.55000    2.91850    2.81910    2.81910    5.53890    -999.25    0.22340    0.17970    3.33450    0.01970   -1.78100    3.33450 4199.49370 4635.52980 4224.98140
 12450.00000   13.73530   12.24180  426.13030    3.74180    0.07060    2.54460    -999.25    0.09670    0.09670    2.34670    0.07060   83.27740   84.24040   83.27740   83.27550   81.98490   70.11700   70.11700    2.34670    2.49310    2.49310    4.43880    -999.25    0.24490    0.20100    3.06870    0.28300   -1.39940    3.06870 4498.04390 4587.73100 4234.17040
 12500.00000   14.87050   12.76760  412.11620    4.26760   -0.05650    2.11750    -999.25    0.34650    0.34650    2.42650   -0.05650   84.39300   86.11460   84.39300   73.93710   78.61680   64.32000   64.32000    2.42650    2.30420    2.30420    2.65410    -999.25    0.24590    0.20200    2.50710    0.43110   -1.13300    2.50710 4831.62110 6664.48630 4256.87740
 12550.00000    2.97810   12.11060  344.40010    3.61060   -0.02290    2.45670    -999.25    0.14810    0.14810    2.90360   -0.02290   86.81040   87.96710   86.81040   90.65170   77.09220   83.23180   83.23180    2.90360    2.74320    2.74320    3.67870    -999.25    0.24640    0.20250    3.27690    0.30390   -1.38500    3.27690 4643.61040 4682.23440 4288.98830
 12600.00000   12.99240   11.90100  325.25610    3.40100   -0.00680    2.63200    -999.25    0.04560    0.04560    3.07450   -0.00680   79.64860   80.62010   79.64860   72.86080   72.58500   61.80110   61.80110    3.07450    3.01010    3.01010    4.50380    -999.25    0.22970    0.18590    3.63830    0.37550   -2.16720    3.63830 4312.42630 4637.17580 4293.31350
 12650.00000   13.15980   12.29280  372.25920    3.79280    0.01170    2.53350    -999.25    0.10320    0.10320    2.68630    0.01170   79.19210   80.86240   79.19210   76.19150   81.26520   66.86570   66.86570    2.68630    2.82640    2.82640    1.82670    -999.25    0.25600    0.21210    3.30290   -0.11540   -3.51190    3.30290 4199.40380 4655.54540 4320.44630
 12700.00000   12.03010   11.26080  146.87740    2.76080   -0.00840    2.67290    -999.25    0.02170    0.02170    6.80840   -0.00840   70.40320   72.04650   70.40320   48.17320   53.75750   46.85800   46.85800    6.80840    7.10850    7.10850   20.47560    -999.25    0.14190    0.09950    8.92620   -0.86300   -5.11330    8.92620 4147.43650 4823.90380 4258.13620
 12750.00000   12.90050   11.95550  218.21670    3.45550   -0.01500    2.62550    -999.25    0.04940    0.04940    4.58260   -0.01500   75.54940   76.54470   75.54940   70.94910   62.50960   56.49480   56.49480    4.58260    4.39860    4.39860    4.64170    -999.25    0.19190    0.14860    4.31030    0.08130   -5.02290    4.31030 4171.98930 5907.54300 4348.99510
 12800.00000   12.98630   12.33700  489.76390    3.83700    0.07020    2.48460    -999.25    0.13180    0.13180    2.04180    0.07020   86.89070   87.59750   86.89070   81.08150   76.26780   65.25420   65.25420    2.04180    1.97520    1.97520    1.39920    -999.25    0.28460    0.24060    2.41800    0.67290   -5.28510    2.41800 4230.87940 5199.18210 4365.49120
 12850.00000   13.35500   12.09700   82.40350    3.59700   -0.00390    2.51250    -999.25    0.11550    0.11550   12.13540   -0.00390   73.47760   75.79570   73.47760   56.79560   60.29200   51.08910   51.08910   12.13540   11.52380   11.52380   25.06930    -999.25    0.18770    0.14440   20.31090    4.76570   -2.04610   20.31090 4191.82570 4978.58060 4354.55570
 12900.00000   12.91300   11.75950   33.63660    3.25950   -0.01160    2.52460    -999.25    0.10840    0.10840   29.72950   -0.01160   72.05010   73.38170   72.05010   74.22220   73.25930   60.34170   60.34170   29.72950   23.97500   23.97500   36.73370    -999.25    0.18350    0.14030   46.54410   -0.29060   -3.69160   46.54410 4221.47710 4982.65140 4354.36280
 12950.00000   13.54340   11.88670   23.30380    3.38670    0.00090    2.53030    -999.25    0.10510    0.10510   42.91140    0.00090   76.78150   78.40810   76.78150   51.26190   68.19650   58.45370   58.45370   42.91140   27.95230   27.95230   37.73510    -999.25    0.13790    0.09550   44.81240   -4.99610   -4.23370   44.81240 4210.45510 4834.94920 4368.79050
 13000.00000   12.74150   11.61670    5.78750    3.11670   -0.00470    2.53900    0.10000    -999.25    0.10000  172.78490   -0.00470   65.87020   65.75850   65.75850   58.61000   64.15270   43.32160   43.32160  172.78490   74.18600   74.18600   53.17490    0.13740    -999.25    0.13740 1100.30160  -15.40590  -10.48010 1100.30160 4235.28560 4852.19430 4347.07320
 13050.00000   16.15520   13.28810   62.12690    4.78810   -0.00650    2.63660    0.04290    -999.25    0.04290   16.09610   -0.00650   52.07990   51.61180   52.07990   34.43700   29.05250   25.96310   34.43700   16.09610   10.79220   10.79220  278.58410    0.00020    -999.25    0.00020  480.93380  -32.06290  -25.13350  480.93380 4286.55570 4868.45260 4434.25340
 13100.00000   16.48390   13.73670    -999.25    5.23670   -0.00150    2.63820    0.04200    -999.25    0.04200    -999.25   -0.00150   53.57520   54.53080   53.57520   17.91180   19.66630   17.25970   17.91180    -999.25   32.20780   32.20780  145.21380    0.00000    -999.25    0.00000  421.27380  -75.18440  -67.17720  421.27380 4274.61770 4922.04880 4374.01220
 13150.00000   16.83280   13.21700    -999.25    4.71700   -0.00910    2.68500    0.01460    -999.25    0.01460    -999.25   -0.00910   47.83970   48.12960   47.83970   29.56490   24.71370   25.09830   29.56490    -999.25   36.75730   36.75730  229.55980   -0.00810    -999.25   -0.00810  570.70830  -78.52570  -69.44060  570.70830 4242.38330 4808.35300 4401.62450
 13200.00000   15.23360   13.21470    -999.25    4.71470   -0.00570    2.67370    0.02120    -999.25    0.02120    -999.25   -0.00570   48.67390   48.85950   48.67390   45.77850   41.74280   39.04670   45.77850    -999.25   47.96390   47.96390  234.47010   -0.00660    -999.25   -0.00660  595.45790  -74.82300  -64.66010  595.45790 4252.82320 4899.96140 4463.53560
 13250.00000   12.97040   12.65830    -999.25    4.15830   -0.00350    2.59890    0.06500    -999.25    0.06500    -999.25   -0.00350   50.07570   50.63400   50.07570   30.63180   25.84760   30.41550   30.63180    -999.25   66.42560   66.42560    9.54650    0.00540    -999.25    0.00540  389.00000  -62.80390  -51.56310  389.00000 4343.73000 4927.41850 4463.37700
 13300.00000   13.73720   12.73150    -999.25    4.23150    0.00730    2.60210    0.06310    -999.25    0.06310    -999.25    0.00730   51.00690   51.20780   51.00690   35.56550   31.34740   31.31910   35.56550    -999.25   56.46890   56.46890   16.99470    0.00480    -999.25    0.00480  323.11720  -64.49720  -52.17860  323.11720 4303.64940 4946.62350 4497.93550
 13350.00000   14.05880   13.03050    -999.25    4.53050   -0.00940    2.64840    0.03600    -999.25    0.03600    -999.25   -0.00940   49.25110   49.73900   49.25110   31.93130   31.91320   29.42820   31.93130    -999.25   49.87120   49.87120  156.19780    0.00340    -999.25    0.00340  478.56400  -62.39510  -48.99860  478.56400 4320.32860 4947.42970 4482.33450
 13400.00000   12.67550   12.41020    -999.25    3.91020    0.01270    2.66420    0.02680    -999.25    0.02680    -999.25    0.01270   49.01450   48.71930   49.01450   37.14670   32.97780   33.00200   37.14670    -999.25   88.17280   88.17280   18.27310   -0.00400    -999.25   -0.00400  780.10580  -62.52950  -48.05510  780.10580 4336.45460 4957.79830 4511.18800
 13450.00000   11.73080   10.91540    -999.25    2.41540   -0.00220    2.68180    0.01650    -999.25    0.01650    -999.25   -0.00220   50.39820   49.75500   50.39820   29.05310   25.61600   24.27420   29.05310    -999.25  232.64690  232.64690   87.02660   -0.00370    -999.25   -0.00370  585.71470  -62.05200  -46.49980  585.71470 4367.89840 4943.91850 4524.36770
