~Version ---------------------------------------------------
VERS. 2.0 : CWLS log ASCII Standard -VERSION 2.0
WRAP.  NO : ONE LINE PER DEPTH STEP
~Well ------------------------------------------------------
STRT.F                        3500.0 : START DEPTH
STOP.F                       12550.0 : STOP DEPTH
STEP.F                      50.00000 : STEP LENGTH
NULL.                        -999.25 : NULL VALUE
COMP. THE LOUISIANA LAND & EXPL. CO. : COMPANY
WELL.          J. C. HOWARD ET AL #1 : WELL
FLD .                        WILDCAT : FIELD
LOC .                                : LOCATION
CNTY.                         GRIMES : COUNTY
STAT.                          TEXAS : STATE
CTRY.       UNITED STATES OF AMERICA : COUNTRY
SRVC.                                : SERVICE COMPANY
DATE.                                : LOGDATE
API .                 42185302710000 : API NUMBER
UWI .                 42185302710000 : UNIQUE WELL ID
SLAT.WGS84             30.6614468236 : SURFACE LATITUDE
SLON.WGS84             -96.041932739 : SURFACE LONGITUDE
~Curve Information -----------------------------------------
DEPT.F                 : 
TENR.LBS  07 635 01 00 : TENSION FROM RESISTIVITY
SPR .MV   07 010 01 00 : SPONTANEOUS POTENTIAL
CALR.IN   07 280 01 00 : CALIPER FROM RESISTIVITY
ILD .OHMM 07 120 46 00 : DEEP INDUCTION RESISTIVITY
GRR .GAPI 07 310 01 00 : GAMMA RAY FROM RESISTIVITY
SFLU.OHMM 07 220 01 00 : SPHERICALLY FOCUSED LOG UNAVERAGED RESISTIVITY
ILM .OHMM 07 120 44 00 : INDUCTION LOG MEDIUM RESISTIVITY
DT  .US/F 60 520 00 00 : DELTA TIME
~Params ----------------------------------------------------
EKB .F                 302.0 : KELLY BUSHING
EGL .F                   285 : ELEVATION GROUND LEVEL
EDF .F                   301 : ELEVATION DERRICK FLOOR
EPD .F                   285 : ELEVATION PERMANENT DATUM
TD  .F               12600.0 : TOTAL DEPTH
DATE.            06-JUL-1981 : DATE LOGGED
CLNT.                A2DTECH : CLIENT CODE
LMF .                     KB : LOG MEASURED FROM
DMF .                     KB : DRILLING MEASURED FROM
DD  .F                 12600 : DEPTH DRILLER
DL  .F                 12580 : DEPTH LOGGER
BLI .F                 12577 : BOTTOM LOG INTERVAL
TLI .F                  6300 : TOP LOG INTERVAL
CBD1.         9.625" @ 3465' : CASING DRILLER 1
BS1 .IN                 8.75 : BIT SIZE
BSD1.F                 12600 : DEPTH DRILLED WITH BIT1
DFT .                 BEN-EX : TYPE FLUID IN HOLE
DFD .                   10.1 : DENSITY
DFV .                     50 : VISCOSITY
DFPH.                    8.5 : PH
DFL .                    7.6 : FLUID LOSS
MSS .            CIRCULATION : SOURCE OF SAMPLE
RMS .OHMM               1.73 : RM
RMF .OHMM                1.2 : RMF
RMC .OHMM               2.59 : RMC
RMB .OHMM              0.531 : RM. AT BHT
BHT .F                   260 : BHT.
TCS .HRS                 830 : TIME CIRC. STOPPED
TLAB.HRS                1530 : TIME LOGGER AT BOTTOM
LUN .                   8149 : LOGGING UNIT NUMBER
LUL .                 DAYTON : LOGGING UNIT LOCATION
ENGI.            WOLESBERGER : RECORDED BY
WITN.               REYNOLDS : WITNESSED BY
ORIG.               5" PRINT : ORIGIN OF DATA
UWI .         42185302710000 : UNIQUE WELL ID
DICO. A2D TECHNOLOGIES, INC. : DIGITIZING COMPANY
PD  .                     GL : PERMANENT DATUM
DAPD.F                    17 : FEET ABOVE PERMANENT DATUM
CS1 .IN                9.625 : CASING SIZE
~Other -----------------------------------------------------
~ASCII -----------------------------------------------------
# ...
 7500.00000 4276.60690  -32.21800   10.42500    2.18500   76.01300    2.31300    2.12200   88.22200
 7550.00000 4315.27100  -30.85200   10.32100    2.08600   78.74200    2.30900    2.12100   88.81300
 7600.00000 4294.33500  -31.23500   10.47100    2.06900   80.85300    2.33600    2.11000   87.73400
 7650.00000 4278.04490  -32.80700    9.46800    2.92100   77.66900    3.46800    2.92800   85.02500
 7700.00000 4433.49800  -32.14700   10.45200    2.60600   80.56200    3.04600    2.64400   82.46100
 7750.00000 4276.89890  -32.25000   10.15400    2.75000   80.39200    3.14100    2.74100   81.77400
 7800.00000 4395.52980  -29.61800    9.79000    3.03000   73.37600    3.53400    2.97800   80.68000
 7850.00000 4413.79300  -28.36400   10.11200    2.92400   78.71400    3.14300    2.92100   81.22700
 7900.00000 4483.67820  -27.15100   10.40300    2.54700   82.79600    2.83500    2.56100   84.98400
 7950.00000 4477.00100  -26.07900   10.22200    2.55400   82.13000    2.86900    2.57400   84.24500
 8000.00000 4437.73290  -25.77000   11.75900    2.30700   70.40700    2.51600    2.33500   86.78800
 8050.00000 4452.06690  -25.05100   10.40000    2.43600   79.69700    2.92100    2.48100   86.19400
 8100.00000 4433.49800  -25.19200   10.48500    2.57300   72.84200    3.08500    2.65600   83.63000
 8150.00000 4443.52200  -25.55100   10.00200    2.69400   79.88200    3.08500    2.75800   84.23800
 8200.00000 4477.75200  -26.11900   10.40400    3.00600   74.62600    3.60800    3.12900   81.03600
 8250.00000 4499.35400  -28.30000   10.49700    3.16000   81.83400    3.50300    3.17500   76.55200
 8300.00000 4541.60300  -26.70600   11.12800    3.04400   76.24000    3.19900    3.03400   81.59900
 8350.00000 4563.39990  -28.42000   10.12300    3.51900   63.99100    4.17000    3.54600   75.12400
 8400.00000 4595.18210  -25.74500   11.04700    2.81900   73.31100    3.23300    2.93700   81.52700
 8450.00000 5221.67480  -27.04200   10.50800    3.35100   50.23400    6.43300    3.63200   67.09400
 8500.00000 4650.24610  -28.70100   10.24000    3.56700   72.32400    3.95200    3.56700   75.71800
 8550.00000 4709.35990  -28.76400    9.99900    3.45300   63.45700    3.75400    3.50200   76.88400
 8600.00000 4685.79200  -29.77200   10.15000    3.60900   65.10900    3.93500    3.57400   76.24100
 8650.00000 4704.70120  -30.51200   11.01000    3.67700   68.54700    3.98000    3.67500   75.40300
 8700.00000 4741.38280  -27.74400   10.76100    3.78300   67.17300    4.06200    3.87000   75.50600
 8750.00000 4779.63920  -24.12300   10.54400    4.11100   71.64600    4.71400    4.05000   76.73800
 8800.00000 4824.92580  -22.66900   11.26600    2.74900   63.40800    3.04500    2.82600   82.26600
 8850.00000 4857.54100  -25.23100   11.28500    3.53000   60.51700    4.24100    3.80500   75.05400
 8900.00000 4827.58590  -25.56400   11.17600    3.26400   69.43900    3.83900    3.34700   74.97500
 8950.00000 4829.99020  -23.73400   12.08900    2.16700   68.54700    2.15000    2.37000   91.33100
 9000.00000 4832.85890  -20.64100   14.52900    2.17200   69.02000    2.16500    2.00500   90.43100
 9050.00000 4827.58590  -20.78500   13.51200    2.04500   66.38900    2.33900    2.05100   88.12100
 9100.00000 4832.27000  -19.58800   13.66800    1.82900   58.02700    1.98700    1.78400   93.58600
 9150.00000 4886.70020  -19.39400   13.09500    2.01300   59.83700    2.19500    2.01500   90.54300
 9200.00000 4926.10790  -20.03900   13.06100    2.20600   67.04100    2.30000    2.17600   88.70700
 9250.00000 4945.81300  -20.03900   12.84800    2.37600   70.66100    2.61500    2.40000   85.91100
 9300.00000 4980.15580  -20.25400   11.31100    2.66800   83.38200    2.99900    2.67300   83.34900
 9350.00000 5022.36720  -19.07800   12.30900    2.43600   67.05600    2.50500    2.59900   90.54200
 9400.00000 5044.33500  -18.97200   11.99900    2.48500   74.84600    2.58200    2.48500   90.14800
 9450.00000 5070.83110  -18.63100   11.74700    2.47700   68.69900    2.82400    2.53900   83.76400
 9500.00000 5118.56590  -19.64600   10.49700    3.22700   68.38400    3.82600    3.34200   79.69600
 9550.00000 5199.49510  -19.82300   11.00000    3.36800   74.25600    3.76900    3.51500   80.67700
 9600.00000 5239.89210  -20.26900   10.65600    4.03600   69.42800    4.59200    4.10500   75.53300
 9650.00000 5252.59420  -21.73100   10.34500    5.41000   97.29300    6.09200    5.06100   73.73700
 9700.00000 5235.98390  -21.47200   10.08500    4.68300   59.37300    5.41900    4.33000   75.76600
 9750.00000 5221.67480  -15.57800    9.96700    3.64600   68.93000    4.98400    3.78500   76.84300
 9800.00000 5251.27490  -15.20800   10.02600    3.65800   68.63100    5.08100    3.90500   78.18400
 9850.00000 5241.37890  -14.69000   10.03500    4.03300   80.86000    5.17400    4.23800   77.18500
 9900.00000 5261.08400  -13.63300   10.31200    3.59900   76.90700    4.60000    3.75700   79.76700
 9950.00000 5313.70900  -13.34600   10.22800    3.50300   73.67200    4.38300    3.58900   78.08900
 10000.00000 5312.76710  -13.05100   10.55200    3.36000   68.93600    3.89200    3.47300   79.42000
 10050.00000 5300.49320  -13.92000    9.88500   10.98800   50.13000   14.31300   11.94800   65.03800
 10100.00000 5339.90090  -15.70900    9.70700    9.16500   45.18900   11.55100    9.83100   66.03700
 10150.00000 5398.29300  -15.05900    9.85700   10.61700   45.83100   11.39000   10.03500   67.41000
 10200.00000 5429.12210  -17.23000    9.78900    7.00700   52.48300    8.86100    7.79000   64.19600
 10250.00000 5481.25290  -23.95400    9.60500   31.19800   37.24900   85.43600   42.86100   59.40900
 10300.00000 5477.83300  -25.87300   10.04400   25.04300   34.41900   39.55300   32.46500   58.71600
 10350.00000 5517.24120 -110.57700    8.17500   35.28000   18.63600   61.94000   50.95400   62.70900
 10400.00000 5528.13380 -119.30600    8.18900    4.57200   13.48700   18.45200    7.46000   64.89200
 10450.00000 5557.53910  -44.65000    8.34600   47.79200   19.97000   58.35200   55.64700   59.67800
 10500.00000 5544.69920  -20.50900    8.98600    7.49100   56.36000    7.99700    7.85500   68.92100
 10550.00000 5585.00390  -17.33800    9.40500    7.88900   59.74600   10.56500    8.30400   67.09400
 10600.00000 5517.24120  -23.93300   10.39400   13.91200   39.85400   17.69600   14.97200   69.49100
 10650.00000 5543.12010   -7.47100   12.98800    3.50300   68.60700    4.21300    3.40800   77.88300
 10700.00000 5615.76420   -6.17600   12.05100    5.67400   60.50500    7.13300    5.22500   76.30300
 10750.00000 5646.73290   -3.89800   13.08800    2.09000   61.51300    2.50200    1.92500   90.91100
 10800.00000 5638.06100   -4.94500   12.75100    2.01600   68.56400    2.41900    1.83400   90.39400
 10850.00000 5695.80620   -4.40400   12.58500    2.22600   76.88700    2.64900    2.11300   87.77600
 10900.00000 5757.18900   -5.51300   11.33800    2.65300   76.36300    3.31000    2.62700   87.19200
 10950.00000 5726.25000   -6.65400   12.32500    2.86900   75.62100    3.80800    2.84100   87.68600
 11000.00000 5733.99020   -7.83500   12.51300    2.79100   76.92500    3.51100    2.45900   95.43400
 11050.00000 5795.85210   -5.80300    8.79600   13.91200   19.36800  425.70500   14.33900   45.22200
 11100.00000 5837.39110  -14.17000   13.10200    3.61900   65.10800    4.84100    3.47600   87.78500
 11150.00000 5891.62600   -7.31900   10.93700    6.20400   93.55000    9.17900    6.09300   94.28300
 11200.00000 5907.31790  -41.88100    8.34300   23.08400   17.79200   56.27200   57.30200   65.38500
 11250.00000 5944.35300  -28.95000    9.02400  144.33600   16.30200  152.03300  206.33700   50.14800
 11300.00000 5931.05420  -15.97700    9.18800   50.25900   26.26000   36.55700   51.28300   54.38500
 11350.00000 5965.45900  -43.89700    9.35700 1660.51100   13.29700  120.10500 1380.12000   50.39000
 11400.00000 6027.94190  -20.61800    9.11900  261.50600   17.59300  121.51400  450.47200   51.19500
 11450.00000 6009.85210  -31.89300    9.32700  205.98600   14.12000   90.53200  339.30200   51.33000
