~Version ---------------------------------------------------
VERS. 2.0 : CWLS log ASCII Standard -VERSION 2.0
WRAP. YES : MULTIPLE LINES PER DEPTH STEP
~Well ------------------------------------------------------
STRT.FT                 2050.0 : START DEPTH
STOP.FT                15100.0 : STOP DEPTH
STEP.FT               50.00000 : STEP LENGTH
NULL.                  -999.25 : NULL VALUE
COMP. BUTTES RESOURCES COMPANY : COMPANY
WELL.             KING GAIL #1 : WELL
FLD .                  WILDCAT : FIELD
LOC .                          : LOCATION
CNTY.                     LEON : COUNTY
STAT.                    TEXAS : STATE
CTRY. UNITED STATES OF AMERICA : COUNTRY
SRVC.             Schlumberger : SERVICE COMPANY
DATE.              13-Apr-1977 : LOGDATE
API .           42289301060000 : API NUMBER
UWI .           42289301060000 : UNIQUE WELL ID
SLAT.WGS84        31.383896527 : SURFACE LATITUDE
SLON.WGS84      -96.2493859425 : SURFACE LONGITUDE
~Curve Information -----------------------------------------
DEPT    .FT    : DEPTH FEET
CALDED  .IN    : CALIPER FROM DENSITY LOG [AJD TO ILDED]
CALWS   .IN    : CALIPER [CALDED]
CONDWS  .MMHO  : CONDUCTIVITY [1000/DRESWS]
CORRED  .G/C3  : DENSITY CORRECTION FROM DENSITY LOG [AJD TO ILDED]
DCORWS  .G/C3  : DENSITY CORRECTION [CORRED]
DENWS   .G/C3  : BULK DENSITY [M=2.71 F=1.0] [CALCULATED FROM DPOWS]
DPHILSED.V/V   : DENSITY POROSITY [M=2.71 F=1.0] FROM DENSITY LOG [AJD TO ILDED]
DPOWS   .V/V   : DENSITY POROSITY [M=2.71 F=1.0] [DPHILSED]
DRESWS  .OHMM  : DEEP RESISTIVITY [ILDED]
DRHOED  .G/C3  : DENSITY CORRECTION FROM DENSITY LOG [AJD TO ILDED]
DTED    .US/F  : DELTA TIME FROM SONIC LOG [AJD TO RHOBED]
DTWS    .US/F  : DELTA TIME [DTED]
GRDED   .GAPI  : GAMMA RAY FROM DENSITY LOG [AJD TO ILDED]
GRWS    .GAPI  : GAMMA RAY [GRDED]
ILDED   .OHMM  : INDUCTION LOG DEEP RESISTIVITY
ILMED   .OHMM  : INDUCTION LOG MEDIUM RESISTIVITY
LL8ED   .OHMM  : 8 INCH LATEROLOG RESISTIVITY
MCALED  .IN    : CALIPER MICROLOG [AJD TO SPRED]
MRESWS  .OHMM  : MEDIUM RESISTIVITY [ILMED]
NPHILSED.V/V   : NEUTRON POROSITY LIMESTONE FROM DENSITY LOG [AJD TO ILDED]
NPOWS   .V/V   : NEUTRON POROSITY LIMESTONE [NPHILSED]
RHOBED  .G/C3  : BULK DENSITY FROM DENSITY LOG [AJD TO ILDED]
SFLED   .OHMM  : SPHERICALLY FOCUSED LOG RESISTIVITY [AJD TO ILDED]
SPMED   .MV    : SPONTANEOUS POTENTIAL FROM MICROLOGLOG [AJD TO SPRED]
SPRED   .MV    : SPONTANEOUS POTENTIAL FROM RESISTIVITY LOG
SPWS    .MV    : SPONTANEOUS POTENTIAL [BASELINE 0 MV] [SPRED]
SRESWS  .OHMM  : SHALLOW RESISTIVITY [SPL SFLED <14485> LL8ED]
TENDED  .LBF   : TENSION FROM DENSITY LOG
~Params ----------------------------------------------------
PD  .                     GL : PERMANENT DATUM
EPD .FT                  503 : ELEVATION PERMANENT DATUM
LMF .                     KB : LOG MEASURED FROM
DAPD.FT                   18 : FEET ABOVE PERMANENT DATUM
DMF .                     KB : DRILLING MEASURED FROM
EKB .FT                  521 : KELLY BUSHING
EDF .FT                  520 : DRILLING FLOOR
EGL .FT                  503 : GROUND LEVEL
DATE.               04/13/77 : RUN DATE
RUN .                      1 : RUN NUMBER
DD  .FT                15147 : DEPTH DRILLER
DL  .FT                15148 : DEPTH LOGGER
BLI .FT                15147 : BOTTOM LOG INTERVAL
TLI .FT                13098 : TOP LOG INTERVAL
CS  .IN                    7 : CASING SIZE
CBD .FT                13097 : CASING BOTTOM DRILLER
CBL .FT                13098 : CASING BOTTOM LOGGER
BS  .IN                    6 : BIT SIZE
BSD .FT                15147 : BIT SIZE AT DEPTH
DFT .               LOW LIME : DRILLING FLUID TYPE
DFD .                   15.7 : DRILLING FLUID DENSITY
DFV .                     48 : DRILLING FLUID VISCOSITY
DFPH.                   12.5 : DRILLING FLUID PH
DFL .                   10.8 : DRILLING FLUID LOSS
MSS .                    PIT : MUD SAMPLE SOURCE
RMS .OHMM               0.89 : RESISTIVITY MUD SAMPLE
MST .DEGF                 75 : MUD SAMPLE TEMPERATURE
RMF .OHMM               0.67 : RESISTIVITY MUD FILTRATE SAMPLE
MFST.DEGF                 75 : MUD FILTRATE SAMPLE TEMPERATURE
RMC .OHMM               0.34 : RESISTIVITY MUD CAKE
MCST.DEGF                 75 : MUD CAKE SAMPLE TEMPERATURE
MFSS.                      M : MUD FILTRATE SAMPLE SOURCE
MCSS.                      C : MUD CAKE SAMPLE SOURCE
RMB .OHMM               0.21 : RESISTIVITY MUD AT BHT
TCS .HRS                2000 : TIME CIRCULATED STOPPED
TLAB.HRS                 300 : TIME LOGGER AT BOTTOM
LUN .                   7659 : LOGGING UNIT NUMBER
LUL .                 DAYTON : LOGGING UNIT LOCATION
ENGI.          CHENAULT EAST : RECORDING ENGINEER
WITN.                  MILES : WITNESSED BY
CLNT.                A2DTECH : CLIENT CODE
ORIG.            2" 5" PRINT : ORIGIN OF DATA
UWI .         42289301060000 : UNIQUE WELL ID
DICO. A2D Technologies, Inc. : DIGITIZING COMPANY
~Other -----------------------------------------------------
~ASCII -----------------------------------------------------
# ...
 8300.00000    9.82240    9.82240  349.56480    0.00320    -999.25    2.51060    0.11660    0.11660    2.86070    -999.25    -999.25    -999.25   31.46840   31.46840    2.86070    3.96430    -999.25    9.93270    3.96430    0.09010    0.09010    2.49820   17.29070 -153.76050 -155.36010 -118.00580   17.29070  222.72520
 8350.00000   10.24520   10.24520  205.64280    0.05140    -999.25    2.59350    0.06810    0.06810    4.86280    -999.25    -999.25    -999.25   18.63720   18.63720    4.86280    5.17140    -999.25   10.08650    5.17140    0.07450    0.07450    2.57500   17.16860 -157.99830 -157.63730 -121.31740   17.16860  338.12350
 8400.00000   10.08060   10.08060   26.70470    0.01150    -999.25    2.68160    0.01660    0.01660   37.44660    -999.25    -999.25    -999.25   30.72940   30.72940   37.44660   50.92910    -999.25   10.10860   50.92910   -0.00500   -0.00500    2.67530   81.60610 -100.42910 -103.31580  -68.03030   81.60610  323.66250
 8450.00000   10.20770   10.20770   32.65310    0.01100    -999.25    2.68780    0.01300    0.01300   30.62500    -999.25    -999.25    -999.25   37.19830   37.19830   30.62500   41.77290    -999.25   10.06150   41.77290    0.02670    0.02670    2.66340   66.99730  -41.18570  -43.60280   -9.17970   66.99730  292.58670
 8500.00000    9.94400    9.94400   27.82910    0.02830    -999.25    2.67960    0.01780    0.01780   35.93360    -999.25    -999.25    -999.25   50.33280   50.33280   35.93360   38.01940    -999.25   10.01960   38.01940    0.01830    0.01830    2.67090   44.42800  -48.28600  -49.09970  -15.13760   44.42800  261.47700
 8550.00000   10.27120   10.27120  160.51880    0.06020    -999.25    2.64350    0.03890    0.03890    6.22980    -999.25    -999.25    -999.25   67.42560   67.42560    6.22980    6.90600    -999.25   10.20440    6.90600    0.11580    0.11580    2.63500    7.13820  -38.30080  -38.92460   -5.42350    7.13820  237.00070
 8600.00000   10.38770   10.38770   52.33360   -0.00790    -999.25    2.66330    0.02730    0.02730   19.10820    -999.25    -999.25    -999.25   54.14610   54.14610   19.10820   23.93860    -999.25   10.22150   23.93860    0.05690    0.05690    2.65810   35.27440  -35.32810  -36.73540   -3.69530   35.27440  283.09030
 8650.00000   11.75910   11.75910  341.54170    0.01530    -999.25    1.94100    0.44970    0.44970    2.92790    -999.25    -999.25    -999.25   88.40650   88.40650    2.92790    3.21890    -999.25   14.66470    3.21890    0.22090    0.22090    2.00140    4.62790  -41.50740  -40.80400   -8.22480    4.62790  358.17740
 8700.00000   12.82070   12.82070  270.39450    0.17980    -999.25    2.38270    0.19140    0.19140    3.69830    -999.25    -999.25    -999.25  102.76350  102.76350    3.69830    3.98200    -999.25   13.66650    3.98200    0.27560    0.27560    2.38140    4.46640  -35.34850  -36.37120   -4.25300    4.46640  346.27840
 8750.00000   12.34190   12.34190  192.89750    0.08520    -999.25    2.54430    0.09690    0.09690    5.18410    -999.25    -999.25    -999.25  105.59920  105.59920    5.18410    5.91750    -999.25   12.10420    5.91750    0.27550    0.27550    2.53240    5.72500  -36.58690  -37.28610   -5.62890    5.72500  212.54990
 8800.00000   10.25430   10.25430   64.00120    0.07670    -999.25    2.68300    0.01580    0.01580   15.62470    -999.25    -999.25    -999.25   57.55680   57.55680   15.62470   17.74440    -999.25   10.18510   17.74440    0.11310    0.11310    2.67360   55.30550  -40.50210  -40.76400   -9.32610   55.30550  263.21960
 8850.00000   10.31000   10.31000  117.47840    0.09320    -999.25    2.66090    0.02870    0.02870    8.51220    -999.25    -999.25    -999.25   54.36150   54.36150    8.51220    8.76110    -999.25   10.18140    8.76110    0.17820    0.17820    2.64160    9.37460  -32.72710  -34.07140   -2.71680    9.37460  250.96250
 8900.00000   13.26300   13.26300  348.78450    0.11030    -999.25    2.18610    0.30640    0.30640    2.86710    -999.25    -999.25    -999.25   91.75500   91.75500    2.86710    3.20170    -999.25   13.44840    3.20170    0.25980    0.25980    2.19850    4.03990  -39.38330  -41.21970   -9.94850    4.03990  277.37280
 8950.00000   10.24810   10.24810   23.84540   -0.01850    -999.25    2.65460    0.03240    0.03240   41.93680    -999.25    -999.25    -999.25   41.20170   41.20170   41.93680   63.80870    -999.25   10.06420   63.80870    0.02460    0.02460    2.65340   80.71380  -51.64410  -52.84060  -21.65270   80.71380  280.22710
 9000.00000   10.26090   10.26090   27.42330   -0.01270    -999.25    2.67260    0.02190    0.02190   36.46540    -999.25    -999.25    -999.25   72.48750   72.48750   36.46540   48.33980    -999.25   10.11710   48.33980    0.03250    0.03250    2.66440   77.76570  -55.90640  -55.42350  -24.31890   77.76570  292.30750
 9050.00000   10.12220   10.12220   19.55210   -0.02510    -999.25    2.63270    0.04520    0.04520   51.14530    -999.25    -999.25    -999.25   34.22030   34.22030   51.14530   67.83130    -999.25   10.10860   67.83130    0.03970    0.03970    2.62100   66.33480 -100.48610 -102.30250  -71.28130   66.33480  298.56340
 9100.00000   10.12290   10.12290   17.72450    0.00690    -999.25    2.68280    0.01590    0.01590   56.41900    -999.25    -999.25    -999.25   53.30570   53.30570   56.41900  103.68120    -999.25   10.10900  103.68120    0.03790    0.03790    2.67920  121.28030  -95.56170  -94.75380  -63.81590  121.28030  282.60990
 9150.00000   10.63480   10.63480   24.94130    0.02720    -999.25    2.64930    0.03550    0.03550   40.09420    -999.25    -999.25    -999.25   36.62970   36.62970   40.09420   68.25160    -999.25   10.01900   68.25160    0.00400    0.00400    2.68930   67.68500  -87.13070  -88.56800  -57.71340   67.68500  298.20360
 9200.00000   10.46260   10.46260   28.29530    0.00500    -999.25    2.66960    0.02360    0.02360   35.34160    -999.25    -999.25    -999.25   35.20560   35.20560   35.34160   54.45770    -999.25   10.09310   54.45770   -0.00490   -0.00490    2.65200  218.09880  -56.24910  -40.47480   -9.70350  218.09880  301.30480
 9250.00000   10.82720   10.82720  244.86400    0.03050    -999.25    2.08930    0.36300    0.36300    4.08390    -999.25    -999.25    -999.25   53.37440   53.37440    4.08390    3.42230    -999.25   10.54700    3.42230    0.14480    0.14480    2.41490    5.17610  -46.68990  -25.86050    4.82740    5.17610  323.81540
 9300.00000   10.59420   10.59420   81.27110   -0.02500    -999.25    2.59830    0.06530    0.06530   12.30450    -999.25    -999.25    -999.25   41.54950   41.54950   12.30450   13.03100    -999.25    9.98070   13.03100    0.06070    0.06070    2.64050   19.89370  -53.93420  -41.30090  -10.69630   19.89370  273.10710
 9350.00000   10.41270   10.41270  268.28350   -0.00810    -999.25    2.55830    0.08870    0.08870    3.72740    -999.25    -999.25    -999.25   64.82900   64.82900    3.72740    4.22460    -999.25   10.05820    4.22460    0.10390    0.10390    2.52520    6.65730  -68.51230  -54.72390  -24.20260    6.65730  304.85950
 9400.00000   11.01810   11.01810  234.54910    0.16570    -999.25    2.59320    0.06830    0.06830    4.26350    -999.25    -999.25    -999.25   81.87070   81.87070    4.26350    3.39410    -999.25    -999.25    3.39410    0.14130    0.14130    2.49860    6.49590    -999.25  -32.67870   -2.24080    6.49590  968.71340
 9450.00000   10.39360   10.39360  205.85030    0.01770    -999.25    2.43210    0.16250    0.16250    4.85790    -999.25    -999.25    -999.25   50.58400   50.58400    4.85790    5.46700    -999.25    -999.25    5.46700    0.06330    0.06330    -999.25    9.97060    -999.25  -73.08090  -42.72630    9.97060    -999.25
 9500.00000   12.09150   12.09150  236.75360   -0.02600    -999.25    2.55470    0.09080    0.09080    4.22380    -999.25    -999.25    -999.25   87.03140   87.03140    4.22380    4.80430    -999.25    -999.25    4.80430    0.11840    0.11840    -999.25    7.74980    -999.25  -33.33780   -3.06650    7.74980    -999.25
