~Version ---------------------------------------------------
VERS.      2.0 : CWLS log ASCII Standard -VERSION 2.0
WRAP.      YES : Multiple lines per depth step
CREA. 10/06/20 : LAS Creation Date
~Well ------------------------------------------------------
STRT.FT                 3150.0 : START DEPTH
STOP.FT                18400.0 : STOP DEPTH
STEP.FT               50.00000 : STEP LENGTH
NULL.                  -999.25 : NULL VALUE
COMP. AMOCO PRODUCTION COMPANY : COMPANY
WELL.       MARTIN GAS UNIT #1 : WELL
FLD .                  WILDCAT : FIELD
LOC .                          : LOCATION
CNTY.                     LEON : COUNTY
STAT.                    TEXAS : STATE
CTRY. UNITED STATES OF AMERICA : COUNTRY
SRVC.             Schlumberger : SERVICE COMPANY
DATE.              06-Oct-1998 : LOGDATE
API .           42289312900000 : API NUMBER
UWI .           42289312900000 : UNIQUE WELL ID
SLAT.WGS84       31.2448401024 : SURFACE LATITUDE
SLON.WGS84      -96.2384028977 : SURFACE LONGITUDE
~Curve Information -----------------------------------------
DEPT    .FT    : DEPTH FEET
AT20ED  .OHMM  : 20 INCH ARRAY RESISTIVITY TWO FOOT RESOLUTION FROM AIT LOG
AT30ED  .OHMM  : 30 INCH ARRAY RESISTIVITY TWO FOOT RESOLUTION FROM AIT LOG
AT60ED  .OHMM  : 60 INCH ARRAY RESISTIVITY TWO FOOT RESOLUTION FROM AIT LOG
AT90ED  .OHMM  : 90 INCH ARRAY RESISTIVITY TWO FOOT RESOLUTION FROM AIT LOG
BITSED  .IN    : BIT SIZE FROM RUN HEADERS
CALDED  .IN    : CALIPER FROM DENSITY LOG [DSH. TO GRRED]
CALWS   .IN    : CALIPER [TOP CALDED 14108' (DCALDED+BITSED) TD]
CONDWS  .MMHO  : DEEP CONDUCTIVITY [1000/DRESWS]
DCALDED .IN    : DIFFERENTIAL CALIPER FROM DENSITY LOG [DSH. TO GRRED]
DCORWS  .G/C3  : DENSITY CORRECTION [TOP DRHOED 16650' DRHED TD]
DENWS   .G/C3  : BULK DENSITY [CALC. FROM DPOLSWS]
DPHILSED.V/V   : DENSITY POROSITY (LS) [M=2.71 F=1.00] [DSH. TO GRRED]
DPOLSED .V/V   : DENSITY POROSITY (LS) [M=2.71 F=1.00] [DSH. TO GRRED]
DPOLSWS .V/V   : DENSITY POROSITY (LS) [M=2.71 F=1.00] [TOP DPHILSED 16650' DPOLSED TD]
DRESWS  .OHMM  : DEEP RESISTIVITY [TOP AT90ED 14100' ILDED 16650' IDPHED TD]
DRHED   .G/C3  : DENSITY CORRECTION FROM DENSITY LOG [DSH. TO GRRED]
DRHOED  .G/C3  : DENSITY CORRECTION FROM DENSITY LOG [DSH. TO GRRED]
DTCOED  .US/F  : DELTA TIME COMPRESSIONAL FROM SONIC LOG
DTLFED  .US/F  : DELTA TIME LONG SPACING FAR DETECTOR FROM SONIC LOG
DTLNED  .US/F  : DELTA TIME LONG SPACING NEAR DETECTOR FROM SONIC LOG
DTSMED  .US/F  : DELTA TIME SHEAR WAVE FROM SONIC LOG
DTSWS   .US/F  : DELTA TIME SHEAR [DTSMED]
DTWS    .US/F  : DELTA TIME COMPRESSIONAL [TOP DTCOED 16650' DTLNED TD]
GRDED   .GAPI  : GAMMA RAY FROM DENSITY LOG [DSH. TO GRRED]
GRRED   .GAPI  : GAMMA RAY FROM RESISTIVITY LOG
GRWS    .GAPI  : GAMMA RAY [GRRED][RESCALED GRWS IN CSG )14030-14106' & 16606-16645') FROM 0/90-0/150]
IDPHED  .OHMM  : DEEP INDUCTION PHASE RESISTIVITY
ILDED   .OHMM  : DEEP INDUCTION RESISTIVITY
ILMED   .OHMM  : MEDIUM INDUCTION RESISTIVITY
IMPHED  .OHMM  : MEDIUM INDUCTION PHASE RESISTIVITY
MRESWS  .OHMM  : MEDIUM RESISTIVITY [TOP AT30ED 14100' ILMED 16650' IMPHED TD]
NPHILSED.V/V   : NEUTRON POROSITY (LS) [DSH. TO GRRED]
NPOLSWS .V/V   : NEUTRON POROSITY (LS) [NPHILSED]
PEFED   .B/E   : PHOTOELECTRIC FACTOR FROM DENSITY LOG [DSH. TO GRRED]
PEFWS   .B/E   : PHOTOELECTRIC FACTOR [PEFED]
SFLUED  .OHMM  : SPHERICALLY FOCUSED UNAVERAGED RESISTIVITY
SPWS    .MV    : SPONTANEOUS POTENTIAL [BASELINE 0 MV] [SPRED]
SPRED   .MV    : SPONTANEOUS POTENTIAL FROM RESISTIVITY LOG
SRESWS  .OHMM  : SHALLOW RESISTIVITY [TOP AT20ED 14100' SFLUED TD]
TENDED  .LBF   : TENSION FROM DENSITY LOG [DSH. TO GRRED]
TENRED  .LBF   : TENSION FROM RESISTIVITY LOG
~Params ----------------------------------------------------
PD  .                     GL : PERMANENT DATUM
EPD .FT                389.3 : ELEVATION PERMANENT DATUM
LMF .                     KB : LOG MEASURED FROM
DAPD.FT                 33.7 : MEASUREMENT ABOVE PERMANENT DATUM
DMF .                     KB : DRILLING MEASURED FROM
EKB .FT                  423 : KELLY BUSHING
EDF .FT                  422 : DRILLING FLOOR
EGL .FT                389.3 : GROUND LEVEL
DATE.               10/06/98 : RUN DATE
RUN .                      3 : RUN NUMBER
DD  .FT                18400 : DEPTH DRILLER
DL  .FT                18391 : DEPTH LOGGER
BLI .FT                18381 : BOTTOM LOG INTERVAL
TLI .FT                16646 : TOP LOG INTERVAL
CS  .IN                7.625 : CASING SIZE
CBD .FT                16650 : CASING BOTTOM DRILLER
CBL .FT                16646 : CASING BOTTOM LOGGER
BS  .IN                 6.25 : BIT SIZE
BSD .FT                18400 : BIT SIZE AT DEPTH
DFT .             VERSADRILL : DRILLING FLUID TYPE
DFD .                   17.9 : DRILLING FLUID DENSITY
DFV .                     45 : DRILLING FLUID VISCOSITY
MSS .                MUD PIT : MUD SAMPLE SOURCE
MFSS.                   CALC : MUD FILTRATE SAMPLE SOURCE
MCSS.                   CALC : MUD CAKE SAMPLE SOURCE
TCS .HRS                 830 : TIME CIRCULATED STOPPED
TLAB.HRS                2357 : TIME LOGGER AT BOTTOM
LUN .                   2142 : LOGGING UNIT NUMBER
LUL .                  TYLER : LOGGING UNIT LOCATION
ENGI.                SKRBICH : RECORDING ENGINEER
WITN.       WALKER WYSZYNSKI : WITNESSED BY
CLNT.                A2DTECH : CLIENT CODE
ORIG.         1" 2" 5" PRINT : ORIGIN OF DATA
UWI .         42289312900000 : UNIQUE WELL ID
DICO. A2D Technologies, Inc. : DIGITIZING COMPANY
~Other -----------------------------------------------------
1) RESISTIVITY INVALID 14360-14404', 15400-15475 NULLED (REPEAT LOG N/A). PATCHED FROM REPEAT LOG 15950-15980' & 16590-16645'.
2) GRRED PATCHED FROM REPEAT LOG 15400-15500 & 16550-16606'.
3) SONIC NOT LOGGED 14100-16650' AND ERRATIC ON SOME AREAS ABOVE 6300' WITH SOME GAPS AND SPIKES HENCE PATCHED SOME SMALL AREAS.
4) LDL/CNL STICKING TOOL ENTIRE RUN2 - NULLED PEF INVALID @ 15410-15625' & 15730-15410', PATCHED DENSITY@16025-16040', PATCHED NEUTRON@14295-14320' & PATCHED GRDED@VARIOUS DEPTHS BASED ON GRRED. ANY DOUBTS, PLEASE REFER TO ORIGINAL CURVES IN STANDARD LAS. STICKING TOOL MAY SLIGHTLY AFFECT LOG QUALITY ON OTHER AREAS, PLEASE USE WITH CAUTIONS.
~ASCII -----------------------------------------------------
 3150.00000    -999.25    -999.25    -999.25    -999.25    -999.25    -999.25    -999.25    -999.25    -999.25    -999.25    -999.25    -999.25    -999.25    -999.25    -999.25    -999.25    -999.25    -999.25    -999.25    -999.25    -999.25    -999.25    -999.25    -999.25   31.60430   31.60430    -999.25    -999.25    -999.25    -999.25    -999.25    -999.25    -999.25    -999.25    -999.25    -999.25    -999.25    -999.25    -999.25    -999.25    -999.25
 3200.00000    -999.25    -999.25    -999.25    -999.25    -999.25    -999.25    -999.25    -999.25    -999.25    -999.25    -999.25    -999.25    -999.25    -999.25    -999.25    -999.25    -999.25  117.99270    -999.25    -999.25  158.49460  158.49460  117.99270    -999.25   35.26170   35.26170    -999.25    -999.25    -999.25    -999.25    -999.25    -999.25    -999.25    -999.25    -999.25    -999.25    -999.25    -999.25    -999.25    -999.25    -999.25
 3250.00000    -999.25    -999.25    -999.25    -999.25    -999.25    -999.25    -999.25    -999.25    -999.25    -999.25    -999.25    -999.25    -999.25    -999.25    -999.25    -999.25    -999.25  113.86050    -999.25    -999.25  156.77820  156.77820  113.86050    -999.25   30.54830   30.54830    -999.25    -999.25    -999.25    -999.25    -999.25    -999.25    -999.25    -999.25    -999.25    -999.25    -999.25    -999.25    -999.25    -999.25    -999.25
 3300.00000    -999.25    -999.25    -999.25    -999.25    -999.25    -999.25    -999.25    -999.25    -999.25    -999.25    -999.25    -999.25    -999.25    -999.25    -999.25    -999.25    -999.25  113.55400    -999.25    -999.25    -999.25    -999.25  113.55400    -999.25   36.49990   36.49990    -999.25    -999.25    -999.25    -999.25    -999.25    -999.25    -999.25    -999.25    -999.25    -999.25    -999.25    -999.25    -999.25    -999.25    -999.25
 3350.00000    -999.25    -999.25    -999.25    -999.25    -999.25    -999.25    -999.25    -999.25    -999.25    -999.25    -999.25    -999.25    -999.25    -999.25    -999.25    -999.25    -999.25  100.03330    -999.25    -999.25    -999.25    -999.25  100.03330   40.42290   33.30900   33.30900    -999.25    -999.25    -999.25    -999.25    -999.25    -999.25    -999.25    -999.25    -999.25    -999.25    -999.25    -999.25    -999.25    -999.25    -999.25
 3400.00000    -999.25    -999.25    -999.25    -999.25    -999.25    -999.25    -999.25    -999.25    -999.25    -999.25    -999.25    -999.25    -999.25    -999.25    -999.25    -999.25    -999.25   91.98980    -999.25    -999.25  135.38590  135.38590   91.98980   30.81570   31.37120   31.37120    -999.25    -999.25    -999.25    -999.25    -999.25    0.50640    0.50640    -999.25    -999.25    -999.25    -999.25    -999.25    -999.25    -999.25    -999.25
 3450.00000    0.96680    1.02890    1.08170    1.12090   12.25000   15.02190   15.02190  892.14020    -999.25    0.00400    2.01160    0.40840    -999.25    0.40840    1.12090    -999.25    0.00400   59.16810    -999.25    -999.25  106.71410  106.71410   59.16810   52.21610   48.60050   48.60050    -999.25    -999.25    -999.25    -999.25    1.02890    0.42320    0.42320    4.12960    4.12960    -999.25   -6.18970  -77.35170    0.96680 2035.09630 1967.50780
 3500.00000    0.73200    0.78890    0.93620    0.98560   12.25000   19.61670   19.61670 1014.61040    -999.25    0.02620    -999.25    -999.25    -999.25    -999.25    0.98560    -999.25    0.02620   70.32560    -999.25    -999.25  119.83390  119.83390   70.32560   53.06580   46.67780   46.67780    -999.25    -999.25    -999.25    -999.25    0.78890    0.36570    0.36570    3.81290    3.81290    -999.25   -2.73220  -70.20860    0.73200 1981.31140 2078.06420
 3550.00000    1.01770    1.15230    1.43010    1.54240   12.25000   20.94670   20.94670  648.34020    -999.25   -0.00630    2.16470    0.31890    -999.25    0.31890    1.54240    -999.25   -0.00630   76.32490    -999.25    -999.25  141.55420  141.55420   76.32490   70.56060   54.39070   54.39070    -999.25    -999.25    -999.25    -999.25    1.15230    0.41160    0.41160    3.82350    3.82350    -999.25   -9.15170  -72.94250    1.01770 2025.40080 2088.36790
 3600.00000    0.68900    0.77130    0.89300    0.99180   12.25000   20.93930   20.93930 1008.26780    -999.25    0.00550    2.04670    0.38790    -999.25    0.38790    0.99180    -999.25    0.00550   86.74220    -999.25    -999.25  129.46200  129.46200   86.74220   71.03960   56.49200   56.49200    -999.25    -999.25    -999.25    -999.25    0.77130    0.40620    0.40620    7.05470    7.05470    -999.25   -5.12830  -64.86330    0.68900 1994.03000 2107.64010
 3650.00000    0.91850    1.00480    1.20780    1.31260   12.25000   20.40220   20.40220  761.84670    -999.25   -0.01200    2.23290    0.27900    -999.25    0.27900    1.31260    -999.25   -0.01200   61.24230    -999.25    -999.25  109.67800  109.67800   61.24230   77.82370   74.80460   74.80460    -999.25    -999.25    -999.25    -999.25    1.00480    0.33200    0.33200    3.43830    3.43830    -999.25   -6.13690  -61.32530    0.91850 2026.28260 2178.06880
 3700.00000    0.80300    0.90140    1.02500    1.12950   12.25000   20.48800   20.48800  885.34750    -999.25   -0.00730    2.12720    0.34080    -999.25    0.34080    1.12950    -999.25   -0.00730   70.76000    -999.25    -999.25  129.41500  129.41500   70.76000   73.85560   72.74920   72.74920    -999.25    -999.25    -999.25    -999.25    0.90140    0.36790    0.36790    7.41850    7.41850    -999.25   -7.14090  -57.78280    0.80300 2022.91660 2224.50460
 3750.00000    0.90500    0.98840    1.12750    1.24950   12.25000   20.96880   20.96880  800.32010    -999.25   -0.01480    2.20910    0.29290    -999.25    0.29290    1.24950    -999.25   -0.01480   58.93900    -999.25    -999.25  100.52230  100.52230   58.93900   71.07580   67.23320   67.23320    -999.25    -999.25    -999.25    -999.25    0.98840    0.34320    0.34320    3.76700    3.76700    -999.25   -3.78180  -49.59640    0.90500 2002.06420 2195.28660
 3800.00000    0.74790    0.78930    0.93010    0.96050   12.25000   20.94640   20.94640 1041.12440    -999.25   -0.00010    2.17530    0.31270    -999.25    0.31270    0.96050    -999.25   -0.00010   80.59380    -999.25    -999.25  128.96110  128.96110   80.59380  101.52180   98.85120   98.85120    -999.25    -999.25    -999.25    -999.25    0.78930    0.33860    0.33860    3.97100    3.97100    -999.25   -1.93030  -41.54690    0.74790 2007.84170 2184.20700
 3850.00000    1.01960    1.07030    1.23020    1.26140   12.25000   20.92710   20.92710  792.76990    -999.25    0.04610    2.29860    0.24060    -999.25    0.24060    1.26140    -999.25    0.04610   55.69270    -999.25    -999.25  115.63520  115.63520   55.69270   82.84350   77.86950   77.86950    -999.25    -999.25    -999.25    -999.25    1.07030    0.32760    0.32760    6.39670    6.39670    -999.25   -6.59950  -40.01810    1.01960 2023.04250 2282.28200
 3900.00000    0.90140    1.02050    1.08590    1.11480   12.25000   20.26330   20.26330  897.02190    -999.25   -0.00130    2.25340    0.26700    -999.25    0.26700    1.11480    -999.25   -0.00130   53.71470    -999.25    -999.25  108.68170  108.68170   53.71470   81.02910   82.83570   82.83570    -999.25    -999.25    -999.25    -999.25    1.02050    0.34120    0.34120    4.10540    4.10540    -999.25   -7.23110  -37.69980    0.90140 1989.78040 2318.59500
 3950.00000    0.89430    0.99060    1.28790    1.32460   12.25000   20.44210   20.44210  754.94490    -999.25   -0.01190    2.13360    0.33710    -999.25    0.33710    1.32460    -999.25   -0.01190   74.95760    -999.25    -999.25  121.53350  121.53350   74.95760   74.40170   68.45500   68.45500    -999.25    -999.25    -999.25    -999.25    0.99060    0.34360    0.34360    3.70190    3.70190    -999.25   -6.07120  -34.85330    0.89430 2017.53410 2276.48100
 4000.00000    0.77470    0.83480    0.98980    1.00600   12.25000   16.95860   16.95860  994.03580    -999.25   -0.01610    2.17440    0.31320    -999.25    0.31320    1.00600    -999.25   -0.01610   76.43690    -999.25    -999.25  123.29210  123.29210   76.43690   78.60990   62.15850   62.15850    -999.25    -999.25    -999.25    -999.25    0.83480    0.37690    0.37690    3.36700    3.36700    -999.25   -4.96860  -32.06400    0.77470 2011.09130 2323.67530
