~Version ---------------------------------------------------
VERS. 2.0 : CWLS log ASCII Standard -VERSION 2.0
WRAP.  NO : ONE LINE PER DEPTH STEP
~Well ------------------------------------------------------
STRT.F                  2450.0 : START DEPTH
STOP.F                  8400.0 : STOP DEPTH
STEP.F                50.00000 : STEP LENGTH
NULL.                  -999.25 : NULL VALUE
COMP.      CANUS PETROLEUM INC : COMPANY
WELL.  GARNER RANCH DEEP #1-53 : WELL
FLD .                       WC : FIELD
LOC .                          : LOCATION
CNTY.                   DIMMIT : COUNTY
STAT.                    TEXAS : STATE
CTRY. UNITED STATES OF AMERICA : COUNTRY
SRVC.             Schlumberger : SERVICE COMPANY
DATE.              30-Dec-1977 : LOGDATE
API .           42127316180000 : API NUMBER
UWI .           42127316180000 : UNIQUE WELL ID
SLAT.WGS84       28.3600084245 : SURFACE LATITUDE
SLON.WGS84      -99.8483116297 : SURFACE LONGITUDE
~Curve Information -----------------------------------------
DEPT.F                 : 
SPR .MV   07 010 01 00 : SPONTANEOUS POTENTIAL
CILD.MMHO 07 110 46 00 : CONDUCTIVITY INDUCTION LOG DEEP
DPHI.DEC  45 890 12 00 : DENSITY POROSITY SANDSTONE
NPHI.DEC  42 890 03 00 : NEUTRON POROSITY SANDSTONE
CALD.IN   45 280 60 00 : CALIPER FROM DENSITY LOG
GRD .GAPI 45 310 01 00 : GAMMA RAY FROM DENSITY LOG
CORR.G/C3 45 356 01 00 : DENSITY CORRECTION
RHOB.G/C3 45 350 01 00 : BULK DENSITY
ILD .OHMM 07 120 46 00 : INDUCTION LOG DEEP
LL8 .OHMM 07 220 08 00 : LATEROLOG-8 RES.
~Params ----------------------------------------------------
PD  .                     GL : PERMANENT DATUM
EPD .F                   619 : ELEVATION PERMANENT DATUM
LMF .                     KB : LOG MEASURED FROM
DAPD.F                    14 : FEET ABOVE PERMANENT DATUM
DMF .                     KB : DRILLING MEASURED FROM
EKB .F                   633 : KELLING BUSHING
EDF .F                   632 : DRILLING FLOOR
EGL .F                   619 : GROUND LEVEL
DATE.            30-DEC-1977 : RUN DATE
RUN .                      1 : RUN NUMBER
DD  .F                  8400 : DEPTH DRILLER
DL  .F                  8422 : DEPTH LOGGER
BLI .F                  8416 : BOTTOM LOG INTERVAL
TLI .F                  2431 : TOP LOG INTERVAL
CS  .IN                8.625 : CASING SIZE
CBD .F                  2420 : CASING BOTTOM DRILLER
CBL .F                  2431 : CASING BOTTOM LOGGER
BS  .IN                7.875 : BIT SIZE
BSD .F                  8400 : BIT SIZE AT DEPTH
DFT .              LIGNOSULF : DRILLING FLUID TYPE
DFD .                    9.6 : DRILLING FLUID DENSITY
DFV .                     40 : DRILLING FLUID VISCOSITY
DFPH.                    9.0 : DRILLING FLUID PH
DFL .                    9.5 : DRILLING FLUID LOSS
MSS .                    PIT : MUD SAMPLE SOURCE
RMS .OHMM               1.53 : RESISTIVITY MUD SAMPLE
MST .F                    68 : MUD SAMPLE TEMPERATURE
RMF .OHMM               1.39 : RESISTIVITY MUD FILTRATE SAMPLE
MFST.F                    68 : MUD FILTRATE SAMPLE TEMPERATURE
RMB .OHMM               0.68 : RESISTIVITY MUD AT BHT
TCS .HRS                 100 : TIME CURCULATED STOPPED
TLAB.HRS                 600 : TIME LOGGER AT BOTTOM
LUN .                   7739 : LOGGING UNIT NUMBER
LUL .                 LAREDO : LOGGING UNIT LOCATION
ENGI.                HARILEY : RECORDING ENGINEER
WITN.                   DUNN : WITNESSED BY
CLNT.                A2DTECH : CLIENT CODE
ORIG.           2", 5" PRINT : ORIGIN OF DATA
UWI .         42127316180000 : UNIQUE WELL ID
DICO. A2D Technologies, Inc. : DIGITIZING COMPANY
~Other -----------------------------------------------------
~ASCII -----------------------------------------------------
 2450.00000  -10.07520  465.62620    0.44490    0.55820   13.01810   57.75170    0.06110    1.74120    1.53210    2.47510
 2500.00000  -15.63910  593.70320    0.43570    0.44060   11.35370   72.32440    0.03410    2.00900    1.61910    2.20050
 2550.00000  -41.37880  104.44680    0.08510    0.12290    9.44130   23.92860    0.03040    2.65570    8.95580   11.83610
 2600.00000  -28.87220  123.43990    0.12850    0.18650   10.57830   46.05770    0.02440    2.49060    8.46700    9.31140
 2650.00000  -26.54140   99.70010    0.07090    0.13600   10.46880   39.57900    0.02660    2.58660   12.10380   12.99850
 2700.00000  -23.60900  137.93100    0.07550    0.15910   10.54620   43.35830    0.03190    2.56340    7.79610   10.07500
 2750.00000  -24.81200  129.68520    0.06880    0.18980   10.36100   50.01500    0.07010    2.59110    8.59070   11.10940
 2800.00000  -18.79710  203.89810    0.04960    0.22650   10.30720   61.88950    0.05960    2.57320    5.09750    6.82170
 2850.00000  -25.56390  112.44380    0.05800    0.18900    9.55420   43.87640    0.03290    2.56850   10.12990   11.66410
 2900.00000  -48.57140  104.94750    0.12090    0.16480    9.05720   23.76230    0.06870    2.48410   10.07500   27.01650
 2950.00000  -21.42860  191.15560    0.03980    0.21480   10.30730   61.24550    0.03190    2.59490    5.36730    6.71160
 3000.00000  -23.15790  188.90550    0.08370    0.24760    8.90860   61.34930    0.03260    2.51390    5.48730    6.59670
 3050.00000  -21.35310  176.63320    0.16020    0.25350    9.21410   62.60930    0.06520    2.53780    6.50160   10.37980
 3100.00000  -20.30080  167.90330    0.08970    0.25230    9.60650   64.76790    0.09150    2.52140    6.36680    8.81560
 3150.00000  -22.03010  195.06730    0.09470    0.21620    9.75000   57.93100    0.14360    2.51800    5.51720    6.96740
 3200.00000  -21.65380  191.33030    0.08670    0.26160    9.24920   60.09080    0.09450    2.53790    5.44740    6.49620
 3250.00000  -20.97740  281.76460    0.34110    0.30740   11.60240   66.92610    0.23950    2.12380    3.50820    4.42100
 3300.00000  -20.97660  247.13530    0.28860    0.27150   10.53310   62.96850    0.23510    2.22660    4.16790    5.32330
 3350.00000  -20.37600  326.10980    0.29140    0.33410   11.27100   63.50970    0.22760    2.14700    3.10340    3.75940
 3400.00000  -18.64660  330.34380    0.38280    0.37710   10.94050   57.57120    0.19990    2.00660    2.96850    3.75960
 3450.00000  -20.00000  298.95370    0.34240    0.31440   11.33130   63.86780    0.22010    2.10950    3.32330    4.55640
 3500.00000  -19.99810  319.86470    0.29800    0.32220   11.14600   71.24440    0.18840    2.18680    3.17290    3.94990
 3550.00000  -21.30330  426.50720    0.30430    0.36990   12.46390   70.52490    0.19140    2.20100    2.28070    2.99750
 3600.00000  -22.02970  351.84900    0.27500    0.31230   11.21080   72.77280    0.21270    2.21830    2.88720    3.84960
 3650.00000  -22.03010  254.85920    0.30540    0.27340   10.54820   60.44980    0.20290    2.10500    4.00500    4.92230
 3700.00000  -23.45860  202.08240    0.24680    0.23640    9.42780   61.88910    0.02280    2.28660    4.99250    6.01500
 3750.00000  -22.63160  269.05830    0.20240    0.28930   11.57240   62.60880    0.25710    2.39240    3.90980    4.74190
 3800.00000  -23.48130  181.91940    0.08740    0.19150   10.11140   67.10640    0.26350    2.48990    5.88590    7.89400
 3850.00000  -27.17080  216.74140    0.13600    0.24130    9.71710   61.11030    0.14610    2.50560    4.74470    5.88590
 3900.00000  -23.35330  234.66440    0.18210    0.25300   10.80940   66.56640    0.26300    2.34510    4.35440    5.57370
 3950.00000  -27.76930  213.75190    0.10170    0.19100    9.67470   50.19580    0.03030    2.54390    4.93990    5.93090
 4000.00000  -29.94010  288.49030    0.19440    0.22330    9.41050   47.85610    0.06680    2.41570    3.60360    4.97340
 4050.00000  -20.48400  405.08220    0.68950    0.54340   18.36450   61.52920    0.11170    1.67520    2.64270    2.86790
 4100.00000  -19.91020  600.76150    0.61530    0.50260   15.67870   54.33280    0.09300    1.99780    1.51650    1.87180
 4150.00000  -27.24550  170.40920    0.11890    0.26250   10.24700   78.44090    0.21970    2.32390    5.91090    7.31230
 4200.00000  -23.10420  170.65870    0.20060    0.29390    8.90660   57.03150    0.03860    2.55140    6.06610    7.33480
 4250.00000  -37.45010  234.28140    0.13150    0.20310    9.52410   47.31630    0.04100    2.48970    4.36430    7.10580
 4300.00000  -36.10280  297.76010    0.18530    0.28490    9.30900   52.53400    0.07560    2.39910    3.39340    5.08980
 4350.00000  -26.72160  131.91350    0.11420    0.19340    8.93230   56.85300    0.06560    2.51310    7.91780   11.08110
 4400.00000  -22.68000  213.00490    0.39280    0.31640   11.11280   57.93160    0.14400    2.14780    4.91880    7.06760
 4450.00000  -21.23260  240.28460    0.33230    0.33980   10.97740   66.20810    0.20470    2.34970    4.38440    4.88990
 4500.00000  -20.95810  278.52630    0.26880    0.34070   10.49520   72.32380    0.20800    2.29780    3.72370    4.32430
 4550.00000  -19.38620  385.65020    0.36410    0.39280   13.63550   69.80510    0.19770    2.04350    2.41740    3.12310
 4600.00000  -21.10780  231.44000    0.19650    0.25750    9.37350   66.38680    0.17530    2.34510    4.49580    5.58560
 4650.00000  -22.57980  220.97740    0.09820    0.24190    9.05720   57.48090    0.11490    2.55890    4.65970    6.15620
 4700.00000  -19.61080  310.91180    0.30620    0.36440   12.07110   66.92650    0.21560    2.22690    3.16310    4.26430
 4750.00000  -17.66470  242.89990    0.15540    0.28380   11.99670   71.88800    0.18500    2.41110    4.11410    5.37540
 4800.00000  -20.80840  300.44840    0.24220    0.35290   11.73800   83.47850    0.19620    2.25210    3.32330    4.02400
 4850.00000  -20.55880  259.34230    0.20040    0.28270   10.98510   75.02310    0.19920    2.33080    3.91390    5.03000
 4900.00000  -20.89830  258.28960    0.09960    0.21840   10.53310   86.91780    0.26570    2.42920    3.78380    5.28530
 4950.00000  -19.13680  286.99550    0.13320    0.25800   12.11450   86.89680    0.22160    2.42540    3.55360    4.59960
 5000.00000  -20.36110  264.56960    0.04660    0.23960   11.29430   82.57900    0.17450    2.55960    3.75380    5.10510
 5050.00000  -22.33040  226.45740    0.02790    0.20350   10.41090   71.78410    0.06630    2.55890    4.52950    6.05110
 5100.00000  -22.90420  231.68910    0.06980    0.20970   10.38250   85.63840    0.26420    2.51690    4.32430    5.33550
 5150.00000  -21.85630  239.16450    0.11830    0.22760   10.41400   80.60090    0.16750    2.56400    4.10910    5.66560
 5200.00000  -21.40720  278.02030    0.15240    0.24520   11.06020   84.91810    0.06990    2.42100    3.75380    4.89580
 5250.00000  -21.10780  307.67320    0.14250    0.28540   11.69280   76.10270    0.20290    2.43080    3.16820    4.19420
 5300.00000  -22.30540  245.14200    0.05170    0.21580   10.44270   73.22490    0.10800    2.57540    4.14410    5.52550
 5350.00000  -20.35930  263.82660    0.06200    0.20760   10.90050   79.70190    0.03920    2.53260    3.91890    5.15010
 5400.00000  -20.98950  278.44310    0.08220    0.24970   10.84980   80.00000    0.05990    2.50560    3.60900    4.70760
 5450.00000  -20.09000  248.50300    0.07150    0.22610   10.30930   77.29730    0.04340    2.58440    4.09020    5.35230
 5500.00000  -22.48880  268.96420    0.15280    0.25660   12.25610   77.47720    0.26270    2.41680    3.75940    4.98750
 5550.00000  -52.48120  220.39820    0.06770    0.21750   10.39940   77.83780    0.06060    2.58970    3.92890    5.99700
 5600.00000  -53.17870  227.61190    0.06790    0.21280   10.12910   71.26160    0.04490    2.55020    3.75380    5.25500
 5650.00000  -51.12780  268.28400    0.12230    0.17340   10.97000   76.39670    0.14670    2.42910    3.00300    4.64770
 5700.00000  -50.24880  255.75390    0.08040    0.19220    9.70470   71.41150    0.00970    2.56310    3.45350    4.64770
