~Version ---------------------------------------------------
VERS. 2.0 : CWLS log ASCII Standard -VERSION 2.0
WRAP.  NO : ONE LINE PER DEPTH STEP
~Well ------------------------------------------------------
STRT.F                   750.0 : START DEPTH
STOP.F                  6950.0 : STOP DEPTH
STEP.F                50.00000 : STEP LENGTH
NULL.                  -999.25 : NULL VALUE
COMP.       GALAXY OIL COMPANY : COMPANY
WELL.            EALEN BRAY #3 : WELL
FLD .              ROCKY CREEK : FIELD
LOC .                          : LOCATION
CNTY.                   DIMMIT : COUNTY
STAT.                    TEXAS : STATE
CTRY. UNITED STATES OF AMERICA : COUNTRY
SRVC.             Schlumberger : SERVICE COMPANY
DATE.              25-Mar-1977 : LOGDATE
API .           42127311880000 : API NUMBER
UWI .           42127311880000 : UNIQUE WELL ID
SLAT.WGS84        28.566060947 : SURFACE LATITUDE
SLON.WGS84       -99.941865568 : SURFACE LONGITUDE
~Curve Information -----------------------------------------
DEPT.F                 : 
NPHI.DEC  42 890 03 00 : NEUTRON POROSITY SANDSTONE.
GRD .GAPI 45 310 01 00 : GAMMA RAY DENSITY
CALD.IN   45 280 60 00 : CALIPER DENSITY
DRHO.G/C3 45 356 01 00 : DENSITY CORRECTION
RHOB.G/C3 45 350 01 00 : BULK DENSITY
SP  .MV   99 010 01 00 : SELF POTENTIAL
LL8 .OHMM 07 220 08 00 : LATEROLOG-8 RES.
ILD .OHMM 07 120 46 00 : DEEP INDUCTION RESISTIVITY
CILD.MMHO 07 110 46 00 : CONDUCTIVITY INDUCTION LOG DEEP
~Params ----------------------------------------------------
EKB .F                   657.18 : KELLY BUSHING
EGL .F                   642.68 : ELEVATION GROUND LEVEL
EDF .F                   656.18 : ELEVATION DERRICK FLOOR
EPD .F                   642.68 : ELEVATION PERMANENT DATUM
TD  .F                   6953.0 : TOTAL DEPTH
DATE.               25-MAR-1977 : DATE LOGGED
CLNT.                   A2DTECH : CLIENT CODE
SL  .    600' FSEL & 5670' FSWL : SURFACE LOCATION
PD  .                        GL : PERMANENT DATUM
LMF .                        KB : LOG MEASURED FROM
DMF .                        KB : DRILLING MEASURED FROM
DAPD.F                     14.5 : FEET ABOVE PERMANENT DATUM
DD  .F                     6950 : DEPTH DRILLER
DL  .F                     6953 : DEPTH LOGGER
BLI .F                     6952 : BOTTOM LOG INTERVAL
TLI .F                     3950 : TOP LOG INTERVAL
CS1 .IN                   8.625 : CASING SIZE
CBD1.             8.625" @ 721' : CASING DRILLER 1
BS1 .IN                   7.875 : BIT SIZE
BSD1.F                     6953 : DEPTH DRILLED WITH BIT1
DFT .           LIGHTLY TREATED : TYPE FLUID IN HOLE
DFD .                       9.6 : DENSITY
DFV .                        40 : VISCOSITY
DFPH.                       8.0 : PH
DFL .                       6.4 : FLUID LOSS
MSS .                  MUD TANK : SOURCE OF SAMPLE
RMS .OHMM                  2.41 : RM
RMF .OHMM                  2.26 : RMF
MFSS.                      MEAS : SOURCE RMF.
RMB .OHMM                  1.09 : RM. AT BHT
BHT .F                      172 : BHT.
TCS .HRS                   1900 : TIME CIRC. STOPPED
TLAB.HRS                    300 : TIME LOGGER AT BOTTOM
LUN .                      7739 : LOGGING UNIT NUMBER
LUL .                    LAREDO : LOGGING UNIT LOCATION
ENGI.                   STECKER : RECORDED BY
WITN. MR. ELLIOTT & MR. GERWICK : WITNESSED BY
ORIG.                2.5" PRINT : ORIGIN OF DATA
UWI .            42127311880000 : UNIQUE WELL ID
DICO.    A2D TECHNOLOGIES, INC. : DIGITIZING COMPANY
~Other -----------------------------------------------------
~ASCII -----------------------------------------------------
# ...
 4400.00000    0.07960   30.09410    9.42600    0.01540    2.51390  -73.25000   18.89200   11.82700   79.55100
 4450.00000    0.03520   22.45430    9.45690    0.00380    2.68010  -72.66600   25.70900   20.60500   48.41900
 4500.00000    0.05080   26.38780    9.64180    0.10150    2.57570  -72.91200   42.79400   38.24200   29.81100
 4550.00000    0.05930   30.32670    9.14810    0.02380    2.57030  -72.44600   13.51700   13.27000  103.75500
 4600.00000    0.03980   23.15080    9.30250   -0.00290    2.62680  -75.40600   55.22900   33.39900   29.63500
 4650.00000    0.04910   25.23040    9.34880    0.02080    2.67000  -72.47000   41.91800   33.81700   34.14600
 4700.00000    0.05040   16.66560    9.27150    0.00460    2.66070  -73.41200   31.72300   23.66300   45.29000
 4750.00000    0.07080   24.30560    9.10190   -0.00770    2.65300  -79.52200   32.17500   24.11000   41.50200
 4800.00000    0.05470   16.66670    8.99380   -0.01080    2.62980  -81.49400   21.97400   18.11400   53.36000
 4850.00000    0.05420   14.81410    9.02470    0.00380    2.68550  -78.54000   28.04100   22.13500   47.43100
 4900.00000    0.06760   18.51700    9.08640   -0.00310    2.61280  -81.43400   19.46000   15.92000   64.22900
 4950.00000    0.06940   46.06480    9.02470   -0.00460    2.59120  -76.26600   27.60000   21.43300   46.44300
 5000.00000    0.07780   51.38700    9.05560    0.00460    2.62730  -64.83800    -999.25   36.12400   34.14500
 5050.00000    0.05950   52.54610    9.20990    0.01540    2.60970  -67.97800    -999.25    -999.25   10.47400
 5100.00000    0.10190   43.98110    9.73460    0.05230    2.63600  -60.25800    -999.25    -999.25   26.68000
 5150.00000    0.10930   45.13830    9.20990   -0.01000    2.56110  -62.41400   62.67280   54.34200   21.66900
 5200.00000    0.10000   41.89740    9.51850   -0.00960    2.59400  -60.98000   39.83030   28.14100   40.51400
 5250.00000    0.13890   54.16550    9.36420   -0.00460    2.52700  -61.20600   47.83000   29.97100   36.56100
 5300.00000    0.20100   47.68520   10.11110    0.05380    2.61280  -62.84600   11.45370    9.41700  102.71500
 5350.00000    0.16020   73.60960    9.71910   -0.00460    2.47840  -59.99800   87.71290   38.30500   26.68000
 5400.00000    0.16670   63.88890    9.85800    0.01230    2.51390  -55.52800   90.60090   52.83900   20.22100
 5450.00000    0.17820   75.00110    9.13270    0.00920    2.46140  -53.35800   54.96290   40.84200   26.68000
 5500.00000    0.03430   12.49780    9.51840    0.04620    2.62890  -52.38200  175.96300  168.72110    6.91700
 5550.00000    0.01940   14.35150   10.72210    0.20310    2.45320  -51.54400  143.24130  154.93480   10.28800
 5600.00000    0.01850   10.64810    8.77790    0.00310    2.64370  -57.08000  176.32170  172.46950    8.89300
 5650.00000    0.16200   56.94220    9.42590    0.20540    2.59810  -61.13400    7.49860    7.11500  177.86600
 5700.00000    0.28860   71.63890   12.79000    0.12620    2.47220  -59.72600    3.31060    2.42400  442.71900
 5750.00000    0.29030   74.76670   13.00620    0.18310    2.37870  -61.26400    2.54240    2.24500  423.91300
 5800.00000    0.17780   65.74070   11.25300    0.12150    2.54330  -61.28400    3.08170    3.37300  301.29700
 5850.00000    0.21940   62.50040    9.58030    0.17770    2.39640  -61.55200    3.62100    3.43700  301.38300
 5900.00000    0.01300   13.88890    9.67280    0.22920    2.55870  -60.64200   42.06470   38.98310   35.57300
 5950.00000    0.01570   10.41610    9.99690    0.22460    2.60660  -72.31400   98.15100   79.81510   15.66900
 6000.00000    0.01850   13.42700    9.39500    0.16310    2.66540  -67.37000   38.27670   31.48440   30.63200
 6050.00000    0.01340   15.04570    8.31470    0.00620    2.70520  -61.33600  106.47350  107.08780   10.87000
 6100.00000    0.01010   16.20370   10.72220    0.23080    2.55350  -57.40800  114.48380   98.76730   15.81800
 6150.00000    0.01250   15.50670   11.07710    0.19690    2.28670  -45.89200  161.37300  125.57780   12.84600
 6200.00000    0.01070   18.05300    9.98140    0.24860    2.35780  -56.42400   64.15000   59.93840   16.79800
 6250.00000    0.04260   21.06430   16.10810    0.12310    2.20790  -57.07000   69.56930   66.20440   14.08100
 6300.00000    0.01900   13.42700    8.12960   -0.00310    2.60370  -69.29400  123.87550   84.83730   13.97100
 6350.00000    0.04070   16.89720   10.25920    0.16660    2.44050  -70.98800   85.90020   70.46700   18.77500
 6400.00000    0.01200   43.51850    7.91920   -0.00990    2.77970  -61.61400    -999.25  178.58460   10.12200
 6450.00000    0.01140   29.16590    7.94450   -0.01150    2.87480  -80.43600    -999.25    -999.25    2.96400
 6500.00000    0.03520   39.35110    7.97530   -0.00800    2.64080  -92.43800   43.34830   27.06740   26.71300
 6550.00000    0.08520   41.20330    7.86730   -0.00770    2.63140  -89.05600   42.53060   20.85250   63.35100
 6600.00000    0.02310   37.03630    8.27550    0.00320    2.67240  -92.67600    -999.25    -999.25   16.24900
 6650.00000    0.00690   25.46260    7.95050   -0.00540    2.93510  -87.52000    -999.25    -999.25    0.98800
 6700.00000    0.06200   24.31090    7.94440   -0.00620    2.59390 -107.94600    -999.25    -999.25   14.82200
 6750.00000    0.01340   19.90740    9.68820    0.21150    2.62750 -157.11800    -999.25    -999.25    9.88100
 6800.00000    0.01480   36.57410   13.19140    0.18310    2.39490 -117.57200    -999.25    -999.25    2.96400
 6850.00000    0.01160   27.54610   10.32100    0.20380    2.57030 -127.27600    -999.25    -999.25    1.86600
 6900.00000    0.01850   39.59020    8.25290    0.14150    2.72260 -104.99800    -999.25    -999.25    4.94100
 6950.00000    0.01250   31.01850    7.91360   -0.00510    2.68160 -112.27000    -999.25    -999.25   11.80800
