~Version ---------------------------------------------------
VERS. 2.0 : CWLS log ASCII Standard -VERSION 2.0
WRAP.  NO : ONE LINE PER DEPTH STEP
~Well ------------------------------------------------------
STRT.F                     300.0 : START DEPTH
STOP.F                   19600.0 : STOP DEPTH
STEP.F                  50.00000 : STEP LENGTH
NULL.                    -999.25 : NULL VALUE
COMP. CITIES SERVICE OIL COMPANY : COMPANY
WELL.          PEELER RANCH A #1 : WELL
FLD .                    WILDCAT : FIELD
LOC .                            : LOCATION
CNTY.                   ATASCOSA : COUNTY
STAT.                      TEXAS : STATE
CTRY.   UNITED STATES OF AMERICA : COUNTRY
SRVC.               Schlumberger : SERVICE COMPANY
DATE.                12-Feb-1972 : LOGDATE
API .             42013301410000 : API NUMBER
UWI .             42013301410000 : UNIQUE WELL ID
SLAT.WGS84         28.6903618688 : SURFACE LATITUDE
SLON.WGS84        -98.4697337546 : SURFACE LONGITUDE
~Curve Information -----------------------------------------
DEPT.F                 : 
GRD .GAPI 45 310 01 00 : GAMMA RAY FROM DENSITY LOG
CALD.IN   45 280 60 00 : CALIPER FROM DENSITY LOG
CORR.G/C3 45 356 01 00 : DENSITY CORRECTION
RHOB.G/C3 45 350 01 00 : BULK DENSITY
GRS .GAPI 60 310 01 00 : GAMMA RAY FROM SONIC LOG
DT  .US/F 60 500 32 00 : DELTA-T (INTERVAL TRANSIT TIME)
CALS.IN   60 280 50 00 : CALIPER FROM SONIC LOG
ALL8.OHMM 05 221 08 00 : AMPLIFIED LATEROLOG-8
ILD .OHMM 05 120 46 00 : INDUCTION LOG DEEP
ASN .OHMM 05 041 16 00 : AMPLIFIED SHORT NORMAL 16"
CILD.MMHO 05 110 46 00 : CONDUCTIVITY INDUCTION LOG DEEP
SPR .MV   05 010 01 00 : SPONTANEOUS POTENTIAL FROM RES.
NEUT.NAPI 35 330 01 00 : NEUTRON
SNP .DEC  41 890 01 00 : SIDEWALL NEUTRON POROSITY
~Params ----------------------------------------------------
PD  .                     GL : PERMANENT DATUM
EPD .F                   297 : ELEVATION PERMANENT DATUM
LMF .                     KB : LOG MEASURED FROM
DAPD.F                  30.5 : FEET ABOVE PERMANENT DATUM
DMF .                     KB : DRILLING MEASURED FROM
EKB .F                 327.5 : KELLING BUSHING
EDF .F                 326.5 : DRILLING FLOOR
EGL .F                   297 : GROUND LEVEL
DATE.             02-12-1972 : RUN DATE
RUN .                      9 : RUN NUMBER
DD  .F                 19629 : DEPTH DRILLER
DL  .F                 19635 : DEPTH LOGGER
BLI .F                 19628 : BOTTOM LOG INTERVAL
TLI .F                 19127 : TOP LOG INTERVAL
BS  .IN                  4.4 : BIT SIZE
BSD .F                 19629 : BIT SIZE AT DEPTH
DFT .       INVERMUL 43% OIL : DRILLING FLUID TYPE
DFD .                   19.1 : DRILLING FLUID DENSITY
DFV .                     88 : DRILLING FLUID VISCOSITY
TCS .HRS                  12 : TIME CURCULATED STOPPED
LUN .                   7504 : LOGGING UNIT NUMBER
LUL .                  PLEAS : LOGGING UNIT LOCATION
ENGI.               CLEMENTS : RECORDING ENGINEER
WITN.         GRIGSBY THOMAS : WITNESSED BY
CLNT.                A2DTECH : CLIENT CODE
ORIG.            2" 5" PRINT : ORIGIN OF DATA
UWI .         42013301410000 : UNIQUE WELL ID
DICO. A2D Technologies, Inc. : DIGITIZING COMPANY
~Other -----------------------------------------------------
~ASCII -----------------------------------------------------
# ...
 10100.00000   11.45740   18.28330    0.05560    2.67650    -999.25   52.99140   14.56090    -999.25   24.24750   42.71420   14.74100 -157.39180    -999.25    0.06700
 10150.00000   13.27840   18.19690    0.02610    2.59020    -999.25   51.71900   14.46920    -999.25   30.51940   41.40570   28.28690 -151.44920    -999.25    0.08030
 10200.00000   12.85910   17.60410   -0.00940    2.60940    -999.25   53.36690   14.64150    -999.25   42.23180   45.87740   15.64020 -156.14220    -999.25    0.05030
 10250.00000   16.40060   18.27370    0.02330    2.25920    -999.25   50.51890   14.49510    -999.25   40.04840   44.19490   40.23900 -174.37140    -999.25    0.17410
 10300.00000   31.36780   14.94900    0.02670    2.57350    -999.25   48.95990   14.31620    -999.25   33.82120   35.76100   30.38310 -132.36090    -999.25    0.08300
 10350.00000   19.31770   14.45290    0.01820    2.54520    -999.25   51.78500   13.93600    -999.25   14.51390   21.77780   58.79340 -154.36040    -999.25    0.07150
 10400.00000   17.80790   14.80490    0.01510    2.62230    -999.25   50.37660   13.83330    -999.25   15.50610   25.91950   64.65650 -179.50200    -999.25    0.02190
 10450.00000   18.75550   17.79250   -0.01200    2.36230    -999.25   52.26390   13.83720    -999.25   19.84860   28.90110   48.55880 -163.78410    -999.25    0.15060
 10500.00000   17.19180   14.73800    0.01140    2.70550    -999.25   52.40510   13.56330    -999.25   12.90490   23.56350   80.07310 -157.94850    -999.25    0.01510
 10550.00000   15.19530   15.06700    0.04070    2.67990    -999.25   51.15760   13.75600    -999.25   10.00990   19.24720   92.82870 -154.02640    -999.25    0.01390
 10600.00000   15.29200   14.76200    0.00110    2.63710    -999.25   53.84640   13.70860    -999.25    5.54980   16.76030  171.71310 -173.40750    -999.25    0.03440
 10650.00000   18.80830   18.39200    0.07390    2.42530    -999.25   51.02830   13.86580    -999.25   26.41510   36.55950   37.21120 -148.91140    -999.25    0.09890
 10700.00000   22.37090   15.53520    0.02430    2.66190    -999.25   53.67800   13.75600    -999.25   16.51800   26.27900   53.98080 -141.65690    -999.25    0.01970
 10750.00000   21.18720   19.55430    0.06600    2.47550    -999.25   49.61400   14.57510    -999.25   29.46810   43.17290   35.45820 -109.66800    -999.25    0.03610
 10800.00000   18.01700   20.23850    0.03600    2.44480    -999.25   51.12630   13.97540    -999.25   20.99050   29.87150   55.13610 -116.95460    -999.25    0.13650
 10850.00000   25.70170   17.55410    0.04730    2.67520    -999.25   51.70670   13.72880    -999.25   20.68760   26.87650   51.39440 -126.97400    -999.25    0.00390
 10900.00000   22.52060   21.78630    0.05310    2.30670    -999.25   50.23320   14.12230    -999.25   21.43900   32.26430   43.42630 -119.15430    -999.25    0.16360
 10950.00000   22.80610   19.57150    0.03230    2.42920    -999.25   51.10460   13.11960    -999.25   23.01910   26.96480   41.04970 -126.39200    -999.25    0.10750
 11000.00000   24.93510   19.68050    0.03690    2.38600    -999.25   50.44420   13.88870    -999.25   18.51490   21.28350   53.78490 -146.34550    -999.25    0.12030
 11050.00000   28.70300   16.37060    0.01250    2.62280    -999.25   53.95680   13.91480    -999.25    9.12780   14.45950  103.18730 -160.13760    -999.25    0.05790
 11100.00000   24.84650   17.38200    0.03060    2.66100    -999.25   50.87210   13.36820    -999.25   18.68940   17.81100   51.39440 -157.32100    -999.25    0.00350
 11150.00000   11.00660   15.27750    0.01840    2.63930    -999.25   52.01990   13.86620    -999.25    6.51400   14.58250  154.98010 -167.61020    -999.25    0.02490
 11200.00000   12.11920   15.42900    0.02270    2.68440    -999.25   51.66370   13.84900    -999.25   12.55070   15.92850   78.58290 -172.44130    -999.25    0.01110
 11250.00000    8.70530   15.23670    0.00530    2.61490    -999.25   54.71200   13.81950    -999.25   12.19180   19.34030   77.38280 -176.87430    -999.25    0.04760
 11300.00000   10.48040   15.15860   -0.00620    2.62520    -999.25   53.25860   13.70670    -999.25    8.55460   23.37010  115.82950 -200.72980    -999.25    0.03010
 11350.00000   17.58020   15.90580    0.11070    2.70560    -999.25   48.94520   13.71080    -999.25   19.69310   23.58390   51.38770 -167.71050    -999.25    0.02680
 11400.00000   16.91370   15.57650    0.03430    2.66860    -999.25   50.03310   13.96060    -999.25    9.85010   16.91680  110.11680 -157.29690    -999.25    0.01340
 11450.00000   28.28960   16.67890    0.07010    2.62640    -999.25   50.45820   13.38050    -999.25   12.51480   13.17460   87.84860 -136.46000    -999.25    0.02100
 11500.00000   19.99150   16.37090    0.00300    2.66760    -999.25   52.01480   13.70040    -999.25    9.37830   12.02530   94.38580 -143.71880    -999.25    0.00190
 11550.00000   17.03030   16.95280    0.00920    2.70300    -999.25   51.16660   13.87660    -999.25   18.38040   20.47660   55.77690 -135.04700    -999.25   -0.01320
 11600.00000   35.60790   17.74960    0.09150    2.66720    -999.25   48.79260   14.24550    -999.25   40.66100   40.41700   17.92830 -127.71210    -999.25    0.02280
 11650.00000   12.63660   18.83070    0.02250    2.59890    -999.25   54.93390   14.48390    -999.25   98.14920   23.68080    9.96020 -137.51350    -999.25    0.01460
 11700.00000   13.32710   21.82620   -0.04240    1.91940    -999.25   50.11380   14.80530    -999.25    7.39500   24.17740   11.57070 -138.99430    -999.25    0.45780
 11750.00000   15.42820   21.81540    0.01140    2.29060    -999.25   49.21810   14.74360    -999.25    -999.25   27.12700   20.28030 -140.98260    -999.25    0.20900
 11800.00000   15.35330   21.82110    0.02610    2.45130    -999.25   49.71560   14.68950    -999.25    -999.25   28.26210   17.16960 -136.64470    -999.25    0.18360
 11850.00000   11.44130   21.82080    0.05900    2.65960    -999.25   52.91220   14.50310    -999.25   27.42480   40.24770    1.69320 -125.08880    -999.25   -0.00690
 11900.00000   13.13980   21.81080    0.04260    2.55920    -999.25   49.84190   14.76530    -999.25  104.23570   28.17080    0.00040 -123.51930    -999.25    0.06170
 11950.00000   15.94210   21.80040    0.07460    2.58650    -999.25   53.84650   14.73850    -999.25  117.21140   26.85740    9.36250 -124.27570    -999.25    0.05550
 12000.00000   13.70240   21.80670    0.11050    2.48570    -999.25   52.28840   14.46350    -999.25  255.54710   26.77630    0.00040 -122.49960    -999.25    0.07550
 12050.00000   13.26630   21.80540    0.05320    2.66840    -999.25   52.11050   13.72650    -999.25   33.14920   24.73900   11.55380 -122.33220    -999.25   -0.02020
 12100.00000   25.12870   21.79420    0.07900    2.39400    -999.25   50.01440   14.23760    -999.25   16.32350   23.24140   57.81350 -118.72000    -999.25    0.14020
 12150.00000   19.35350   21.78030   -0.00370    2.32560    -999.25   64.91690   13.38620    -999.25   20.34350   36.10500   57.08900 -105.48490    -999.25    0.18310
 12200.00000   26.14450   16.76250    0.10230    2.60820    -999.25   50.03310   13.21270    -999.25   28.75320   35.14780   20.83670  -88.35820    -999.25    0.02490
 12250.00000   34.08560   15.12340    0.00920    2.71520    -999.25   53.54150   13.57540    -999.25   36.93890   32.28000   27.49000  -69.85110    -999.25    0.02770
 12300.00000   34.08120   21.73780   -0.04060    1.91520    -999.25   61.92740   13.97720    -999.25   12.04480   15.29420   17.13150  -68.66590    -999.25    0.45090
 12350.00000   37.78740   21.78110   -0.01440    1.99970    -999.25   75.12830   14.54400    4.84740    7.76030    -999.25  139.00560  -11.40000    -999.25    0.45650
 12400.00000   55.83730   17.22770    0.07290    2.54190    -999.25   71.52400   14.25740    6.28910   13.04740    -999.25   65.98290  -11.80000    -999.25    0.22310
 12450.00000   48.41050   14.30030    0.05930    2.60850    -999.25   66.95940   13.73090   21.57860   46.73220    -999.25   10.75700  -12.85140    -999.25    0.16630
