~Version ---------------------------------------------------
VERS. 2.0 : CWLS log ASCII Standard -VERSION 2.0
WRAP.  NO : ONE LINE PER DEPTH STEP
~Well ------------------------------------------------------
STRT.F                    2550.0 : START DEPTH
STOP.F                   14550.0 : STOP DEPTH
STEP.F                  50.00000 : STEP LENGTH
NULL.                    -999.25 : NULL VALUE
COMP. CHAMPLIN PETROLEUM COMPANY : COMPANY
WELL.        KESELING UNIT II #1 : WELL
FLD .         NORTHEAST YORKTOWN : FIELD
LOC .                            : LOCATION
CNTY.                    DE WITT : COUNTY
STAT.                      TEXAS : STATE
CTRY.   UNITED STATES OF AMERICA : COUNTRY
SRVC.               Schlumberger : SERVICE COMPANY
DATE.                09-May-1979 : LOGDATE
API .             42123309670000 : API NUMBER
UWI .             42123309670000 : UNIQUE WELL ID
SLAT.WGS84         29.0130345675 : SURFACE LATITUDE
SLON.WGS84        -97.4839413883 : SURFACE LONGITUDE
~Curve Information -----------------------------------------
DEPT.F                 : 
DT  .US/F 60 520 00 00 : INTERVAL TRANSIT TIME
CALR.INI  07 280 01 00 : CALIPER FROM RESISTIVITY
ILM .OHMM 07 120 44 00 : INDUCTION LOG MEDIUM
DRHO.G/C3 45 356 01 00 : DENSITY CORRECTION
RHOB.G/C3 45 350 01 00 : BULK DENSITY
SPR .MV   07 010 01 00 : SPONTANEOUS POTENTIAL FROM RES.
ALL8.OHMM 07 221 08 00 : AMPLIFIED LATEROLOG-8
ILD .OHMM 07 120 46 00 : INDUCTION LOG DEEP
CALD.IN   45 280 60 00 : CALIPER FROM DENSITY LOG
GRD .GAPI 45 310 01 00 : GAMMA RAY FROM DENSITY LOG
DPHI.DEC  45 890 10 00 : DENSITY POROSITY LIMESTONE
NPHI.DEC  42 890 01 00 : NEUTRON POROSITY LIMESTONE
GRR .GAPI 07 310 01 00 : GAMMA RAY FROM RESISITIVITY LOG
CILD.MMHO 07 110 46 00 : CONDUCTIVITY INDUCTION LOG DEEP
~Params ----------------------------------------------------
PD  .                     GL : PERMANENT DATUM
EPD .F                 391.2 : ELEVATION PERMANENT DATUM
LMF .                     KB : LOG MEASURED FROM
DAPD.F                    14 : FEET ABOVE PERMANENT DATUM
DMF .                     KB : DRILLING MEASURED FROM
EKB .F                 405.2 : KELLING BUSHING
EDF .F                 404.2 : DRILLING FLOOR
EGL .F                 391.2 : GROUND LEVEL
DATE.                 5/7/79 : RUN DATE
RUN .                      2 : RUN NUMBER
DD  .F                 14600 : DEPTH DRILLER
DL  .F                 14592 : DEPTH LOGGER
BLI .F                 14586 : BOTTOM LOG INTERVAL
TLI .F                 10012 : TOP LOG INTERVAL
CS  .IN                10.75 : CASING SIZE
CBD .F                  2525 : CASING BOTTOM DRILLER
BS  .IN                 8.75 : BIT SIZE
BSD .F                 14600 : BIT SIZE AT DEPTH
DFT .                  GELEX : DRILLING FLUID TYPE
DFD .                   11.9 : DRILLING FLUID DENSITY
DFV .                     41 : DRILLING FLUID VISCOSITY
DFPH.                    8.5 : DRILLING FLUID PH
DFL .                    6.5 : DRILLING FLUID LOSS
MSS .               FLOWLINE : MUD SAMPLE SOURCE
RMS .OHMM               2.56 : RESISTIVITY MUD SAMPLE
MST .F                    75 : MUD SAMPLE TEMPERATURE
RMF .OHMM               2.39 : RESISTIVITY MUD FILTRATE SAMPLE
MFST.F                    75 : MUD FILTRATE SAMPLE TEMPERATURE
RMC .OHMM               3.84 : RESISTIVITY MUD CAKE
MCST.F                    75 : MUD CAKE SAMPLE TEMPERATURE
MFSS.                   MEAS : MUD FILTRATE SAMPLE SOURCE
MCSS.                   CALC : MUD CAKE SAMPLE SOURCE
RMB .OHMM              0.636 : RESISTIVITY MUD AT BHT
TCS .HRS                 900 : TIME CURCULATED STOPPED
TLAB.HRS                1730 : TIME LOGGER AT BOTTOM
LUN .                   8078 : LOGGING UNIT NUMBER
LUL .                 DAYTON : LOGGING UNIT LOCATION
ENGI.                WILKINS : RECORDING ENGINEER
WITN.              JOHNSTONE : WITNESSED BY
CLNT.                A2DTECH : CLIENT CODE
ORIG.           2", 5" PRINT : ORIGIN OF DATA
UWI .         42123309670000 : UNIQUE WELL ID
DICO. A2D Technologies, Inc. : DIGITIZING COMPANY
~Other -----------------------------------------------------
~ASCII -----------------------------------------------------
# ...
 5000.00000    -999.25   10.54870    1.29910    -999.25    -999.25  -43.06200    1.54800    1.45400    -999.25    -999.25    -999.25    -999.25    -999.25  735.14650
 5050.00000    -999.25   10.90860    1.22080    -999.25    -999.25  -41.50200    1.39900    1.36300    -999.25    -999.25    -999.25    -999.25    -999.25  843.87350
 5100.00000    -999.25   10.46730    0.95440    -999.25    -999.25  -39.83200    1.29300    1.21700    -999.25    -999.25    -999.25    -999.25    -999.25 1026.86610
 5150.00000    -999.25   11.44060    1.10070    -999.25    -999.25  -40.71200    1.37100    1.26200    -999.25    -999.25    -999.25    -999.25    -999.25  865.61270
 5200.00000    -999.25   12.61770    1.29010    -999.25    -999.25  -43.43000    1.56400    1.49200    -999.25    -999.25    -999.25    -999.25    -999.25  736.30720
 5250.00000    -999.25   13.23700    2.18030    -999.25    -999.25  -46.77200    2.77200    2.56300    -999.25    -999.25    -999.25    -999.25    -999.25  453.27430
 5300.00000    -999.25   13.14240    1.02490    -999.25    -999.25  -42.37600    1.40800    1.30500    -999.25    -999.25    -999.25    -999.25    -999.25  938.73520
 5350.00000    -999.25   13.26240    1.24630    -999.25    -999.25  -41.01800    1.30400    1.37500    -999.25    -999.25    -999.25    -999.25    -999.25  782.82830
 5400.00000    -999.25   13.56410    1.73600    -999.25    -999.25  -46.19400    1.92200    1.73700    -999.25    -999.25    -999.25    -999.25    -999.25  500.00000
 5450.00000    -999.25   13.45730    1.26370    -999.25    -999.25  -41.16000    1.36600    1.15900    -999.25    -999.25    -999.25    -999.25    -999.25  781.25000
 5500.00000    -999.25   13.70360    1.33000    -999.25    -999.25  -42.19600    1.63400    1.59100    -999.25    -999.25    -999.25    -999.25    -999.25  718.63840
 5550.00000    -999.25   13.14030    1.84070    -999.25    -999.25  -42.40600    2.01900    1.88600    -999.25    -999.25    -999.25    -999.25    -999.25  531.81820
 5600.00000    -999.25   12.36300    1.25490    -999.25    -999.25  -41.55000    1.40800    1.30400    -999.25    -999.25    -999.25    -999.25    -999.25  812.25290
 5650.00000    -999.25   13.34920    1.39270    -999.25    -999.25  -41.57600    1.57200    1.46200    -999.25    -999.25    -999.25    -999.25    -999.25  733.44860
 5700.00000    -999.25   13.26950    1.01800    -999.25    -999.25  -42.03000    1.45100    1.33700    -999.25    -999.25    -999.25    -999.25    -999.25  907.91720
 5750.00000    -999.25   12.19160    0.91560    -999.25    -999.25  -40.15600    1.13200    1.16000    -999.25    -999.25    -999.25    -999.25    -999.25 1083.54300
 5800.00000    -999.25   12.76900    1.35400    -999.25    -999.25  -41.07600    1.71300    1.64700    -999.25    -999.25    -999.25    -999.25    -999.25  671.95890
 5850.00000    -999.25   12.20670    1.35400    -999.25    -999.25  -43.56000    1.69500    1.51500    -999.25    -999.25    -999.25    -999.25    -999.25  715.85420
 5900.00000    -999.25   11.87720    1.60310    -999.25    -999.25  -43.23800    1.90400    1.62800    -999.25    -999.25    -999.25    -999.25    -999.25  614.33400
 5950.00000    -999.25   11.93720    2.07740    -999.25    -999.25  -47.54400    2.17100    2.15500    -999.25    -999.25    -999.25    -999.25    -999.25  475.95520
 6000.00000    -999.25   12.65260    1.82200    -999.25    -999.25  -46.22400    2.21100    2.09000    -999.25    -999.25    0.14350    0.33260   87.95580  520.02110
 6050.00000    -999.25   11.75750    1.26890    -999.25    -999.25  -46.02000    1.61000    1.45400    -999.25    -999.25    0.19220    0.35950   85.52130  757.27650
 6100.00000    -999.25   10.15560    1.39610    -999.25    -999.25  -42.88400    1.70600    1.43300    -999.25    -999.25    0.19820    0.41540   87.27180  713.70100
 6150.00000    -999.25   10.35030    1.41540    -999.25    -999.25  -44.44800    1.58700    1.53200    -999.25    -999.25    0.30310    0.44240   85.14730  741.76550
 6200.00000    -999.25   10.75450    1.11120    -999.25    -999.25  -42.61000    1.34400    1.13900    -999.25    -999.25    0.26550    0.46680   87.69160  888.00580
 6250.00000    -999.25   10.40660    1.65940    -999.25    -999.25  -42.47000    1.84900    1.76800    -999.25    -999.25    0.16770    0.33620   78.97540  618.00780
 6300.00000    -999.25   10.61990    1.42530    -999.25    -999.25  -45.09200    1.80300    1.55300    -999.25    -999.25    0.22240    0.31210   79.87400  664.03160
 6350.00000    -999.25   10.61580    1.00170    -999.25    -999.25  -41.63400    1.14000    1.03000    -999.25    -999.25    0.28530    0.42650   79.67410  958.49800
 6400.00000    -999.25   10.20060    0.86640    -999.25    -999.25  -39.47800    1.15000    1.07400    -999.25    -999.25    0.34370    0.51330   91.26900 1167.98410
 6450.00000    -999.25   11.02400    2.65550    -999.25    -999.25  -42.79600    2.78300    2.61300    -999.25    -999.25    0.08250    0.21130   81.15520  373.02370
 6500.00000    -999.25   11.39820    1.79080    -999.25    -999.25  -41.27800    2.50600    1.85600    -999.25    -999.25    0.14060    0.30040   84.73980  554.72270
 6550.00000    -999.25   11.41320    1.17440    -999.25    -999.25  -42.19600    1.42000    1.25400    -999.25    -999.25    0.24220    0.40230   91.80240  812.25290
 6600.00000    -999.25   11.53140    2.00000    -999.25    -999.25  -40.23400    2.25000    1.85600    -999.25    -999.25    0.12580    0.37020   92.30940  492.09480
 6650.00000    -999.25   10.41850    2.09950    -999.25    -999.25  -47.98800    2.43400    2.09500    -999.25    -999.25    0.17970    0.34620   88.25260  482.21340
 6700.00000    -999.25    9.82640    1.01170    -999.25    -999.25 -143.11400    4.20100    0.74600    -999.25    -999.25    0.26410    0.25370   38.25360 1239.93210
 6750.00000    -999.25    9.78140    1.22410    -999.25    -999.25 -118.97200    5.58100    0.99200    -999.25    -999.25    0.25510    0.25870   48.37240 1031.05590
 6800.00000    -999.25   10.06570    1.75450    -999.25    -999.25  -87.69000    4.06900    1.13000    -999.25    -999.25    0.25830    0.29460   66.30620  752.96440
 6850.00000    -999.25    9.66530    0.71700    -999.25    -999.25 -143.73600    3.99000    0.74200    -999.25    -999.25    0.26820    0.26590   38.47270 1624.03020
 6900.00000    -999.25    9.73430    1.45510    -999.25    -999.25 -148.02200    7.08400    1.18500    -999.25    -999.25    0.23140    0.24480   48.66110  859.64980
 6950.00000    -999.25    9.87620    2.53010    -999.25    -999.25  -75.13400    3.85800    2.28600    -999.25    -999.25    0.15520    0.25200   86.89530  569.57900
 7000.00000    -999.25    9.81960    1.07340    -999.25    -999.25 -131.65800    4.03300    1.07100    -999.25    -999.25    0.23230    0.29550   63.22390 1024.65150
 7050.00000    -999.25   10.24550    2.36100    -999.25    -999.25  -63.27800    3.91300    2.03000    -999.25    -999.25    0.09070    0.26750  108.13290  473.59460
 7100.00000    -999.25    9.73650    1.55660    -999.25    -999.25 -134.57400    9.05600    1.13900    -999.25    -999.25    0.21200    0.25780   64.86330  927.01260
 7150.00000    -999.25    9.77880    1.74170    -999.25    -999.25 -135.99800   10.63100    1.20800    -999.25    -999.25    0.23660    0.26500   65.59680  812.68940
 7200.00000    -999.25    9.77880    1.76900    -999.25    -999.25 -136.59200   12.05800    1.31300    -999.25    -999.25    0.22960    0.25510   61.90680  824.09450
 7250.00000    -999.25    9.64670    1.53790    -999.25    -999.25 -144.57400   11.01500    1.14400    -999.25    -999.25    0.20330    0.23340   53.61790  936.10020
 7300.00000    -999.25    9.76490    1.77820    -999.25    -999.25 -130.42400    9.59600    1.15800    -999.25    -999.25    0.23080    0.23930   53.96500  810.27670
 7350.00000    -999.25    9.81140    0.98110    -999.25    -999.25 -156.14800    4.08400    0.75700    -999.25    -999.25    0.27160    0.25420   41.93890 1286.56130
 7400.00000    -999.25   10.73950    2.93220    -999.25    -999.25  -48.79000    3.53500    2.90200    -999.25    -999.25    0.09680    0.26680   87.82290  354.31960
