~Version ---------------------------------------------------
VERS. 2.0 : CWLS log ASCII Standard -VERSION 2.0
WRAP.  NO : ONE LINE PER DEPTH STEP
~Well ------------------------------------------------------
STRT.FT                           3600.0 : START DEPTH
STOP.FT                           8150.0 : STOP DEPTH
STEP.FT                         50.00000 : STEP LENGTH
NULL.                            -999.25 : NULL VALUE
COMP. SANTA FE-WINDSOR PRODUCING COMPANY : COMPANY
WELL.                     HIELSCHER #2-A : WELL
FLD .                           GIDDINGS : FIELD
LOC .                                    : LOCATION
CNTY.                                LEE : COUNTY
STAT.                              TEXAS : STATE
CTRY.           UNITED STATES OF AMERICA : COUNTRY
SRVC.                       Schlumberger : SERVICE COMPANY
DATE.                        18-Dec-1983 : LOGDATE
API .                     42287315320000 : API NUMBER
UWI .                     42287315320000 : UNIQUE WELL ID
SLAT.WGS84                 30.0540398572 : SURFACE LATITUDE
SLON.WGS84                -97.0154916592 : SURFACE LONGITUDE
~Curve Information -----------------------------------------
DEPT  .FT    : DEPTH FEET
GRRED .GAPI  : GAMMA RAY FROM RESISTIVITY LOG
NEUTED.CU    : NEUTRON FROM NEUTRON LOG [DEPTH ADJ TO RES LOG]
SPRED .MV    : SPONTANEOUS POTENTIAL FROM RESISTIVITY LOG
ILDED .OHMM  : INDUCTION LOG DEEP RESISTIVITY
ILMED .OHMM  : INDUCTION LOG MEDIUM RESISTIVITY
SFLUED.OHMM  : SPHERICALLY FOCUSED LOG RESISTIVITY
DCALED.IN    : DIFFERENTIAL CALIPER FROM DENSITY LOG
TENRED.LBF   : TENSION FROM RESISTIVITY LOG
DTED  .US/F  : DELTA TIME FROM SONIC LOG [DEPTH ADJ TO RES LOG]
GRWS  .GAPI  : GAMMA RAY [GRRED]
SPWS  .MV    : SPONTANEOUS POTENTIAL [BASELINE 0 MV] [SPRED]
GRNED .GAPI  : GAMMA RAY FROM NEUTRON LOG [DEPTH ADJ TO RES LOG]
CALWS .IN    : CALIPER [DCALED+BIT]
DRESWS.OHMM  : DEEP RESISTIVITY [ILDED]
MRESWS.OHMM  : MEDIUM RESISTIVITY [ILMED]
SRESWS.OHMM  : SHALLOW RESISTIVITY [SFLUED]
CONDWS.MMHO  : CONDUCTIVITY [1000/DRESWS]
DTWS  .US/F  : DELTA TIME [DTED]
NEUTWS.CU    : NEUTRON [NEUTED]
~Params ----------------------------------------------------
PD  .                     GL : PERMANENT DATUM
EPD .FT                  342 : ELEVATION PERMANENT DATUM
LMF .                     KB : LOG MEASURED FROM
DAPD.FT                   21 : FEET ABOVE PERMANENT DATUM
DMF .                     KB : DRILLING MEASURED FROM
EKB .FT                  363 : KELLY BUSHING
EDF .FT                  362 : DRILLING FLOOR
EGL .FT                  342 : GROUND LEVEL
DATE.               12/18/83 : RUN DATE
RUN .                      1 : RUN NUMBER
DD  .FT                 8195 : DEPTH DRILLER
DL  .FT                 8202 : DEPTH LOGGER
BLI .FT                 8196 : BOTTOM LOG INTERVAL
TLI .FT                 3611 : TOP LOG INTERVAL
CS  .IN                9.875 : CASING SIZE
CBD .FT                 3612 : CASING BOTTOM DRILLER
CBL .FT                 3611 : CASING BOTTOM LOGGER
BS  .IN                 8.75 : BIT SIZE
BSD .FT                 8195 : BIT SIZE AT DEPTH
DFT .                    LSN : DRILLING FLUID TYPE
DFD .                    9.4 : DRILLING FLUID DENSITY
DFV .                     35 : DRILLING FLUID VISCOSITY
DFPH.                    9.5 : DRILLING FLUID PH
DFL .                      8 : DRILLING FLUID LOSS
MSS .                   TANK : MUD SAMPLE SOURCE
RMS .OHMM               1.63 : RESISTIVITY MUD SAMPLE
MST .DEGF                 85 : MUD SAMPLE TEMPERATURE
RMF .OHMM               1.22 : RESISTIVITY MUD FILTRATE SAMPLE
MFST.DEGF                 85 : MUD FILTRATE SAMPLE TEMPERATURE
RMC .OHMM               2.45 : RESISTIVITY MUD CAKE
MCST.DEGF                 85 : MUD CAKE SAMPLE TEMPERATURE
MFSS.                      C : MUD FILTRATE SAMPLE SOURCE
MCSS.                      C : MUD CAKE SAMPLE SOURCE
RMB .OHMM              0.823 : RESISTIVITY MUD AT BHT
TCS .HRS                 500 : TIME CIRCULATED STOPPED
TLAB.HRS                1000 : TIME LOGGER AT BOTTOM
LUN .                   8227 : LOGGING UNIT NUMBER
LUL .                BRENHAM : LOGGING UNIT LOCATION
ENGI.               BERBINIS : RECORDING ENGINEER
WITN.                  IRVIN : WITNESSED BY
CLNT.                A2DTECH : CLIENT CODE
ORIG.            2" 5" PRINT : ORIGIN OF DATA
UWI .         42287315320000 : UNIQUE WELL ID
DICO. A2D Technologies, Inc. : DIGITIZING COMPANY
OS  .                        : OTHER SERVICES
PWI .                        : PRIMARY WELL IDENTIFIER
R1  .                        : REMARKS 1
R2  .                        : REMARKS 2
LSRV.                        : LOG MNEMONIC
~Other -----------------------------------------------------
~ASCII -----------------------------------------------------
# ...
 5450.00000   94.31050    -999.25   -7.01060    1.29950    1.34290    1.70820    0.29990 2536.94850   93.11120   94.31050   -1.38240    -999.25    9.04990    1.29950    1.34290    1.70820  769.52670   93.11120    -999.25
 5500.00000   72.38840    -999.25   -6.85490    1.64470    1.72030    1.94910    0.35180 2549.49100   89.95940   72.38840   -1.26660    -999.25    9.10180    1.64470    1.72030    1.94910  608.01360   89.95940    -999.25
 5550.00000   72.92690    -999.25   -7.20430    1.32170    1.38000    1.53710    1.13870 2494.39750   98.50260   72.92690   -0.68090    -999.25    9.88870    1.32170    1.38000    1.53710  756.60140   98.50260    -999.25
 5600.00000   83.26290    -999.25  -10.71720    1.26110    1.33030    1.14850    1.85880 2522.03690  105.15360   83.26290   -3.25870    -999.25   10.60880    1.26110    1.33030    1.14850  792.95850  105.15360    -999.25
 5650.00000   71.86750    -999.25  -16.78960    1.50330    1.54500    1.70560    1.16550 2552.06270   95.97390   71.86750   -8.39600    -999.25    9.91550    1.50330    1.54500    1.70560  665.20320   95.97390    -999.25
 5700.00000   63.84670    -999.25  -12.20470    1.79090    1.84880    2.29220    1.13170 2497.13280   92.11960   63.84670   -3.41940    -999.25    9.88170    1.79090    1.84880    2.29220  558.37850   92.11960    -999.25
 5750.00000   64.15530    -999.25  -15.01360    1.54840    1.59840    2.17150    1.33990 2542.57450   93.52840   64.15530   -6.31830    -999.25   10.08990    1.54840    1.59840    2.17150  645.82790   93.52840    -999.25
 5800.00000   66.30310    -999.25  -12.41600    1.25860    1.32760    1.52630    3.02130 2534.54050  100.95280   66.30310   -3.81060    -999.25   11.77130    1.25860    1.32760    1.52630  794.53360  100.95280    -999.25
 5850.00000   76.18770    -999.25   -8.60190    1.18370    1.21630    1.39450    2.05620 2485.41670  102.22240   76.18770   -0.08650    -999.25   10.80620    1.18370    1.21630    1.39450  844.80870  102.22240    -999.25
 5900.00000   71.00240    -999.25  -10.48410    1.27500    1.31000    1.50890    2.34210 2528.58280  101.42510   71.00240   -2.05870    -999.25   11.09210    1.27500    1.31000    1.50890  784.31370  101.42510    -999.25
 5950.00000   78.74730    -999.25   -9.65670    1.01650    1.06260    1.33710    2.80170 2554.12080  105.02970   78.74730   -1.32130    -999.25   11.55170    1.01650    1.06260    1.33710  983.76780  105.02970    -999.25
 6000.00000   67.55060    -999.25   -8.88850    1.08820    1.11810    1.30010    3.25860 2529.33860  104.20920   67.55060   -0.64310    -999.25   12.00860    1.08820    1.11810    1.30010  918.94870  104.20920    -999.25
 6050.00000   69.67370    -999.25   -8.62410    1.25530    1.29340    1.61900    3.02550 2540.53490  102.92550   69.67370   -0.46870    -999.25   11.77550    1.25530    1.29340    1.61900  796.62230  102.92550    -999.25
 6100.00000   75.19820    -999.25   -8.00180    1.61110    1.71490    1.82500    1.10980 2532.69750   90.22890   75.19820   -2.08120    -999.25    9.85980    1.61110    1.71490    1.82500  620.69400   90.22890    -999.25
 6150.00000   75.57450    -999.25   -7.29470    1.37030    1.47370    1.69270    2.75830 2530.08690   92.62740   75.57450   -3.35150    -999.25   11.50830    1.37030    1.47370    1.69270  729.76720   92.62740    -999.25
 6200.00000   79.87450    -999.25   -1.97770    0.89150    0.96090    1.10450    3.32040 2504.36910  105.27210   79.87450   -0.54950    -999.25   12.07040    0.89150    0.96090    1.10450 1121.70500  105.27210    -999.25
 6250.00000   71.24820    -999.25   -3.06860    1.28470    1.33650    1.61130    2.74830 2521.60500   95.28270   71.24820   -0.92630    -999.25   11.49830    1.28470    1.33650    1.61130  778.39180   95.28270    -999.25
 6300.00000   76.86300    -999.25   -4.67090    1.26230    1.32650    1.47310    3.11300 2563.77270   97.23790   76.86300   -2.90190    -999.25   11.86300    1.26230    1.32650    1.47310  792.20470   97.23790    -999.25
 6350.00000   73.51250    -999.25   -3.70310    1.08200    1.11180    1.30930    2.94930 2537.86910  101.30070   73.51250   -2.64940    -999.25   11.69930    1.08200    1.11180    1.30930  924.21440  101.30070    -999.25
 6400.00000   68.48130    -999.25   -3.57660    1.41410    1.46410    1.69140    3.23170 2532.60570   94.51940   68.48130   -1.55120    -999.25   11.98170    1.41410    1.46410    1.69140  707.16350   94.51940    -999.25
 6450.00000   74.39380    -999.25   -7.24190    1.20990    1.24620    1.48010    3.73220 2582.67650   99.88420   74.39380   -4.61610    -999.25   12.48220    1.20990    1.24620    1.48010  826.51460   99.88420    -999.25
 6500.00000   69.18090    -999.25   -6.01170    1.20350    1.27830    1.59410    3.82870 2563.32980   99.22330   69.18090   -3.50870    -999.25   12.57870    1.20350    1.27830    1.59410  830.90990   99.22330    -999.25
 6550.00000   91.10360    -999.25   -4.91500    1.43970    1.52000    1.75580    3.99170 2545.71070   97.29460   91.10360   -2.53470    -999.25   12.74170    1.43970    1.52000    1.75580  694.58920   97.29460    -999.25
 6600.00000   79.02650    -999.25   -3.52370    1.91450    1.98750    2.29600    3.10180 2614.27830   87.93550   79.02650   -1.26620    -999.25   11.85180    1.91450    1.98750    2.29600  522.32960   87.93550    -999.25
 6650.00000   69.16340    -999.25   -4.17310    1.28700    1.35740    1.62510    4.97590 2666.82590   96.43940   69.16340   -2.03830    -999.25   13.72590    1.28700    1.35740    1.62510  777.00080   96.43940    -999.25
 6700.00000   66.03190    -999.25   -4.31990    1.10730    1.17640    1.38870    5.72910 2578.51390  101.86060   66.03190   -2.30790    -999.25   14.47910    1.10730    1.17640    1.38870  903.09760  101.86060    -999.25
 6750.00000   66.24610  148.78540   -4.43240    1.33540    1.40290    1.69100    5.49250 2676.63670   97.16280   66.24610   -3.63770   60.98430   14.24250    1.33540    1.40290    1.69100  748.83930   97.16280  148.78540
 6800.00000   66.09880  136.60030   -2.74530    1.29480    1.35610    1.65710    5.48080 2578.46970  102.44530   66.09880   -3.17900   61.78420   14.23080    1.29480    1.35610    1.65710  772.32000  102.44530  136.60030
 6850.00000   80.40500  134.12570   -4.05250    1.33190    1.39690    1.68230    4.78610 2692.16770   99.42510   80.40500   -5.71460   61.81400   13.53610    1.33190    1.39690    1.68230  750.80710   99.42510  134.12570
 6900.00000   72.11860  170.73590   -1.32620    1.83790    1.93410    2.28760    2.77600 2701.14450   89.64470   72.11860   -4.13660   61.39480   11.52600    1.83790    1.93410    2.28760  544.09920   89.64470  170.73590
 6950.00000   54.07010  230.10050    1.22410    3.55460    4.02880    4.59260    1.41660 2709.46460   76.78770   54.07010   -2.39320   45.93170   10.16660    3.55460    4.02880    4.59260  281.32560   76.78770  230.10050
 7000.00000   55.76640  127.14020    2.43470    2.59170    2.87970    3.73950    4.09220 2732.55930   80.03680   55.76640   -1.98950   48.46730   12.84220    2.59170    2.87970    3.73950  385.84710   80.03680  127.14020
 7050.00000   60.42230  150.07850  -24.52020    3.22300    3.32670    4.10480    2.78780 2744.37300   80.46870   60.42230   -1.14680   53.57490   11.53780    3.22300    3.32670    4.10480  310.26990   80.46870  150.07850
 7100.00000   57.27660  157.92960  -24.09890    3.29500    3.46440    4.18660    1.95510 2700.87260   77.84060   57.27660   -1.82820   48.82680   10.70510    3.29500    3.46440    4.18660  303.49010   77.84060  157.92960
 7150.00000   46.96250  157.67090  -24.26790    3.88730    4.05260    5.45620    2.23070 2653.57180   73.53780   46.96250   -3.28980   39.02810   10.98070    3.88730    4.05260    5.45620  257.24800   73.53780  157.67090
 7200.00000   56.49670   94.14560  -24.69500    2.22230    2.44300    3.24770    4.77950 2709.87570   87.55990   56.49670   -5.00950   47.28360   13.52950    2.22230    2.44300    3.24770  449.98430   87.55990   94.14560
 7250.00000   48.71360  153.11080  -29.56030    5.35780    5.69830    7.90120    1.59350 2662.65530   69.35080   48.71360  -11.04520   38.02320   10.34350    5.35780    5.69830    7.90120  186.64380   69.35080  153.11080
