~Version ---------------------------------------------------
VERS. 2.0 : CWLS log ASCII Standard -VERSION 2.0
WRAP. YES : Multiple lines per depth step
~Well ------------------------------------------------------
STRT.FT                  300.0 : START DEPTH
STOP.FT                10000.0 : STOP DEPTH
STEP.FT               50.00000 : STEP LENGTH
NULL.                  -999.25 : NULL VALUE
COMP.     TEXAS OIL & GAS CORP : COMPANY
WELL.     SILVER LAKE RANCH #1 : WELL
FLD .                  WILDCAT : FIELD
LOC .                          : LOCATION
CNTY.                   DIMMIT : COUNTY
STAT.                    TEXAS : STATE
CTRY. UNITED STATES OF AMERICA : COUNTRY
SRVC.                  Unknown : SERVICE COMPANY
DATE.              08-Nov-1979 : LOGDATE
API .           42127318560000 : API NUMBER
UWI .           42127318560000 : UNIQUE WELL ID
SLAT.WGS84       28.3952279901 : SURFACE LATITUDE
SLON.WGS84      -99.4517773834 : SURFACE LONGITUDE
~Curve Information -----------------------------------------
DEPT  .FT    : DEPTH
CALDED.IN    : CALIPER FROM DENSITY LOG (ADJ TO RES.)
CALWS .IN    : CALIPER (CALDED)
CONDWS.MMHO  : CONDUCTIVITY (1000/DRESws)
DCORWS.G/C3  : DENSITY CORRECTION (DRHOED)
DENWS .G/C3  : BULK DENSITY  (RHOBED LS)
DPHIED.V/V   : DENSITY POROSITY  (ADJ TO RES.)
DPOWS .V/V   : DENSITY POROSITY (M=2.71 F=1 DPHIED)
DRESWS.OHMM  : DEEP RESISTIVITY (RLLDED)
DRHOED.G/C3  : DENSITY CORRECTION (ADJ TO RES.)
DTED  .US/F  : DELTA TIME
DTWS  .US/F  : DELTA TIME  (DTED)
GRWS  .GAPI  : GAMMA RAY (GRRED) CASED TOP-1519
GRRED .GAPI  : GAMMA RAY FROM RESISTIVITY LOG
MRESWS.OHMM  : MEDIUM RESISTIVITY (RILMED)
NPHIED.V/V   : NEUTRON POROSITY (ADJ TO RES.)
NPOWS .V/V   : NEUTRON POROSITY LIMESTONE (NPHIED)
RHOBED.G/C3  : BULK DENSITY (ADJ TO RES.)
RILDED.OHMM  : DEEP INDUCTION RESISTIVITY
RILMED.OHMM  : MEDIUM INDUCTION RESISTIVITY
RLL8ED.OHMM  : LATEROLOG-8 RESISTIVITY
SPWS  .MV    : SPONTANEOUS POTENTIAL BASELINE 0 MV (SPRED)
SPRED .MV    : SPONTANEOUS POTENTIAL FROM RESISTIVITY
SRESWS.OHMM  : SHALLOW RESISTIVITY (RLL8ED)
~Params ----------------------------------------------------
EKB .F                  460.5 : KELLY BUSHING
EGL .F                    0.0 : GROUND LEVEL
EDF .F                    0.0 : DRILLING FLOOR
EPD .F                    0.0 : PERMANENT DATUM
TD  .F                10015.0 : TOTAL DEPTH
DATE.             09-NOV-1979 : DATE LOGGED
CLNT.                 A2DTECH : CLIENT CODE
SL  . 21900' FWL & 11800' FSL : SURFACE LOCATION
PD  .                      GL : PERMANENT DATUM
LMF .                      KB : LOG MEASURED FROM
DMF .                      KB : DRILLING MEASURED FROM
DAPD.F                     15 : FEET ABOVE PERMANENT DATUM
DD  .F                  10015 : DEPTH DRILLER
DL  .F                   9992 : DEPTH LOGGER
BLI .F                   9986 : BOTTOM LOG INTERVAL
TLI .F                   1519 : TOP LOG INTERVAL
CS1 .IN                 8.625 : CASING SIZE
CBD1.          8.625" @ 1520' : CASING DRILLER 1
CBL1.F                   1519 : CASING LOGGER 1
BS1 .IN                 7.875 : BIT SIZE
BSD1.F                  10015 : DEPTH DRILLED WITH BIT1
DFT .  LIGNITE-LIGNOSULFONATE : TYPE FLUID IN HOLE
DFD .                    10.8 : DENSITY
DFV .                      53 : VISCOSITY
DFPH.                      11 : PH
DFL .                     3.6 : FLUID LOSS
MSS .              CIRC. TANK : SOURCE OF SAMPLE
RMS .OHMM                0.92 : RM
RMF .OHMM                0.68 : RMF
RMC .OHMM                 1.0 : RMC
MFSS.                    MEAS : SOURCE RMF.
MCSS.                    CALC : SOURCE RMC.
RMB .OHMM                0.31 : RM. AT BHT
BHT .F                    220 : BHT.
TCS .HRS                  300 : TIME CIRC. STOPPED
TLAB.                     900 : TIME LOGGER AT BOTTOM
LUN .                    8132 : LOGGING UNIT NUMBER
LUL .                  LAREDO : LOGGING UNIT LOCATION
ENGI.                   FOGAL : RECORDED BY
WITN.                  FISHER : WITNESSED BY
ORIG.                5" PRINT : ORIGIN OF DATA
UWI .          42127318560000 : UNIQUE WELL ID
DICO.  A2D TECHNOLOGIES, INC. : DIGITIZING COMPANY
~Other -----------------------------------------------------
~ASCII -----------------------------------------------------
# ...
 6500.00000    -999.25    -999.25  223.31400    -999.25    -999.25    -999.25    -999.25    4.47800    -999.25   79.00800   79.00800  102.65600  102.65600    4.47300    -999.25    -999.25    -999.25    4.47800    4.47300    4.69700   -6.73140  -20.49100    4.69700
 6550.00000    -999.25    -999.25  246.73080    -999.25    -999.25    -999.25    -999.25    4.05300    -999.25   84.32200   84.32200  105.89500  105.89500    4.04500    -999.25    -999.25    -999.25    4.05300    4.04500    4.22000   -4.38710  -18.04100    4.22000
 6600.00000    -999.25    -999.25  209.77550    -999.25    -999.25    -999.25    -999.25    4.76700    -999.25   77.57500   77.57500  101.43200  101.43200    4.83000    -999.25    -999.25    -999.25    4.76700    4.83000    4.88300   -7.27880  -20.82700    4.88300
 6650.00000    -999.25    -999.25  212.13410    -999.25    -999.25    -999.25    -999.25    4.71400    -999.25   77.67500   77.67500  103.90500  103.90500    4.44900    -999.25    -999.25    -999.25    4.71400    4.44900    4.93500   -7.22040  -20.66300    4.93500
 6700.00000    -999.25    -999.25  210.08400    -999.25    -999.25    -999.25    -999.25    4.76000    -999.25   77.44700   77.44700  105.34900  105.34900    4.90100    -999.25    -999.25    -999.25    4.76000    4.90100    4.85200   -9.29410  -22.63100    4.85200
 6750.00000    -999.25    -999.25  194.21250    -999.25    -999.25    -999.25    -999.25    5.14900    -999.25   79.10200   79.10200  107.79300  107.79300    5.14900    -999.25    -999.25    -999.25    5.14900    5.14900    5.64200   -6.38980  -19.62100    5.64200
 6800.00000    -999.25    -999.25  203.70750    -999.25    -999.25    -999.25    -999.25    4.90900    -999.25   78.40000   78.40000   94.09000   94.09000    4.83000    -999.25    -999.25    -999.25    4.90900    4.83000    5.10200   -6.22540  -19.35100    5.10200
 6850.00000    -999.25    -999.25  220.70180    -999.25    -999.25    -999.25    -999.25    4.53100    -999.25   79.88100   79.88100  100.21400  100.21400    4.48300    -999.25    -999.25    -999.25    4.53100    4.48300    4.65700   -6.99710  -20.01700    4.65700
 6900.00000    -999.25    -999.25  178.85890    -999.25    -999.25    -999.25    -999.25    5.59100    -999.25   76.04600   76.04600  101.68400  101.68400    5.49000    -999.25    -999.25    -999.25    5.59100    5.49000    5.45200   -9.13570  -22.05000    5.45200
 6950.00000    -999.25    -999.25  202.79860    -999.25    -999.25    -999.25    -999.25    4.93100    -999.25   77.26200   77.26200  104.21400  104.21400    4.83000    -999.25    -999.25    -999.25    4.93100    4.83000    5.29200   -6.55640  -19.36500    5.29200
 7000.00000    -999.25    -999.25  276.09050    -999.25    -999.25    -999.25    -999.25    3.62200    -999.25   85.88500   85.88500  111.09000  111.09000    3.67200    -999.25    -999.25    -999.25    3.62200    3.67200    3.98700   -5.56310  -18.26600    3.98700
 7050.00000    -999.25    -999.25  199.60080    -999.25    -999.25    -999.25    -999.25    5.01000    -999.25   79.33300   79.33300  105.92400  105.92400    4.83000    -999.25    -999.25    -999.25    5.01000    4.83000    5.31800   -7.81970  -20.41700    5.31800
 7100.00000    9.04200    9.04200  147.64510   -0.00900    2.61700    0.05440    0.05440    6.77300   -0.00900   74.25300   74.25300   86.73600   86.73600    6.87000    0.15600    0.15600    2.61700    6.77300    6.87000    7.35400   -6.72840  -19.22000    7.35400
 7150.00000    8.85400    8.85400  146.30580    0.01600    2.62700    0.04850    0.04850    6.83500    0.01600   70.81700   70.81700   79.65200   79.65200    6.56000    0.15700    0.15700    2.62700    6.83500    6.56000    8.13100   -7.03300  -19.41900    8.13100
 7200.00000    8.83100    8.83100  114.58690    0.00300    2.62400    0.05030    0.05030    8.72700    0.00300   68.63780   68.63780   72.16100   72.16100    9.12800    0.13800    0.13800    2.62400    8.72700    9.12800   10.08300   -1.26170  -56.15400   10.08300
 7250.00000    8.13800    8.13800   46.12970    0.00600    2.65100    0.03450    0.03450   21.67800    0.00600   60.13300   60.13300   59.60800   59.60800   23.97100    0.08700    0.08700    2.65100   21.67800   23.97100   27.43600   -6.90060  -60.50500   27.43600
 7300.00000    8.15900    8.15900   51.34520    0.01100    2.63600    0.04330    0.04330   19.47600    0.01100   62.56700   62.56700   71.26500   71.26500   19.54700    0.10400    0.10400    2.63600   19.47600   19.54700   21.47600   -6.18960  -58.50600   21.47600
 7350.00000    8.37500    8.37500  104.96480    0.04300    2.52900    0.10580    0.10580    9.52700    0.04300   76.15500   76.15500  100.73400  100.73400   10.13800    0.19100    0.19100    2.52900    9.52700   10.13800    6.42700   -7.40150  -58.43000    6.42700
 7400.00000    8.46900    8.46900  112.94330    0.00300    2.64200    0.03980    0.03980    8.85400    0.00300   69.13300   69.13300   71.13900   71.13900    9.44300    0.14000    0.14000    2.64200    8.85400    9.44300   10.27300   -6.83840  -56.57900   10.27300
 7450.00000    8.50400    8.50400   69.34330    0.01300    2.63200    0.04560    0.04560   14.42100    0.01300   63.73300   63.73300   64.11200   64.11200   14.51700    0.09400    0.09400    2.63200   14.42100   14.51700   18.05300   -9.25630  -57.70900   18.05300
 7500.00000    8.27600    8.27600   50.74850    0.04200    2.66600    0.02570    0.02570   19.70500    0.04200   60.20700   60.20700   60.54000   60.54000   21.17000    0.06600    0.06600    2.66600   19.70500   21.17000   38.48800  -12.52830  -59.69300   38.48800
 7550.00000    8.24100    8.24100   62.83380    0.00800    2.63400    0.04440    0.04440   15.91500    0.00800   59.24700   59.24700   60.67900   60.67900   18.41500    0.06800    0.06800    2.63400   15.91500   18.41500   19.44300   -9.15320  -55.03000   19.44300
 7600.00000    7.97800    7.97800   37.06310    0.01100    2.64100    0.04040    0.04040   26.98100    0.01100   56.27100   56.27100   44.45200   44.45200   27.58400    0.05400    0.05400    2.64100   26.98100   27.58400   56.99200  -15.90410  -60.49300   56.99200
 7650.00000    8.15900    8.15900  138.44660    0.02900    2.54400    0.09710    0.09710    7.22300    0.02900   60.27300   60.27300   66.61000   66.61000    8.19100    0.11300    0.11300    2.54400    7.22300    8.19100   12.17700   -3.16350  -46.48200   12.17700
 7700.00000    8.13900    8.13900   20.57060    0.00500    2.60800    0.05960    0.05960   48.61300    0.00500   55.55000   55.55000   36.59200   36.59200   55.04800    0.03500    0.03500    2.60800   48.61300   55.04800  120.87700  -29.65120  -71.84100  120.87700
 7750.00000    7.99800    7.99800   39.50700    0.01800    2.62200    0.05150    0.05150   25.31200    0.01800   60.51900   60.51900   58.49700   58.49700   24.76900    0.07000    0.07000    2.62200   25.31200   24.76900   36.38700  -28.36780  -69.42900   36.38700
 7800.00000    8.00400    8.00400   26.47110   -0.00400    2.60200    0.06320    0.06320   37.77700   -0.00400   59.58400   59.58400   48.63800   48.63800   36.70500    0.07800    0.07800    2.60200   37.77700   36.70500   39.02100  -34.24040  -74.17300   39.02100
 7850.00000    7.99800    7.99800   22.68710    0.00800    2.61000    0.05850    0.05850   44.07800    0.00800   60.81800   60.81800   59.55200   59.55200   40.45400    0.05500    0.05500    2.61000   44.07800   40.45400   82.74500  -37.35610  -76.16000   82.74500
 7900.00000    8.11900    8.11900    2.68280    0.00200    2.58400    0.07370    0.07370  372.74100    0.00200   61.31300   61.31300   63.41100   63.41100  173.41600    0.07300    0.07300    2.58400  372.74100  173.41600  468.61000  -43.56670  -81.24200  468.61000
 7950.00000    8.07800    8.07800   29.43950    0.02500    2.58400    0.07370    0.07370   33.96800    0.02500   71.67300   71.67300   57.56300   57.56300   33.53900    0.13700    0.13700    2.58400   33.96800   33.53900   49.32200  -36.21930  -72.76600   49.32200
 8000.00000    8.22000    8.22000   12.60560    0.01500    2.41900    0.17020    0.17020   79.33000    0.01500   82.72900   82.72900   83.12100   83.12100   74.71000    0.23100    0.23100    2.41900   79.33000   74.71000  120.14100  -55.33700  -90.75500  120.14100
