~Version ---------------------------------------------------
VERS. 2.0 : CWLS log ASCII Standard -VERSION 2.0
WRAP. YES : MULTIPLE LINES PER DEPTH STEP
~Well ------------------------------------------------------
STRT.FT                  300.0 : START DEPTH
STOP.FT                18600.0 : STOP DEPTH
STEP.FT               50.00000 : STEP LENGTH
NULL.                  -999.25 : NULL VALUE
COMP.        SHELL OIL COMPANY : COMPANY
WELL. PAWELEK BEN A ET AL A #1 : WELL
FLD .    PERSON AREA (WILDCAT) : FIELD
LOC .                          : LOCATION
CNTY.                   KARNES : COUNTY
STAT.                    TEXAS : STATE
CTRY. UNITED STATES OF AMERICA : COUNTRY
SRVC.             Schlumberger : SERVICE COMPANY
DATE.              22-May-1978 : LOGDATE
API .           42255305980000 : API NUMBER
UWI .           42255305980000 : UNIQUE WELL ID
SLAT.WGS84       29.0241796548 : SURFACE LATITUDE
SLON.WGS84      -97.8796797249 : SURFACE LONGITUDE
~Curve Information -----------------------------------------
DEPT    .FT    : DEPTH FEET
CALDED  .IN    : CALIPER FROM DENSITY LOG [DEP ADJ TO GRSED]
CALMED  .IN    : CALIPER FROM MICROLOG [DEP ADJ TO SFLED]
CALSED  .IN    : CALIPER FROM SONIC LOG
CALWS   .IN    : CALIPER [10 CALDED 4845.5 CALMED 4849 CALDED 17451 CALSED 17577 CALDED]
CONDWS  .MMHO  : CONDUCTIVITY [1000/DRESWS]
DCORWS  .G/C3  : DENSITY CORRECTION [DRHOED]
DENWS   .G/C3  : BULK DENSITY [M=2.71 F=1.0] [RHOBED]
DPHILSED.V/V   : DENSITY POROSITY [M=2.71 F=1.0] FROM DENSITY LOG [DEP ADJ TO GRSED/RHOBED]
DPHISSED.V/V   : DENSITY POROSITY [M=2.65 F=1.0] FROM DENSITY LOG [DEP ADJ TO GRSED/RHOBED]
DPOLSWS .V/V   : DENSITY POROSITY [M=2.71 F=1.0] [CAL FR DENWS]
DRESWS  .OHMM  : DEEP RESISTIVITY [ILDED]
DRHOED  .G/C3  : DENSITY CORRECTION FROM DENSITY LOG [DEP ADJ TO GRSED]
DTED    .US/F  : DELTA TIME FROM SONIC LOG
DTWS    .US/F  : DELTA TIME [DTED]
GRDED   .GAPI  : GAMMA RAY FROM DENSITY LOG
GRRED   .GAPI  : GAMMA RAY FROM RESISTIVITY LOG [DEP ADJ TO GRSED]
GRSED   .GAPI  : GAMMA RAY FROM SONIC LOG
GRWS    .GAPI  : GAMMA RAY [70 GRDED 4800.5 GRDEDNRM [0-100 TO 0-140]4844.5 GRSED 4853.5 GRDED 12903.5 GRSED 12939.5 GRDED 12962 GRSED 17526 GRDED 17550 GRRED 18607 GRDED]
ILDED   .OHMM  : INDUCTION LOG DEEP RESISTIVITY
ILMED   .OHMM  : INDUCTION LOG MEDIUM RESISTIVITY
MRESWS  .OHMM  : MEDIUM RESISTIVITY [ILMED]
NPHILSED.V/V   : NEUTRON POROSITY LISTONE FROM DENSITY LOG [DEP ADJ TO GRSED/RHOBED]
NPHISSED.V/V   : NEUTRON POROSITY SANDSTONE FROM DENSITY LOG [DEP ADJ TO GRSED/RHOBED]
NPOLSWS .V/V   : NEUTRON POROSITY LIMESTONE [10 NPOLSCAL 9446 NPHILSED] [NPHISSED IS CONVERTED TO NPOLSCAL USING POWERLOG MODULE]
PROXED  .OHMM  : PROXIMITY RESISTIVITY FROM MICROLOG [DEP ADJ TO SFLED]
RHOBED  .G/C3  : BULK DENSITY FROM DENSITY LOG [DEP ADJ TO GRSED]
SFLED   .OHMM  : SPHERICALLY FOCUSED LOG RESISTIVITY
SPRED   .MV    : SPONTANEOUS POTENTIAL FROM RESISTIVITY LOG [SHIFTS ARE REMOVED]
SPWS    .MV    : SPONTANEOUS POTENTIAL [BASELINE 0 MV] [SPRED][PL. USE W/ RESERVATIONS]
SRESWS  .OHMM  : SHALLOW RESISTIVITY [SFLED]
TENDED  .LBF   : TENSION FROM DENSITY LOG [DEP ADJ TO GRSED]
~Params ----------------------------------------------------
PD  .                     GL : PERMANENT DATUM
EPD .FT                  335 : ELEVATION PERMANENT DATUM
LMF .                     KB : LOG MEASURED FROM
DAPD.FT                   28 : FEET ABOVE PERMANENT DATUM
DMF .                     KB : DRILLING MEASURED FROM
EKB .FT                  363 : KELLY BUSHING
EDF .FT                  362 : DRILLING FLOOR
EGL .FT                  335 : GROUND LEVEL
DATE.               05/22/78 : RUN DATE
RUN .                      4 : RUN NUMBER
DD  .FT                18626 : DEPTH DRILLER
DL  .FT                18642 : DEPTH LOGGER
BLI .FT                18637 : BOTTOM LOG INTERVAL
TLI .FT                17550 : TOP LOG INTERVAL
CS  .IN                    7 : CASING SIZE
CBD .FT                17544 : CASING BOTTOM DRILLER
CBL .FT                17550 : CASING BOTTOM LOGGER
BS  .IN                    6 : BIT SIZE
BSD .FT                18626 : BIT SIZE AT DEPTH
DFT .               INVERMUL : DRILLING FLUID TYPE
DFD .                   17.6 : DRILLING FLUID DENSITY
DFV .                     70 : DRILLING FLUID VISCOSITY
DFL .                      2 : DRILLING FLUID LOSS
LUN .                   7799 : LOGGING UNIT NUMBER
LUL .                  PLEAS : LOGGING UNIT LOCATION
ENGI.             TURBEVILLE : RECORDING ENGINEER
WITN.                JARRELL : WITNESSED BY
CLNT.                A2DTECH : CLIENT CODE
ORIG.            2" 5" PRINT : ORIGIN OF DATA
UWI .         42255305980000 : UNIQUE WELL ID
DICO. A2D Technologies, Inc. : DIGITIZING COMPANY
~Other -----------------------------------------------------
~ASCII -----------------------------------------------------
# ...
 16400.00000    9.53540    -999.25    9.46680    9.53540   37.50260    0.00900    2.73510   -0.00720    -999.25   -0.01470   26.66480    0.00900   60.05330   60.05330   63.46070    -999.25   71.52580   71.52580   26.66480   18.85340   18.85340    0.08250    -999.25    0.08250    -999.25    2.73510   43.15090  -12.33160   -6.66890   43.15090 9341.10640
 16450.00000    9.01060    -999.25    8.94870    9.01060   12.64540    0.03630    2.74870   -0.01990    -999.25   -0.02260   79.08010    0.03630   54.80540   54.80540   51.74830    -999.25   58.20170   58.20170   79.08010   46.68140   46.68140    0.02660    -999.25    0.02660    -999.25    2.74870  812.58890  -13.48480   -8.09030  812.58890 9317.22360
 16500.00000    9.01950    -999.25    8.96700    9.01950   14.83470    0.00250    2.71840    0.00340    -999.25   -0.00490   67.40970    0.00250   57.23190   57.23190   62.51830    -999.25   65.93150   65.93150   67.40970   39.95060   39.95060    0.05080    -999.25    0.05080    -999.25    2.71840   97.54750  -12.69930   -7.57300   97.54750 9278.45410
 16550.00000    9.13200    -999.25    8.93180    9.13200   19.93590    0.02460    2.71910   -0.02030    -999.25   -0.00530   50.16070    0.02460   58.38990   58.38990   61.22560    -999.25   72.27100   72.27100   50.16070   35.98980   35.98980    0.07150    -999.25    0.07150    -999.25    2.71910   58.23550  -11.47530   -6.61730   58.23550 9285.33300
 16600.00000    9.12210    -999.25    8.93000    9.12210    9.30410    0.03300    2.74700   -0.02260    -999.25   -0.02160  107.47910    0.03300   55.42230   55.42230   54.43120    -999.25   55.31990   55.31990  107.47910  171.89360  171.89360    0.04060    -999.25    0.04060    -999.25    2.74700  875.08780  -10.17500   -5.58520  875.08780 9217.60940
 16650.00000    9.01320    -999.25    8.85200    9.01320   26.60210    0.00870    2.71920   -0.00210    -999.25   -0.00540   37.59100    0.00870   59.25160   59.25160   54.55880    -999.25   50.91360   50.91360   37.59100   45.39750   45.39750    0.03580    -999.25    0.03580    -999.25    2.71920   75.95850   -9.84660   -5.52500   75.95850 9263.47750
 16700.00000    9.01270    -999.25    8.88020    9.01270   14.20830    0.00960    2.73160   -0.01340    -999.25   -0.01260   70.38130    0.00960   56.69060   56.69060   64.03200    -999.25   72.98400   72.98400   70.38130   67.43670   67.43670    0.05970    -999.25    0.05970    -999.25    2.73160  169.82520  -10.04170   -5.69570  169.82520 9244.36820
 16750.00000    9.51200    -999.25    9.36110    9.51200   46.36930    0.02110    2.74990   -0.01940    -999.25   -0.02330   21.56600    0.02110   60.97640   60.97640   61.42900    -999.25   75.73830   75.73830   21.56600   17.86360   17.86360    0.10110    -999.25    0.10110    -999.25    2.74990   38.37710   -9.42960   -4.93960   38.37710 9253.42680
 16800.00000    9.30060    -999.25    9.21980    9.30060   32.47490    0.01870    2.73740   -0.01440    -999.25   -0.01600   30.79300    0.01870   57.22800   57.22800   57.27290    -999.25   59.71810   59.71810   30.79300   28.93450   28.93450    0.07060    -999.25    0.07060    -999.25    2.73740   54.57970  -10.96190   -6.32790   54.57970 9243.69920
 16850.00000    9.51970    -999.25    9.30710    9.51970   43.75600    0.02040    2.77330   -0.03500    -999.25   -0.03700   22.85400    0.02040   60.89820   60.89820   61.11890    -999.25   69.80250   69.80250   22.85400   17.95510   17.95510    0.07220    -999.25    0.07220    -999.25    2.77330   36.16760   -9.00500   -4.22700   36.16760 9135.77830
 16900.00000    9.98930    -999.25    9.76250    9.98930   92.18800    0.01480    2.74770   -0.01240    -999.25   -0.02200   10.84740    0.01480   64.59400   64.59400   72.17230    -999.25   80.62470   80.62470   10.84740    9.66710    9.66710    0.13200    -999.25    0.13200    -999.25    2.74770   10.94160  -11.29850   -6.49980   10.94160 9207.99510
 16950.00000   10.61320    -999.25   10.22000   10.61320  150.19530    0.04430    2.76690   -0.03240    -999.25   -0.03330    6.65800    0.04430   65.68710   65.68710   78.20090    -999.25   93.53850   93.53850    6.65800    6.23900    6.23900    0.19540    -999.25    0.19540    -999.25    2.76690   11.68980  -10.28180   -5.87530   11.68980 9198.77250
 17000.00000   10.15640    -999.25    9.93520   10.15640  146.03440    0.05780    2.79640   -0.03090    -999.25   -0.05050    6.84770    0.05780   69.33300   69.33300   83.37110    -999.25  102.12820  102.12820    6.84770    6.14130    6.14130    0.15300    -999.25    0.15300    -999.25    2.79640   10.79310  -11.49830   -7.48390   10.79310 9155.67290
 17050.00000   10.10950    -999.25    9.78110   10.10950  134.26060    0.01070    2.74430   -0.00890    -999.25   -0.02010    7.44820    0.01070   65.59710   65.59710   76.52510    -999.25   85.89050   85.89050    7.44820    6.92510    6.92510    0.13320    -999.25    0.13320    -999.25    2.74430   11.62790  -11.33800   -7.71580   11.62790 9162.96680
 17100.00000    9.39780    -999.25    8.98000    9.39780   89.40310    0.01590    2.72930   -0.00730    -999.25   -0.01130   11.18530    0.01590   64.62930   64.62930   66.39010    -999.25   74.90810   74.90810   11.18530   10.24780   10.24780    0.10530    -999.25    0.10530    -999.25    2.72930   16.01200  -10.23550   -7.00540   16.01200 9048.65140
 17150.00000    9.27600    -999.25    9.24060    9.27600  177.54100    0.04730    2.79240   -0.05090    -999.25   -0.04820    5.63250    0.04730   70.49530   70.49530   53.10520    -999.25   60.47000   60.47000    5.63250    5.42610    5.42610    0.07120    -999.25    0.07120    -999.25    2.79240    8.23170  -11.24560   -8.40770    8.23170 9116.42190
 17200.00000    9.03400    -999.25    8.85410    9.03400  131.63090    0.03860    2.82600   -0.06510    -999.25   -0.06780    7.59700    0.03860   68.87610   68.87610   63.88760    -999.25   93.51040   93.51040    7.59700    6.99530    6.99530    0.08520    -999.25    0.08520    -999.25    2.82600   11.25430   -9.56130   -7.11550   11.25430 9107.05470
 17250.00000    9.01750    -999.25    8.75920    9.01750  130.75490    0.03380    2.77530   -0.04460    -999.25   -0.03820    7.64790    0.03380   64.94220   64.94220   77.14260    -999.25   93.71780   93.71780    7.64790    8.18720    8.18720    0.11120    -999.25    0.11120    -999.25    2.77530   11.87020  -10.40070   -8.34710   11.87020 8757.54980
 17300.00000    9.21670    -999.25    8.90060    9.21670  135.50140    0.02210    2.76760   -0.01150    -999.25   -0.03370    7.38000    0.02210   67.09210   67.09210   86.85460    -999.25  102.23070  102.23070    7.38000    7.07780    7.07780    0.16850    -999.25    0.16850    -999.25    2.76760   12.53730   -7.86640   -6.20500   12.53730 9038.60060
 17350.00000    9.06240    -999.25    8.97550    9.06240   42.56410    0.00140    2.73200   -0.01400    -999.25   -0.01290   23.49400    0.00140   59.09480   59.09480   38.23820    -999.25   43.12050   43.12050   23.49400   21.34360   21.34360    0.03810    -999.25    0.03810    -999.25    2.73200   32.31900   -6.61990   -5.35060   32.31900 9010.84080
 17400.00000    9.20320    -999.25    9.00400    9.20320   12.42440    0.03210    2.76200   -0.02820    -999.25   -0.03040   80.48680    0.03210   54.67040   54.67040   37.85770    -999.25   46.15790   46.15790   80.48680   85.04910   85.04910    0.01890    -999.25    0.01890    -999.25    2.76200  146.13370   -4.83520   -3.94630  146.13370 9037.80270
 17450.00000    8.65380    -999.25    8.58750    8.65380    0.57150    0.05260    2.79340   -0.04850    -999.25   -0.04880 1749.78630    0.05260   50.66110   50.66110   31.87190    -999.25   37.55270   37.55270 1749.78630  711.85530  711.85530    0.00880    -999.25    0.00880    -999.25    2.79340 1737.99840  -24.51050  -23.62160 1737.99840 9004.38280
 17500.00000    8.63790    -999.25    8.51080    8.51080    2.14030    0.04250    2.80200   -0.03690    -999.25   -0.05380  467.21940    0.04250   49.82530   49.82530   18.92860    -999.25   22.15690   22.15690  467.21940  924.68360  924.68360    0.00260    -999.25    0.00260    -999.25    2.80200 1670.92930  -49.17930  -48.29040 1670.92930 9035.91800
