~Version ---------------------------------------------------
VERS. 2.0 : CWLS log ASCII Standard -VERSION 2.0
WRAP. YES : MULTIPLE LINES PER DEPTH STEP
~Well ------------------------------------------------------
STRT.FT                   3900.0 : START DEPTH
STOP.FT                   7900.0 : STOP DEPTH
STEP.FT                 50.00000 : STEP LENGTH
NULL.                    -999.25 : NULL VALUE
COMP. CHAMPLIN PETROLEUM COMPANY : COMPANY
WELL.        MELVIN M. HRONEK #1 : WELL
FLD .                   GIDDINGS : FIELD
LOC .                            : LOCATION
CNTY.                   BURLESON : COUNTY
STAT.                      TEXAS : STATE
CTRY.   UNITED STATES OF AMERICA : COUNTRY
SRVC.               Schlumberger : SERVICE COMPANY
DATE.                08-Jul-1980 : LOGDATE
API .             42051308330000 : API NUMBER
UWI .             42051308330000 : UNIQUE WELL ID
SLAT.WGS84         30.5404535436 : SURFACE LATITUDE
SLON.WGS84        -96.6440104121 : SURFACE LONGITUDE
~Curve Information -----------------------------------------
DEPT    .FT    : DEPTH FEET
CALDED  .IN    : CALIPER FROM CNFL [DEPTH ADJ. TO GRR.]
CALWS   .IN    : CALIPER [CALDED]
CONDWS  .MMHO  : CONDUCTIVITY [1000/DRESWS]
DCORWS  .G/C3  : DENSITY CORRECTION [DRHOED]
DENWS   .G/C3  : BULK DENSITY [M=2.71 F=1.0] [RHOBED]
DPHILSED.V/V   : DENSITY POROSITY [M=2.71 F=1.0] FROM CNFL [DEPTH ADJ. TO GRR.]
DPOWS   .V/V   : DENSITY POROSITY [M=2.71 F=1.0] [CALCULATED FROM DENWS]
DRESWS  .OHMM  : DEEP RESISTIVITY [ILDED]
DRHOED  .G/C3  : DENSITY CORRECTION FROM DENSITY LOG
DTED    .US/F  : DELTA TIME FROM DUAL INDUCTION SFL -SONIC LOG
DTWS    .US/F  : DELTA TIME [DTED]
GRDED   .GAPI  : GAMMA RAY FROM CNFL [DEPTH ADJ. TO GRR.]
GRRED   .GAPI  : GAMMA RAY FROM DUAL INDUCTION SFL -SONIC LOG
GRWS    .GAPI  : GAMMA RAY [GRDED]
ILDED   .OHMM  : INDUCTION LOG DEEP FROM DUAL INDUCTION SFL -SONIC LOG
ILMED   .OHMM  : INDUCTION LOG MEDIUM FROM DUAL INDUCTION SFL -SONIC LOG
MRESWS  .OHMM  : MEDIUM RESISTIVITY [ILMED]
NPHILSED.V/V   : NEUTRON POROSITY LIMESTONE FROM CNFL [DEPTH ADJ. TO GRR.]
NPOWS   .V/V   : NEUTRON POROSITY LIMESTONE [NPHILSED]
RHOBED  .G/C3  : BULK DENSITY FROM CNFL [DEPTH ADJ. TO GRR.]
SFLUED  .OHMM  : SPHERICALLY FOCUSED FROM DUAL INDUCTION SFL -SONIC LOG
SPHILSED.V/V   : SONIC POROSITY FROM DENSITY SONIC LOG [DEPTH ADJ. TO GRR.]
SPOWS   .V/V   : SONIC POROSITY [SPHIED]
SPRED   .MV    : SPONTANEOUS POTENTIAL FROM DUAL INDUCTION SFL -SONIC LOG
SPWS    .MV    : SPONTANEOUS POTENTIAL [BASELINE 0 MV] [SPRED]
SRESWS  .OHMM  : SHALLOW RESISTIVITY [SFLUED]
~Params ----------------------------------------------------
PD  .                     GL : PERMANENT DATUM
EPD .FT                  404 : ELEVATION PERMANENT DATUM
LMF .                     KB : LOG MEASURED FROM
DAPD.FT                   14 : FEET ABOVE PERMANENT DATUM
DMF .                     KB : DRILLING MEASURED FROM
EKB .FT                  418 : KELLY BUSHING
EDF .FT                  417 : DRILLING FLOOR
EGL .FT                  404 : GROUND LEVEL
DATE.               07/08/80 : RUN DATE
RUN .                      1 : RUN NUMBER
DD  .FT                 7958 : DEPTH DRILLER
DL  .FT                 7938 : DEPTH LOGGER
BLI .FT                 7932 : BOTTOM LOG INTERVAL
TLI .FT                 3892 : TOP LOG INTERVAL
CS  .IN                9.625 : CASING SIZE
CBD .FT                 3910 : CASING BOTTOM DRILLER
CBL .FT                 3892 : CASING BOTTOM LOGGER
BS  .IN                 8.75 : BIT SIZE
BSD .FT                 7958 : BIT SIZE AT DEPTH
DFT .               BROCK WL : DRILLING FLUID TYPE
DFD .                    9.7 : DRILLING FLUID DENSITY
DFV .                     40 : DRILLING FLUID VISCOSITY
DFPH.                    8.5 : DRILLING FLUID PH
DFL .                   0.15 : DRILLING FLUID LOSS
MSS .                   TANK : MUD SAMPLE SOURCE
RMS .OHMM               2.44 : RESISTIVITY MUD SAMPLE
MST .DEGF                 79 : MUD SAMPLE TEMPERATURE
RMF .OHMM                2.1 : RESISTIVITY MUD FILTRATE SAMPLE
MFST.DEGF                 75 : MUD FILTRATE SAMPLE TEMPERATURE
RMC .OHMM               3.66 : RESISTIVITY MUD CAKE
MCST.DEGF                 79 : MUD CAKE SAMPLE TEMPERATURE
MFSS.                      M : MUD FILTRATE SAMPLE SOURCE
MCSS.                      C : MUD CAKE SAMPLE SOURCE
RMB .OHMM               0.98 : RESISTIVITY MUD AT BHT
TCS .HRS                 100 : TIME CIRCULATED STOPPED
TLAB.HRS                 530 : TIME LOGGER AT BOTTOM
LUN .                   7750 : LOGGING UNIT NUMBER
LUL .                BRENHAM : LOGGING UNIT LOCATION
ENGI.                 HARRIS : RECORDING ENGINEER
WITN.                 SCHELL : WITNESSED BY
CLNT.                A2DTECH : CLIENT CODE
ORIG.            2" 5" PRINT : ORIGIN OF DATA
UWI .         42051308330000 : UNIQUE WELL ID
DICO. A2D Technologies, Inc. : DIGITIZING COMPANY
~Other -----------------------------------------------------
~ASCII -----------------------------------------------------
 3900.00000    -999.25    -999.25  351.29630    -999.25    -999.25    -999.25    -999.25    2.84660    -999.25  104.25780  104.25780    -999.25   86.51950  104.25780    2.84660    2.94600    2.94600    -999.25    -999.25    -999.25    3.29330    -999.25    -999.25  -13.82350   -6.33470    3.29330
 3950.00000    -999.25    -999.25  447.60750    -999.25    -999.25    -999.25    -999.25    2.23410    -999.25  104.10040  104.10040    -999.25   76.92860  104.10040    2.23410    2.30640    2.30640    -999.25    -999.25    -999.25    2.35330    -999.25    -999.25  -12.67260   -3.99220    2.35330
 4000.00000    -999.25    -999.25  455.18690    -999.25    -999.25    -999.25    -999.25    2.19690    -999.25  102.96960  102.96960    -999.25   82.26040  102.96960    2.19690    2.27340    2.27340    -999.25    -999.25    -999.25    2.36170    -999.25    -999.25  -12.60940   -2.76750    2.36170
 4050.00000    -999.25    -999.25  362.73940    -999.25    -999.25    -999.25    -999.25    2.75680    -999.25   96.81640   96.81640    -999.25   75.52770   96.81640    2.75680    2.85810    2.85810    -999.25    -999.25    -999.25    3.22800    -999.25    -999.25  -14.72800   -5.19800    3.22800
 4100.00000    -999.25    -999.25  368.65000    -999.25    -999.25    -999.25    -999.25    2.71260    -999.25   98.55180   98.55180    -999.25   83.88860   98.55180    2.71260    2.80210    2.80210    -999.25    -999.25    -999.25    2.91040    -999.25    -999.25  -13.54940   -4.33130    2.91040
 4150.00000    -999.25    -999.25  389.62050    -999.25    -999.25    -999.25    -999.25    2.56660    -999.25   89.76370   89.76370    -999.25   75.55680   89.76370    2.56660    2.64990    2.64990    -999.25    -999.25    -999.25    2.95600    -999.25    -999.25  -12.88890   -3.98270    2.95600
 4200.00000    -999.25    -999.25  504.21020    -999.25    -999.25    -999.25    -999.25    1.98330    -999.25  101.11880  101.11880    -999.25   91.40010  101.11880    1.98330    2.04950    2.04950    -999.25    -999.25    -999.25    2.18110    -999.25    -999.25  -10.48720   -1.89290    2.18110
 4250.00000    -999.25    -999.25  600.27610    -999.25    -999.25    -999.25    -999.25    1.66590    -999.25  103.20430  103.20430    -999.25   92.85730  103.20430    1.66590    1.72030    1.72030    -999.25    -999.25    -999.25    1.79530    -999.25    -999.25  -10.38830   -2.10590    1.79530
 4300.00000    -999.25    -999.25  454.54550    -999.25    -999.25    -999.25    -999.25    2.20000    -999.25   95.93960   95.93960    -999.25   82.30420   95.93960    2.20000    2.27460    2.27460    -999.25    -999.25    -999.25    2.32780    -999.25    -999.25  -10.37640   -2.40590    2.32780
 4350.00000    -999.25    -999.25  573.49310    -999.25    -999.25    -999.25    -999.25    1.74370    -999.25  103.15910  103.15910    -999.25   90.24590  103.15910    1.74370    1.80080    1.80080    -999.25    -999.25    -999.25    1.93560    -999.25    -999.25  -11.67160   -4.01300    1.93560
 4400.00000    -999.25    -999.25  657.46220    -999.25    -999.25    -999.25    -999.25    1.52100    -999.25  105.24220  105.24220    -999.25   93.47570  105.24220    1.52100    1.57030    1.57030    -999.25    -999.25    -999.25    1.71130    -999.25    -999.25   -8.57400   -1.22730    1.71130
 4450.00000    -999.25    -999.25  672.35930    -999.25    -999.25    -999.25    -999.25    1.48730    -999.25  104.38530  104.38530    -999.25   88.04850  104.38530    1.48730    1.53760    1.53760    -999.25    -999.25    -999.25    1.66030    -999.25    -999.25   -9.07690   -2.04210    1.66030
 4500.00000    -999.25    -999.25  747.49590    -999.25    -999.25    -999.25    -999.25    1.33780    -999.25  107.76940  107.76940    -999.25   88.30170  107.76940    1.33780    1.36660    1.36660    -999.25    -999.25    -999.25    1.50930    -999.25    -999.25  -11.89960   -5.07850    1.50930
 4550.00000    -999.25    -999.25  563.53900    -999.25    -999.25    -999.25    -999.25    1.77450    -999.25   99.28770   99.28770    -999.25   97.81670   99.28770    1.77450    1.82920    1.82920    -999.25    -999.25    -999.25    1.93650    -999.25    -999.25  -10.62940   -3.97160    1.93650
 4600.00000    -999.25    -999.25  595.80550    -999.25    -999.25    -999.25    -999.25    1.67840    -999.25  100.17890  100.17890    -999.25   93.40250  100.17890    1.67840    1.72190    1.72190    -999.25    -999.25    -999.25    1.81510    -999.25    -999.25  -10.20600   -3.71140    1.81510
 4650.00000    -999.25    -999.25  758.03520    -999.25    -999.25    -999.25    -999.25    1.31920    -999.25  103.86900  103.86900    -999.25   85.94030  103.86900    1.31920    1.36680    1.36680    -999.25    -999.25    -999.25    1.45270    -999.25    -999.25   -9.73500   -3.40360    1.45270
 4700.00000    -999.25    -999.25 1192.60580    -999.25    -999.25    -999.25    -999.25    0.83850    -999.25  114.67400  114.67400    -999.25   72.59310  114.67400    0.83850    0.86440    0.86440    -999.25    -999.25    -999.25    0.91160    -999.25    -999.25   -7.38970   -1.22150    0.91160
 4750.00000    -999.25    -999.25  548.51630    -999.25    -999.25    -999.25    -999.25    1.82310    -999.25  100.48480  100.48480    -999.25   71.44640  100.48480    1.82310    1.87680    1.87680    -999.25    -999.25    -999.25    1.94370    -999.25    -999.25  -11.37890   -4.77450    1.94370
 4800.00000    -999.25    -999.25  602.19200    -999.25    -999.25    -999.25    -999.25    1.66060    -999.25  101.75690  101.75690    -999.25   86.10730  101.75690    1.66060    1.71420    1.71420    -999.25    -999.25    -999.25    1.81270    -999.25    -999.25   -9.95390   -2.42270    1.81270
 4850.00000    -999.25    -999.25  695.55540    -999.25    -999.25    -999.25    -999.25    1.43770    -999.25  104.83860  104.83860    -999.25   75.23940  104.83860    1.43770    1.48170    1.48170    -999.25    -999.25    -999.25    1.62460    -999.25    -999.25  -10.92240   -2.46450    1.62460
 4900.00000    -999.25    -999.25  689.51250    -999.25    -999.25    -999.25    -999.25    1.45030    -999.25  103.39590  103.39590    -999.25   81.38070  103.39590    1.45030    1.48350    1.48350    -999.25    -999.25    -999.25    1.59570    -999.25    -999.25  -10.76110   -1.92180    1.59570
 4950.00000    -999.25    -999.25  835.63130    -999.25    -999.25    -999.25    -999.25    1.19670    -999.25  108.26590  108.26590    -999.25   81.99940  108.26590    1.19670    1.23350    1.23350    -999.25    -999.25    -999.25    1.46250    -999.25    -999.25  -10.60310   -2.20050    1.46250
 5000.00000    -999.25    -999.25  967.58590    -999.25    -999.25    -999.25    -999.25    1.03350    -999.25  110.11670  110.11670    -999.25   84.30990  110.11670    1.03350    1.07580    1.07580    -999.25    -999.25    -999.25    1.21070    -999.25    -999.25  -10.79430   -2.82840    1.21070
 5050.00000    -999.25    -999.25  638.93680    -999.25    -999.25    -999.25    -999.25    1.56510    -999.25   98.88070   98.88070    -999.25   71.61000   98.88070    1.56510    1.64020    1.64020    -999.25    -999.25    -999.25    1.75830    -999.25    -999.25   -9.18720   -1.65800    1.75830
 5100.00000    -999.25    -999.25  775.07360    -999.25    -999.25    -999.25    -999.25    1.29020    -999.25  103.66580  103.66580    -999.25   79.27710  103.66580    1.29020    1.34210    1.34210    -999.25    -999.25    -999.25    1.49350    -999.25    -999.25   -9.80810   -2.71550    1.49350
 5150.00000    -999.25    -999.25 1072.73120    -999.25    -999.25    -999.25    -999.25    0.93220    -999.25  112.23930  112.23930    -999.25   79.98000  112.23930    0.93220    0.96990    0.96990    -999.25    -999.25    -999.25    1.09140    -999.25    -999.25  -10.70690   -4.05100    1.09140
 5200.00000    -999.25    -999.25  880.43670    -999.25    -999.25    -999.25    -999.25    1.13580    -999.25  108.19450  108.19450    -999.25   84.82820  108.19450    1.13580    1.16770    1.16770    -999.25    -999.25    -999.25    1.40130    -999.25    -999.25   -8.72830   -2.50910    1.40130
