~Version ---------------------------------------------------
VERS.      2.0 : CWLS log ASCII Standard -VERSION 2.0
WRAP.      YES : Multiple lines per depth step
CREA. 10/06/20 : LAS Creation Date
~Well ------------------------------------------------------
STRT.FT                 3150.0 : START DEPTH
STOP.FT                18400.0 : STOP DEPTH
STEP.FT               50.00000 : STEP LENGTH
NULL.                  -999.25 : NULL VALUE
COMP. AMOCO PRODUCTION COMPANY : COMPANY
WELL.       MARTIN GAS UNIT #1 : WELL
FLD .                  WILDCAT : FIELD
LOC .                          : LOCATION
CNTY.                     LEON : COUNTY
STAT.                    TEXAS : STATE
CTRY. UNITED STATES OF AMERICA : COUNTRY
SRVC.             Schlumberger : SERVICE COMPANY
DATE.              06-Oct-1998 : LOGDATE
API .           42289312900000 : API NUMBER
UWI .           42289312900000 : UNIQUE WELL ID
SLAT.WGS84       31.2448401024 : SURFACE LATITUDE
SLON.WGS84      -96.2384028977 : SURFACE LONGITUDE
~Curve Information -----------------------------------------
DEPT    .FT    : DEPTH FEET
AT20ED  .OHMM  : 20 INCH ARRAY RESISTIVITY TWO FOOT RESOLUTION FROM AIT LOG
AT30ED  .OHMM  : 30 INCH ARRAY RESISTIVITY TWO FOOT RESOLUTION FROM AIT LOG
AT60ED  .OHMM  : 60 INCH ARRAY RESISTIVITY TWO FOOT RESOLUTION FROM AIT LOG
AT90ED  .OHMM  : 90 INCH ARRAY RESISTIVITY TWO FOOT RESOLUTION FROM AIT LOG
BITSED  .IN    : BIT SIZE FROM RUN HEADERS
CALDED  .IN    : CALIPER FROM DENSITY LOG [DSH. TO GRRED]
CALWS   .IN    : CALIPER [TOP CALDED 14108' (DCALDED+BITSED) TD]
CONDWS  .MMHO  : DEEP CONDUCTIVITY [1000/DRESWS]
DCALDED .IN    : DIFFERENTIAL CALIPER FROM DENSITY LOG [DSH. TO GRRED]
DCORWS  .G/C3  : DENSITY CORRECTION [TOP DRHOED 16650' DRHED TD]
DENWS   .G/C3  : BULK DENSITY [CALC. FROM DPOLSWS]
DPHILSED.V/V   : DENSITY POROSITY (LS) [M=2.71 F=1.00] [DSH. TO GRRED]
DPOLSED .V/V   : DENSITY POROSITY (LS) [M=2.71 F=1.00] [DSH. TO GRRED]
DPOLSWS .V/V   : DENSITY POROSITY (LS) [M=2.71 F=1.00] [TOP DPHILSED 16650' DPOLSED TD]
DRESWS  .OHMM  : DEEP RESISTIVITY [TOP AT90ED 14100' ILDED 16650' IDPHED TD]
DRHED   .G/C3  : DENSITY CORRECTION FROM DENSITY LOG [DSH. TO GRRED]
DRHOED  .G/C3  : DENSITY CORRECTION FROM DENSITY LOG [DSH. TO GRRED]
DTCOED  .US/F  : DELTA TIME COMPRESSIONAL FROM SONIC LOG
DTLFED  .US/F  : DELTA TIME LONG SPACING FAR DETECTOR FROM SONIC LOG
DTLNED  .US/F  : DELTA TIME LONG SPACING NEAR DETECTOR FROM SONIC LOG
DTSMED  .US/F  : DELTA TIME SHEAR WAVE FROM SONIC LOG
DTSWS   .US/F  : DELTA TIME SHEAR [DTSMED]
DTWS    .US/F  : DELTA TIME COMPRESSIONAL [TOP DTCOED 16650' DTLNED TD]
GRDED   .GAPI  : GAMMA RAY FROM DENSITY LOG [DSH. TO GRRED]
GRRED   .GAPI  : GAMMA RAY FROM RESISTIVITY LOG
GRWS    .GAPI  : GAMMA RAY [GRRED][RESCALED GRWS IN CSG )14030-14106' & 16606-16645') FROM 0/90-0/150]
IDPHED  .OHMM  : DEEP INDUCTION PHASE RESISTIVITY
ILDED   .OHMM  : DEEP INDUCTION RESISTIVITY
ILMED   .OHMM  : MEDIUM INDUCTION RESISTIVITY
IMPHED  .OHMM  : MEDIUM INDUCTION PHASE RESISTIVITY
MRESWS  .OHMM  : MEDIUM RESISTIVITY [TOP AT30ED 14100' ILMED 16650' IMPHED TD]
NPHILSED.V/V   : NEUTRON POROSITY (LS) [DSH. TO GRRED]
NPOLSWS .V/V   : NEUTRON POROSITY (LS) [NPHILSED]
PEFED   .B/E   : PHOTOELECTRIC FACTOR FROM DENSITY LOG [DSH. TO GRRED]
PEFWS   .B/E   : PHOTOELECTRIC FACTOR [PEFED]
SFLUED  .OHMM  : SPHERICALLY FOCUSED UNAVERAGED RESISTIVITY
SPWS    .MV    : SPONTANEOUS POTENTIAL [BASELINE 0 MV] [SPRED]
SPRED   .MV    : SPONTANEOUS POTENTIAL FROM RESISTIVITY LOG
SRESWS  .OHMM  : SHALLOW RESISTIVITY [TOP AT20ED 14100' SFLUED TD]
TENDED  .LBF   : TENSION FROM DENSITY LOG [DSH. TO GRRED]
TENRED  .LBF   : TENSION FROM RESISTIVITY LOG
~Params ----------------------------------------------------
PD  .                     GL : PERMANENT DATUM
EPD .FT                389.3 : ELEVATION PERMANENT DATUM
LMF .                     KB : LOG MEASURED FROM
DAPD.FT                 33.7 : MEASUREMENT ABOVE PERMANENT DATUM
DMF .                     KB : DRILLING MEASURED FROM
EKB .FT                  423 : KELLY BUSHING
EDF .FT                  422 : DRILLING FLOOR
EGL .FT                389.3 : GROUND LEVEL
DATE.               10/06/98 : RUN DATE
RUN .                      3 : RUN NUMBER
DD  .FT                18400 : DEPTH DRILLER
DL  .FT                18391 : DEPTH LOGGER
BLI .FT                18381 : BOTTOM LOG INTERVAL
TLI .FT                16646 : TOP LOG INTERVAL
CS  .IN                7.625 : CASING SIZE
CBD .FT                16650 : CASING BOTTOM DRILLER
CBL .FT                16646 : CASING BOTTOM LOGGER
BS  .IN                 6.25 : BIT SIZE
BSD .FT                18400 : BIT SIZE AT DEPTH
DFT .             VERSADRILL : DRILLING FLUID TYPE
DFD .                   17.9 : DRILLING FLUID DENSITY
DFV .                     45 : DRILLING FLUID VISCOSITY
MSS .                MUD PIT : MUD SAMPLE SOURCE
MFSS.                   CALC : MUD FILTRATE SAMPLE SOURCE
MCSS.                   CALC : MUD CAKE SAMPLE SOURCE
TCS .HRS                 830 : TIME CIRCULATED STOPPED
TLAB.HRS                2357 : TIME LOGGER AT BOTTOM
LUN .                   2142 : LOGGING UNIT NUMBER
LUL .                  TYLER : LOGGING UNIT LOCATION
ENGI.                SKRBICH : RECORDING ENGINEER
WITN.       WALKER WYSZYNSKI : WITNESSED BY
CLNT.                A2DTECH : CLIENT CODE
ORIG.         1" 2" 5" PRINT : ORIGIN OF DATA
UWI .         42289312900000 : UNIQUE WELL ID
DICO. A2D Technologies, Inc. : DIGITIZING COMPANY
~Other -----------------------------------------------------
1) RESISTIVITY INVALID 14360-14404', 15400-15475 NULLED (REPEAT LOG N/A). PATCHED FROM REPEAT LOG 15950-15980' & 16590-16645'.
2) GRRED PATCHED FROM REPEAT LOG 15400-15500 & 16550-16606'.
3) SONIC NOT LOGGED 14100-16650' AND ERRATIC ON SOME AREAS ABOVE 6300' WITH SOME GAPS AND SPIKES HENCE PATCHED SOME SMALL AREAS.
4) LDL/CNL STICKING TOOL ENTIRE RUN2 - NULLED PEF INVALID @ 15410-15625' & 15730-15410', PATCHED DENSITY@16025-16040', PATCHED NEUTRON@14295-14320' & PATCHED GRDED@VARIOUS DEPTHS BASED ON GRRED. ANY DOUBTS, PLEASE REFER TO ORIGINAL CURVES IN STANDARD LAS. STICKING TOOL MAY SLIGHTLY AFFECT LOG QUALITY ON OTHER AREAS, PLEASE USE WITH CAUTIONS.
~ASCII -----------------------------------------------------
# ...
 15750.00000    -999.25    -999.25    -999.25    -999.25    8.50000    -999.25   11.61850  103.80770    3.11850    0.01070    2.60090    0.06380    -999.25    0.06380    9.63320    -999.25    0.01070    -999.25    -999.25    -999.25    -999.25    -999.25    -999.25   98.62040   97.93090   97.93090    -999.25    9.63320    6.10800    -999.25    6.10800    0.27010    0.27010    -999.25    -999.25    7.77550   -6.90010  113.47600    7.77550 4953.91850 4745.36910
 15800.00000    -999.25    -999.25    -999.25    -999.25    8.50000    -999.25   10.59840  361.41530    2.09840    0.01240    2.55460    0.09090    -999.25    0.09090    2.76690    -999.25    0.01240    -999.25    -999.25    -999.25    -999.25    -999.25    -999.25  112.91260  122.34050  122.34050    -999.25    2.76690    2.67960    -999.25    2.67960    0.22910    0.22910    -999.25    -999.25    3.38990   -7.06320  111.14170    3.38990 5163.97750 4780.84230
 15850.00000    -999.25    -999.25    -999.25    -999.25    8.50000    -999.25    9.55640   98.97660    1.05640   -0.08860    2.39880    0.18200    -999.25    0.18200   10.10340    -999.25   -0.08860    -999.25    -999.25    -999.25    -999.25    -999.25    -999.25  106.34580  101.39780  101.39780    -999.25   10.10340    7.73050    -999.25    7.73050    0.24470    0.24470    -999.25    -999.25    8.77520   -6.37530  109.65830    8.77520 5371.01370 4792.93700
 15900.00000    -999.25    -999.25    -999.25    -999.25    8.50000    -999.25    8.66500  186.45930    0.16500   -0.02280    2.40610    0.17770    -999.25    0.17770    5.36310    -999.25   -0.02280    -999.25    -999.25    -999.25    -999.25    -999.25    -999.25  113.08610   99.35560   99.35560    -999.25    5.36310    3.65970    -999.25    3.65970    0.24360    0.24360    -999.25    -999.25    6.76090   -3.93900  109.92340    6.76090 5176.44920 4878.50390
 15950.00000    -999.25    -999.25    -999.25    -999.25    8.50000    -999.25    8.42280  277.12350   -0.07720   -0.11760    2.35890    0.20530    -999.25    0.20530    3.60850    -999.25   -0.11760    -999.25    -999.25    -999.25    -999.25    -999.25    -999.25  110.87260  118.31480  118.31480    -999.25    3.60850    2.73660    -999.25    2.73660    0.25140    0.25140    -999.25    -999.25    4.24550   -8.00820  106.90260    4.24550 6130.97710 4849.76660
 16000.00000    -999.25    -999.25    -999.25    -999.25    8.50000    -999.25    8.16880  315.80610   -0.33120   -0.10450    2.41950    0.16990    -999.25    0.16990    3.16650    -999.25   -0.10450    -999.25    -999.25    -999.25    -999.25    -999.25    -999.25  111.33460   99.03660   99.03660    -999.25    3.16650    3.00990    -999.25    3.00990    0.25410    0.25410    -999.25    -999.25    5.71600   -4.74600  106.92750    5.71600 5918.46240 4898.47900
 16050.00000    -999.25    -999.25    -999.25    -999.25    8.50000    -999.25   10.50130  316.74640    2.00130    0.00030    2.52050    0.11080    -999.25    0.11080    3.15710    -999.25    0.00030    -999.25    -999.25    -999.25    -999.25    -999.25    -999.25  120.00730  106.81770  106.81770    -999.25    3.15710    3.09740    -999.25    3.09740    0.22730    0.22730    4.61510    4.61510    3.94140   -3.95510  104.01520    3.94140 6880.76150 4962.08540
 16100.00000    -999.25    -999.25    -999.25    -999.25    8.50000    -999.25   10.84900  135.81970    2.34900    0.00650    2.59080    0.06970    -999.25    0.06970    7.36270    -999.25    0.00650    -999.25    -999.25    -999.25    -999.25    -999.25    -999.25  113.93060   98.77510   98.77510    -999.25    7.36270    8.28870    -999.25    8.28870    0.19310    0.19310    6.86090    6.86090   12.23630   -6.82650   97.12880   12.23630 5488.70560 5065.00200
 16150.00000    -999.25    -999.25    -999.25    -999.25    8.50000    -999.25   11.03720  337.90630    2.53720   -0.00180    2.54500    0.09650    -999.25    0.09650    2.95940    -999.25   -0.00180    -999.25    -999.25    -999.25    -999.25    -999.25    -999.25  132.77900  135.46280  135.46280    -999.25    2.95940    2.50620    -999.25    2.50620    0.17800    0.17800    4.64220    4.64220    3.60240   -5.10670   98.62720    3.60240 5614.56620 5040.49510
 16200.00000    -999.25    -999.25    -999.25    -999.25    8.50000    -999.25   10.47080  411.09970    1.97080    0.00310    2.63080    0.04630    -999.25    0.04630    2.43250    -999.25    0.00310    -999.25    -999.25    -999.25    -999.25    -999.25    -999.25  130.64030  120.22350  120.22350    -999.25    2.43250    2.38370    -999.25    2.38370    0.22890    0.22890    6.55990    6.55990    3.87120   -7.36900   86.65820    3.87120 4814.78030 5051.59330
 16250.00000    -999.25    -999.25    -999.25    -999.25    8.50000    -999.25    9.94420  342.70050    1.44420    0.01200    2.71260   -0.00150    -999.25   -0.00150    2.91800    -999.25    0.01200    -999.25    -999.25    -999.25    -999.25    -999.25    -999.25  135.88490  123.47570  123.47570    -999.25    2.91800    2.86110    -999.25    2.86110    0.23740    0.23740    4.29600    4.29600    4.64820   -6.03110   80.80440    4.64820 6410.69240 5100.17680
 16300.00000    -999.25    -999.25    -999.25    -999.25    8.50000    -999.25    9.79960  359.31160    1.29960    0.00730    2.70660    0.00200    -999.25    0.00200    2.78310    -999.25    0.00730    -999.25    -999.25    -999.25    -999.25    -999.25    -999.25  139.52290  125.60050  125.60050    -999.25    2.78310    2.73240    -999.25    2.73240    0.22450    0.22450    4.27610    4.27610    3.86840   -5.11860   76.20920    3.86840 5718.21090 5091.46730
 16350.00000    -999.25    -999.25    -999.25    -999.25    8.50000    -999.25    9.19630  170.97820    0.69630    0.01470    2.67650    0.01960    -999.25    0.01960    5.84870    -999.25    0.01470    -999.25    -999.25    -999.25    -999.25    -999.25    -999.25  145.78000   95.65000   95.65000    -999.25    5.84870    5.95590    -999.25    5.95590    0.12890    0.12890    5.47810    5.47810   19.07510   -6.34660   70.19860   19.07510 5527.64110 5147.55710
 16400.00000    -999.25    -999.25    -999.25    -999.25    8.50000    -999.25    8.79190  289.21800    0.29190    0.01780    2.69070    0.01130    -999.25    0.01130    3.45760    -999.25    0.01780    -999.25    -999.25    -999.25    -999.25    -999.25    -999.25  138.14000  127.68570  127.68570    -999.25    3.45760    3.38550    -999.25    3.38550    0.21380    0.21380    6.86880    6.86880    5.04010   -6.66690   67.88780    5.04010 5986.68310 5205.48630
 16450.00000    -999.25    -999.25    -999.25    -999.25    8.50000    -999.25    8.87690  270.82660    0.37690    0.01260    2.66190    0.02810    -999.25    0.02810    3.69240    -999.25    0.01260    -999.25    -999.25    -999.25    -999.25    -999.25    -999.25  126.73730  121.71940  121.71940    -999.25    3.69240    3.62060    -999.25    3.62060    0.19700    0.19700    5.24730    5.24730    5.00750   -4.05470   69.29700    5.00750 5590.71830 5163.15040
 16500.00000    -999.25    -999.25    -999.25    -999.25    8.50000    -999.25    8.91430  293.26370    0.41430   -0.00690    2.63000    0.04680    -999.25    0.04680    3.40990    -999.25   -0.00690    -999.25    -999.25    -999.25    -999.25    -999.25    -999.25  131.86400  130.91130  130.91130    -999.25    3.40990    3.34720    -999.25    3.34720    0.21210    0.21210    6.11830    6.11830    4.82970   -4.27280   67.87590    4.82970 5398.95310 5153.48630
 16550.00000    -999.25    -999.25    -999.25    -999.25    8.50000    -999.25    8.97850  207.49470    0.47850    0.00140    2.62380    0.05040    -999.25    0.05040    4.81940    -999.25    0.00140    -999.25    -999.25    -999.25    -999.25    -999.25    -999.25  115.59370  129.72810  129.72810    -999.25    4.81940    4.39030    -999.25    4.39030    0.21200    0.21200    9.89590    9.89590    5.88880   -3.30270   67.64300    5.88880 5579.64360 5178.08200
 16600.00000    -999.25    -999.25    -999.25    -999.25    8.50000    -999.25    8.99360  226.14200    0.49360   -0.04160    2.50820    0.11800    -999.25    0.11800    4.42200    -999.25   -0.04160    -999.25    -999.25    -999.25    -999.25    -999.25    -999.25  110.83990  129.11300  129.11300    -999.25    4.42200    3.81600    -999.25    3.81600    0.19550    0.19550    9.00170    9.00170    6.26900   -2.85550   66.88720    6.26900 5842.99610 5321.08790
