~Version ---------------------------------------------------
VERS. 2.0 : CWLS log ASCII Standard -VERSION 2.0
WRAP.  NO : ONE LINE PER DEPTH STEP
~Well ------------------------------------------------------
STRT.F                    2550.0 : START DEPTH
STOP.F                   14550.0 : STOP DEPTH
STEP.F                  50.00000 : STEP LENGTH
NULL.                    -999.25 : NULL VALUE
COMP. CHAMPLIN PETROLEUM COMPANY : COMPANY
WELL.             G.M. BRANDT #1 : WELL
FLD .              N.E. YORKTOWN : FIELD
LOC .                            : LOCATION
CNTY.                    DE WITT : COUNTY
STAT.                      TEXAS : STATE
CTRY.   UNITED STATES OF AMERICA : COUNTRY
SRVC.               Schlumberger : SERVICE COMPANY
DATE.                24-Jul-1979 : LOGDATE
API .             42123309750000 : API NUMBER
UWI .             42123309750000 : UNIQUE WELL ID
SLAT.WGS84         28.9985450189 : SURFACE LATITUDE
SLON.WGS84        -97.4898616308 : SURFACE LONGITUDE
~Curve Information -----------------------------------------
DEPT   .F                 : 
NPHI_SS.DEC  42 890 03 00 : NEUTRON POROSITY SANDSTONE
DPHI_SS.DEC  45 890 12 00 : DENSITY POROSITY SANDSTONE
CALD   .IN   45 280 60 00 : CALIPER FROM DENSITY LOG
GRD    .GAPI 45 310 01 00 : GAMMA RAY FROM DENSITY LOG
CORR   .G/C3 45 356 01 00 : DENSITY CORRECTION
RHOB   .G/C3 45 350 01 00 : BULK DENSITY
GRN    .GAPI 35 310 01 00 : GAMMA RAY FROM GRN LOG
NEUT   .NAPI 35 330 01 00 : NEUTRON
ILD    .OHMM 07 120 46 00 : INDUCTION DEEP RESISTIVITY
ILM    .OHMM 07 120 44 00 : INDUCTION MEDIUM RESISTIVITY
LL8    .OHMM 07 220 08 00 : LATEROLOG 8
DT     .MS/F 60 500 00 00 : DELTA-T (INTERVAL TRANSIT TIME)
SFL    .OHMM 07 220 01 00 : SPHERICALLY FOCUSED LOG
SFL2   .OHMM 07 220 01 00 : SPHERICALLY FOCUSED LOG
CILD   .MMHO 07 110 46 00 : INDUCTION DEEP CONDUCTIVITY
ASFL   .OHMM 07 221 01 00 : AMPLIFIED SPHERICALLY FOCUSED LOG
SPR    .MV   07 010 01 00 : SPONTANEOUS POTENTIAL FROM RESISTIVITY LOG
~Params ----------------------------------------------------
PD  .                     GL : PERMANENT DATUM
EPD .FT                319.9 : ELEVATION PERMANENT DATUM
LMF .                     KB : LOG MEASURED FROM
DAPD.FT                   17 : FEET ABOVE PERMANENT DATUM
DMF .                     KB : DRILLING MEASURED FROM
EKB .FT                336.9 : KELLY BUSHING
EDF .FT                335.9 : DRILLING FLOOR
EGL .FT                319.9 : GROUND LEVEL
DATE.               07/23/79 : RUN DATE
RUN .                      2 : RUN NUMBER
DD  .FT                14600 : DEPTH DRILLER
BLI .FT                14576 : BOTTOM LOG INTERVAL
TLI .FT                 9030 : TOP LOG INTERVAL
CS  .IN                10.75 : CASING SIZE
CBD .FT                 2535 : CASING BOTTOM DRILLER
BS  .IN                 8.75 : BIT SIZE
BSD .FT                14600 : BIT SIZE AT DEPTH
DFT .            IMCO LOGGED : DRILLING FLUID TYPE
DFD .                   12.1 : DRILLING FLUID DENSITY
DFV .                     47 : DRILLING FLUID VISCOSITY
DFPH.                      8 : DRILLING FLUID PH
DFL .                    6.8 : DRILLING FLUID LOSS
MSS .               CIRC PIT : MUD SAMPLE SOURCE
RMS .OHMM               2.85 : RESISTIVITY MUD SAMPLE
MST .DEGF                 75 : MUD SAMPLE TEMPERATURE
RMF .OHMM               1.85 : RESISTIVITY MUD FILTRATE SAMPLE
MFST.DEGF                 75 : MUD FILTRATE SAMPLE TEMPERATURE
RMC .OHMM               4.35 : RESISTIVITY MUD CAKE
MCST.DEGF                 75 : MUD CAKE SAMPLE TEMPERATURE
MFSS.                      M : MUD FILTRATE SAMPLE SOURCE
MCSS.                      C : MUD CAKE SAMPLE SOURCE
RMB .OHMM               0.73 : RESISTIVITY MUD AT BHT
TLAB.HRS                1530 : TIME LOGGER AT BOTTOM
LUN .                   8011 : LOGGING UNIT NUMBER
LUL .               VICTORIA : LOGGING UNIT LOCATION
ENGI.                  GARZA : RECORDING ENGINEER
WITN.         JOHNSTONE HALE : WITNESSED BY
CLNT.                A2DTECH : CLIENT CODE
ORIG.            2" 5" PRINT : ORIGIN OF DATA
UWI .         42123309750000 : UNIQUE WELL ID
DICO. A2D Technologies, Inc. : DIGITIZING COMPANY
~Other -----------------------------------------------------
~ASCII -----------------------------------------------------
# ...
 6650.00000    0.44160    0.14740   12.73620   97.76790    0.22270    2.41280   70.02940  149.06260    1.17000    1.20560    1.51340   99.85030    -999.25    -999.25    -999.25    -999.25  -42.38690
 6700.00000    0.20190    0.21660    9.57840   34.32230    0.23610    2.32190   17.93770  497.87810    1.05540    1.46530    7.12200   81.43710    -999.25    -999.25    -999.25    -999.25 -107.46070
 6750.00000    0.28150    0.11100   10.23250   87.27770    0.23170    2.48880   49.32690  265.16670    2.39130    2.53190    3.70350   82.33580    -999.25    -999.25    -999.25    -999.25  -97.01160
 6800.00000    0.21790    0.24860    9.72100   32.25410    0.21010    2.26450   13.90200  373.03130    0.64790    0.83900    7.17140   85.62830    -999.25    -999.25    -999.25    -999.25 -169.55220
 6850.00000    0.24740    0.26700    9.38300   39.28520    0.23540    2.22210   18.38520  367.29710    0.52350    0.71110    6.03740   87.22540    -999.25    -999.25    -999.25    -999.25 -167.46270
 6900.00000    0.25030    0.25710    9.39780   29.46430    0.23170    2.25860   14.64800  393.25840    0.32580    0.39030    2.09160   88.17320    -999.25    -999.25    -999.25    -999.25 -182.08810
 6950.00000    0.25520    0.19840    9.68530   58.92860    0.21380    2.32340   38.41550  420.03840    1.75520    2.27990    8.75600   80.68860    -999.25    -999.25    -999.25    -999.25 -102.08860
 7000.00000    0.25340    0.15250    9.60660   75.89190    0.22050    2.44930   42.75140  441.20160    1.50880    2.38170   10.11730   78.89200    -999.25    -999.25    -999.25    -999.25 -120.59700
 7050.00000    0.29090    0.16850    9.62400   69.19570    0.23840    2.38970   50.44800  329.58430    1.67270    2.48800    8.45960   81.88590    -999.25    -999.25    -999.25    -999.25 -127.46050
 7100.00000    0.28190    0.22900    9.46510   64.73360    0.23540    2.29960   32.43510  295.12740    0.87060    1.40710    9.31530   85.27940    -999.25    -999.25    -999.25    -999.25 -148.95330
 7150.00000    0.28520    0.22540    9.49480   60.93640    0.24880    2.30030   39.46310  396.85660    1.13830    1.85390    9.00000   86.67660    -999.25    -999.25    -999.25    -999.25 -149.85070
 7200.00000    0.28910    0.16340    9.87480  106.69640    0.29950    2.40830   61.73470  369.28660    1.13050    1.51800    5.08290   85.62870    -999.25    -999.25    -999.25    -999.25 -129.55080
 7250.00000    0.25470    0.22230    9.66610   63.39360    0.23390    2.30180   35.92470  349.06550    0.95860    1.33370    9.06220   83.53290    -999.25    -999.25    -999.25    -999.25 -165.07800
 7300.00000    0.25740    0.21440    9.80040   58.48120    0.24060    2.34500   35.27700  432.74600    0.99900    1.52380    7.68240   83.23350    -999.25    -999.25    -999.25    -999.25 -139.99950
 7350.00000    0.27300    0.16270    9.83010   79.90960    0.24510    2.42470   51.12210  351.12870    2.08420    2.88820    5.15340   83.08400    -999.25    -999.25    -999.25    -999.25  -87.46120
 7400.00000    0.25920    0.15780   10.17290   86.60710    0.23170    2.41210   57.58640  336.64500    2.24770    2.81180    5.26050   84.13170    -999.25    -999.25    -999.25    -999.25  -91.93890
 7450.00000    0.26990    0.07890   11.05220  121.20530    0.20710    2.55140   75.33580  280.14860    2.47510    2.58110    2.83150   83.98200    -999.25    -999.25    -999.25    -999.25  -54.92440
 7500.00000    0.26770    0.06060   10.82860  109.82030    0.27490    2.58050   65.02240  215.62610    2.80100    3.28550    3.50490   80.53900    -999.25    -999.25    -999.25    -999.25  -50.14730
 7550.00000    0.35200    0.15500   11.99090  103.12610    0.29130    2.42100   59.94020  127.72480    2.00000    2.17250    2.24060   88.02300    -999.25    -999.25    -999.25    -999.25  -50.14930
 7600.00000    0.38050    0.14840   12.19960  104.68800    0.26000    2.49630   56.80220  137.07800    1.70750    1.80160    1.79760   98.35330    -999.25    -999.25    -999.25    -999.25  -51.34280
 7650.00000    0.42560    0.23490   11.93140  100.00000    0.33450    2.28510   59.04430  123.21940    1.59410    1.64800    1.78530  102.39520    -999.25    -999.25    -999.25    -999.25  -49.25370
 7700.00000    0.28640    0.14980   11.60350   89.28440    0.20410    2.41730   49.62560  130.43480    2.44120    2.68270    3.45710   85.62870    -999.25    -999.25    -999.25    -999.25  -59.70150
 7750.00000    0.35730    0.12600   13.03420  102.00890    0.28230    2.46420   53.66270  116.19250    1.95920    2.12800    2.38380   89.37050    -999.25    -999.25    -999.25    -999.25  -47.46270
 7800.00000    0.27030    0.11040   11.21600   95.09060    0.23760    2.49550   55.82980  191.50890    2.54390    2.92210    3.13940   82.78440    -999.25    -999.25    -999.25    -999.25  -66.86450
 7850.00000    0.21770    0.14730   10.23660   61.60710    0.25700    2.42620   33.70750  332.20510    2.66940    4.19730   13.50910   73.80200    -999.25    -999.25    -999.25    -999.25  -58.50410
 7900.00000    0.36580    0.15000   13.25780  104.46540    0.27710    2.43000   59.64130  209.24220    2.27900    2.53420    2.64310   89.82040    -999.25    -999.25    -999.25    -999.25  -42.08620
 7950.00000    0.32070    0.10460   11.90160  101.78680    0.31440    2.46200   66.51740  197.74910    2.44110    2.63510    2.62490   87.01480    -999.25    -999.25    -999.25    -999.25  -42.38810
 8000.00000    0.27610    0.11880   13.46630   93.08040    0.20190    2.47690   55.95390  204.60660    2.54390    2.88210    2.97120   81.64150    -999.25    -999.25    -999.25    -999.25  -82.38660
 8050.00000    0.30030    0.06940   12.19790  118.97320    0.20860    2.56710   70.36850  194.00750    2.50920    2.78450    3.05410   87.31320    -999.25    -999.25    -999.25    -999.25  -41.49250
 8100.00000    0.36130    0.11170   13.27680  110.04370    0.31360    2.48510   56.95020  125.09300    2.56150    2.70730    2.81210   92.06600    -999.25    -999.25    -999.25    -999.25  -42.98170
 8150.00000    0.24100    0.14380   11.93750   75.33530    0.23540    2.43820   54.14820  394.75650    2.83980    4.21100   10.69020   77.84380    -999.25    -999.25    -999.25    -999.25  -70.74390
 8200.00000    0.29980    0.07790   13.93170   99.85170    0.37550    2.54620   58.29670  255.05660    2.78180    2.91330    3.31720   83.53220    -999.25    -999.25    -999.25    -999.25  -45.97020
 8250.00000    0.34750    0.09610   14.25900  105.00190    0.34050    2.50970   52.23950  163.89990    2.37490    2.56340    2.97120   88.77250    -999.25    -999.25    -999.25    -999.25  -46.86570
 8300.00000    0.27430    0.15580   14.16980   78.79560    0.20410    2.41580   49.25520  373.03640    1.95920    2.34140    2.83140   81.88620    -999.25    -999.25    -999.25    -999.25  -72.23880
 8350.00000    0.36710    0.21750   14.06550   91.07420    0.18510    2.32040   51.27180  270.11850    1.94580    1.95480    1.97950   99.10140    -999.25    -999.25    -999.25    -999.25  -42.68370
 8400.00000    0.35240    0.09050   14.63110  110.04650    0.32260    2.53350   55.15290  175.28820    2.23250    2.40920    2.69830   88.47350    -999.25    -999.25    -999.25    -999.25  -51.04600
 8450.00000    0.40100    0.19480   15.46440  100.89430    0.29950    2.34650   57.84860  118.35760    1.84170    1.97800    2.27160   94.16100    -999.25    -999.25    -999.25    -999.25  -46.26770
 8500.00000    0.26140    0.16670   12.78600   70.53700    0.28080    2.40760   48.73060  233.70660    2.18690    3.15890    6.55740   77.99400    -999.25    -999.25    -999.25    -999.25  -81.19400
 8550.00000    0.33460    0.12970   14.52690  105.35970    0.31810    2.46570   60.69050  133.33520    2.18690    2.37620    2.60700   89.52080    -999.25    -999.25    -999.25    -999.25  -47.16420
 8600.00000    0.27120    0.08780   12.42860  106.47380    0.21600    2.53730   59.79170  188.76120    3.19180    3.90340    4.10620   77.69460    -999.25    -999.25    -999.25    -999.25  -80.29730
 8650.00000    0.21050    0.20120   10.94030   65.62790    0.20710    2.33680   40.95730  209.73780    2.89880    4.28020   12.01750   80.38930    -999.25    -999.25    -999.25    -999.25  -73.72750
