~Version ---------------------------------------------------
VERS. 2.0 : CWLS log ASCII Standard -VERSION 2.0
WRAP.  NO : ONE LINE PER DEPTH STEP
~Well ------------------------------------------------------
STRT.FT                   3650.0 : START DEPTH
STOP.FT                   7700.0 : STOP DEPTH
STEP.FT                 50.00000 : STEP LENGTH
NULL.                    -999.25 : NULL VALUE
COMP. CHAMPLIN EXPLORATION, INC. : COMPANY
WELL.     GOSCH GUADIANO UNIT #1 : WELL
FLD .                   GIDDINGS : FIELD
LOC .                            : LOCATION
CNTY.                    FAYETTE : COUNTY
STAT.                      TEXAS : STATE
CTRY.   UNITED STATES OF AMERICA : COUNTRY
SRVC.               Schlumberger : SERVICE COMPANY
DATE.                01-Jan-1981 : LOGDATE
API .             42149308450000 : API NUMBER
UWI .             42149308450000 : UNIQUE WELL ID
SLAT.WGS84         29.7785387288 : SURFACE LATITUDE
SLON.WGS84        -97.2200367266 : SURFACE LONGITUDE
~Curve Information -----------------------------------------
DEPT  .FT    : DEPTH FEET
GRRED .GAPI  : GAMMA RAY FROM RESISTIVITY LOG
SPRED .MV    : SPONTANEOUS POTENTIAL FROM RESISTIVITY LOG
SFLUED.OHMM  : SPHERICALLY FOCUSED LOG RESISTIVITY
ILDED .OHMM  : INDUCTION LOG DEEP RESISTIVITY
ILMED .OHMM  : INDUCTION LOG MEDIUM RESISTIVITY
DCALED.IN    : DIFFERENTIAL CALIPER FROM DENSITY LOG
CALRED.IN    : CALIPER FROM RESISTIVITY LOG
DRHOED.G/C3  : DENSITY CORRECTION FROM DENSITY LOG
NPHIED.V/V   : NEUTRON POROSITY LIMESTONE FROM DENSITY LOG
SPWS  .MV    : SPONTANEOUS POTENTIAL [BASELINE 0 MV] [SPRED]
DPHIED.V/V   : DENSITY POROSITY  FROM DENSITY LOG
RHOBED.G/C3  : BULK DENSITY FROM DENSITY LOG
GRWS  .GAPI  : GAMMA RAY [GRRED]
CALWS .IN    : CALIPER [CALRED]
DCORWS.G/C3  : DENSITY CORRECTION [DRHOED]
DRESWS.OHMM  : DEEP RESISTIVITY [ILDED]
MRESWS.OHMM  : MEDIUM RESISTIVITY [ILMED]
SRESWS.OHMM  : SHALLOW RESISTIVITY [SFLUED]
CONDWS.MMHO  : CONDUCTIVITY [1000/DRESWS]
DENWS .G/C3  : BULK DENSITY [M=2.71 F=1.0] [RHOBED]
DPOWS .V/V   : DENSITY POROSITY [M=2.71 F=1] [CALCULATED FROM DENWS]
NPOWS .V/V   : NEUTRON POROSITY LIME [CONV NPHIED]
~Params ----------------------------------------------------
PD  .                     GL : PERMANENT DATUM
EPD .FT                  375 : ELEVATION PERMANENT DATUM
LMF .                     KB : LOG MEASURED FROM
DAPD.FT                   17 : FEET ABOVE PERMANENT DATUM
DMF .                     KB : DRILLING MEASURED FROM
EKB .FT                  392 : KELLY BUSHING
EDF .FT                  391 : DRILLING FLOOR
EGL .FT                  375 : GROUND LEVEL
DATE.               01/01/81 : RUN DATE
RUN .                      1 : RUN NUMBER
DD  .FT                 7776 : DEPTH DRILLER
DL  .FT                 7712 : DEPTH LOGGER
BLI .FT                 7706 : BOTTOM LOG INTERVAL
TLI .FT                 3648 : TOP LOG INTERVAL
CS  .IN                8.625 : CASING SIZE
CBD .FT                 3650 : CASING BOTTOM DRILLER
CBL .FT                 3648 : CASING BOTTOM LOGGER
BS  .IN                7.875 : BIT SIZE
BSD .FT                 7776 : BIT SIZE AT DEPTH
DFT .            GEL CAUSTIC : DRILLING FLUID TYPE
DFD .                      9 : DRILLING FLUID DENSITY
DFV .                     45 : DRILLING FLUID VISCOSITY
DFPH.                    8.5 : DRILLING FLUID PH
DFL .                    5.6 : DRILLING FLUID LOSS
MSS .               CIRC PIT : MUD SAMPLE SOURCE
RMS .OHMM               1.66 : RESISTIVITY MUD SAMPLE
MST .DEGF                 90 : MUD SAMPLE TEMPERATURE
RMF .OHMM               4.54 : RESISTIVITY MUD FILTRATE SAMPLE
MFST.DEGF                 50 : MUD FILTRATE SAMPLE TEMPERATURE
RMC .OHMM                2.5 : RESISTIVITY MUD CAKE
MCST.DEGF                 90 : MUD CAKE SAMPLE TEMPERATURE
MFSS.                      M : MUD FILTRATE SAMPLE SOURCE
MCSS.                      C : MUD CAKE SAMPLE SOURCE
TCS .HRS                1900 : TIME CIRCULATED STOPPED
TLAB.HRS                 200 : TIME LOGGER AT BOTTOM
LUN .                   8176 : LOGGING UNIT NUMBER
LUL .                BRENHAM : LOGGING UNIT LOCATION
ENGI.                 WRIGHT : RECORDING ENGINEER
WITN.                BRENHAM : WITNESSED BY
CLNT.                A2DTECH : CLIENT CODE
ORIG.            2" 5" PRINT : ORIGIN OF DATA
UWI .         42149308450000 : UNIQUE WELL ID
DICO. A2D Technologies, Inc. : DIGITIZING COMPANY
~Other -----------------------------------------------------
ALL LOGS RUN IN COMBO.
MTRX CHANGE 5400-5600' (SS); 6800-7700' (LS).
~ASCII -----------------------------------------------------
# ...
 5250.00000  100.53510   -6.91940    1.42300    1.31180    1.34000    2.77650   10.65150    -999.25    -999.25   -0.85510    -999.25    -999.25  100.53510   10.65150    -999.25    1.31180    1.34000    1.42300  762.31130    -999.25    -999.25    -999.25
 5300.00000  100.88730  -27.21590    1.41060    1.34920    1.37620    0.69170    8.56670    -999.25    -999.25   -2.48710    -999.25    -999.25  100.88730    8.56670    -999.25    1.34920    1.37620    1.41060  741.17990    -999.25    -999.25    -999.25
 5350.00000   91.75230  -24.24680    1.24710    1.11870    1.14090    1.99720    9.87220    -999.25    -999.25   -1.81790    -999.25    -999.25   91.75230    9.87220    -999.25    1.11870    1.14090    1.24710  893.89470    -999.25    -999.25    -999.25
 5400.00000   88.64570  -23.39600    1.08090    0.96240    0.98540    1.38670    9.26170    0.10000    0.44780   -1.19870    0.26280    2.21640   88.64570    9.26170    0.10000    0.96240    0.98540    1.08090 1039.06900    2.21640    0.28870    0.40610
 5450.00000   65.97770  -30.74450    3.89000    2.42500    2.85400    0.67150    8.54650    0.09930    0.27910   -6.09840    0.10420    2.47810   65.97770    8.54650    0.09930    2.42500    2.85400    3.89000  412.37120    2.47810    0.13560    0.23510
 5500.00000   50.71480  -46.06590    6.31560    2.50880    3.44180    0.81270    8.68770    0.09510    0.26540  -20.41120    0.22290    2.28220   50.71480    8.68770    0.09510    2.50880    3.44180    6.31560  398.59690    2.28220    0.25020    0.22140
 5550.00000   90.33040  -49.76740    1.49590    1.44100    1.41420    4.85240   12.72740    0.06380    0.38910   -1.07800    0.15760    2.39000   90.33040   12.72740    0.06380    1.44100    1.41420    1.49590  693.96250    2.39000    0.18720    0.34600
 5600.00000   57.86200  -50.26220    1.67680    1.61050    1.53380    9.32960   17.20460    -999.25    -999.25   -1.13680    -999.25    -999.25   57.86200   17.20460    -999.25    1.61050    1.53380    1.67680  620.92520    -999.25    -999.25    -999.25
 5650.00000   59.01420  -44.96360    1.49920    1.41710    1.36600   12.43640   20.31140    -999.25    -999.25   -0.20600    -999.25    -999.25   59.01420   20.31140    -999.25    1.41710    1.36600    1.49920  705.66650    -999.25    -999.25    -999.25
 5700.00000   55.49580  -42.06200    1.27210    1.09070    1.08650   12.38470   20.25970    -999.25    -999.25   -0.49600    -999.25    -999.25   55.49580   20.25970    -999.25    1.09070    1.08650    1.27210  916.84230    -999.25    -999.25    -999.25
 5750.00000   66.63410  -45.18540    1.46880    1.32940    1.35480    7.91990   15.79490    -999.25    -999.25   -1.70250    -999.25    -999.25   66.63410   15.79490    -999.25    1.32940    1.35480    1.46880  752.21910    -999.25    -999.25    -999.25
 5800.00000   68.09130  -49.83730    1.54350    1.29110    1.33730    6.59850   14.47350    -999.25    -999.25   -1.68650    -999.25    -999.25   68.09130   14.47350    -999.25    1.29110    1.33730    1.54350  774.53330    -999.25    -999.25    -999.25
 5850.00000   78.11260  -46.44580    1.15190    0.99450    0.97600    6.55480   14.42980    -999.25    -999.25   -0.93670    -999.25    -999.25   78.11260   14.42980    -999.25    0.99450    0.97600    1.15190 1005.53050    -999.25    -999.25    -999.25
 5900.00000   71.73580  -50.09190    1.69350    1.58060    1.55120    7.62630   15.50130    -999.25    -999.25   -1.22610    -999.25    -999.25   71.73580   15.50130    -999.25    1.58060    1.55120    1.69350  632.67110    -999.25    -999.25    -999.25
 5950.00000   80.80640  -54.97070    1.39110    1.23290    1.20930    7.11570   14.99070    -999.25    -999.25   -0.96320    -999.25    -999.25   80.80640   14.99070    -999.25    1.23290    1.20930    1.39110  811.09580    -999.25    -999.25    -999.25
 6000.00000   77.19570  -54.37630    1.48450    1.39320    1.36720    4.54550   12.42050    -999.25    -999.25   -1.48720    -999.25    -999.25   77.19570   12.42050    -999.25    1.39320    1.36720    1.48450  717.77200    -999.25    -999.25    -999.25
 6050.00000   75.56260  -52.86240    1.45350    1.30400    1.27920    8.69390   16.56890    -999.25    -999.25   -3.12770    -999.25    -999.25   75.56260   16.56890    -999.25    1.30400    1.27920    1.45350  766.87120    -999.25    -999.25    -999.25
 6100.00000   77.72220  -50.55440    1.15000    1.02930    1.05140    7.22950   15.10450    -999.25    -999.25   -2.85990    -999.25    -999.25   77.72220   15.10450    -999.25    1.02930    1.05140    1.15000  971.53410    -999.25    -999.25    -999.25
 6150.00000   86.10410  -44.07790    1.10990    0.98170    1.00080    5.95840   13.83340    -999.25    -999.25   -1.05870    -999.25    -999.25   86.10410   13.83340    -999.25    0.98170    1.00080    1.10990 1018.64110    -999.25    -999.25    -999.25
 6200.00000   94.37670  -46.29170    1.00750    0.94530    0.97050    3.15120   11.02620    -999.25    -999.25   -1.16850    -999.25    -999.25   94.37670   11.02620    -999.25    0.94530    0.97050    1.00750 1057.86520    -999.25    -999.25    -999.25
 6250.00000   99.19530  -46.51130    1.05820    0.90130    0.93620    1.42490    9.29990    -999.25    -999.25   -1.45860    -999.25    -999.25   99.19530    9.29990    -999.25    0.90130    0.93620    1.05820 1109.50840    -999.25    -999.25    -999.25
 6300.00000   85.07540  -47.59230    1.14030    0.99340    1.03380    2.32850   10.20350    -999.25    -999.25   -1.59590    -999.25    -999.25   85.07540   10.20350    -999.25    0.99340    1.03380    1.14030 1006.64390    -999.25    -999.25    -999.25
 6350.00000   88.24550  -49.96370    1.46060    1.25050    1.27480    4.04150   11.91650    -999.25    -999.25   -2.03330    -999.25    -999.25   88.24550   11.91650    -999.25    1.25050    1.27480    1.46060  799.68020    -999.25    -999.25    -999.25
 6400.00000   81.26060  -50.73140    1.34370    1.18380    1.20640    4.97360   12.84860    -999.25    -999.25   -1.62310    -999.25    -999.25   81.26060   12.84860    -999.25    1.18380    1.20640    1.34370  844.73730    -999.25    -999.25    -999.25
 6450.00000   72.85660  -47.87080    1.36320    1.21030    1.23340    7.31710   15.19210    -999.25    -999.25   -1.55980    -999.25    -999.25   72.85660   15.19210    -999.25    1.21030    1.23340    1.36320  826.24150    -999.25    -999.25    -999.25
 6500.00000   76.41460  -47.07350    1.30560    1.13740    1.15910   -0.91440    6.96060    -999.25    -999.25   -3.55890    -999.25    -999.25   76.41460    6.96060    -999.25    1.13740    1.15910    1.30560  879.19810    -999.25    -999.25    -999.25
 6550.00000   78.19330  -44.22980    1.56660    1.42400    1.45990    5.75710   13.63210    -999.25    -999.25   -4.00870    -999.25    -999.25   78.19330   13.63210    -999.25    1.42400    1.45990    1.56660  702.24720    -999.25    -999.25    -999.25
 6600.00000   79.20680  -41.54040    1.97060    1.74540    1.79220    7.38960   15.26460    -999.25    -999.25   -0.77990    -999.25    -999.25   79.20680   15.26460    -999.25    1.74540    1.79220    1.97060  572.93460    -999.25    -999.25    -999.25
 6650.00000   81.29690  -40.12410    1.96530    1.75680    1.80980    3.91510   11.79010    -999.25    -999.25   -1.12950    -999.25    -999.25   81.29690   11.79010    -999.25    1.75680    1.80980    1.96530  569.21670    -999.25    -999.25    -999.25
 6700.00000   71.08400  -37.54680    1.65390    1.50490    1.55660   11.03860   18.91360    -999.25    -999.25   -0.70660    -999.25    -999.25   71.08400   18.91360    -999.25    1.50490    1.55660    1.65390  664.49600    -999.25    -999.25    -999.25
 6750.00000   51.36090  -66.50930    1.30070    1.25800    1.23710   12.25120   20.12620    0.08110    -999.25   -3.16250    -999.25    1.64100   51.36090   20.12620    0.08110    1.25800    1.23710    1.30070  794.91250    1.64100    0.62510    -999.25
 6800.00000   55.36210  -62.93990    1.68460    1.60340    1.57900   12.23410   20.10910    0.09070    -999.25   -0.42330    -999.25    1.67740   55.36210   20.10910    0.09070    1.60340    1.57900    1.68460  623.67470    1.67740    0.60390    -999.25
