~Version ---------------------------------------------------
VERS.      2.0 : CWLS log ASCII Standard -VERSION 2.0
WRAP.      YES : Multiple lines per depth step
CREA. 06/26/18 : LAS Creation Date
~Well ------------------------------------------------------
STRT.FT                 1950.0 : START DEPTH
STOP.FT                10950.0 : STOP DEPTH
STEP.FT               50.00000 : STEP LENGTH
NULL.                  -999.25 : NULL VALUE
COMP.            DIRNETT, INC. : COMPANY
WELL.     ESCHENBURG POLLOK #1 : WELL
FLD .                  FASHING : FIELD
LOC .                          : LOCATION
CNTY.                 ATASCOSA : COUNTY
STAT.                    TEXAS : STATE
CTRY. UNITED STATES OF AMERICA : COUNTRY
SRVC.             Schlumberger : SERVICE COMPANY
DATE.              23-Aug-1996 : LOGDATE
API .           42013340590000 : API NUMBER
UWI .           42013340590000 : UNIQUE WELL ID
SLAT.WGS84       28.7834983741 : SURFACE LATITUDE
SLON.WGS84      -98.2167863068 : SURFACE LONGITUDE
~Curve Information -----------------------------------------
DEPT    .FT    : DEPTH FEET
CALWS   .IN    : CALIPER [DCALED+BIT]
CONDWS  .MMHO  : DEEP CONDUCTIVITY [1000/DRESWS]
DCALED  .IN    : DIFFERENTIAL CALIPER FROM PHI/LDT/CNL LOG
DCORWS  .G/C3  : DENSITY CORRECTION [DRHOED]
DENWS   .G/C3  : BULK DENSITY [CALC. TOP DPHISSED 9493.5' DPHILSED]
DPHILSED.V/V   : DENSITY POROSITY (LS) [M=2.71 F=1.0] FROM PHI/LDT/CNL LOG
DPHISSED.V/V   : DENSITY POROSITY (SS) [M=2.65 F=1.0] FROM PHI/LDT/CNL LOG
DPOLSWS .V/V   : DENSITY POROSITY LIMESTONE [M=2.71 F=1.0] [CALC. FROM DENWS]
DRESWS  .OHMM  : DEEP RESISTIVITY [IDPHED]
DRHOED  .G/C3  : DENSITY CORRECTION FROM DENSITY LOG
GRRED   .GAPI  : GAMMA RAY FROM RESISTIVITY LOG
GRWS    .GAPI  : GAMMA RAY [GRRED]
IDPHED  .OHMM  : INDUCTION DEEP PHASE RESISTIVITY
IMPHED  .OHMM  : INDUCTION MEDIUM PHASE RESISTIVITY
MRESWS  .OHMM  : MEDIUM RESISTIVITY [IMPHED]
NPHILSED.V/V   : NEUTRON POROSITY LIMESTONE FROM PHI/LDT/CNL LOG
NPHISSED.V/V   : NEUTRON POROSITY SANDSTONE FROM PHI/LDT/CNL LOG
NPOLSWS .V/V   : NEUTRON POROSITY LIMESTONE [TOP CONVERSE NPHISSED TO LIME FROM POWER LOG 9494' NPHILSED]
SFLUED  .OHMM  : SPHERICALLY FOCUSED LOG RESISTIVITY
SPRED   .MV    : SPONTANEOUS POTENTIAL FROM PHI/LDT/CNL LOG
SPWS    .MV    : SPONTANEOUS POTENTIAL [BASELINE 0 MV] [SPRED]
SRESWS  .OHMM  : SHALLOW RESISTIVITY [SFLUED]
~Params ----------------------------------------------------
PD  .                     GL : PERMANENT DATUM
EPD .FT                411.5 : ELEVATION PERMANENT DATUM
LMF .                     KB : LOG MEASURED FROM
DAPD.FT                 19.5 : FEET ABOVE PERMANENT DATUM
DMF .                     KB : DRILLING MEASURED FROM
EKB .FT                  431 : KELLY BUSHING
EDF .FT                  430 : DRILLING FLOOR
EGL .FT                411.5 : GROUND LEVEL
DATE.               08/23/96 : RUN DATE
RUN .                      1 : RUN NUMBER
DD  .FT                11000 : DEPTH DRILLER
DL  .FT                10988 : DEPTH LOGGER
BLI .FT                10970 : BOTTOM LOG INTERVAL
TLI .FT                 2006 : TOP LOG INTERVAL
CS  .IN                8.625 : CASING SIZE
CBD .FT                 2016 : CASING BOTTOM DRILLER
CBL .FT                 2008 : CASING BOTTOM LOGGER
BS  .IN                7.875 : BIT SIZE
BSD .FT                11000 : BIT SIZE AT DEPTH
DFT .                    LIG : DRILLING FLUID TYPE
DFD .                   10.2 : DRILLING FLUID DENSITY
DFV .                     48 : DRILLING FLUID VISCOSITY
DFPH.                   11.3 : DRILLING FLUID PH
DFL .                    5.8 : DRILLING FLUID LOSS
MSS .               MUD TANK : MUD SAMPLE SOURCE
RMS .OHMM               1.83 : RESISTIVITY MUD SAMPLE
MST .FT                   75 : MUD SAMPLE TEMPERATURE
RMF .OHMM               1.48 : RESISTIVITY MUD FILTRATE SAMPLE
MFST.FT                   75 : MUD FILTRATE SAMPLE TEMPERATURE
RMC .OHMM               2.45 : RESISTIVITY MUD CAKE
MCST.FT                   75 : MUD CAKE SAMPLE TEMPERATURE
MFSS.                   MEAS : MUD FILTRATE SAMPLE SOURCE
MCSS.                   CALC : MUD CAKE SAMPLE SOURCE
RMB .OHMM              0.473 : RESISTIVITY MUD AT BHT
TCS .HRS                1200 : TIME CURCULATED STOPPED
TLAB.HRS                2000 : TIME LOGGER AT BOTTOM
LUN .                   2017 : LOGGING UNIT NUMBER
LUL .               VICTORIA : LOGGING UNIT LOCATION
ENGI.            JOHN GAMBLE : RECORDING ENGINEER
WITN.  J FISHER J JOHNSON JR : WITNESSED BY
CLNT.                A2DTECH : CLIENT CODE
ORIG.               5" PRINT : ORIGIN OF DATA
UWI .         42013340590000 : UNIQUE WELL ID
DICO. A2D Technologies, Inc. : DIGITIZING COMPANY
~Other -----------------------------------------------------
REMOVED ALL RESISTIVITY FROM 3804' - 3814' DUE TO INVALID DATA.
~ASCII -----------------------------------------------------
# ...
 6750.00000   10.68520  730.56690    2.81020    -999.25    -999.25    -999.25    -999.25    -999.25    1.36880    -999.25  116.24100  116.24100    1.36880    1.40050    1.40050    -999.25    -999.25    -999.25    1.41690    3.32960   -5.32100    1.41690
 6800.00000    9.84800  598.15770    1.97300    -999.25    -999.25    -999.25    -999.25    -999.25    1.67180    -999.25  116.61650  116.61650    1.67180    1.74870    1.74870    -999.25    -999.25    -999.25    1.90580    3.37140   -5.27920    1.90580
 6850.00000   10.22970  632.07130    2.35470    -999.25    -999.25    -999.25    -999.25    -999.25    1.58210    -999.25  124.28570  124.28570    1.58210    1.59910    1.59910    -999.25    -999.25    -999.25    1.76700    3.73250   -4.91810    1.76700
 6900.00000    9.13030  469.92480    1.25530    -999.25    -999.25    -999.25    -999.25    -999.25    2.12800    -999.25  107.14230  107.14230    2.12800    2.09740    2.09740    -999.25    -999.25    -999.25    2.27990    4.33160   -4.31900    2.27990
 6950.00000   10.18310  361.63750    2.30810    -999.25    -999.25    -999.25    -999.25    -999.25    2.76520    -999.25   92.70680   92.70680    2.76520    2.78720    2.78720    -999.25    -999.25    -999.25    2.84250   -0.95500   -9.60560    2.84250
 7000.00000   10.17690  525.32040    2.30190    -999.25    -999.25    -999.25    -999.25    -999.25    1.90360    -999.25  116.26690  116.26690    1.90360    1.90550    1.90550    -999.25    -999.25    -999.25    1.93050    3.74320   -4.90740    1.93050
 7050.00000    9.98550  406.58670    2.11050    -999.25    -999.25    -999.25    -999.25    -999.25    2.45950    -999.25  113.68070  113.68070    2.45950    2.48430    2.48430    -999.25    -999.25    -999.25    2.63510    4.92940   -3.72120    2.63510
 7100.00000   10.05850  479.73140    2.18350    -999.25    -999.25    -999.25    -999.25    -999.25    2.08450    -999.25  116.94290  116.94290    2.08450    2.13520    2.13520    -999.25    -999.25    -999.25    2.26440    4.53090   -4.11970    2.26440
 7150.00000    9.93780  469.92480    2.06280    -999.25    -999.25    -999.25    -999.25    -999.25    2.12800    -999.25  110.98200  110.98200    2.12800    2.17190    2.17190    -999.25    -999.25    -999.25    2.30190    4.92630   -3.72430    2.30190
 7200.00000    9.60910  594.03590    1.73410    -999.25    -999.25    -999.25    -999.25    -999.25    1.68340    -999.25  112.21620  112.21620    1.68340    1.67800    1.67800    -999.25    -999.25    -999.25    1.82010    5.88640   -2.76420    1.82010
 7250.00000    8.92120  610.64970    1.04620    -999.25    -999.25    -999.25    -999.25    -999.25    1.63760    -999.25   99.99390   99.99390    1.63760    1.63250    1.63250    -999.25    -999.25    -999.25    1.74230    6.52990   -2.12070    1.74230
 7300.00000    8.74890  640.86130    0.87390    -999.25    -999.25    -999.25    -999.25    -999.25    1.56040    -999.25  100.29890  100.29890    1.56040    1.54200    1.54200    -999.25    -999.25    -999.25    2.18750    4.08420   -4.56640    2.18750
 7350.00000   12.15650  577.90110    4.28150    -999.25    -999.25    -999.25    -999.25    -999.25    1.73040    -999.25   99.17540   99.17540    1.73040    1.71600    1.71600    -999.25    -999.25    -999.25    1.71840   -0.06000   -8.71060    1.71840
 7400.00000   14.44620  619.15670    6.57120    -999.25    -999.25    -999.25    -999.25    -999.25    1.61510    -999.25  114.73040  114.73040    1.61510    1.63240    1.63240    -999.25    -999.25    -999.25    1.69490   -4.17150  -12.82210    1.69490
 7450.00000   16.18600  614.89270    8.31100    -999.25    -999.25    -999.25    -999.25    -999.25    1.62630    -999.25  112.21420  112.21420    1.62630    1.47230    1.47230    -999.25    -999.25    -999.25    1.60390   -7.34510  -15.99570    1.60390
 7500.00000   16.24570  700.23110    8.37070    -999.25    -999.25    -999.25    -999.25    -999.25    1.42810    -999.25  116.11410  116.11410    1.42810    1.42100    1.42100    -999.25    -999.25    -999.25    1.60020   -0.85830   -9.50890    1.60020
 7550.00000   14.00400  631.67200    6.12900    -999.25    -999.25    -999.25    -999.25    -999.25    1.58310    -999.25  125.37630  125.37630    1.58310    1.62020    1.62020    -999.25    -999.25    -999.25    1.56740   -2.53670  -11.18730    1.56740
 7600.00000   12.29910  758.26510    4.42410    -999.25    -999.25    -999.25    -999.25    -999.25    1.31880    -999.25  120.82710  120.82710    1.31880    1.35010    1.35010    -999.25    -999.25    -999.25    1.35710   -0.06100   -8.71160    1.35710
 7650.00000   10.47610  838.50410    2.60110    -999.25    -999.25    -999.25    -999.25    -999.25    1.19260    -999.25  113.26910  113.26910    1.19260    1.19760    1.19760    -999.25    -999.25    -999.25    1.29670   -0.05910   -8.70970    1.29670
 7700.00000   10.47590  766.63600    2.60090    -999.25    -999.25    -999.25    -999.25    -999.25    1.30440    -999.25  105.47150  105.47150    1.30440    1.28650    1.28650    -999.25    -999.25    -999.25    1.32250   -1.96480  -10.61540    1.32250
 7750.00000   11.28310  844.30940    3.40810    -999.25    -999.25    -999.25    -999.25    -999.25    1.18440    -999.25   97.37540   97.37540    1.18440    1.19280    1.19280    -999.25    -999.25    -999.25    1.23660   -0.06080   -8.71140    1.23660
 7800.00000   10.47590  882.30100    2.60090    -999.25    -999.25    -999.25    -999.25    -999.25    1.13340    -999.25  101.42840  101.42840    1.13340    1.14420    1.14420    -999.25    -999.25    -999.25    1.27590    0.34110   -8.30950    1.27590
 7850.00000   10.32640  365.53720    2.45140    -999.25    -999.25    -999.25    -999.25    -999.25    2.73570    -999.25   90.40410   90.40410    2.73570    2.65320    2.65320    -999.25    -999.25    -999.25    2.92720   -2.05640  -10.70700    2.92720
 7900.00000   11.58200  645.28620    3.70700    -999.25    -999.25    -999.25    -999.25    -999.25    1.54970    -999.25   98.75010   98.75010    1.54970    1.56640    1.56640    -999.25    -999.25    -999.25    1.61120   -7.34510  -15.99570    1.61120
 7950.00000   13.75300  844.30940    5.87800    -999.25    -999.25    -999.25    -999.25    -999.25    1.18440    -999.25   83.43330   83.43330    1.18440    1.16500    1.16500    -999.25    -999.25    -999.25    1.20040  -11.35540  -20.00600    1.20040
 8000.00000   11.77310  526.48200    3.89810    -999.25    -999.25    -999.25    -999.25    -999.25    1.89940    -999.25   91.84130   91.84130    1.89940    1.87570    1.87570    -999.25    -999.25    -999.25    2.00000   -7.03310  -15.68370    2.00000
 8050.00000   11.17350  485.24840    3.29850    -999.25    -999.25    -999.25    -999.25    -999.25    2.06080    -999.25   85.99090   85.99090    2.06080    2.00000    2.00000    -999.25    -999.25    -999.25    2.08080   -6.80620  -15.45680    2.08080
 8100.00000   10.72340  638.40650    2.84840    -999.25    -999.25    -999.25    -999.25    -999.25    1.56640    -999.25   92.81220   92.81220    1.56640    1.55080    1.55080    -999.25    -999.25    -999.25    1.58960   -3.90320  -12.55380    1.58960
 8150.00000   10.73130  590.66750    2.85630    -999.25    -999.25    -999.25    -999.25    -999.25    1.69300    -999.25   92.06590   92.06590    1.69300    1.81650    1.81650    -999.25    -999.25    -999.25    1.98530   -4.07430  -12.72490    1.98530
 8200.00000   10.25860  763.53360    2.38360    -999.25    -999.25    -999.25    -999.25    -999.25    1.30970    -999.25   94.69760   94.69760    1.30970    1.28830    1.28830    -999.25    -999.25    -999.25    1.48530   -4.67030  -13.32090    1.48530
 8250.00000   10.54710  564.71650    2.67210    -999.25    -999.25    -999.25    -999.25    -999.25    1.77080    -999.25   89.28940   89.28940    1.77080    1.75230    1.75230    -999.25    -999.25    -999.25    2.11310   -3.64430  -12.29490    2.11310
 8300.00000    9.67830  558.72160    1.80330    -999.25    -999.25    -999.25    -999.25    -999.25    1.78980    -999.25   79.04210   79.04210    1.78980    1.77940    1.77940    -999.25    -999.25    -999.25    1.81640   -2.76560  -11.41620    1.81640
