~Version ---------------------------------------------------
VERS. 2.0 : CWLS log ASCII Standard -VERSION 2.0
WRAP. YES : Multiple lines per depth step
~Well ------------------------------------------------------
STRT.FT                           300.0 : START DEPTH
STOP.FT                          7550.0 : STOP DEPTH
STEP.FT                        50.00000 : STEP LENGTH
NULL.                           -999.25 : NULL VALUE
COMP.         MACHII ROSS PETROLEUM CO. : COMPANY
WELL. TURNEY WINN EXPLORATION CO INC #3 : WELL
FLD .                       LOS CUATROS : FIELD
LOC .                                   : LOCATION
CNTY.                          MAVERICK : COUNTY
STAT.                             TEXAS : STATE
CTRY.          UNITED STATES OF AMERICA : COUNTRY
SRVC.                      Schlumberger : SERVICE COMPANY
DATE.                       20-Oct-1978 : LOGDATE
API .                    42323312460000 : API NUMBER
UWI .                    42323312460000 : UNIQUE WELL ID
SLAT.WGS84                28.8188606342 : SURFACE LATITUDE
SLON.WGS84              -100.5070554984 : SURFACE LONGITUDE
~Curve Information -----------------------------------------
DEPT  .FT    : DEPTH
ASNED .OHMM  : AMPLIFIED SHORT NORMAL 16 IN.
CALDED.IN    : CALIPER FROM DENSITY LOG (ADJ TO RES.)
CALSED.IN    : CALIPER FROM SONIC LOG (ADJ TO RES.)
CALWS .IN    : CALIPER (CALSED/CALDED @ 6098)
CILDED.MMHO  : CONDUCTIVITY FROM LOG
CONDWS.MMHO  : CONDUCTIVITY (1000/DRESWS)
CORRED.G/C3  : DENSITY CORRECTION (ADJ TO RES.)
DCORWS.G/C3  : DENSITY CORRECTION (CORRED)
DENWS .G/C3  : BULK DENSITY  (RHOBED LS)
DPHIED.V/V   : DENSITY POROSITY  (CREATED FROM RHOBED LS)
DPOWS .V/V   : DENSITY POROSITY (M=2.71 F=1 DPHIED)
DRESWS.OHMM  : DEEP RESISTIVITY (IF ILDED<1, THEN 1000/CILDED)
DTED  .US/F  : DELTA TIME  (ADJ TO RES.)
DTWS  .US/F  : DELTA TIME  (DTED)
GRRED .GAPI  : GAMMA RAY FROM RESISTIVITY LOG
GRWS  .GAPI  : GAMMA RAY (GRRED)
ILDED .OHMM  : DEEP INDUCTION RESISTIVITY
LL8ED .OHMM  : LATEROLOG-8 RESISTIVITY
NPHIED.V/V   : NEUTRON POROSITY (ADJ TO RES.)
NPOWS .V/V   : NEUTRON POROSITY LIMESTONE (NPHIED)
RHOBED.G/C3  : BULK DENSITY (ADJ TO RES.)
SPRED .MV    : SPONTANEOUS POTENTIAL FROM RESISTIVITY
SPWS  .MV    : SPONTANEOUS POTENTIAL BASELINE 0 MV (SPRED)
SRESWS.OHMM  : SHALLOW RESISTIVITY (ASNED/LL8ED @ 6093)
~Params ----------------------------------------------------
EKB .F                 902.9 : Kelly bushing
EGL .F                 890.0 : Ground level
EDF .F                 901.9 : Drilling floor
TD  .F                7605.0 : Total depth
CLNT.                A2DTECH : Client Code
PD  .                     GL : Permanent Datum
DD  .F                  7605 : Depth driller
DL  .F                  7600 : Depth logger
BLI .F                  7594 : Bottom log interval
TLI .F                  6825 : Top log interval
CS1 .IN                    7 : Casing size
CBL1.F                  6825 : Casing logger 1
BS1 .IN                6.125 : Bit size
BSD1.F                  7605 : Depth drilled with bit1
DFT .              LIGNOSULF : Type fluid in hole
DFD .                   16.8 : Density
DFPH.                   10.2 : pH
MSS .               FLOWLINE : Source of sample
TLAB.HRS                2130 : Time logger at bottom
ORIG.          1" 2.5" PRINT : Origin of data
UWI .         42323312460000 : Unique Well ID
DICO. A2D TECHNOLOGIES, INC. : Digitizing Company
DATE.            26-JUL-1978 : Date Logged [DD-MMM-YYYY]
SL  .  2400' FWL & 4600' FSL : Surface Location
EPD .F                   890 : Elevation Permanent Datum
LMF .                     KB : Log Measured From
DMF .                     KB : Drilling Measured From
DAPD.F                  12.9 : Feet Above Permanent Datum
CBD1.             7" @ 6830' : Casing driller 1
~Other -----------------------------------------------------
~ASCII -----------------------------------------------------
# ...
 6100.00000    -999.25   12.26500    -999.25   12.26500    -999.25   13.11370   -0.20180   -0.20180    -999.25    -999.25    -999.25   76.25610   56.97730   56.97730    -999.25    -999.25   76.25610    -999.25    0.04730    0.04730    -999.25    -999.25    -999.25    -999.25
 6150.00000    -999.25   13.83130    -999.25   13.83130    0.00000   11.04140   -0.20410   -0.20410    2.83210   -0.07140   -0.07140   90.56860   53.16250   53.16250   25.67770   25.67770   90.56860  110.83230    0.02030    0.02030    2.83210  -18.06850  -12.57590  110.83230
 6200.00000    -999.25   10.51810    -999.25   10.51810   44.91020   42.82050   -0.01710   -0.01710    2.72390   -0.00810   -0.00810   23.35330   60.64750   60.64750   31.77700   31.77700   23.35330   31.26350    0.07880    0.07880    2.72390   -6.27560   -3.09570   31.26350
 6250.00000    -999.25   10.24680    -999.25   10.24680   94.55550  107.74240   -0.08960   -0.08960    2.57980    0.07610    0.07610    9.28140   51.65980   51.65980   14.68370   14.68370    9.28140  116.89100    0.05450    0.05450    2.57980  -88.73900  -81.44190  116.89100
 6300.00000    -999.25   10.48800    -999.25   10.48800   61.37460   57.58610   -0.04820   -0.04820    2.68980    0.01180    0.01180   17.36530   58.60820   58.60820   21.08430   21.08430   17.36530   51.71750    0.00590    0.00590    2.68980    -999.25    -999.25   51.71750
 6350.00000    -999.25   10.56830    -999.25   10.56830    6.73650    6.73650   -0.02030   -0.02030    2.71180   -0.00110   -0.00110  148.44500   53.67520   53.67520   23.94530   23.94530    -999.25  117.72730    0.00410    0.00410    2.71180  -31.93180  -10.68340  117.72730
 6400.00000    -999.25    9.67470    -999.25    9.67470    9.98000    9.98000    0.00300    0.00300    2.71540   -0.00320   -0.00320  100.20040   53.52540   53.52540   29.29150   29.29150    -999.25  100.37830    0.01850    0.01850    2.71540  -36.93690  -13.03720  100.37830
 6450.00000    -999.25   12.45730    -999.25   12.45730    3.74690    3.74690   -0.12030   -0.12030    2.68770    0.01900    0.01300  266.88730   51.72070   51.72070   27.93640   27.93640    -999.25  340.90470    0.01980    0.01980    2.68770  -45.04500  -18.49400  340.90470
 6500.00000    -999.25    9.46880    -999.25    9.46880   11.97610   10.20370   -0.02720   -0.02720    2.74260    0.00220   -0.01910   98.00400   56.08120   56.08120   25.30120   25.30120   98.00400   92.12220    0.02120    0.02120    2.74260  -39.33930  -10.13700   92.12220
 6550.00000    -999.25    9.67710    -999.25    9.67710   48.02890   48.76260   -0.01110   -0.01110    2.68690    0.00700    0.01350   20.50750   69.17070   69.17070   39.23190   39.23190   20.50750   29.29280    0.10050    0.10050    2.68690  -41.74170   -9.88810   29.29280
 6600.00000    -999.25    9.52650    -999.25    9.52650   20.20960   14.58510   -0.00060   -0.00060    2.74490   -0.01460   -0.02040   68.56290   55.48870   55.48870   39.90960   39.90960   68.56290   80.40470    0.02010    0.02010    2.74490  -49.54950  -15.04460   80.40470
 6650.00000    -999.25   10.17110    -999.25   10.17110   95.68360  102.76960   -0.01810   -0.01810    2.65150    0.00570    0.03420    9.73050   71.59650   71.59650   57.53010   57.53010    9.73050   98.17680    0.07960    0.07960    2.65150  -48.64870  -11.49250   98.17680
 6700.00000    -999.25    9.82470    -999.25    9.82470   20.45810   29.46840   -0.02230   -0.02230    2.73340   -0.02690   -0.01370   33.93460   53.20270   53.20270   44.87950   44.87950   33.93460   89.18180    0.02430    0.02430    2.73340  -52.85290  -13.04550   89.18180
 6750.00000    -999.25    9.61570    -999.25    9.61570   44.16530   37.11250   -0.02880   -0.02880    2.70640   -0.00700    0.00210   26.94510   60.03070   60.03070   37.42460   37.42460   26.94510  297.04880    0.06030    0.06030    2.70640  -48.64870   -6.19000  297.04880
 6800.00000    -999.25    9.25420    -999.25    9.25420   64.36390   66.79980   -0.01200   -0.01200    2.68940    0.02590    0.01200   14.97010   66.11560   66.11560   34.18660   34.18660   14.97010  272.84850    0.07520    0.07520    2.68940  -50.45050   -5.34050  272.84850
 6850.00000    -999.25    7.55150    -999.25    7.55150   85.21030   85.21030    0.02330    0.02330    2.62750    0.05090    0.04820   11.73570    -999.25    -999.25    -999.25    -999.25    -999.25  215.30980    0.12900    0.12900    2.62750  -37.05960   -4.06710  215.30980
 6900.00000    -999.25    7.52930    -999.25    7.52930   53.89220   55.97660    0.00330    0.00330    2.61390    0.04570    0.05620   17.86460   65.38740   65.38740   37.50000   37.50000   17.86460  295.15150    0.08590    0.08590    2.61390  -45.92150   -3.71060  295.15150
 6950.00000    -999.25    7.72960    -999.25    7.72960   25.69860   37.32040    0.04390    0.04390    2.61180    0.06910    0.05740   26.79500   76.56630   76.56630   42.99670   42.99670   26.79500  260.55550    0.12670    0.12670    2.61180  -62.23570  -10.80630  260.55550
 7000.00000    -999.25    7.00180    -999.25    7.00180    -999.25    -999.25    0.03080    0.03080    2.63200    0.01210    0.04560    -999.25   52.46740   52.46740   11.74700   11.74700    -999.25    -999.25    0.01010    0.01010    2.63200 -103.72640  -54.44890    -999.25
 7050.00000    -999.25    7.04550    -999.25    7.04550   10.47900   10.47900    0.01350    0.01350    2.68580    0.01420    0.01420   95.42900   60.87090   60.87090   18.14750   18.14750    -999.25    -999.25    0.00970    0.00970    2.68580  -63.14200  -19.22330    -999.25
 7100.00000    -999.25    9.76520    -999.25    9.76520   70.35930   71.06360   -0.03690   -0.03690    2.53740    0.10740    0.10090   14.07190   82.19140   82.19140   51.05420   51.05420   14.07190   78.33330    0.23830    0.23830    2.53740  -50.15110  -10.75080   78.33330
 7150.00000    -999.25    7.80090    -999.25    7.80090  111.27750  107.74240    0.02170    0.02170    2.61330    0.05770    0.05650    9.28140   84.74470   84.74470   55.34840   55.34840    9.28140  102.34810    0.20280    0.20280    2.61330  -52.86740  -10.42180  102.34810
 7200.00000    -999.25    7.57260    -999.25    7.57260  204.58650   99.20830    0.01420    0.01420    2.69590    0.02530    0.00820   10.07980   75.31200   75.31200   45.93370   45.93370   10.07980   92.02460    0.11510    0.11510    2.69590  -52.65300   -7.16210   92.02460
 7250.00000    -999.25    9.00820    -999.25    9.00820    -999.25    -999.25   -0.03010   -0.03010    2.70510    0.00440    0.00290    -999.25   51.53050   51.53050   25.54610   25.54610    -999.25    -999.25    0.00600    0.00600    2.70510  -92.44600  -38.75640    -999.25
 7300.00000    -999.25    7.29860    -999.25    7.29860    1.50150    1.50150    0.01430    0.01430    2.71140   -0.00990   -0.00080  666.00070   53.46670   53.46670   30.49700   30.49700    -999.25  956.78810    0.02100    0.02100    2.71140  -79.45860  -11.98760  956.78810
 7350.00000    -999.25    8.05620    -999.25    8.05620    -999.25    -999.25    0.00270    0.00270    2.69500    0.01830    0.00880    -999.25   50.73660   50.73660   25.64010   25.64010    -999.25    -999.25    0.00380    0.00380    2.69500 -113.59520  -36.57600    -999.25
 7400.00000    -999.25    6.97990    -999.25    6.97990   18.01800   22.27350    0.02160    0.02160    2.82850   -0.03820   -0.06930   44.89640   51.30970   51.30970   31.02430   31.02430   44.89640  706.70450    0.04320    0.04320    2.82850  -94.86400  -19.18200  706.70450
 7450.00000    -999.25    7.37890    -999.25    7.37890    -999.25   14.83300    0.00210    0.00210    2.76610   -0.02390   -0.03280   67.41740   52.69010   52.69010   21.23320   21.23320   67.41740  984.54540    0.08620    0.08620    2.76610 -120.84710  -42.47680  984.54540
 7500.00000    -999.25    7.75480    -999.25    7.75480    -999.25    -999.25   -0.02040   -0.02040    2.65000    0.01420    0.03510    -999.25   50.96340   50.96340   21.68680   21.68680    -999.25    -999.25    0.00080    0.00080    2.65000 -105.33700  -21.75990    -999.25
