~Version ---------------------------------------------------
VERS. 2.0 : CWLS log ASCII Standard -VERSION 2.0
WRAP. YES : Multiple lines per depth step
~Well ------------------------------------------------------
STRT.FT                           300.0 : START DEPTH
STOP.FT                          7550.0 : STOP DEPTH
STEP.FT                        50.00000 : STEP LENGTH
NULL.                           -999.25 : NULL VALUE
COMP.         MACHII ROSS PETROLEUM CO. : COMPANY
WELL. TURNEY WINN EXPLORATION CO INC #3 : WELL
FLD .                       LOS CUATROS : FIELD
LOC .                                   : LOCATION
CNTY.                          MAVERICK : COUNTY
STAT.                             TEXAS : STATE
CTRY.          UNITED STATES OF AMERICA : COUNTRY
SRVC.                      Schlumberger : SERVICE COMPANY
DATE.                       20-Oct-1978 : LOGDATE
API .                    42323312460000 : API NUMBER
UWI .                    42323312460000 : UNIQUE WELL ID
SLAT.WGS84                28.8188606342 : SURFACE LATITUDE
SLON.WGS84              -100.5070554984 : SURFACE LONGITUDE
~Curve Information -----------------------------------------
DEPT  .FT    : DEPTH
ASNED .OHMM  : AMPLIFIED SHORT NORMAL 16 IN.
CALDED.IN    : CALIPER FROM DENSITY LOG (ADJ TO RES.)
CALSED.IN    : CALIPER FROM SONIC LOG (ADJ TO RES.)
CALWS .IN    : CALIPER (CALSED/CALDED @ 6098)
CILDED.MMHO  : CONDUCTIVITY FROM LOG
CONDWS.MMHO  : CONDUCTIVITY (1000/DRESWS)
CORRED.G/C3  : DENSITY CORRECTION (ADJ TO RES.)
DCORWS.G/C3  : DENSITY CORRECTION (CORRED)
DENWS .G/C3  : BULK DENSITY  (RHOBED LS)
DPHIED.V/V   : DENSITY POROSITY  (CREATED FROM RHOBED LS)
DPOWS .V/V   : DENSITY POROSITY (M=2.71 F=1 DPHIED)
DRESWS.OHMM  : DEEP RESISTIVITY (IF ILDED<1, THEN 1000/CILDED)
DTED  .US/F  : DELTA TIME  (ADJ TO RES.)
DTWS  .US/F  : DELTA TIME  (DTED)
GRRED .GAPI  : GAMMA RAY FROM RESISTIVITY LOG
GRWS  .GAPI  : GAMMA RAY (GRRED)
ILDED .OHMM  : DEEP INDUCTION RESISTIVITY
LL8ED .OHMM  : LATEROLOG-8 RESISTIVITY
NPHIED.V/V   : NEUTRON POROSITY (ADJ TO RES.)
NPOWS .V/V   : NEUTRON POROSITY LIMESTONE (NPHIED)
RHOBED.G/C3  : BULK DENSITY (ADJ TO RES.)
SPRED .MV    : SPONTANEOUS POTENTIAL FROM RESISTIVITY
SPWS  .MV    : SPONTANEOUS POTENTIAL BASELINE 0 MV (SPRED)
SRESWS.OHMM  : SHALLOW RESISTIVITY (ASNED/LL8ED @ 6093)
~Params ----------------------------------------------------
EKB .F                 902.9 : Kelly bushing
EGL .F                 890.0 : Ground level
EDF .F                 901.9 : Drilling floor
TD  .F                7605.0 : Total depth
CLNT.                A2DTECH : Client Code
PD  .                     GL : Permanent Datum
DD  .F                  7605 : Depth driller
DL  .F                  7600 : Depth logger
BLI .F                  7594 : Bottom log interval
TLI .F                  6825 : Top log interval
CS1 .IN                    7 : Casing size
CBL1.F                  6825 : Casing logger 1
BS1 .IN                6.125 : Bit size
BSD1.F                  7605 : Depth drilled with bit1
DFT .              LIGNOSULF : Type fluid in hole
DFD .                   16.8 : Density
DFPH.                   10.2 : pH
MSS .               FLOWLINE : Source of sample
TLAB.HRS                2130 : Time logger at bottom
ORIG.          1" 2.5" PRINT : Origin of data
UWI .         42323312460000 : Unique Well ID
DICO. A2D TECHNOLOGIES, INC. : Digitizing Company
DATE.            26-JUL-1978 : Date Logged [DD-MMM-YYYY]
SL  .  2400' FWL & 4600' FSL : Surface Location
EPD .F                   890 : Elevation Permanent Datum
LMF .                     KB : Log Measured From
DMF .                     KB : Drilling Measured From
DAPD.F                  12.9 : Feet Above Permanent Datum
CBD1.             7" @ 6830' : Casing driller 1
~Other -----------------------------------------------------
~ASCII -----------------------------------------------------
# ...
 3200.00000   14.89480    -999.25   12.70700   12.70700   91.40530   94.61010    -999.25    -999.25    -999.25    -999.25    -999.25   10.56970   84.47950   84.47950   39.15660   39.15660   10.56970    -999.25    -999.25    -999.25    -999.25  -23.17980   -7.37920   14.89480
 3250.00000   13.88550    -999.25   13.14110   13.14110  107.35830   94.97670    -999.25    -999.25    -999.25    -999.25    -999.25   10.52890   60.61510   60.61510   20.28110   20.28110   10.52890    -999.25    -999.25    -999.25    -999.25  -29.40140  -11.71080   13.88550
 3300.00000   13.41340    -999.25   13.63740   13.63740  142.64260   95.52650    -999.25    -999.25    -999.25    -999.25    -999.25   10.46830   67.67650   67.67650   31.32530   31.32530   10.46830    -999.25    -999.25    -999.25    -999.25  -32.57970  -12.99910   13.41340
 3350.00000   18.15260    -999.25   13.21830   13.21830   71.57170   68.86720    -999.25    -999.25    -999.25    -999.25    -999.25   14.52070   72.02480   72.02480   28.16270   28.16270   14.52070    -999.25    -999.25    -999.25    -999.25  -35.28580  -13.81530   18.15260
 3400.00000   15.74620    -999.25   13.36800   13.36800   80.02650   84.03710    -999.25    -999.25    -999.25    -999.25    -999.25   11.89950   61.79090   61.79090   23.19320   23.19320   11.89950    -999.25    -999.25    -999.25    -999.25  -35.80270  -12.44220   15.74620
 3450.00000   17.50000    -999.25   13.15570   13.15570   62.06210   75.33810    -999.25    -999.25    -999.25    -999.25    -999.25   13.27350   69.12080   69.12080   30.57220   30.57220   13.27350    -999.25    -999.25    -999.25    -999.25  -33.29540   -8.04490   17.50000
 3500.00000   18.03210    -999.25   12.79640   12.79640   54.05410   76.45670    -999.25    -999.25    -999.25    -999.25    -999.25   13.07930   73.36890   73.36890    -999.25    -999.25   13.07930    -999.25    -999.25    -999.25    -999.25  -33.51550   -6.37510   18.03210
 3550.00000   21.08430    -999.25   12.72290   12.72290   57.05710   57.09130    -999.25    -999.25    -999.25    -999.25    -999.25   17.51580   57.87120   57.87120   23.04220   23.04220   17.51580    -999.25    -999.25    -999.25    -999.25  -41.00080  -11.97040   21.08430
 3600.00000   20.90740    -999.25   12.70910   12.70910   69.06910   50.60600    -999.25    -999.25    -999.25    -999.25    -999.25   19.76050   67.70010   67.70010   33.93560   33.93560   19.76050    -999.25    -999.25    -999.25    -999.25  -40.06840   -9.14800   20.90740
 3650.00000   19.43780    -999.25   13.06840   13.06840   68.31830   71.06360    -999.25    -999.25    -999.25    -999.25    -999.25   14.07190   75.00110   75.00110   34.41270   34.41270   14.07190    -999.25    -999.25    -999.25    -999.25  -38.98870   -6.17840   19.43780
 3700.00000   26.50600    -999.25   13.06850   13.06850   52.55260   50.40020    -999.25    -999.25    -999.25    -999.25    -999.25   19.84120   70.30700   70.30700   21.08430   21.08430   19.84120    -999.25    -999.25    -999.25    -999.25  -50.14280  -15.44250   26.50600
 3750.00000   19.90960    -999.25   13.02230   13.02230   52.55260   53.43990    -999.25    -999.25    -999.25    -999.25    -999.25   18.71260   70.18360   70.18360    -999.25    -999.25   18.71260    -999.25    -999.25    -999.25    -999.25  -44.59070   -8.00040   19.90960
 3800.00000   23.35130    -999.25   12.70790   12.70790   44.59270   44.78420    -999.25    -999.25    -999.25    -999.25    -999.25   22.32930   58.72380   58.72380    -999.25    -999.25   22.32930    -999.25    -999.25    -999.25    -999.25  -44.47020   -5.99000   23.35130
 3850.00000   18.92570    -999.25   13.11210   13.11210   69.57040   57.09490    -999.25    -999.25    -999.25    -999.25    -999.25   17.51470   73.77880   73.77880   31.12470   31.12470   17.51470    -999.25    -999.25    -999.25    -999.25  -45.40560   -5.03540   18.92570
 3900.00000   56.13090    -999.25   12.41490   12.41490   38.63930   38.74080    -999.25    -999.25    -999.25    -999.25    -999.25   25.81260   56.82740   56.82740    -999.25    -999.25   25.81260    -999.25    -999.25    -999.25    -999.25 -101.81740  -62.71750   56.13090
 3950.00000   45.33130    -999.25   11.42280   11.42280   44.29490   43.94740    -999.25    -999.25    -999.25    -999.25    -999.25   22.75450   52.35290   52.35290    -999.25    -999.25   22.75450    -999.25    -999.25    -999.25    -999.25  -81.75910  -44.57670   45.33130
 4000.00000   46.38550    -999.25   11.36150   11.36150   39.03390   45.43310    -999.25    -999.25    -999.25    -999.25    -999.25   22.01040   77.98210   77.98210    -999.25    -999.25   22.01040    -999.25    -999.25    -999.25    -999.25  -81.77420  -46.50940   46.38550
 4050.00000   67.57030    -999.25   12.12490   12.12490   44.29430   45.64920    -999.25    -999.25    -999.25    -999.25    -999.25   21.90620   59.35200   59.35200    -999.25    -999.25   21.90620    -999.25    -999.25    -999.25    -999.25 -109.81740  -76.47020   67.57030
 4100.00000   62.54950    -999.25   12.45300   12.45300   47.61580   45.13510    -999.25    -999.25    -999.25    -999.25    -999.25   22.15570   56.39780   56.39780    -999.25    -999.25   22.15570    -999.25    -999.25    -999.25    -999.25 -101.32300  -69.89330   62.54950
 4150.00000   39.10660    -999.25   12.04960   12.04960   48.05400   49.97500    -999.25    -999.25    -999.25    -999.25    -999.25   20.01000   52.20740   52.20740    -999.25    -999.25   20.01000    -999.25    -999.25    -999.25    -999.25  -57.40320  -27.89110   39.10660
 4200.00000   53.31330    -999.25   13.57660   13.57660   49.55470   48.40580    -999.25    -999.25    -999.25    -999.25    -999.25   20.65870   53.99370   53.99370    -999.25    -999.25   20.65870    -999.25    -999.25    -999.25    -999.25  -96.76260  -69.16810   53.31330
 4250.00000   64.96000    -999.25   12.37210   12.37210   47.30470   48.75910    -999.25    -999.25    -999.25    -999.25    -999.25   20.50900   49.74590   49.74590    -999.25    -999.25   20.50900    -999.25    -999.25    -999.25    -999.25  -93.05310  -67.37610   64.96000
 4300.00000   38.43450    -999.25   12.25880   12.25880   51.05100   50.93490    -999.25    -999.25    -999.25    -999.25    -999.25   19.63290   54.73880   54.73880    -999.25    -999.25   19.63290    -999.25    -999.25    -999.25    -999.25  -58.52820  -34.76880   38.43450
 4350.00000   20.18070    -999.25   12.30060   12.30060   73.82380   78.58790    -999.25    -999.25    -999.25    -999.25    -999.25   12.72460   61.29360   61.29360    -999.25    -999.25   12.72460    -999.25    -999.25    -999.25    -999.25  -29.71300   -7.41210   20.18070
 4400.00000   36.78530    -999.25   12.31830   12.31830   49.57930   49.85070    -999.25    -999.25    -999.25    -999.25    -999.25   20.05990   51.75530   51.75530    -999.25    -999.25   20.05990    -999.25    -999.25    -999.25    -999.25  -47.65890  -25.50980   36.78530
 4450.00000   31.82720    -999.25   12.27290   12.27290   53.30330   52.18740    -999.25    -999.25    -999.25    -999.25    -999.25   19.16170   53.53540   53.53540    -999.25    -999.25   19.16170    -999.25    -999.25    -999.25    -999.25  -39.37820  -17.38100   31.82720
 4500.00000   26.23790    -999.25   12.28740   12.28740   69.06910   69.88320    -999.25    -999.25    -999.25    -999.25    -999.25   14.30960   58.16980   58.16980    -999.25    -999.25   14.30960    -999.25    -999.25    -999.25    -999.25  -36.30490  -14.45960   26.23790
 4550.00000   25.30120    -999.25   12.25750   12.25750   56.31070   68.63040    -999.25    -999.25    -999.25    -999.25    -999.25   14.57080   51.37580   51.37580   45.18070   45.18070   14.57080    -999.25    -999.25    -999.25    -999.25  -32.70250  -11.00910   25.30120
 4600.00000   22.19370    -999.25   12.20900   12.20900   65.41650   65.29420    -999.25    -999.25    -999.25    -999.25    -999.25   15.31530   56.54320   56.54320    -999.25    -999.25   15.31530    -999.25    -999.25    -999.25    -999.25  -36.36710  -14.82560   22.19370
