~Version ---------------------------------------------------
VERS. 2.0 : CWLS log ASCII Standard -VERSION 2.0
WRAP. YES : MULTIPLE LINES PER DEPTH STEP
~Well ------------------------------------------------------
STRT.FT                 3650.0 : START DEPTH
STOP.FT                 8050.0 : STOP DEPTH
STEP.FT               50.00000 : STEP LENGTH
NULL.                  -999.25 : NULL VALUE
COMP.      SAGE ENERGY COMPANY : COMPANY
WELL.                 ABNER #1 : WELL
FLD .             CALDWELL, NE : FIELD
LOC .                          : LOCATION
CNTY.                 BURLESON : COUNTY
STAT.                    TEXAS : STATE
CTRY. UNITED STATES OF AMERICA : COUNTRY
SRVC.            Dresser Atlas : SERVICE COMPANY
DATE.              30-Nov-1984 : LOGDATE
API .           42051327840000 : API NUMBER
UWI .           42051327840000 : UNIQUE WELL ID
SLAT.WGS84       30.5666622913 : SURFACE LATITUDE
SLON.WGS84      -96.5965383506 : SURFACE LONGITUDE
~Curve Information -----------------------------------------
DEPT    .FT    : DEPTH FEET
CALRED  .IN    : CALIPER FROM RESISTIVITY LOG
CALWS   .IN    : CALIPER [CALRED]
CONDWS  .MMHO  : CONDUCTIVITY [1000/DRESWS]
CORRED  .G/C3  : DENSITY CORRECTION FROM DENSITY LOG
DCORWS  .G/C3  : DENSITY CORRECTION [CORRED]
DENWS   .G/C3  : BULK DENSITY [SPL CALCULATED PORDSSED <7361> PORDLSED]
DPOWS   .V/V   : DENSITY POROSITY [M=2.71 F=1.0] [CALCULATED FROM DENWS]
DRESWS  .OHMM  : DEEP RESISTIVITY [RILDED]
GRNED   .CU    : GAMMA RAY FROM NEUTRON LOG [ADJ TO GRRED]
GRRED   .GAPI  : GAMMA RAY FROM RESISTIVITY LOG
GRWS    .GAPI  : GAMMA RAY [SPL GRRED <8022> GRNED, CASED HOLE DATA BELOW 80522F]
MRESWS  .OHMM  : MEDIUM RESISTIVITY [RILMED]
NEUTED  .CU    : NEUTRON FROM NEUTRON LOG [ADJ TO GRRED]
NEUTWS  .CU    : NEUTRON [NEUTED]
PORDLSED.V/V   : DENSITY POROSITY [M=2.71 F=1.0] FROM DENSITY LOG
PORDSSED.V/V   : DENSITY POROSITY [M=2.65 F=1.0] FROM DENSITY LOG
RFOCED  .OHMM  : FOCUSED RESISTIVITY
RILDED  .OHMM  : INDUCTION LOG DEEP RESISTIVITY
RILMED  .OHMM  : INDUCTION LOG MEDIUM RESISTIVITY
SPRED   .MV    : SPONTANEOUS POTENTIAL FROM RESISTIVITY LOG
SPWS    .MV    : SPONTANEOUS POTENTIAL [BASELINE 0 MV] [SPRED]
SRESWS  .OHMM  : SHALLOW RESISTIVITY [RFOCED]
TENRED  .LBF   : TENSION FROM RESISTIVITY LOG
~Params ----------------------------------------------------
PD  .                     GL : PERMANENT DATUM
EPD .FT                  336 : ELEVATION PERMANENT DATUM
LMF .                     KB : LOG MEASURED FROM
DAPD.FT                   16 : FEET ABOVE PERMANENT DATUM
DMF .                     KB : DRILLING MEASURED FROM
EKB .FT                  352 : KELLY BUSHING
EDF .FT                  351 : DRILLING FLOOR
EGL .FT                  336 : GROUND LEVEL
DATE.               11/30/84 : RUN DATE
RUN .                      1 : RUN NUMBER
DD  .FT                  810 : DEPTH DRILLER
DL  .FT                 8072 : DEPTH LOGGER
BLI .FT                 8070 : BOTTOM LOG INTERVAL
TLI .FT                 3662 : TOP LOG INTERVAL
CS  .IN                8.625 : CASING SIZE
CBD .FT                 3400 : CASING BOTTOM DRILLER
CBL .FT                 3662 : CASING BOTTOM LOGGER
BS  .IN                7.875 : BIT SIZE
BSD .FT                 8100 : BIT SIZE AT DEPTH
DFT .         LIGNOSULFONATE : DRILLING FLUID TYPE
DFD .                    9.4 : DRILLING FLUID DENSITY
DFV .                     48 : DRILLING FLUID VISCOSITY
DFPH.                    9.5 : DRILLING FLUID PH
DFL .                    6.8 : DRILLING FLUID LOSS
MSS .               FLOWLINE : MUD SAMPLE SOURCE
RMS .OHMM                3.3 : RESISTIVITY MUD SAMPLE
MST .DEGF                 75 : MUD SAMPLE TEMPERATURE
RMF .OHMM               2.45 : RESISTIVITY MUD FILTRATE SAMPLE
MFST.DEGF                 75 : MUD FILTRATE SAMPLE TEMPERATURE
RMC .OHMM               4.12 : RESISTIVITY MUD CAKE
MCST.DEGF                 75 : MUD CAKE SAMPLE TEMPERATURE
MFSS.               MEASURED : MUD FILTRATE SAMPLE SOURCE
MCSS.             CALCULATED : MUD CAKE SAMPLE SOURCE
RMB .OHMM               1.34 : RESISTIVITY MUD AT BHT
TCS .HRS                  12 : TIME CIRCULATED STOPPED
LUN .                HL 6304 : LOGGING UNIT NUMBER
LUL .                  BRYAN : LOGGING UNIT LOCATION
ENGI.            STEIGERWALD : RECORDING ENGINEER
WITN.                  BAKER : WITNESSED BY
CLNT.                A2DTECH : CLIENT CODE
ORIG.            2" 5" PRINT : ORIGIN OF DATA
UWI .         42051327840000 : UNIQUE WELL ID
DICO. A2D Technologies, Inc. : DIGITIZING COMPANY
~Other -----------------------------------------------------
~ASCII -----------------------------------------------------
 3650.00000    -999.25    -999.25    -999.25    -999.25    -999.25    -999.25    -999.25    -999.25    -999.25   58.46400   58.46400    -999.25    -999.25    -999.25    -999.25    -999.25    -999.25    -999.25    -999.25    -999.25    -999.25    -999.25    -999.25
 3700.00000   11.99900   11.99900  342.97080    0.19740    0.19740    2.14230    0.33200    2.91570    -999.25   73.68010   73.68010    3.48530    -999.25    -999.25    -999.25    0.30770    3.52140    2.91570    3.48530    7.95960   -4.52160    3.52140    -999.25
 3750.00000   12.00680   12.00680  152.71600    0.13340    0.13340    2.24640    0.27110    6.54810    -999.25   51.90440   51.90440    8.81730    -999.25    -999.25    -999.25    0.24460    7.02350    6.54810    8.81730  -15.38550  -27.69340    7.02350    1.30150
 3800.00000   10.04460   10.04460  187.16430    0.14990    0.14990    2.12480    0.34220    5.34290    -999.25   52.23610   52.23610    8.41960    -999.25    -999.25    -999.25    0.31830    9.14900    5.34290    8.41960  -29.44490  -41.57950    9.14900   15.20620
 3850.00000    9.01610    9.01610  309.37720    0.09380    0.09380    2.33950    0.21670    3.23230    -999.25   85.04120   85.04120    3.35160    -999.25    -999.25    -999.25    0.18820    3.46620    3.23230    3.35160    6.09290   -5.57550    3.46620    8.47890
 3900.00000    8.42590    8.42590  488.06680    0.19220    0.19220    2.09920    0.35720    2.04890    -999.25   91.05320   91.05320    2.13910    -999.25    -999.25    -999.25    0.33380    2.33750    2.04890    2.13910    6.45240   -2.60140    2.33750    1.75160
 3950.00000    8.60440    8.60440  285.21720    0.09930    0.09930    2.38120    0.19230    3.50610    -999.25   82.82980   82.82980    3.66620    -999.25    -999.25    -999.25    0.16290    3.62840    3.50610    3.66620   -0.77070   -8.52260    3.62840    0.00000
 4000.00000    8.70500    8.70500  402.72240    0.10520    0.10520    2.37250    0.19740    2.48310    -999.25   82.09570   82.09570    2.60440    -999.25    -999.25    -999.25    0.16820    2.86120    2.48310    2.60440   -0.22530   -6.70200    2.86120    0.00000
 4050.00000    8.72940    8.72940  444.87940    0.09530    0.09530    2.41550    0.17220    2.24780    -999.25   91.17150   91.17150    2.33040    -999.25    -999.25    -999.25    0.14210    2.63830    2.24780    2.33040    3.08570   -2.11590    2.63830    0.00000
 4100.00000    8.47830    8.47830  415.29960    0.17660    0.17660    2.29940    0.24010    2.40790    -999.25   88.38480   88.38480    2.53090    -999.25    -999.25    -999.25    0.21250    2.78970    2.40790    2.53090   -2.79990   -7.09420    2.78970    0.00000
 4150.00000    8.42450    8.42450  333.21120    -999.25    -999.25    -999.25    -999.25    3.00110    -999.25   88.32380   88.32380    3.32170    -999.25    -999.25    -999.25    -999.25    3.55110    3.00110    3.32170   -0.63550   -5.18740    3.55110    0.00000
 4200.00000    9.64430    9.64430  439.15510    -999.25    -999.25    -999.25    -999.25    2.27710    -999.25   94.63180   94.63180    2.38090    -999.25    -999.25    -999.25    -999.25    2.68290    2.27710    2.38090   -0.85280   -5.66220    2.68290    0.00000
 4250.00000    9.90550    9.90550  443.75420    -999.25    -999.25    -999.25    -999.25    2.25350    -999.25   92.25940   92.25940    2.35630    -999.25    -999.25    -999.25    -999.25    2.50800    2.25350    2.35630    1.26790   -3.79910    2.50800    0.00000
 4300.00000   11.27140   11.27140  596.80110    -999.25    -999.25    -999.25    -999.25    1.67560    -999.25   94.00910   94.00910    1.75200    -999.25    -999.25    -999.25    -999.25    2.23020    1.67560    1.75200    1.76230   -3.56220    2.23020    0.00000
 4350.00000   11.00710   11.00710  501.15260    -999.25    -999.25    -999.25    -999.25    1.99540    -999.25   88.24770   88.24770    2.08600    -999.25    -999.25    -999.25    -999.25    2.29820    1.99540    2.08600    2.40490   -3.17720    2.29820    0.00000
 4400.00000   11.17990   11.17990  637.83640    -999.25    -999.25    -999.25    -999.25    1.56780    -999.25   90.96880   90.96880    1.63900    -999.25    -999.25    -999.25    -999.25    2.09610    1.56780    1.63900    1.75660   -4.08300    2.09610    0.00000
 4450.00000    9.55630    9.55630  692.42490    -999.25    -999.25    -999.25    -999.25    1.44420    -999.25   94.59920   94.59920    1.50990    -999.25    -999.25    -999.25    -999.25    2.00270    1.44420    1.50990    3.90970   -2.18750    2.00270    0.00000
 4500.00000    9.46210    9.46210  693.04880    -999.25    -999.25    -999.25    -999.25    1.44290    -999.25   93.58060   93.58060    1.50870    -999.25    -999.25    -999.25    -999.25    1.96680    1.44290    1.50870    2.99560   -3.35920    1.96680    0.00000
 4550.00000    9.84660    9.84660  688.08920    -999.25    -999.25    -999.25    -999.25    1.45330    -999.25  111.30770  111.30770    1.51940    -999.25    -999.25    -999.25    -999.25    1.95350    1.45330    1.51940    3.19620   -3.41610    1.95350    0.00000
 4600.00000    9.68160    9.68160  543.92170    -999.25    -999.25    -999.25    -999.25    1.83850    -999.25   98.06970   98.06970    1.92530    -999.25    -999.25    -999.25    -999.25    2.22850    1.83850    1.92530    2.97470   -3.89520    2.22850    0.00000
 4650.00000   11.03190   11.03190  827.47200    -999.25    -999.25    -999.25    -999.25    1.20850    -999.25   91.43190   91.43190    1.26620    -999.25    -999.25    -999.25    -999.25    1.78050    1.20850    1.26620    3.76340   -3.36400    1.78050    0.00000
 4700.00000   10.58510   10.58510 1038.85310    -999.25    -999.25    -999.25    -999.25    0.96260    -999.25   88.48270   88.48270    1.00710    -999.25    -999.25    -999.25    -999.25    1.49050    0.96260    1.00710    5.34590   -2.03910    1.49050    0.00000
 4750.00000    8.68040    8.68040  415.55850    -999.25    -999.25    -999.25    -999.25    2.40640    -999.25   77.98020   77.98020    2.53200    -999.25    -999.25    -999.25    -999.25    2.70460    2.40640    2.53200    1.67930   -5.80750    2.70460    0.00000
 4800.00000    9.00450    9.00450  541.12550    -999.25    -999.25    -999.25    -999.25    1.84800    -999.25   89.03740   89.03740    1.93190    -999.25    -999.25    -999.25    -999.25    2.25600    1.84800    1.93190   -1.74720   -9.18620    2.25600    0.00000
 4850.00000    9.56140    9.56140  690.56010    -999.25    -999.25    -999.25    -999.25    1.44810    -999.25   85.53280   85.53280    1.51430    -999.25    -999.25    -999.25    -999.25    1.95290    1.44810    1.51430   -5.23320  -12.62440    1.95290    0.00000
 4900.00000    9.72790    9.72790  640.12290    -999.25    -999.25    -999.25    -999.25    1.56220    -999.25   76.10460   76.10460    1.63420    -999.25    -999.25    -999.25    -999.25    2.01710    1.56220    1.63420    0.98890   -6.35440    2.01710    0.00000
 4950.00000    9.80500    9.80500  771.90270    -999.25    -999.25    -999.25    -999.25    1.29550    -999.25   78.41050   78.41050    1.38100    -999.25    -999.25    -999.25    -999.25    1.90780    1.29550    1.38100   -0.98750   -8.28300    1.90780    0.00000
 5000.00000    9.56550    9.56550  645.57780    -999.25    -999.25    -999.25    -999.25    1.54900    -999.25   76.91460   76.91460    1.61930    -999.25    -999.25    -999.25    -999.25    1.97730    1.54900    1.61930   -2.36680   -9.61450    1.97730    0.00000
 5050.00000    9.82060    9.82060  997.20780    -999.25    -999.25    -999.25    -999.25    1.00280    -999.25   81.34920   81.34920    1.07200    -999.25    -999.25    -999.25    -999.25    1.62030    1.00280    1.07200   -1.19670   -8.39660    1.62030    0.00000
 5100.00000    9.57190    9.57190  848.10440    -999.25    -999.25    -999.25    -999.25    1.17910    -999.25   83.52250   83.52250    1.23290    -999.25    -999.25    -999.25    -999.25    1.70810    1.17910    1.23290    4.21980   -2.93230    1.70810    0.00000
 5150.00000    9.29340    9.29340  810.83280    -999.25    -999.25    -999.25    -999.25    1.23330    -999.25   76.16210   76.16210    1.28980    -999.25    -999.25    -999.25    -999.25    1.74260    1.23330    1.28980   -0.30470   -7.40900    1.74260    0.00000
