~Version ---------------------------------------------------
VERS.      2.0 : CWLS log ASCII Standard -VERSION 2.0
WRAP.      YES : Multiple lines per depth step
CREA. 08/08/12 : LAS Creation Date
~Well ------------------------------------------------------
STRT.FT                 3750.0 : START DEPTH
STOP.FT                10100.0 : STOP DEPTH
STEP.FT               50.00000 : STEP LENGTH
NULL.                  -999.25 : NULL VALUE
COMP.              GOSE, STEVE : COMPANY
WELL.         VACLAVIC UNIT #1 : WELL
FLD .                 GIDDINGS : FIELD
LOC .                          : LOCATION
CNTY.                  FAYETTE : COUNTY
STAT.                    TEXAS : STATE
CTRY. UNITED STATES OF AMERICA : COUNTRY
SRVC.             Schlumberger : SERVICE COMPANY
DATE.              13-Aug-1981 : LOGDATE
API .           42149308390000 : API NUMBER
UWI .           42149308390000 : UNIQUE WELL ID
SLAT.WGS84       29.9573034487 : SURFACE LATITUDE
SLON.WGS84      -96.9214592176 : SURFACE LONGITUDE
~Curve Information -----------------------------------------
DEPT    .FT    : DEPTH FEET
CALDED  .IN    : CALIPER FROM DENSITY PLAYBACK LOG
CALWS   .IN    : CALIPER [DCALED + BITS SPLICED WITH CALDED @ 9170']
CONDWS  .MMHO  : CONDUCTIVITY [1000/DRESWS]
DCALED  .IN    : DIFRENTIAL CALIPER FROM DUAL INDUCTION/DENSITY/NEUTRON/GR LOG
DCORWS  .G/C3  : DENSITY CORRECTION [DRHOED]
DENWS   .G/C3  : FORMATION BULK DENSITY [CALCUALATED FROM DPOWS, M=2.71, F=1.0 & SPLICED WITH RHOBED @ 7810']
DPHILSED.V/V   : DENSITY POROSITY LIMESTONE [M=2.71, F=1.0] FROM DUAL INDUCTION/DENSITY/NEUTRON/GR LOG
DPHISSED.V/V   : DENSITY POROSOTY SANDSTONE [M=2.68, F=1.0] FROM DUAL INDUCTION/DENSITY/NEUTRON/GR LOG
DPOWS   .V/V   : DENSITY POROSITY LIMESTONE[DPHISSED CONVERTED TO LIMESTONE(M=2.71, F=1.0) & SPLICED TO DPHILSED AT 7810']
DRESWS  .OHMM  : DEEP RESISTIVITY [ILDED]
DRHO1ED .G/C3  : DENSITY CORRECTION FROM DUAL INDUCTION/DENSITY/NEUTRON/GR LOG
DRHOED  .G/C3  : DENSITY CORRECTION FROM DENSITY PLAYBACK LOG
GRDED   .GAPI  : GAMMA RAY FROM DENSITY PLAYBACK LOG
GRRED   .GAPI  : GAMMA RAY FROM DUAL INDUCTION/DENSITY/NEUTRON/GR LOG
GRWS    .GAPI  : GAMMA RAY [GRRED]
ILDED   .OHMM  : DEEP INDUCTION FROM DUAL INDUCTION/DENSITY/NEUTRON/GR LOG
ILMED   .OHMM  : MEDIUM INDUCTION FROM DUAL INDUCTION/DENSITY/NEUTRON/GR LOG
MRESWS  .OHMM  : MEDIUM RESISTIVITY [ILMED]
NPHILSED.V/V   : NEUTRON POROSITY LIMESTONE FROM DUAL INDUCTION/DENSITY/NEUTRON/GR LOG
NPHISSED.V/V   : NEUTRON POROSITY SANDSTONE FROM DUAL INDUCTION/DENSITY/NEUTRON/GR LOG
NPOWS   .V/V   : NEUTRON POROSITY LIMESTONE [NPHISSED MATRIX CONVERTED TO LIMESTONE & SPLICED WITH NPHILSED AT 7810']
RHOBED  .G/C3  : BULK DENSITY FROM DENSITY PLAYBACK LOG
SFLUED  .OHMM  : SPHERICALLY FOCUSED (UNAVERAGED) INDUCTION FROM DUAL INDUCTION/DENSITY/NEUTRON/GR LOG
SPRED   .MV    : SPONTANEOUS POTENTIAL FROM DUAL INDUCTION/DENSITY/NEUTRON/GR LOG
SPWS    .MV    : SPONTANEOUS POTENTIAL [BASELINE 0 MV, SPRED]
SRESWS  .OHMM  : SHALLOW RESISTIVITY [SFLUED]
~Params ----------------------------------------------------
PD  .                     GL : PERMANENT DATUM
EPD .FT                  253 : ELEVATION PERMANENT DATUM
LMF .                     KB : LOG MEASURED FROM
DAPD.FT                   12 : FEET ABOVE PERMANENT DATUM
DMF .                     KB : DRILLING MEASURED FROM
EKB .FT                  265 : KELLY BUSHING
EDF .FT                  264 : DRILLING FLOOR
EGL .FT                  253 : GROUND LEVEL
DATE.               08/13/81 : RUN DATE
RUN .                      1 : RUN NUMBER
DD  .FT                10160 : DEPTH DRILLER
DL  .FT                10145 : DEPTH LOGGER
BLI .FT                10139 : BOTTOM LOG INTERVAL
TLI .FT                 3712 : TOP LOG INTERVAL
CS  .IN                8.625 : CASING SIZE
CBD .FT                 3726 : CASING BOTTOM DRILLER
CBL .FT                 3712 : CASING BOTTOM LOGGER
BS  .IN                7.875 : BIT SIZE
BSD .FT                10160 : BIT SIZE AT DEPTH
DFT .         LIGNOSULFONATE : DRILLING FLUID TYPE
DFD .                    9.2 : DRILLING FLUID DENSITY
DFV .                     50 : DRILLING FLUID VISCOSITY
DFPH.                      9 : DRILLING FLUID PH
DFL .                      6 : DRILLING FLUID LOSS
MSS .              CIRC TANK : MUD SAMPLE SOURCE
RMS .OHMM               1.34 : RESISTIVITY MUD SAMPLE
MST .DEGF                 98 : MUD SAMPLE TEMPERATURE
RMF .OHMM                1.0 : RESISTIVITY MUD FILTRATE SAMPLE
MFST.DEGF                 98 : MUD FILTRATE SAMPLE TEMPERATURE
RMC .OHMM                2.0 : RESISTIVITY MUD CAKE
MCST.DEGF                 98 : MUD CAKE SAMPLE TEMPERATURE
MFSS.             CALCULATED : MUD FILTRATE SAMPLE SOURCE
MCSS.             CALCULATED : MUD CAKE SAMPLE SOURCE
RMB .OHMM              0.633 : RESISTIVITY MUD AT BHT
TCS .HRS                1600 : TIME CIRCULATED STOPPED
TLAB.HRS                2300 : TIME LOGGER AT BOTTOM
LUN .                   8176 : LOGGING UNIT NUMBER
LUL .                BRENHAM : LOGGING UNIT LOCATION
ENGI.                  BRUCK : RECORDING ENGINEER
WITN.                BECKHAM : WITNESSED BY
CLNT.                A2DTECH : CLIENT CODE
ORIG.            2" 5" PRINT : ORIGIN OF DATA
UWI .         42149308390000 : UNIQUE WELL ID
DICO. A2D Technologies, Inc. : DIGITIZING COMPANY
~Other -----------------------------------------------------
~ASCII -----------------------------------------------------
# ...
 5100.00000    -999.25    7.94550 1239.00380    0.07050    -999.25    -999.25    -999.25    -999.25    -999.25    0.80710    -999.25    -999.25    -999.25   57.01000   57.01000    0.80710    1.21270    1.21270    -999.25    -999.25    -999.25    -999.25    5.61550  -84.65960  -90.13210    5.61550
 5150.00000    -999.25    7.89710 1158.48010    0.02210    -999.25    -999.25    -999.25    -999.25    -999.25    0.86320    -999.25    -999.25    -999.25   60.58140   60.58140    0.86320    1.11370    1.11370    -999.25    -999.25    -999.25    -999.25    4.60780  -85.05780  -90.63820    4.60780
 5200.00000    -999.25    7.89390 1373.24910    0.01890    -999.25    -999.25    -999.25    -999.25    -999.25    0.72820    -999.25    -999.25    -999.25   65.53880   65.53880    0.72820    1.05800    1.05800    -999.25    -999.25    -999.25    -999.25    5.03050  -75.05850  -80.74670    5.03050
 5250.00000    -999.25    7.90830  525.21010    0.03330    -999.25    -999.25    -999.25    -999.25    -999.25    1.90400    -999.25    -999.25    -999.25   77.01570   77.01570    1.90400    2.50790    2.50790    -999.25    -999.25    -999.25    -999.25    5.32160  -26.22430  -32.02040    5.32160
 5300.00000    -999.25    7.66200 1248.43950   -0.21300    -999.25    -999.25    -999.25    -999.25    -999.25    0.80100    -999.25    -999.25    -999.25   36.89350   36.89350    0.80100    1.17750    1.17750    -999.25    -999.25    -999.25    -999.25    5.22370  -80.02100  -86.08150    5.22370
 5350.00000    -999.25    7.79400  783.02400   -0.08100    -999.25    -999.25    -999.25    -999.25    -999.25    1.27710    -999.25    -999.25    -999.25  103.06470  103.06470    1.27710    1.79160    1.79160    -999.25    -999.25    -999.25    -999.25    4.66520  -44.37780  -50.96950    4.66520
 5400.00000    -999.25    8.14040 1809.62720    0.26540    -999.25    -999.25    -999.25    -999.25    -999.25    0.55260    -999.25    -999.25    -999.25   52.44570   52.44570    0.55260    0.61860    0.61860    -999.25    -999.25    -999.25    -999.25    1.66450  -79.50090  -86.62380    1.66450
 5450.00000    -999.25    8.33540  130.43590    0.46040    -999.25    -999.25    -999.25    -999.25    -999.25    7.66660    -999.25    -999.25    -999.25   26.38470   26.38470    7.66660   10.43910   10.43910    -999.25    -999.25    -999.25    -999.25   47.34030   -0.71620   -8.37020   47.34030
 5500.00000    -999.25    7.73860  570.67850   -0.13640    -999.25    -999.25    -999.25    -999.25    -999.25    1.75230    -999.25    -999.25    -999.25   89.92870   89.92870    1.75230    2.55600    2.55600    -999.25    -999.25    -999.25    -999.25    4.48840  -41.32400  -49.00810    4.48840
 5550.00000    -999.25    7.61220 1319.43530   -0.26280    -999.25    -999.25    -999.25    -999.25    -999.25    0.75790    -999.25    -999.25    -999.25   38.53840   38.53840    0.75790    0.85000    0.85000    -999.25    -999.25    -999.25    -999.25    2.56190  -74.76630  -82.32220    2.56190
 5600.00000    -999.25    7.42310 1069.06140   -0.45190    -999.25    -999.25    -999.25    -999.25    -999.25    0.93540    -999.25    -999.25    -999.25   68.00900   68.00900    0.93540    1.23680    1.23680    -999.25    -999.25    -999.25    -999.25    4.63740  -52.49680  -59.92450    4.63740
 5650.00000    -999.25    7.36750 1749.16910   -0.50750    -999.25    -999.25    -999.25    -999.25    -999.25    0.57170    -999.25    -999.25    -999.25   51.66700   51.66700    0.57170    0.69000    0.69000    -999.25    -999.25    -999.25    -999.25    3.32040  -92.73140 -100.03090    3.32040
 5700.00000    -999.25    7.57080  638.81440   -0.30420    -999.25    -999.25    -999.25    -999.25    -999.25    1.56540    -999.25    -999.25    -999.25   81.11550   81.11550    1.56540    2.20590    2.20590    -999.25    -999.25    -999.25    -999.25    6.10980  -52.71100  -59.88240    6.10980
 5750.00000    -999.25    7.55530 1567.15250   -0.31970    -999.25    -999.25    -999.25    -999.25    -999.25    0.63810    -999.25    -999.25    -999.25   68.18870   68.18870    0.63810    0.90110    0.90110    -999.25    -999.25    -999.25    -999.25    3.92990  -88.02700  -95.07020    3.92990
 5800.00000    -999.25    7.82660 1360.91450   -0.04840    -999.25    -999.25    -999.25    -999.25    -999.25    0.73480    -999.25    -999.25    -999.25   74.19570   74.19570    0.73480    1.20800    1.20800    -999.25    -999.25    -999.25    -999.25    7.01500  -70.10590  -77.02090    7.01500
 5850.00000    -999.25    8.97080  543.56690    1.09580    -999.25    -999.25    -999.25    -999.25    -999.25    1.83970    -999.25    -999.25    -999.25   94.23290   94.23290    1.83970    2.00670    2.00670    -999.25    -999.25    -999.25    -999.25    2.58710   -4.58100  -11.26460    2.58710
 5900.00000    -999.25    7.58130 1695.77750   -0.29370    -999.25    -999.25    -999.25    -999.25    -999.25    0.58970    -999.25    -999.25    -999.25   63.81860   63.81860    0.58970    0.82760    0.82760    -999.25    -999.25    -999.25    -999.25    4.37360  -93.00540  -99.19230    4.37360
 5950.00000    -999.25    7.81780  988.14230   -0.05720    -999.25    -999.25    -999.25    -999.25    -999.25    1.01200    -999.25    -999.25    -999.25   63.20750   63.20750    1.01200    1.47580    1.47580    -999.25    -999.25    -999.25    -999.25    6.30850  -99.06810 -104.75820    6.30850
 6000.00000    -999.25    7.84230  542.65250   -0.03270    -999.25    -999.25    -999.25    -999.25    -999.25    1.84280    -999.25    -999.25    -999.25   84.83820   84.83820    1.84280    2.01100    2.01100    -999.25    -999.25    -999.25    -999.25    2.44620   -7.05640  -12.24980    2.44620
 6050.00000    -999.25    7.66800  916.42230   -0.20700    -999.25    -999.25    -999.25    -999.25    -999.25    1.09120    -999.25    -999.25    -999.25   44.14700   44.14700    1.09120    1.76710    1.76710    -999.25    -999.25    -999.25    -999.25   23.92540  -85.94440  -90.64100   23.92540
 6100.00000    -999.25    8.21590  641.31340    0.34090    -999.25    -999.25    -999.25    -999.25    -999.25    1.55930    -999.25    -999.25    -999.25   96.97230   96.97230    1.55930    2.05900    2.05900    -999.25    -999.25    -999.25    -999.25    5.61310  -32.76060  -36.96040    5.61310
 6150.00000    -999.25    8.23920  502.73990    0.36420    -999.25    -999.25    -999.25    -999.25    -999.25    1.98910    -999.25    -999.25    -999.25   95.80920   95.80920    1.98910    2.04740    2.04740    -999.25    -999.25    -999.25    -999.25    3.19480   -6.90260  -10.60570    3.19480
 6200.00000    -999.25    7.79760  769.52670   -0.07740    -999.25    -999.25    -999.25    -999.25    -999.25    1.29950    -999.25    -999.25    -999.25   94.68870   94.68870    1.29950    1.75750    1.75750    -999.25    -999.25    -999.25    -999.25    3.88500  -35.87530  -39.08160    3.88500
 6250.00000    -999.25    7.61230 1293.32640   -0.26270    -999.25    -999.25    -999.25    -999.25    -999.25    0.77320    -999.25    -999.25    -999.25   47.02070   47.02070    0.77320    1.14330    1.14330    -999.25    -999.25    -999.25    -999.25    6.86610  -92.32620  -95.03580    6.86610
 6300.00000    -999.25    7.55580  935.19120   -0.31920    -999.25    -999.25    -999.25    -999.25    -999.25    1.06930    -999.25    -999.25    -999.25   87.92100   87.92100    1.06930    1.40650    1.40650    -999.25    -999.25    -999.25    -999.25    4.24610  -44.32360  -46.53640    4.24610
 6350.00000    -999.25    7.85910  494.29090   -0.01590    -999.25    -999.25    -999.25    -999.25    -999.25    2.02310    -999.25    -999.25    -999.25  106.94720  106.94720    2.02310    2.09450    2.09450    -999.25    -999.25    -999.25    -999.25    2.33510   -2.39640   -4.11250    2.33510
 6400.00000    -999.25    7.85030  961.53850   -0.02470    -999.25    -999.25    -999.25    -999.25    -999.25    1.04000    -999.25    -999.25    -999.25   57.34780   57.34780    1.04000    1.53930    1.53930    -999.25    -999.25    -999.25    -999.25    9.06340  -86.97710  -88.19640    9.06340
