~Version ---------------------------------------------------
VERS. 2.0 : CWLS log ASCII Standard -VERSION 2.0
WRAP.  NO : ONE LINE PER DEPTH STEP
~Well ------------------------------------------------------
STRT.F                        1350.0 : START DEPTH
STOP.F                       10400.0 : STOP DEPTH
STEP.F                      50.00000 : STEP LENGTH
NULL.                        -999.25 : NULL VALUE
COMP. ANADARKO PETROLEUM CORPORATION : COMPANY
WELL.                       COOKE #1 : WELL
FLD .                          COOKE : FIELD
LOC .                                : LOCATION
CNTY.                       LA SALLE : COUNTY
STAT.                          TEXAS : STATE
CTRY.       UNITED STATES OF AMERICA : COUNTRY
SRVC.                   Schlumberger : SERVICE COMPANY
DATE.                    06-Feb-1994 : LOGDATE
API .                 42283315400000 : API NUMBER
UWI .                 42283315400000 : UNIQUE WELL ID
SLAT.WGS84             28.3237548927 : SURFACE LATITUDE
SLON.WGS84            -99.0567652111 : SURFACE LONGITUDE
~Curve Information -----------------------------------------
DEPT.F                 : 
DTLF.US/F 60 523 00 00 : ACOUSTIC TRANSIT TIME, LONG SPACED, FAR ARRAY
DTLN.US/F 60 523 00 00 : ACOUSTIC TRANSIT TIME, LONG SPACED, NEAR ARRAY
DPHI.DEC  45 890 10 00 : DENSITY POROSITY LIMESTONE
NPHI.DEC  42 890 01 00 : NEUTRON POROSITY LIMESTONE
DRHO.G/C3 45 356 01 00 : DENSITY CORRECTION
PEF .B/E  45 358 01 00 : PHOTOELECTRIC FACTOR
SPR .MV   07 010 01 00 : SPONTANEOUS POTENTIAL FROM RES. LOG
CALR.IN   07 280 01 00 : CALIPER FROM RESISTIVITY
GRR .GAPI 07 310 01 00 : GAMMA RAY FROM RES. LOG
SFLU.OHMM 07 220 01 00 : SPHERICALLY FOCUSED LOG UNAVERAGED RESISTIVITY
IMPH.OHMM 07 120 44 00 : INDUCTION MEDIUM PHASOR RES.
IDPH.OHMM 07 120 46 00 : INDUCTION DEEP PHASOR RES.
~Params ----------------------------------------------------
PD  .                     GL : PERMANENT DATUM
EPD .F                   355 : ELEVATION PERMANENT DATUM
LMF .                     KB : LOG MEASURED FROM
DAPD.F                    18 : FEET ABOVE PERMANENT DATUM
DMF .                     KB : DRILLING MEASURED FROM
EKB .F                   373 : KELLING BUSHING
EDF .F                   372 : DRILLING FLOOR
EGL .F                   355 : GROUND LEVEL
DATE.             02-06-1994 : RUN DATE
RUN .                      1 : RUN NUMBER
DD  .F                 10500 : DEPTH DRILLER
DL  .F                 10450 : DEPTH LOGGER
BLI .F                 10442 : BOTTOM LOG INTERVAL
CLNT.                A2DTECH : CLIENT CODE
ORIG.               5" PRINT : ORIGIN OF DATA
UWI .         42283315400000 : UNIQUE WELL ID
DICO. A2D Technologies, Inc. : DIGITIZING COMPANY
~Other -----------------------------------------------------
~ASCII -----------------------------------------------------
 1350.00000    -999.25    -999.25    -999.25    -999.25    -999.25    -999.25    -999.25    -999.25   42.63740    -999.25    -999.25    -999.25
 1400.00000    -999.25    -999.25    -999.25    -999.25    -999.25    -999.25    -999.25    -999.25   35.65090    -999.25    -999.25    -999.25
 1450.00000    -999.25    -999.25    -999.25    -999.25    -999.25    -999.25    -999.25    -999.25   28.55030    -999.25    -999.25    -999.25
 1500.00000  126.44420  118.18730    -999.25    -999.25    -999.25    -999.25    4.38060   20.44770   54.28990    1.89810    1.89810    1.75750
 1550.00000  139.89450  146.52390    -999.25    -999.25    -999.25    -999.25    2.82350   15.33920   64.61540    1.10000    1.04160    1.24970
 1600.00000  108.11200  102.77890    -999.25    -999.25    -999.25    -999.25    2.74160   14.81490   58.13610    2.70600    2.56150    2.57170
 1650.00000  113.51980  116.29080    -999.25    -999.25    -999.25    -999.25   -7.95150   13.11650   63.16570    2.06000    2.60930    2.63320
 1700.00000  106.66340  107.33780    -999.25    -999.25    -999.25    -999.25  -16.39050   10.98030   46.59760    5.06730    3.35760    3.21620
 1750.00000  100.74680  101.49580    -999.25    -999.25    -999.25    -999.25  -14.22170    9.55180   54.29490    8.96830    8.52920    6.76500
 1800.00000  103.73250  103.54500    -999.25    -999.25    -999.25    -999.25  -20.67710   10.82180   29.43790    9.18510   11.27470    9.31840
 1850.00000  102.89610  102.24100    -999.25    -999.25    -999.25    -999.25  -16.87420   10.98970   37.72190    9.98070   11.59070   11.63320
 1900.00000   98.64060   99.07460    -999.25    -999.25    -999.25    -999.25  -13.03750   10.32940   62.14120    8.51330    5.84250    5.30300
 1950.00000  103.92330  104.30620    -999.25    -999.25    -999.25    -999.25  -18.15340   11.02280   45.41420    8.44500    9.01830    9.19220
 2000.00000  101.87060  102.93190    -999.25    -999.25    -999.25    -999.25  -10.98060   11.46470   65.23670    3.52240    3.52220    3.88020
 2050.00000  108.97490  110.22270    -999.25    -999.25    -999.25    -999.25  -14.87410   12.78910   61.80550    3.49050    3.57560    3.53330
 2100.00000  132.89840  133.43620    -999.25    -999.25    -999.25    -999.25  -11.55770   11.59550   64.62130    1.95060    1.99970    2.49340
 2150.00000  103.33090  103.61200    -999.25    -999.25    -999.25    -999.25  -17.37670   12.71930   45.11830   10.39260   10.58340   10.05020
 2200.00000  100.80680  106.06570    -999.25    -999.25    -999.25    -999.25  -19.81010   12.84490   64.98910    3.88520    4.05560    4.80380
 2250.00000  102.71910  103.13680    -999.25    -999.25    -999.25    -999.25  -20.72980   13.68920   55.40500    4.99870    7.37440    6.50030
 2300.00000   95.48810   96.14540    -999.25    -999.25    -999.25    -999.25  -25.85800   12.20860   51.11890    8.69230    9.10570    9.75180
 2350.00000  101.64090  102.03130    -999.25    -999.25    -999.25    -999.25  -16.39050   12.26950   61.61440    4.41180    4.58060    4.64000
 2400.00000   98.05780   97.04180    -999.25    -999.25    -999.25    -999.25  -19.94080   13.37660   44.75830    9.75180   11.22770   12.46520
 2450.00000   96.31800   96.98210    -999.25    -999.25    -999.25    -999.25  -21.11020   12.92840   47.18940   10.17380   11.56780   12.92690
 2500.00000   91.42430   91.92160    -999.25    -999.25    -999.25    -999.25  -20.13810   11.27170   71.35950   11.33050   13.28430   13.55540
 2550.00000   99.72270   99.79040    -999.25    -999.25    -999.25    -999.25  -16.39050   14.11640   44.83680   10.65110    8.05680    7.09390
 2600.00000   90.97920   91.04840    -999.25    -999.25    -999.25    -999.25  -17.27780   10.87840   64.27310   11.14350    9.54690    9.64830
 2650.00000   91.58140   92.06200    -999.25    -999.25    -999.25    -999.25  -12.31400   11.80870   66.46770    9.50900   10.63160   13.28430
 2700.00000   95.00310   95.27890    -999.25    -999.25    -999.25    -999.25  -12.99090   11.37480   69.36610    8.53840    7.98390    8.35520
 2750.00000   90.58760   90.94620    -999.25    -999.25    -999.25    -999.25  -12.86270   11.63430   64.07280   13.04500   13.04500   12.22950
 2800.00000   92.79930   93.51310    -999.25    -999.25    -999.25    -999.25   -5.63550   12.65680   60.20710    5.45480    5.07930    5.12040
 2850.00000  119.27430  119.39320    -999.25    -999.25    -999.25    -999.25   -2.08280   11.20880   75.46080    1.70190    1.60150    1.75180
 2900.00000   94.02730   94.88310    -999.25    -999.25    -999.25    -999.25   -8.04280   11.58800   66.22260    7.22400    7.22400    7.29000
 2950.00000   94.71120   95.01000    -999.25    -999.25    -999.25    -999.25   -9.68670   10.36880   42.45560   15.17710   15.43450   18.42970
 3000.00000   93.26200   93.45870    -999.25    -999.25    -999.25    -999.25   -9.71130   10.30740   42.60350   17.29220   20.21890   25.40240
 3050.00000   94.65390   99.00990    -999.25    -999.25    -999.25    -999.25   -5.67120   10.33900   62.11920    6.46890    6.39740    5.77690
 3100.00000   93.60410   94.05090    -999.25    -999.25    -999.25    -999.25  -10.36530   10.07760   41.56810   19.58490   23.50490   26.61790
 3150.00000   91.09620   91.40710    -999.25    -999.25    -999.25    -999.25  -11.01690    9.83030   59.61540   20.55300   16.65950   21.64930
 3200.00000   92.32820   92.79880    -999.25    -999.25    -999.25    -999.25  -13.62920    8.95520   39.09770   20.36700   22.30560   29.97950
 3250.00000   93.95290   94.19200    -999.25    -999.25    -999.25    -999.25  -12.61750    8.99780   49.55620   19.65770   20.36700   23.34810
 3300.00000   90.32910   90.56810    -999.25    -999.25    -999.25    -999.25   -7.86940    9.02640   38.34760   22.10370   24.25880   31.47740
 3350.00000   94.75040   95.18980    -999.25    -999.25    -999.25    -999.25   -5.44320    9.14600   39.12860   19.63960   22.08910   30.19980
 3400.00000   96.21890   96.56610    -999.25    -999.25    -999.25    -999.25   -4.02220   10.24340   57.54440   10.02150    9.19220   10.02150
 3450.00000   93.72350   93.99260    -999.25    -999.25    -999.25    -999.25   -4.16170    9.32940   36.02890   18.79330   21.26280   29.83810
 3500.00000   93.69520   94.16190    -999.25    -999.25    -999.25    -999.25   -7.90930    8.96840   36.88610   17.29220   19.01420   23.14080
 3550.00000   88.74930   89.76350    -999.25    -999.25    -999.25    -999.25   -7.12030    9.04730   41.45760   16.69030   16.31720   14.54880
 3600.00000   90.67090   91.29730    -999.25    -999.25    -999.25    -999.25  -14.22090    9.13900   36.67640   14.54880   15.93360   15.84800
 3650.00000   88.79480   88.70520    -999.25    -999.25    -999.25    -999.25   -4.76550    9.54920   80.37230    8.61770    8.58210    9.11640
 3700.00000   96.38850  100.06570    -999.25    -999.25    -999.25    -999.25   -0.21700   10.42680   90.08880    2.49340    2.80430    3.00460
 3750.00000   84.37250   85.56770    -999.25    -999.25    -999.25    -999.25   -3.77770   10.05330   78.26460    7.19080    5.87300    5.76160
 3800.00000   88.65470   89.31020    -999.25    -999.25    -999.25    -999.25   -5.73960    9.92160   82.69230    5.11360    5.30300    5.68260
 3850.00000   89.23200   89.78370    -999.25    -999.25    -999.25    -999.25  -15.50430    9.73770   67.01180    8.75760    8.43150    7.10200
 3900.00000   90.30590   90.68190    -999.25    -999.25    -999.25    -999.25  -18.52750   10.18200   45.71010    8.68070    7.98470    7.22400
 3950.00000   88.52950   89.83950    -999.25    -999.25    -999.25    -999.25   -9.94130   10.66140   65.67080    5.80780    6.06300    6.05490
 4000.00000   96.86250   98.05780    -999.25    -999.25    -999.25    -999.25   -5.67280   10.58050   66.62020    3.02400    3.42650    3.59830
 4050.00000   91.35450   92.32070    -999.25    -999.25    -999.25    -999.25  -26.39770   10.50790   47.31160    7.84000    5.86080    4.54360
 4100.00000   82.31290   84.87950    -999.25    -999.25    -999.25    -999.25   -8.83040   10.80880   55.24750    5.44860    4.86420    4.69930
