~Version ---------------------------------------------------
VERS. 2.0 : CWLS log ASCII Standard -VERSION 2.0
WRAP. YES : Multiple lines per depth step
~Well ------------------------------------------------------
STRT.FT                   3900.0 : START DEPTH
STOP.FT                   8000.0 : STOP DEPTH
STEP.FT                 50.00000 : STEP LENGTH
NULL.                    -999.25 : NULL VALUE
COMP. CHAMPLIN PETROLEUM COMPANY : COMPANY
WELL.             C. D. HENRY #1 : WELL
FLD .                   GIDDINGS : FIELD
LOC .                            : LOCATION
CNTY.                   BURLESON : COUNTY
STAT.                      TEXAS : STATE
CTRY.   UNITED STATES OF AMERICA : COUNTRY
SRVC.               Schlumberger : SERVICE COMPANY
DATE.                23-Jun-1980 : LOGDATE
API .             42051307640000 : API NUMBER
UWI .             42051307640000 : UNIQUE WELL ID
SLAT.WGS84         30.4843160848 : SURFACE LATITUDE
SLON.WGS84         -96.682642194 : SURFACE LONGITUDE
~Curve Information -----------------------------------------
DEPT    .FT    : DEPTH FEET
CALDED  .IN    : CALIPER FROM CNFD LOG [ADJ. TO SFLUED]
CALWS   .IN    : CALIPER [CALDED]
CONDWS  .MMHO  : CONDUCTIVITY [1000/DRESWS]
DCORWS  .G/C3  : DENSITY CORRECTION [DRHOED]
DENWS   .G/C3  : FORMATION BULK DENSITY [RHOBED]
DPHILSED.V/V   : DENSITY POROSITY LIMESTONE [M=2.71, F=1.0] FROM CNFD LOG [ADJ. TO SFLUED]
DPHISSED.V/V   : DENSITY POROSITY SANDSTONE [M=2.65, F=1.0] FROM CNFD LOG [ADJ. TO SFLUED]
DPOWS   .V/V   : DENSITY POROSITY LIMESTONE [DPHISSED CONVERTED TO LIMESTONE (M=2.71, F=1.0),SPL. TO DPHILSED @ 6000']
DRESWS  .OHMM  : DEEP RESISTIVITY [ILDED]
DRHOED  .G/C3  : BULK DENSITY CORRECTION FROM CNFD LOG [ADJ. TO SFLUED]
DTED    .US/F  : DELTA-T (INTERVAL TRANSIT TIME) FROM DIL-SFL-SONIC LOG
DTWS    .US/F  : COMPRESSIONAL SONIC [DTED]
GRDED   .GAPI  : GAMMA RAY FROM CNFD LOG [ADJ. TO SFLUED]
GRRED   .GAPI  : GAMMA RAY FROM DIL-SFL-SONIC LOG
GRWS    .GAPI  : GAMMA RAY [GRDED]
ILDED   .OHMM  : DEEP INDUCTION RESISTIVITY FROM DIL-SFL-SONIC LOG
ILMED   .OHMM  : MEDIUM INDUCTION RESISTIVITY FROM DIL-SFL-SONIC LOG
MRESWS  .OHMM  : MEDIUM RESISTIVITY [ILMED]
NPHILSED.V/V   : NEUTRON POROSITY LIMESTONE FROM CNFD LOG [ADJ. TO SFLUED]
NPHISSED.V/V   : NEUTRON POROSITY SANDSTONE FROM CNFD LOG [ADJ. TO SFLUED]
NPOWS   .V/V   : NEUTRON POROSITY LIMESTONE [NPHISSED MATRIX CONVERTED TO LIMESTONE, SPL. TO NPHILSED @ 6000']
RHOBED  .G/C3  : BULK DENSITY FROM CNFD LOG [ADJ. TO SFLUED]
SFLUED  .OHMM  : SHALLOW FOCUSED RESISTIVITY (UNAVERAGED) FROM DIL-SFL-SONIC LOG
SPHILSED.V/V   : SONIC POROSITY LIMESTONE [DTM=56.0,DTF=189.0] FROM SONIC LOG [ADJ. TO SFLUED]
SPHISSED.V/V   : SONIC POROSITY SANDSTONE [DTM=56.0,DTF=189.0] FROM SONIC LOG [ADJ. TO SFLUED]
SPOWS   .V/V   : SONIC POROSITY [SPHISSED SPL. TO SPHILSED @ 6000']
SPRED   .MV    : SPONTANEOUS POTENTIAL FROM DIL-SFL-SONIC LOG
SPWS    .MV    : SPONTANEOUS POTENTIAL [BASELINE 0 MV, SPRED]
SRESWS  .OHMM  : SHALLOW RESISTIVITY [SFLUED]
~Params ----------------------------------------------------
PD  .                     GL : PERMANENT DATUM
EPD .FT                  335 : ELEVATION PERMANENT DATUM
LMF .                     KB : LOG MEASURED FROM
DAPD.FT                   19 : FEET ABOVE PERMANENT DATUM
DMF .                     KB : DRILLING MEASURED FROM
EKB .FT                  354 : KELLY BUSHING
EDF .FT                  353 : DRILLING FLOOR
EGL .FT                  335 : GROUND LEVEL
DATE.               06/23/80 : RUN DATE
RUN .                      1 : RUN NUMBER
DD  .FT                 8040 : DEPTH DRILLER
DL  .FT                 8024 : DEPTH LOGGER
BLI .FT                 8018 : BOTTOM LOG INTERVAL
TLI .FT                 3907 : TOP LOG INTERVAL
CS  .IN                9.625 : CASING SIZE
CBD .FT                 3864 : CASING BOTTOM DRILLER
CBL .FT                 3907 : CASING BOTTOM LOGGER
BS  .IN                 8.75 : BIT SIZE
BSD .FT                 8040 : BIT SIZE AT DEPTH
DFT .       CAC 12 INHIBITED : DRILLING FLUID TYPE
DFD .                    9.8 : DRILLING FLUID DENSITY
DFV .                     42 : DRILLING FLUID VISCOSITY
DFPH.                      9 : DRILLING FLUID PH
DFL .                    8.9 : DRILLING FLUID LOSS
MSS .                   TANK : MUD SAMPLE SOURCE
RMS .OHMM               0.72 : RESISTIVITY MUD SAMPLE
MST .DEGF                 97 : MUD SAMPLE TEMPERATURE
RMF .OHMM               0.54 : RESISTIVITY MUD FILTRATE SAMPLE
MFST.DEGF                 97 : MUD FILTRATE SAMPLE TEMPERATURE
RMC .OHMM               1.08 : RESISTIVITY MUD CAKE
MCST.DEGF                 97 : MUD CAKE SAMPLE TEMPERATURE
MFSS.                      M : MUD FILTRATE SAMPLE SOURCE
MCSS.                      C : MUD CAKE SAMPLE SOURCE
RMB .OHMM               0.35 : RESISTIVITY MUD AT BHT
TCS .HRS                2230 : TIME CIRCULATED STOPPED
TLAB.HRS                 200 : TIME LOGGER AT BOTTOM
LUN .                   8101 : LOGGING UNIT NUMBER
LUL .                BRENHAM : LOGGING UNIT LOCATION
ENGI.        GILLILAND WYATT : RECORDING ENGINEER
WITN.                CAMERON : WITNESSED BY
CLNT.                A2DTECH : CLIENT CODE
ORIG.          1" 2.5" PRINT : ORIGIN OF DATA
UWI .         42051307640000 : UNIQUE WELL ID
DICO. A2D Technologies, Inc. : DIGITIZING COMPANY
~Other -----------------------------------------------------
GAMMA RAY DIED COMING UPHOLE COULDN'T REACH DRILLERS TD.
~ASCII -----------------------------------------------------
 3900.00000    -999.25    -999.25    -999.25    -999.25    -999.25    -999.25    -999.25    -999.25    -999.25    -999.25    -999.25    -999.25   73.13450    -999.25   73.13450    -999.25    -999.25    -999.25    -999.25    0.43180    0.38960    -999.25    -999.25    -999.25    -999.25    -999.25    -999.25    -999.25    -999.25
 3950.00000    9.35340    9.35340  302.05090    0.05770    2.35840    -999.25    0.17330    0.20230    3.31070    0.05770   99.33150   99.33150  110.27460    -999.25  110.27460    3.31070    2.82320    2.82320    -999.25    0.35770    0.31420    2.35840    3.16150    -999.25    0.34630    0.34630  -23.03360  -39.44390    3.16150
 4000.00000    8.88470    8.88470  303.28760    0.08290    2.31940    -999.25    0.19750    0.22570    3.29720    0.08290  100.60550  100.60550  106.45600    -999.25  106.45600    3.29720    2.86260    2.86260    -999.25    0.35220    0.30860    2.31940    3.00030    -999.25    0.33320    0.33320   -0.88110  -17.29140    3.00030
 4050.00000    9.21060    9.21060  333.95670    0.08490    2.38430    -999.25    0.15760    0.18720    2.99440    0.08490   96.93190   96.93190  111.76360    -999.25  111.76360    2.99440    2.84760    2.84760    -999.25    0.32510    0.28120    2.38430    3.39670    -999.25    0.31470    0.31470   -4.94080  -21.35110    3.39670
 4100.00000   11.81930   11.81930  443.57700    0.13110    2.42250    -999.25    0.13510    0.16540    2.25440    0.13110   99.11450   99.11450  107.59580    -999.25  107.59580    2.25440    2.33110    2.33110    -999.25    0.34700    0.30330    2.42250    2.57310    -999.25    0.33350    0.33350   -4.93580  -21.34610    2.57310
 4150.00000    9.21660    9.21660  392.48010    0.10660    2.43690    -999.25    0.12720    0.15780    2.54790    0.10660   95.09940   95.09940   96.27770    -999.25   96.27770    2.54790    2.32950    2.32950    -999.25    0.31770    0.27380    2.43690    2.75850    -999.25    0.29280    0.29280   -4.41570  -13.31340    2.75850
 4200.00000   10.39230   10.39230  410.72820    0.13220    2.42360    -999.25    0.13540    0.16570    2.43470    0.13220   97.92590   97.92590  103.26460    -999.25  103.26460    2.43470    2.17140    2.17140    -999.25    0.37040    0.32700    2.42360    2.53990    -999.25    0.31800    0.31800   -5.40460   -7.04470    2.53990
 4250.00000    9.41580    9.41580  368.73160    0.04690    2.38080    -999.25    0.16640    0.19560    2.71200    0.04690   91.00400   91.00400   98.08300    -999.25   98.08300    2.71200    3.27250    3.27250    -999.25    0.33500    0.29120    2.38080    3.78800    -999.25    0.26690    0.26690   -2.10700   -2.66680    3.78800
 4300.00000   11.04860   11.04860  463.56390    0.12470    2.33910    -999.25    0.17950    0.20830    2.15720    0.12470   97.96980   97.96980  116.51720    -999.25  116.51720    2.15720    2.25410    2.25410    -999.25    0.33130    0.28750    2.33910    2.31370    -999.25    0.32130    0.32130   -6.13250   -5.61200    2.31370
 4350.00000    9.42680    9.42680  427.66110    0.21020    2.46590    -999.25    0.10940    0.14060    2.33830    0.21020   95.67750   95.67750  121.74110    -999.25  121.74110    2.33830    2.22250    2.22250    -999.25    0.32190    0.27800    2.46590    2.46460    -999.25    0.29840    0.29840   -6.16740   -4.56670    2.46460
 4400.00000   11.28510   11.28510  506.86810    0.18100    2.39590    -999.25    0.14870    0.17860    1.97290    0.18100   97.05450   97.05450  110.38740    -999.25  110.38740    1.97290    1.77540    1.77540    -999.25    0.33940    0.29570    2.39590    2.12670    -999.25    0.31460    0.31460   -7.18220   -4.50120    2.12670
 4450.00000   10.66100   10.66100  456.28760    0.15660    2.44380    -999.25    0.12500    0.15570    2.19160    0.15660   92.82670   92.82670  103.36360    -999.25  103.36360    2.19160    2.41560    2.41560    -999.25    0.28210    0.23810    2.44380    2.48740    -999.25    0.28020    0.28020   -7.41270   -3.65140    2.48740
 4500.00000   11.77010   11.77010  585.30880    0.13970    2.46290    -999.25    0.11240    0.14350    1.70850    0.13970  100.41160  100.41160  119.71610    -999.25  119.71610    1.70850    1.66170    1.66170    -999.25    0.34790    0.30420    2.46290    1.82660    -999.25    0.34320    0.34320   -6.37210   -1.53050    1.82660
 4550.00000   11.92280   11.92280  674.21790    0.17900    2.45210    -999.25    0.11470    0.14580    1.48320    0.17900  102.84000  102.84000  118.04990    -999.25  118.04990    1.48320    1.55480    1.55480    -999.25    0.36070    0.31720    2.45210    1.67980    -999.25    0.35800    0.35800   -6.60870   -1.01920    1.67980
 4600.00000   12.75110   12.75110  674.17250    0.21080    2.46980    -999.25    0.10140    0.13290    1.48330    0.21080  103.92540  103.92540  108.19640    -999.25  108.19640    1.48330    1.55320    1.55320    -999.25    0.35570    0.31210    2.46980    1.61760    -999.25    0.36420    0.36420   -6.18750   -0.79610    1.61760
 4650.00000   13.46570   13.46570  792.76990    0.20650    2.38330    -999.25    0.15990    0.18940    1.26140    0.20650  103.24710  103.24710  108.45350    -999.25  108.45350    1.26140    1.39290    1.39290    -999.25    0.38210    0.33890    2.38330    1.47960    -999.25    0.36010    0.36010   -7.04210   -1.84880    1.47960
 4700.00000    9.44690    9.44690  501.75610    0.06700    2.44560    -999.25    0.12180    0.15260    1.99300    0.06700   95.29860   95.29860  125.20160    -999.25  125.20160    1.99300    2.09320    2.09320    -999.25    0.31870    0.27480    2.44560    2.32220    -999.25    0.29760    0.29760   -6.61850   -1.62330    2.32220
 4750.00000   10.59490   10.59490  702.24720    0.13840    2.42780    -999.25    0.13330    0.16370    1.42400    0.13840  100.31720  100.31720  120.33190    -999.25  120.33190    1.42400    1.47090    1.47090    -999.25    0.35500    0.31140    2.42780    1.57300    -999.25    0.33490    0.33490   -6.03930   -1.24210    1.57300
 4800.00000   10.18120   10.18120  783.76050    0.08800    2.37960    -999.25    0.16050    0.19000    1.27590    0.08800  102.43980  102.43980  116.06790    -999.25  116.06790    1.27590    1.31160    1.31160    -999.25    0.37690    0.33360    2.37960    1.37510    -999.25    0.35000    0.35000   -6.20330   -1.60420    1.37510
 4850.00000   11.18070   11.18070 1219.51220    0.13020    2.28840    -999.25    0.21810    0.24550    0.82000    0.13020  111.16030  111.16030  102.55760    -999.25  102.55760    0.82000    0.86960    0.86960    -999.25    0.37430    0.33100    2.28840    1.05870    -999.25    0.41250    0.41250   -6.76500   -2.36400    1.05870
 4900.00000   11.90590   11.90590  654.79310    0.17820    2.29620    -999.25    0.21160    0.23930    1.52720    0.17820  104.22920  104.22920   93.03990    -999.25   93.03990    1.52720    1.57610    1.57610    -999.25    0.36300    0.31950    2.29620    1.61480    -999.25    0.35780    0.35780   -6.95620   -2.75330    1.61480
 4950.00000   11.63950   11.63950  707.96460    0.16650    2.39950    -999.25    0.14830    0.17820    1.41250    0.16650  103.90260  103.90260  102.49410    -999.25  102.49410    1.41250    1.49120    1.49120    -999.25    0.36410    0.32060    2.39950    1.59120    -999.25    0.36150    0.36150   -6.22960   -2.22480    1.59120
 5000.00000   12.24390   12.24390  779.90950    0.19870    2.43400    -999.25    0.12720    0.15780    1.28220    0.19870  106.12480  106.12480  100.32530    -999.25  100.32530    1.28220    1.37670    1.37670    -999.25    0.35340    0.30980    2.43400    1.48390    -999.25    0.37480    0.37480   -6.41520   -2.60850    1.48390
 5050.00000   12.40730   12.40730  861.17810    0.22250    2.48760    -999.25    0.09390    0.12570    1.16120    0.22250  106.78020  106.78020  103.03230    -999.25  103.03230    1.16120    1.22470    1.22470    -999.25    0.34270    0.29900    2.48760    1.49280    -999.25    0.38340    0.38340   -5.74070   -2.13210    1.49280
 5100.00000   12.73880   12.73880 1045.58760    0.16790    2.39790    -999.25    0.14910    0.17900    0.95640    0.16790  111.37560  111.37560   95.36040    -999.25   95.36040    0.95640    0.99260    0.99260    -999.25    0.43280    0.39070    2.39790    1.05910    -999.25    0.42240    0.42240   -6.54690   -3.13630    1.05910
