~Version ---------------------------------------------------
VERS. 2.0 : CWLS log ASCII Standard -VERSION 2.0
WRAP. YES : Multiple lines per depth step
~Well ------------------------------------------------------
STRT.FT                   2500.0 : START DEPTH
STOP.FT                  17250.0 : STOP DEPTH
STEP.FT                 50.00000 : STEP LENGTH
NULL.                    -999.25 : NULL VALUE
COMP. CHAMPLIN PETROLEUM COMPANY : COMPANY
WELL.    FRIAR RANCH GAS UNIT #1 : WELL
FLD .                    WILDCAT : FIELD
LOC .                            : LOCATION
CNTY.                    DE WITT : COUNTY
STAT.                      TEXAS : STATE
CTRY.   UNITED STATES OF AMERICA : COUNTRY
SRVC.                    Unknown : SERVICE COMPANY
DATE.                27-Nov-1979 : LOGDATE
API .             42123309830000 : API NUMBER
UWI .             42123309830000 : UNIQUE WELL ID
SLAT.WGS84           29.12059862 : SURFACE LATITUDE
SLON.WGS84          -97.21043026 : SURFACE LONGITUDE
~Curve Information -----------------------------------------
DEPT    .FT    : DEPTH FEET
ACED    .US/F  : DELTA TIME (ACOUSTIC) FROM SONIC LOG [DEP ADJ TO DTED]
CALDED  .IN    : CALIPER FROM DENSITY LOG [DEP ADJ TO GRRED]
CALRED  .IN    : CALIPER FROM RESISTIVITY LOG
CALWS   .IN    : CALIPER [CALDED]
CONDWS  .MMHO  : CONDUCTIVITY [1000/DRESWS]
CORRED  .G/C3  : DENSITY CORRECTION FROM DENSITY LOG
DCORWS  .G/C3  : DENSITY CORRECTION [CORRED]
DENWS   .G/C3  : BULK DENSITY [M=2.71 F=1.0] [RHOBED]
DPHILSED.V/V   : DENSITY POROSITY [M=2.71 F=1.0] FROM DENSITY LOG [DEP ADJ TO GRRED]
DPHISSED.V/V   : DENSITY POROSITY [M=2.65 F=1.0][7100-10800F M=2.68] FROM DENSITY LOG
DPOLSWS .V/V   : DENSITY POROSITY [M=2.71 F=1.0] [CAL FR DENWS]
DRESWS  .OHMM  : DEEP RESISTIVITY [ILDED]
DTED    .US/F  : DELTA TIME FROM SONIC LOG
DTWS    .US/F  : DELTA TIME [2490 DTED 15878 ACED]
GRDED   .GAPI  : GAMMA RAY FROM DENSITY LOG [DEP ADJ TO GRRED]
GRRED   .GAPI  : GAMMA RAY FROM RESISTIVITY LOG
GRWS    .GAPI  : GAMMA RAY [2490 GRDED 17231 GRRED]
ILDED   .OHMM  : INDUCTION LOG DEEP RESISTIVITY
ILMED   .OHMM  : INDUCTION LOG MEDIUM RESISTIVITY
MRESWS  .OHMM  : MEDIUM RESISTIVITY [ILMED]
NPHILSED.V/V   : NEUTRON POROSITY LIMESTONE FROM DENSITY LOG [DEP ADJ TO GRRED]
NPHISSED.V/V   : NEUTRON POROSITY SANDSTONE FROM DENSITY LOG
NPOLSWS .V/V   : NEUTRON POROSITY LIMESTONE [2490 NPOLSCAL 14943 NPHILSED] [NPHISSED WAS CONVERTED TO NPOLSCAL USING POWERLOG MODULE]
RHOBED  .G/C3  : BULK DENSITY FROM DENSITY LOG [DEP ADJ TO GRRED]
SFLED   .OHMM  : SPHERICALLY FOCUSED LOG RESISTIVITY
SPHILSED.V/V   : SONIC POROSITY FROM SONIC LOG [DEP ADJ TO DTED] [LIMESTONE M=47.5, F=189]
SPOWS   .V/V   : SONIC POROSITY [CAL FR DTWS] [LIMESTONE M=47.5, F=189]
SPRED   .MV    : SPONTANEOUS POTENTIAL FROM RESISTIVITY LOG [SHIFTS ARE REMOVED]
SPWS    .MV    : SPONTANEOUS POTENTIAL [BASELINE 0 MV] [SPRED]
SRESWS  .OHMM  : SHALLOW RESISTIVITY [SFLED]
~Params ----------------------------------------------------
PD  .                     GL : PERMANENT DATUM
EPD .FT                223.8 : ELEVATION PERMANENT DATUM
LMF .                     KB : LOG MEASURED FROM
DAPD.FT                   26 : FEET ABOVE PERMANENT DATUM
DMF .                     KB : DRILLING MEASURED FROM
EKB .FT                249.8 : KELLY BUSHING
EDF .FT                248.8 : DRILLING FLOOR
EGL .FT                223.8 : GROUND LEVEL
DATE.               11/27/79 : RUN DATE
RUN .                      1 : RUN NUMBER
DD  .FT                17252 : DEPTH DRILLER
DL  .FT                17259 : DEPTH LOGGER
BLI .FT                17258 : BOTTOM LOG INTERVAL
TLI .FT                15013 : TOP LOG INTERVAL
CS  .IN                    7 : CASING SIZE
CBD .FT                15015 : CASING BOTTOM DRILLER
CBL .FT                15018 : CASING BOTTOM LOGGER
BS  .IN                5.875 : BIT SIZE
BSD .FT                17252 : BIT SIZE AT DEPTH
DFT .               OIL FAZE : DRILLING FLUID TYPE
DFD .                   12.8 : DRILLING FLUID DENSITY
DFV .                     45 : DRILLING FLUID VISCOSITY
DFL .                   13.6 : DRILLING FLUID LOSS
TCS .HRS                 545 : TIME CIRCULATED STOPPED
TLAB.HRS                1500 : TIME LOGGER AT BOTTOM
LUN .                   8011 : LOGGING UNIT NUMBER
LUL .                   VICT : LOGGING UNIT LOCATION
ENGI.                   SHEA : RECORDING ENGINEER
WITN.            BLANKENSHIP : WITNESSED BY
CLNT.                A2DTECH : CLIENT CODE
ORIG.            1" 5" PRINT : ORIGIN OF DATA
UWI .         42123309830000 : UNIQUE WELL ID
DICO. A2D Technologies, Inc. : DIGITIZING COMPANY
~Other -----------------------------------------------------
~ASCII -----------------------------------------------------
# ...
 6100.00000    -999.25   14.03290    -999.25   14.03290  877.27000    0.05450    0.05450    2.37730    -999.25    0.16590    0.19460    1.13990  103.21680  103.21680   73.95730    -999.25   73.95730    1.13990    1.17940    1.17940    -999.25    0.38510    0.34190    2.37730    1.27680    -999.25    0.39380  -23.90080   -4.93680    1.27680
 6150.00000    -999.25   14.03380    -999.25   14.03380 1094.33140    0.02030    0.02030    2.29940    -999.25    0.21030    0.24010    0.91380  103.90910  103.90910   77.09550    -999.25   77.09550    0.91380    0.94800    0.94800    -999.25    0.33940    0.29570    2.29940    1.05510    -999.25    0.39870  -22.11970   -3.17470    1.05510
 6200.00000    -999.25   15.69110    -999.25   15.69110 1046.46290    0.02570    0.02570    2.41220    -999.25    0.16350    0.17420    0.95560  105.72770  105.72770   67.64610    -999.25   67.64610    0.95560    1.07290    1.07290    -999.25    0.27180    0.22780    2.41220    1.75900    -999.25    0.41150  -23.03580   -4.10980    1.75900
 6250.00000    -999.25   15.98670    -999.25   15.98670 1470.58830    0.04570    0.04570    2.22140    -999.25    0.25730    0.28570    0.68000  128.94880  128.94880   85.67850    -999.25   85.67850    0.68000    0.73890    0.73890    -999.25    0.45090    0.40920    2.22140    0.77010    -999.25    0.57560  -22.30290   -3.39600    0.77010
 6300.00000    -999.25   15.44500    -999.25   15.44500  985.70720    0.06590    0.06590    2.50220    -999.25    0.08790    0.12150    1.01450  106.98660  106.98660   61.09840    -999.25   61.09840    1.01450    1.04980    1.04980    -999.25    0.34570    0.30200    2.50220    1.57870    -999.25    0.42040  -23.59170   -4.70380    1.57870
 6350.00000    -999.25   16.40290    -999.25   16.40290  853.31510    0.05030    0.05030    2.51340    -999.25    0.09910    0.11500    1.17190  106.48830  106.48830   80.36820    -999.25   80.36820    1.17190    1.21270    1.21270    -999.25    0.44450    0.40270    2.51340    1.38780    -999.25    0.41690  -23.45600   -4.58720    1.38780
 6400.00000    -999.25   15.86350    -999.25   15.86350 1578.28280    0.02460    0.02460    2.20620    -999.25    0.26050    0.29460    0.63360  128.02840  128.02840   76.54030    -999.25   76.54030    0.63360    0.66400    0.66400    -999.25    0.46230    0.42060    2.20620    0.76970    -999.25    0.56910  -21.93880   -3.08900    0.76970
 6450.00000    -999.25   14.19170    -999.25   14.19170 1243.93580    0.00440    0.00440    2.19620    -999.25    0.27530    0.30050    0.80390  132.35900  132.35900   87.42700    -999.25   87.42700    0.80390    0.83170    0.83170    -999.25    0.46300    0.42130    2.19620    0.88310    -999.25    0.59970  -21.83110   -3.00030    0.88310
 6500.00000    -999.25   14.68370    -999.25   14.68370  964.87850    0.03810    0.03810    2.38320    -999.25    0.16360    0.19110    1.03640  106.39710  106.39710   83.76590    -999.25   83.76590    1.03640    1.07480    1.07480    -999.25    0.39440    0.35140    2.38320    1.17740    -999.25    0.41620  -20.73570   -1.92400    1.17740
 6550.00000    -999.25   14.22870    -999.25   14.22870  874.96720    0.01280    0.01280    2.29550    -999.25    0.21460    0.24240    1.14290  108.21960  108.21960   86.11480    -999.25   86.11480    1.14290    1.18530    1.18530    -999.25    0.42860    0.38640    2.29550    1.22630    -999.25    0.42910  -23.04620   -4.25350    1.22630
 6600.00000    -999.25   14.45700    -999.25   14.45700  669.79240    0.06410    0.06410    2.45500    -999.25    0.12040    0.14910    1.49300   93.81010   93.81010   88.69740    -999.25   88.69740    1.49300    1.54850    1.54850    -999.25    0.36470    0.32120    2.45500    1.77770    -999.25    0.32730  -20.36380   -1.59020    1.77770
 6650.00000    -999.25   16.40240    -999.25   16.40240  985.12460    0.03180    0.03180    2.33810    -999.25    0.18590    0.21750    1.01510   99.89720   99.89720   83.26440    -999.25   83.26440    1.01510    1.08160    1.08160    -999.25    0.39190    0.34890    2.33810    1.21220    -999.25    0.37030  -20.57670   -1.82210    1.21220
 6700.00000    -999.25   16.60420    -999.25   16.60420  728.70360    0.04500    0.04500    2.46630    -999.25    0.11470    0.14250    1.37230   95.05010   95.05010   89.36640    -999.25   89.36640    1.37230    1.43470    1.43470    -999.25    0.34940    0.30580    2.46630    1.45590    -999.25    0.33600  -21.19020   -2.43050    1.45590
 6750.00000    -999.25   18.87290    -999.25   18.87290 1399.58010    0.04820    0.04820    2.34030    -999.25    0.19530    0.21620    0.71450  116.41060  116.41060   85.86000    -999.25   85.86000    0.71450    0.75780    0.75780    -999.25    0.37910    0.33590    2.34030    0.80600    -999.25    0.48700  -20.59030   -1.78920    0.80600
 6800.00000    -999.25   19.48040    -999.25   19.48040  750.63800    0.04290    0.04290    2.36360    -999.25    0.17210    0.20260    1.33220   93.48470   93.48470   80.61510    -999.25   80.61510    1.33220    1.37890    1.37890    -999.25    0.31540    0.27150    2.36360    1.47210    -999.25    0.32500  -22.96660   -4.12410    1.47210
 6850.00000    -999.25   18.11360    -999.25   18.11360  871.08010    0.03590    0.03590    2.36640    -999.25    0.17360    0.20090    1.14800  104.10760  104.10760   81.41190    -999.25   81.41190    1.14800    1.18740    1.18740    -999.25    0.35700    0.31340    2.36640    1.12510    -999.25    0.40010  -20.41250   -1.52860    1.12510
 6900.00000    -999.25   17.21810    -999.25   17.21810 1039.60910    0.07180    0.07180    2.37280    -999.25    0.17120    0.19720    0.96190  103.45080  103.45080   72.35960    -999.25   72.35960    0.96190    0.99640    0.99640    -999.25    0.33090    0.28710    2.37280    1.10860    -999.25    0.39540  -20.79220   -1.86690    1.10860
 6950.00000    -999.25   16.03790    -999.25   16.03790 1073.65260    0.03410    0.03410    2.43400    -999.25    0.13300    0.16140    0.93140   98.59410   98.59410   80.67070    -999.25   80.67070    0.93140    1.05020    1.05020    -999.25    0.34410    0.30040    2.43400    1.11890    -999.25    0.36110  -21.69270   -2.72600    1.11890
 7000.00000    -999.25   15.75220    -999.25   15.75220 1212.41520    0.04400    0.04400    2.33730    -999.25    0.19020    0.21800    0.82480  112.97530  112.97530   86.11360    -999.25   86.11360    0.82480    0.85340    0.85340    -999.25    0.43370    0.39160    2.33730    1.04770    -999.25    0.46270  -23.56180   -4.55370    1.04770
 7050.00000    -999.25   14.86920    -999.25   14.86920  683.43360    0.04000    0.04000    2.45690    -999.25    0.11760    0.14800    1.46320   93.65900   93.65900   79.13560    -999.25   79.13560    1.46320    1.52810    1.52810    -999.25    0.34910    0.30550    2.45690    1.63640    -999.25    0.32620  -25.41220   -5.86700    1.63640
 7100.00000    -999.25   14.39120    -999.25   14.39120  586.40710    0.10100    0.10100    2.44110    -999.25    0.12800    0.15730    1.70530   95.12630   95.12630   76.26450    -999.25   76.26450    1.70530    1.76970    1.76970    -999.25    0.39360    0.35060    2.44110    1.87720    -999.25    0.33660  -25.37400   -5.16780    1.87720
 7150.00000    -999.25   14.45610    -999.25   14.45610  783.39210    0.09720    0.09720    2.37970    -999.25    0.18150    0.19320    1.27650  100.92210  100.92210   75.55490    -999.25   75.55490    1.27650    1.32290    1.32290    -999.25    0.37710    0.33380    2.37970    1.65860    -999.25    0.37750  -25.38430   -4.51700    1.65860
 7200.00000    -999.25   13.83860    -999.25   13.83860  787.83580    0.03290    0.03290    2.32220    -999.25    0.20910    0.22680    1.26930  105.66950  105.66950   85.24650    -999.25   85.24650    1.26930    1.31340    1.31340    -999.25    0.43260    0.39050    2.32220    1.42600    -999.25    0.41110  -25.95490   -4.42660    1.42600
 7250.00000    -999.25   13.90970    -999.25   13.90970  664.54020    0.04750    0.04750    2.34390    -999.25    0.19940    0.21410    1.50480   94.45190   94.45190   97.01760    -999.25   97.01760    1.50480    1.55710    1.55710    -999.25    0.44230    0.40040    2.34390    1.77370    -999.25    0.33180  -25.09160   -2.90230    1.77370
