~Version ---------------------------------------------------
VERS. 2.0 : CWLS log ASCII Standard -VERSION 2.0
WRAP.  NO : ONE LINE PER DEPTH STEP
~Well ------------------------------------------------------
STRT.F                    2500.0 : START DEPTH
STOP.F                    9450.0 : STOP DEPTH
STEP.F                  50.00000 : STEP LENGTH
NULL.                    -999.25 : NULL VALUE
COMP. CHAMPLIN PETROLEUM COMPANY : COMPANY
WELL.            E.B JONES #2-18 : WELL
FLD .                   BIGWELLS : FIELD
LOC .                            : LOCATION
CNTY.                     DIMMIT : COUNTY
STAT.                      TEXAS : STATE
CTRY.   UNITED STATES OF AMERICA : COUNTRY
SRVC.               Schlumberger : SERVICE COMPANY
DATE.                22-Mar-1977 : LOGDATE
API .             42127311570000 : API NUMBER
UWI .             42127311570000 : UNIQUE WELL ID
SLAT.WGS84         28.6372286453 : SURFACE LATITUDE
SLON.WGS84        -99.5258923282 : SURFACE LONGITUDE
~Curve Information -----------------------------------------
DEPT.F                 : 
CALD.IN   45 280 60 00 : CALIPER FROM DENSITY LOG
GRD .GAPI 45 310 01 00 : GAMMA RAY FROM DENSITY LOG
RHOB.G/C3 45 350 01 00 : BULK DENSITY
CORR.G/C3 45 356 01 00 : DENSITY CORRECTION
NPHI.DEC  42 890 01 00 : NEUTRON POROSITY LIMESTONE
DPHI.DEC  45 890 10 00 : DENSITY POROSITY LIMESTONE
SPR .MV   07 010 01 00 : SPONTANEOUS POTENTIAL FROM RES. LOG
LL8 .OHMM 07 220 08 00 : LATEROLOG-8 RES.
ILD .OHMM 07 120 46 00 : INDUCTION LOG DEEP
ILM .OHMM 07 120 44 00 : INDUCTION LOG MEDIUM
DT  .US/F 60 520 00 00 : INTERVAL TRANSIT TIME
~Params ----------------------------------------------------
PD  .                     GL : PERMANENT DATUM
EPD .FT               579.55 : ELEVATION PERMANENT DATUM
LMF .                     KB : LOG MEASURED FROM
DAPD.FT                    7 : FEET ABOVE PERMANENT DATUM
DMF .                     KB : DRILLING MEASURED FROM
EKB .FT               586.55 : KELLY BUSHING
EDF .FT               585.55 : DRILLING FLOOR
EGL .FT               579.55 : GROUND LEVEL
DATE.               03/22/77 : RUN DATE
RUN .                      1 : RUN NUMBER
DD  .FT                 9500 : DEPTH DRILLER
DL  .FT                 9484 : DEPTH LOGGER
BLI .FT                 9483 : BOTTOM LOG INTERVAL
TLI .FT                 5000 : TOP LOG INTERVAL
CS  .IN                8.625 : CASING SIZE
CBD .FT                 2496 : CASING BOTTOM DRILLER
BS  .IN                7.875 : BIT SIZE
BSD .FT                 9500 : BIT SIZE AT DEPTH
DFT .              SPER TANN : DRILLING FLUID TYPE
DFD .                   10.6 : DRILLING FLUID DENSITY
DFV .                     72 : DRILLING FLUID VISCOSITY
DFPH.                   10.5 : DRILLING FLUID PH
DFL .                     11 : DRILLING FLUID LOSS
MSS .                MUD PIT : MUD SAMPLE SOURCE
RMS .OHMM               1.64 : RESISTIVITY MUD SAMPLE
MST .FT                   73 : MUD SAMPLE TEMPERATURE
RMF .OHMM               1.14 : RESISTIVITY MUD FILTRATE SAMPLE
MFST.FT                   73 : MUD FILTRATE SAMPLE TEMPERATURE
MFSS.                      M : MUD FILTRATE SAMPLE SOURCE
RMB .OHMM               0.59 : RESISTIVITY MUD AT BHT
TCS .HRS                 400 : TIME CURCULATED STOPPED
TLAB.HRS                1900 : TIME LOGGER AT BOTTOM
LUN .                   7739 : LOGGING UNIT NUMBER
LUL .                 LAREDO : LOGGING UNIT LOCATION
ENGI.                STECKER : RECORDING ENGINEER
WITN.            MR HARRISON : WITNESSED BY
CLNT.                A2DTECH : CLIENT CODE
ORIG.               5" PRINT : ORIGIN OF DATA
UWI .         42127311570000 : UNIQUE WELL ID
DICO. A2D Technologies, Inc. : DIGITIZING COMPANY
~Other -----------------------------------------------------
~ASCII -----------------------------------------------------
# ...
 5550.00000   15.39470   76.35620    2.49220    0.01360    0.17060    0.12390  -25.70130    3.48570    3.31920    3.25860   84.07810
 5600.00000   13.74790   75.59830    2.52170    0.01770    0.14950    0.10370  -26.49410    3.76180    4.04050    3.97100   81.43400
 5650.00000   14.00280   81.39360    2.44360    0.03950    0.18550    0.14840  -24.50140    3.98260    3.57200    3.54750   82.82870
 5700.00000   13.74020   84.90660    2.50930    0.04170    0.18760    0.11520  -23.70520    4.81230    3.49620    3.41070   82.33960
 5750.00000   17.19260   79.75240    1.92990    0.09050    0.27910    0.44920  -22.14030    2.49250    2.25300    2.38080   93.78970
 5800.00000   13.98820   92.42970    2.46320    0.01650    0.24780    0.14260  -22.11630    2.61230    2.17270    2.25300   94.20600
 5850.00000   16.03030   75.94840    2.51210    0.06150    0.18550    0.15750  -20.91600    3.35300    2.81770    2.86240   88.23210
 5900.00000   12.83770   70.51560    2.62420    0.14220    0.19280    0.08600  -20.44790    3.84620    2.97350    3.12110   87.43690
 5950.00000   12.10690   40.77880    2.62600    0.00290    0.09710    0.06750  -20.90870    3.84620    3.50370    3.62170   79.51800
 6000.00000   10.96820   38.92060    2.61710    0.00780    0.09650    0.05060  -20.76140    7.19840    5.98450    6.09580   73.98250
 6050.00000   10.40420   40.88360    2.60370   -0.00850    0.09490    0.04630  -22.13230    7.60380    5.79580    5.66280   76.60360
 6100.00000   10.23620   52.59980    2.57970    0.01040    0.10660    0.06750  -26.23450    9.67390   10.16320   10.47130   64.78780
 6150.00000   10.63080   55.57640    2.51520   -0.00640    0.11930    0.09540  -25.08190   11.61530    8.36300   10.08980   69.34750
 6200.00000   11.16040   54.37810    2.60890    0.00120    0.12030    0.05560  -21.69290    7.46500    5.26050    5.21020   73.66530
 6250.00000   10.78190   57.65440    2.55090    0.00270    0.14320    0.10100  -21.01080    5.37450    4.12180    4.25650   80.51290
 6300.00000   10.42000   59.95200    2.61630    0.15800    0.12880    0.04450  -23.53660    9.66120    5.82450    5.70540   74.65990
 6350.00000    9.40280   29.91960    2.63100    0.00220    0.04450    0.05210  -28.56280   22.75260    9.48480    8.51990   58.45570
 6400.00000    9.87140   54.61010    2.52810    0.06800    0.14840    0.19570  -23.39820    3.90550    3.91950    6.11040   76.02530
 6450.00000    9.52530   21.09540    2.63650   -0.00850    0.04090    0.03140  -30.30690   17.74510   21.33190   17.74310   58.40240
 6500.00000    9.56150   19.26930    2.46240    0.05190    0.03030    0.00150  -31.67480   25.17850   36.39400   30.02770   55.26750
 6550.00000    9.59290   17.87220    2.61400   -0.00300    0.05710    0.05400  -31.09080   26.85530   19.47600   18.93230   57.70750
 6600.00000    9.43890   17.02220    2.66210    0.01020    0.05690    0.03130  -28.60540   40.28410   15.88720   14.49160   57.30740
 6650.00000    9.39460   17.58340    2.70380    0.00390    0.03400    0.01470  -27.67600   31.15130   19.48670   21.75090   54.54180
 6700.00000    9.26280   22.02680    2.66310   -0.01150    0.04190    0.03550  -28.56420   22.81080   21.52810   19.81390   58.26440
 6750.00000   10.21860   24.27220    2.59610    0.10060    0.06600    0.04620  -45.79100   17.42220   19.92730   14.76270   60.91630
 6800.00000    9.39530   34.03480    2.61870   -0.00540    0.06930    0.05640  -28.52900   34.47160   23.30240   23.59940   62.51000
 6850.00000    9.30500   45.11740    2.56020    0.00700    0.08220    0.08900  -30.28960   26.12340   25.05560   22.13250   65.06720
 6900.00000    9.35320   54.88430    2.60580    0.01840    0.05640    0.06010  -27.87150   28.64380   36.88260   27.64570   62.57240
 6950.00000    9.40280   36.54040    2.62280   -0.00260    0.07340    0.05470  -13.81580   55.58490   50.99870   36.21410   62.42200
 7000.00000    9.58940   36.51150    2.58100   -0.00300    0.11430    0.07550  -11.97510   41.21680   30.15670   22.13250   69.68130
 7050.00000    9.56510   49.93980    2.59130   -0.00220    0.12010    0.05920  -13.24720   18.07300   17.38130   25.64200   69.75240
 7100.00000    9.42810   75.90530    2.56780   -0.00260    0.13120    0.07020  -15.33980   50.93660   29.67460   35.20200   69.77940
 7150.00000    9.42940  126.59570    2.52470    0.01920    0.17420    0.10750  -16.13670   48.86860   49.90090   36.07550   78.44620
 7200.00000    9.23770   44.39100    2.55130   -0.02150    0.07460    0.04270  -19.62750   89.74910   38.21210   36.58320   56.30320
 7250.00000    9.90090   15.88690    2.63030    0.00360    0.00810    0.05770  -35.89230   74.25820   73.96560   55.54890   53.31920
 7300.00000    9.52390   12.00730    2.65170    0.08970    0.00640    0.03030  -35.43740  134.59530   96.42670   76.03790   52.61190
 7350.00000   13.88450   68.72090    2.42400    0.11100    0.27880    0.19390  -11.42830    2.49490    1.88520    2.02290   92.15290
 7400.00000   14.66110   69.65130    2.44630    0.17930    0.25900    0.18240  -14.56630    2.51950    2.01770    2.13320   89.70120
 7450.00000   10.05430   47.97670    2.69370   -0.00660    0.09920    0.02050  -16.33390    9.18450    6.23070    6.33540   61.28740
 7500.00000    9.06550   11.46000    2.66270   -0.00730    0.01380    0.03530  -61.39430   34.99690   35.72980   30.34600   52.43280
 7550.00000    9.15540   25.69930    2.69570   -0.00590    0.00680    0.02030  -46.77360   37.45670   46.24130   44.43210   53.20560
 7600.00000    9.15730   22.53670    2.67730   -0.01440    0.02630    0.01410  -61.06110   33.02430   28.88180   25.88820   54.34460
 7650.00000    8.85250   28.15140    2.63080    0.00240    0.02250    0.04750 -119.13670   43.98610    8.77870   12.78000   55.14240
 7700.00000    8.98610   27.49250    2.72930    0.02830    0.01080    0.02120 -111.55300   63.36420   25.10650   25.51000   52.17550
 7750.00000    8.85130   32.04840    2.64740   -0.00210    0.01870    0.03830 -124.64660   54.36930   23.07150   24.29130   52.06420
 7800.00000    8.82190   30.79990    2.67370    0.00660    0.02170    0.03320 -121.98450   34.24650   14.07270   15.29780   53.37730
 7850.00000    8.92830   26.86220    2.68380   -0.00600    0.00680    0.02120 -120.68070   77.45150   29.42050   30.10010   49.67860
 7900.00000    9.08540   32.97700    2.68770   -0.02260    0.00210    0.02350 -129.65120   57.47930   36.94280   35.04030   51.53570
 7950.00000    8.62530   19.79370    2.64180   -0.00330    0.01550    0.04080 -138.16400   30.18680   13.96470   15.33050   51.15650
 8000.00000    7.81540   23.06000    2.49050    0.11150    0.17410    0.07950 -130.98800    4.45690    2.61140    3.54070   79.64140
 8050.00000    9.16490   25.77550    2.67270   -0.01150    0.00650    0.06050  -67.81100   60.39380   27.93470   25.02460   51.01230
 8100.00000    8.38160   20.19820    2.57420    0.03850    0.08540    0.09960 -136.06330    3.40890    0.90580    1.09910   64.96640
 8150.00000    8.71240   20.00850    2.67630   -0.00650    0.09710    0.03200 -143.60910   14.60910    4.21780    4.11060   55.46120
 8200.00000    8.29590   18.24390    2.58540    0.01450    0.10610    0.08920 -141.38640    7.96280    1.71120    2.43090   68.04780
 8250.00000    8.60990   15.77970    2.69710    0.03190    0.02930    0.01370 -144.19920   15.74130    5.99630    5.41040   52.05180
 8300.00000    8.86750   22.19000    2.71640   -0.00540    0.01210   -0.00260 -107.63950   51.64520   26.60910   27.60770   51.19600
 8350.00000    8.94550   34.54380    2.63540   -0.00380    0.04610    0.02300 -108.24700   30.38350   14.06890   20.15230   55.01490
 8400.00000    9.29570   28.43890    2.67830   -0.01940    0.05150    0.04570 -125.43090   14.38740    3.06930    2.85510   63.39890
 8450.00000    9.54790   44.49430    2.68170   -0.01870    0.00510    0.01270  -90.79120   62.09120   44.67520   42.17260   50.55780
 8500.00000    9.20930   37.29190    2.69860   -0.01260    0.00690    0.00460  -75.78050   65.62760   62.61250   49.77710   49.88180
 8550.00000    9.14160   32.79110    2.78370    0.11910    0.00430   -0.01710  -52.78700  105.93270   81.80240   63.27950   51.27280
