~Version ---------------------------------------------------
VERS. 2.0 : CWLS log ASCII Standard -VERSION 2.0
WRAP.  NO : ONE LINE PER DEPTH STEP
~Well ------------------------------------------------------
STRT.F                     1050.0 : START DEPTH
STOP.F                    10450.0 : STOP DEPTH
STEP.F                   50.00000 : STEP LENGTH
NULL.                     -999.25 : NULL VALUE
COMP. GOLDKING PRODUCTION COMPANY : COMPANY
WELL.    ALICE AINSWORTH ET AL #1 : WELL
FLD .         OAK FOREST PROSPECT : FIELD
LOC .                             : LOCATION
CNTY.                    GONZALES : COUNTY
STAT.                       TEXAS : STATE
CTRY.    UNITED STATES OF AMERICA : COUNTRY
SRVC.                Schlumberger : SERVICE COMPANY
DATE.                 18-Jan-1981 : LOGDATE
API .              42177306920000 : API NUMBER
UWI .              42177306920000 : UNIQUE WELL ID
SLAT.WGS84          29.5020058328 : SURFACE LATITUDE
SLON.WGS84         -97.5543126964 : SURFACE LONGITUDE
~Curve Information -----------------------------------------
DEPT   .F                 : 
DT     .US/F 60 500 00 00 : DELTA-T (INTERVAL TRANSIT TIME)
GRR    .GAPI 07 310 01 00 : GAMMA RAY FROM RESISTIVITY LOG
ILD    .OHMM 07 120 46 00 : INDUCTION DEEP RESISTIVITY
ILM    .OHMM 07 120 44 00 : INDUCTION MEDIUM RESISTIVITY
SFLU   .OHMM 07 220 01 00 : SHALLOW FOCUSED RESISTIVITY (UNAVERAGED)
SPR    .MV   07 010 01 00 : SPONTANEOUS POTENTIAL FROM RESISTIVITY LOG
NPHI_SS.DEC  42 890 03 00 : NEUTRON POROSITY SANDSTONE
DPHI_SS.DEC  45 890 12 00 : DENSITY POROSITY SANDSTONE
DPHI_LS.DEC  45 890 10 00 : DENSITY POROSITY LIMESTONE
NPHI_LS.DEC  42 890 01 00 : NEUTRON POROSITY LIMESTONE
DRHO   .G/C3 45 356 01 00 : BULK DENSITY CORRECTION
RHOB   .G/C3 45 350 01 00 : BULK DENSITY
CALD   .IN   45 280 60 00 : CALIPER FROM DENSITY LOG
~Params ----------------------------------------------------
EKB .FT                352.1 : KELLY BUSHING
EDF .FT                351.1 : DRILLING FLOOR
EGL .FT                337.1 : GROUND LEVEL
DATE.               01/18/81 : RUN DATE
RUN .                      1 : RUN NUMBER
CLNT.                A2DTECH : CLIENT CODE
ORIG.            1" 5" PRINT : ORIGIN OF DATA
UWI .         42177306920000 : UNIQUE WELL ID
DICO. A2D Technologies, Inc. : DIGITIZING COMPANY
~Other -----------------------------------------------------
~ASCII -----------------------------------------------------
# ...
 3650.00000  110.74190   71.90680    1.59090    1.55790    1.62980   -1.79170    0.38850    0.13880    -999.25    -999.25    0.05640    2.42340   14.94900
 3700.00000  110.45430   80.89300    1.47460    1.44880    1.50820   -1.54680    0.39910    0.15960    -999.25    -999.25    0.05400    2.38570   14.62530
 3750.00000  118.50530   78.79730    1.22370    1.20110    1.33720   -1.44560    0.44500    0.18090    -999.25    -999.25    0.04680    2.35180   12.86560
 3800.00000  125.69060   75.08720    1.18680    1.16600    1.05460   -0.14100    0.42970    0.26680    -999.25    -999.25    0.02100    2.20870   12.09290
 3850.00000  111.13800   68.73760    1.18570    1.20770    1.30360    0.32660    0.41720    0.21010    -999.25    -999.25    0.03400    2.30110   11.21190
 3900.00000  115.30070   67.93750    1.13780    1.14770    1.08030    1.02920    0.37830    0.19570    -999.25    -999.25    0.06150    2.32840    9.46460
 3950.00000  104.18770   58.30550    1.29490    1.31310    1.45380    1.36170    0.36870    0.18660    -999.25    -999.25    0.10410    2.34490    9.39760
 4000.00000  102.33210   65.77930    1.60900    1.69220    2.25620    0.12070    0.39050    0.15230    -999.25    -999.25    0.05140    2.39940    9.95940
 4050.00000   93.90430   59.54810    2.43900    2.48150    2.62780   -1.44510    0.32120    0.12640    -999.25    -999.25    0.07460    2.43860   10.34380
 4100.00000   97.35530   62.52790    2.15370    2.17890    2.21950   -1.82880    0.28740    0.12860    -999.25    -999.25    0.01780    2.44680   10.07300
 4150.00000   83.25290   47.43920    2.46270    2.55710    2.98640   -2.87730    0.21090    0.00280    -999.25    -999.25    0.10880    2.64360    9.13210
 4200.00000   87.31370   41.17900    2.03300    2.59200    3.47830  -20.98750    0.26320    0.12270    -999.25    -999.25    0.09230    2.45340    8.47120
 4250.00000  106.84160   65.91950    1.27410    1.28450    1.34240   -2.41930    0.36920    0.16800    -999.25    -999.25    0.05530    2.37030   11.18730
 4300.00000  100.56740   58.91160    1.62310    1.64560    1.74950   -3.06400    0.34290    0.13370    -999.25    -999.25    0.09650    2.42880   12.18190
 4350.00000    -999.25   64.31640    1.13960    1.15540    1.29160   -1.25460    -999.25    -999.25    -999.25    -999.25    -999.25    -999.25   12.57760
 4400.00000    -999.25   62.58530    1.22820    1.24570    1.35430   -1.13600    -999.25    -999.25    -999.25    -999.25    -999.25    -999.25    -999.25
 4450.00000    -999.25   59.64030    1.50030    1.52180    1.61980   -2.57400    -999.25    -999.25    -999.25    -999.25    -999.25    -999.25    -999.25
 4500.00000    -999.25   60.73900    1.71300    1.73900    2.31210   -4.01450    -999.25    -999.25    -999.25    -999.25    -999.25    -999.25    -999.25
 4550.00000    -999.25   55.77660    1.96070    1.99020    2.11550   -6.05840    -999.25    -999.25    -999.25    -999.25    -999.25    -999.25    -999.25
 4600.00000    -999.25   60.67000    1.37760    1.39650    1.58580   -2.72400    -999.25    -999.25    -999.25    -999.25    -999.25    -999.25    -999.25
 4650.00000    -999.25   54.62850    2.11480    2.14560    2.33680   -2.12930    -999.25    -999.25    -999.25    -999.25    -999.25    -999.25    -999.25
 4700.00000    -999.25   56.90740    1.41480    1.43060    1.58110   -2.30040    -999.25    -999.25    -999.25    -999.25    -999.25    -999.25    -999.25
 4750.00000    -999.25  105.28320    0.78670    0.81320    0.77590   -2.60620    -999.25    -999.25    -999.25    -999.25    -999.25    -999.25    -999.25
 4800.00000    -999.25   70.62090    1.29260    1.31220    1.34380   -1.70490    -999.25    -999.25    -999.25    -999.25    -999.25    -999.25    -999.25
 4850.00000    -999.25   71.71840    1.13980    1.15590    1.17400   -2.01130    -999.25    -999.25    -999.25    -999.25    -999.25    -999.25    -999.25
 4900.00000    -999.25   71.70730    0.91550    0.93360    0.98900   -0.91750    -999.25    -999.25    -999.25    -999.25    -999.25    -999.25    -999.25
 4950.00000    -999.25   82.19330    1.24440    1.26150    1.36590   -0.20340    -999.25    -999.25    -999.25    -999.25    -999.25    -999.25    -999.25
 5000.00000    -999.25   72.10470    1.14190    1.15760    1.19960   -1.26300    -999.25    -999.25    -999.25    -999.25    -999.25    -999.25    -999.25
 5050.00000    -999.25   63.08300    1.32210    1.34550    1.43580   -1.30060    -999.25    -999.25    -999.25    -999.25    -999.25    -999.25    -999.25
 5100.00000    -999.25   71.47880    1.28430    1.30600    1.34430   -0.71750    -999.25    -999.25    -999.25    -999.25    -999.25    -999.25    -999.25
 5150.00000    -999.25   68.58850    0.80910    0.82020    0.89810    0.16630    -999.25    -999.25    -999.25    -999.25    -999.25    -999.25    -999.25
 5200.00000    -999.25   67.94630    1.01830    1.05630    1.10290    1.06410    -999.25    -999.25    -999.25    -999.25    -999.25    -999.25    -999.25
 5250.00000    -999.25   58.29400    0.88230    0.91110    1.00790    0.42720    -999.25    -999.25    -999.25    -999.25    -999.25    -999.25    -999.25
 5300.00000    -999.25   70.45790    1.51730    1.55960    1.42660    1.61620    -999.25    -999.25    0.24720    0.30980    0.01080    2.31980   13.78800
 5350.00000   85.77910   45.59890    2.29850    2.33270    2.40810    1.25580    -999.25    -999.25    0.13710    0.23290    0.09070    2.47900   12.94590
 5400.00000  104.81610   51.34520    1.14620    1.11460    1.16840   -0.38620    -999.25    -999.25    0.30730    0.45090    0.12350    2.12520   16.81420
 5450.00000   81.59600   44.50080    3.08880    3.13290    3.12960    4.01120    -999.25    -999.25    0.06570    0.20880    0.00580    2.60450   11.69350
 5500.00000   74.74220   37.49380    4.39040    4.45110    4.63520    1.39310    -999.25    -999.25    0.07680    0.14900    0.00050    2.58500   11.33170
 5550.00000   67.98020   17.79650    5.45770    5.59970    6.01600   -0.70940    -999.25    -999.25    0.10070    0.10750    0.05200    2.54170   10.88800
 5600.00000   64.85510   25.84250    5.62720    5.69150    7.98090    4.57430    -999.25    -999.25    0.05320    0.09270    0.04240    2.61740    9.79350
 5650.00000   81.35180   35.52430    3.97090    2.91940    3.08670    2.47900    -999.25    -999.25    0.23180    0.21060    0.00900    2.34950   10.71010
 5700.00000   60.88150   21.19480    7.47710    7.85770   12.63680  -17.06480    -999.25    -999.25    0.04430    0.06920    0.00380    2.63790    9.73800
 5750.00000   65.03180   23.69400    5.30150    5.45870    6.25060    0.83230    -999.25    -999.25    0.04990    0.07890    0.02270    2.63350    9.50750
 5800.00000   62.63200   22.07310    7.92960    8.06400   10.18200   -7.19150    -999.25    -999.25    0.05590    0.11100    0.00350    2.62300    9.53400
 5850.00000   86.68930   60.75310    8.81950    9.33390   14.19280   12.05850    -999.25    -999.25    0.15100    0.23660    0.02240    2.46520    9.48990
 5900.00000   59.08200   20.17630   11.21950   11.37390   12.61370    0.50140    -999.25    -999.25    0.02120    0.08760    0.01750    2.67430    9.10960
 5950.00000   56.48940   14.62790   14.57750   15.03390   15.34170  -11.09870    -999.25    -999.25    0.01350    0.02740    0.03130    2.69530    9.14450
 6000.00000   79.38680   37.16460    3.71020    3.80510    4.24680   18.25390    -999.25    -999.25    0.19390    0.21170    0.04140    2.36060   10.98520
 6050.00000   56.11910   24.20290   16.18030   19.47550   21.15600    2.28460    -999.25    -999.25    0.01630    0.06070   -0.00500    2.68840    8.77100
 6100.00000   59.48990   15.45070    4.33310    6.77860   25.95620  -73.78740    -999.25    -999.25    0.06820    0.10410    0.04870    2.59620    8.23950
 6150.00000   58.64400   16.62940    1.58050    2.18470   20.06140  -70.72750    -999.25    -999.25    0.10190    0.17830    0.02390    2.56740    8.10980
 6200.00000   49.71710   23.80010   36.29420   62.48150  255.36340  -37.06240    -999.25    -999.25   -0.00360    0.01660    0.00500    2.72370    8.60970
