~Version ---------------------------------------------------
VERS. 2.0 : CWLS log ASCII Standard -VERSION 2.0
WRAP.  NO : ONE LINE PER DEPTH STEP
~Well ------------------------------------------------------
STRT.F                      550.0 : START DEPTH
STOP.F                     8700.0 : STOP DEPTH
STEP.F                   50.00000 : STEP LENGTH
NULL.                     -999.25 : NULL VALUE
COMP. HENRY PETROLEUM CORPORATION : COMPANY
WELL.                  BROWN A #1 : WELL
FLD .                          WC : FIELD
LOC .                             : LOCATION
CNTY.                      WILSON : COUNTY
STAT.                       TEXAS : STATE
CTRY.    UNITED STATES OF AMERICA : COUNTRY
SRVC.                Schlumberger : SERVICE COMPANY
DATE.                 18-Aug-1980 : LOGDATE
API .              42493306840000 : API NUMBER
UWI .              42493306840000 : UNIQUE WELL ID
SLAT.WGS84          28.9325521974 : SURFACE LATITUDE
SLON.WGS84         -98.2324070688 : SURFACE LONGITUDE
~Curve Information -----------------------------------------
DEPT.F                 : 
CILD.MMHO 07 110 46 00 : CONDUCTIVITY INDUCTION LOG DEEP
SPR .MV   07 010 01 00 : SPONTANEOUS POTENTIAL FROM RES. LOG
GRR .GAPI 07 310 01 00 : GAMMA RAY FROM RES. LOG
RILD.OHMM 07 120 46 00 : INDUCTION LOG DEEP RESISTIVITY
ASFL.OHMM 07 221 06 00 : AMPLIFIED SHALLOW FOCUSED LOG RESISTIVITY
CALD.IN   45 280 60 00 : CALIPER FROM DENSITY LOG
DPHI.DEC  45 890 10 00 : DENSITY POROSITY LIMESTONE
NPHI.DEC  42 890 01 00 : NEUTRON POROSITY LIMESTONE
CORR.G/C3 45 356 01 00 : DENSITY CORRECTION
RHOB.G/C3 45 350 01 00 : BULK DENSITY
~Params ----------------------------------------------------
PD  .                     GL : PERMANENT DATUM
EPD .F                   355 : ELEVATION PERMANENT DATUM
LMF .                     KB : LOG MEASURED FROM
DMF .                     KB : DRILLING MEASURED FROM
EKB .F                 369.6 : KELLING BUSHING
EDF .F                 368.3 : DRILLING FLOOR
EGL .F                   355 : GROUND LEVEL
DATE.               08/18/80 : RUN DATE
RUN .                      1 : RUN NUMBER
DD  .F                  8730 : DEPTH DRILLER
DL  .F                  8740 : DEPTH LOGGER
BLI .F                  8734 : BOTTOM LOG INTERVAL
TLI .F                   520 : TOP LOG INTERVAL
CS  .IN                8.625 : CASING SIZE
CBD .F                   515 : CASING BOTTOM DRILLER
CBL .F                   520 : CASING BOTTOM LOGGER
BS  .IN                7.875 : BIT SIZE
BSD .F                  8730 : BIT SIZE AT DEPTH
DFT .                  LIGNO : DRILLING FLUID TYPE
DFD .                    9.1 : DRILLING FLUID DENSITY
DFV .                     44 : DRILLING FLUID VISCOSITY
DFPH.                     10 : DRILLING FLUID PH
DFL .                    6.8 : DRILLING FLUID LOSS
MSS .                    BIN : MUD SAMPLE SOURCE
RMS .OHMM               1.87 : RESISTIVITY MUD SAMPLE
MST .F                    76 : MUD SAMPLE TEMPERATURE
RMF .OHMM               2.15 : RESISTIVITY MUD FILTRATE SAMPLE
MFST.F                    76 : MUD FILTRATE SAMPLE TEMPERATURE
RMC .OHMM               1.52 : RESISTIVITY MUD CAKE
MCST.F                    76 : MUD CAKE SAMPLE TEMPERATURE
MFSS.                   MEAS : MUD FILTRATE SAMPLE SOURCE
MCSS.                  CHART : MUD CAKE SAMPLE SOURCE
RMB .OHMM               0.84 : RESISTIVITY MUD AT BHT
TCS .HRS                2400 : TIME CURCULATED STOPPED
TLAB.HRS                 945 : TIME LOGGER AT BOTTOM
LUN .                   8137 : LOGGING UNIT NUMBER
LUL .                  PLEAS : LOGGING UNIT LOCATION
ENGI.             TURBEVILLE : RECORDING ENGINEER
WITN.           ROBERSON POP : WITNESSED BY
CLNT.                A2DTECH : CLIENT CODE
ORIG.               1" PRINT : ORIGIN OF DATA
UWI .         42493306840000 : UNIQUE WELL ID
DICO. A2D Technologies, Inc. : DIGITIZING COMPANY
~Other -----------------------------------------------------
~ASCII -----------------------------------------------------
# ...
 3850.00000  178.57140  -23.33780   73.87260    5.61240    5.29710    -999.25    -999.25    -999.25    -999.25    -999.25
 3900.00000  331.63590  -21.66070   95.47870    3.32010    3.40170    -999.25    -999.25    -999.25    -999.25    -999.25
 3950.00000  202.38100  -25.84920   88.99210    5.16930    4.87640    -999.25    -999.25    -999.25    -999.25    -999.25
 4000.00000  299.90230  -23.00560  101.19550    3.10330    3.10050    -999.25    -999.25    -999.25    -999.25    -999.25
 4050.00000  417.76920  -21.70410   83.41930    2.34630    2.29590    -999.25    -999.25    -999.25    -999.25    -999.25
 4100.00000  188.60220  -23.53340   91.26540    5.11610    4.93520    -999.25    -999.25    -999.25    -999.25    -999.25
 4150.00000  361.11110  -21.35450   96.40310    2.84220    2.93390    -999.25    -999.25    -999.25    -999.25    -999.25
 4200.00000  120.57740  -23.21470   45.77830    7.49270    6.84300    -999.25    -999.25    -999.25    -999.25    -999.25
 4250.00000  122.67400  -24.81380   85.89120    7.42950    7.29410    -999.25    -999.25    -999.25    -999.25    -999.25
 4300.00000  100.88240  -23.82650   66.05770    8.02800    6.74610    -999.25    -999.25    -999.25    -999.25    -999.25
 4350.00000   99.20640  -22.75650   55.10170    8.92290    8.17290    -999.25    -999.25    -999.25    -999.25    -999.25
 4400.00000   35.65510  -23.30390   58.75230   19.97260   37.56160    -999.25    -999.25    -999.25    -999.25    -999.25
 4450.00000  126.48810  -23.87450   60.64140    6.87490    7.27460    -999.25    -999.25    -999.25    -999.25    -999.25
 4500.00000  126.43410  -24.34140   90.38360    7.18620    7.06130    -999.25    -999.25    -999.25    -999.25    -999.25
 4550.00000  503.96830  -20.88540  102.33300    2.07380    1.91510    -999.25    -999.25    -999.25    -999.25    -999.25
 4600.00000   84.05200  -19.22740   63.92120    9.90610    8.35640    -999.25    -999.25    -999.25    -999.25    -999.25
 4650.00000   56.08700  -16.99190   45.80280   12.04800   16.24840    -999.25    -999.25    -999.25    -999.25    -999.25
 4700.00000   75.39680  -22.91980   57.08680   11.12910   10.55410    -999.25    -999.25    -999.25    -999.25    -999.25
 4750.00000  130.95240  -20.54180   71.71230    6.97330    7.64710    -999.25    -999.25    -999.25    -999.25    -999.25
 4800.00000  221.92970  -20.19630  100.09110    4.31860    3.60260    -999.25    -999.25    -999.25    -999.25    -999.25
 4850.00000  110.11900  -21.16320   53.93660    8.46970    7.41570    -999.25    -999.25    -999.25    -999.25    -999.25
 4900.00000  150.76100  -24.01400   59.16590    6.24990    6.01440    -999.25    -999.25    -999.25    -999.25    -999.25
 4950.00000  115.07940  -21.00620   65.20020    7.91210    6.79990    -999.25    -999.25    -999.25    -999.25    -999.25
 5000.00000   98.78790  -21.27080   70.87350    9.59850    8.50300    -999.25    -999.25    -999.25    -999.25    -999.25
 5050.00000   98.98810  -18.44350   48.60200    9.60810    8.10390    -999.25    -999.25    -999.25    -999.25    -999.25
 5100.00000  164.59010  -24.09190   49.41660    7.18750    7.04200    -999.25    -999.25    -999.25    -999.25    -999.25
 5150.00000  135.71430  -28.45250   65.10830    8.29460   10.62740    -999.25    -999.25    -999.25    -999.25    -999.25
 5200.00000  351.86240  -22.20820   80.53060    3.45430    3.35160    8.46590    0.18630    0.32190    0.18090    2.35150
 5250.00000  256.19430  -25.51140   91.23140    4.66160    4.38420    8.30930    0.18420    0.26660    0.09670    2.32580
 5300.00000   91.26980  -39.69190   34.42930    8.70490   10.40000    8.15790    0.04610    0.12090    0.14310    2.53850
 5350.00000  470.73410  -16.53610  105.58660    2.16470    2.08490   10.26800    0.34090    0.38230    0.25650    2.08800
 5400.00000  347.11670  -17.86580   99.01830    2.92670    2.95140   10.35840    0.20260    0.32990    0.25520    2.31820
 5450.00000  384.92060  -16.23990  104.16940    2.66920    2.61000   10.03890    0.30120    0.32050    0.23830    2.16840
 5500.00000  456.34920  -16.80740   94.58660    2.14090    2.27410   13.68070    0.41250    0.42380    0.18290    1.98230
 5550.00000  483.91780  -16.22850   90.43550    2.11080    2.16610   10.32150    0.22690    0.30070    0.23840    2.27680
 5600.00000  358.34250  -19.19180   88.44860    2.74020    2.59950    8.51750    0.28930    0.29140    0.24980    2.13770
 5650.00000  400.55990  -16.75070   97.72160    2.39130    2.57010    -999.25    -999.25    -999.25    -999.25    -999.25
 5700.00000  331.54820  -17.66090   97.75500    2.98700    3.10520    -999.25    -999.25    -999.25    -999.25    -999.25
 5750.00000  456.34920  -16.72410   94.22060    2.21050    2.33400    -999.25    -999.25    -999.25    -999.25    -999.25
 5800.00000  410.15420  -17.21900   92.70400    2.39180    2.56560    -999.25    -999.25    -999.25    -999.25    -999.25
 5850.00000  534.06090  -16.11390   90.65420    1.89980    1.97500    -999.25    -999.25    -999.25    -999.25    -999.25
 5900.00000  511.90480  -17.87990   86.96200    1.90540    1.87670    -999.25    -999.25    -999.25    -999.25    -999.25
 5950.00000  719.14950  -16.49500  100.92660    1.57400    1.52630    -999.25    -999.25    -999.25    -999.25    -999.25
 6000.00000  576.25700  -16.66500   81.75340    1.87130    1.84630    -999.25    -999.25    -999.25    -999.25    -999.25
 6050.00000  670.63490  -20.38930   92.16890    1.60780    1.60350    -999.25    -999.25    -999.25    -999.25    -999.25
 6100.00000  750.33010  -18.94940   82.42810    1.44690    1.46680    -999.25    -999.25    -999.25    -999.25    -999.25
 6150.00000  803.96830  -19.23720   85.86350    1.23220    1.30600    -999.25    -999.25    -999.25    -999.25    -999.25
 6200.00000  820.50100  -18.88450   85.37460    1.29310    1.38860    -999.25    -999.25    -999.25    -999.25    -999.25
 6250.00000  778.07440  -18.11470   87.55060    1.31740    1.41670    -999.25    -999.25    -999.25    -999.25    -999.25
 6300.00000 1218.04480  -18.44700   94.78090    0.99900    0.90630    -999.25    -999.25    -999.25    -999.25    -999.25
 6350.00000  353.17460  -19.94840   78.89650    2.57730    2.73080    -999.25    -999.25    -999.25    -999.25    -999.25
 6400.00000  789.68260  -18.09330   78.39570    1.32500    1.41950    -999.25    -999.25    -999.25    -999.25    -999.25
 6450.00000  682.53970  -20.56970   82.12520    1.65440    1.49340    -999.25    -999.25    -999.25    -999.25    -999.25
 6500.00000  547.04710  -20.03760   78.89820    1.76750    2.17740    -999.25    -999.25    -999.25    -999.25    -999.25
 6550.00000  620.37040  -17.79110   75.76380    1.72490    1.72120    -999.25    -999.25    -999.25    -999.25    -999.25
 6600.00000  581.49110  -19.23750   81.00570    1.62950    1.87710    -999.25    -999.25    -999.25    -999.25    -999.25
 6650.00000  568.45240  -20.03260   76.23600    1.68600    1.72870    -999.25    -999.25    -999.25    -999.25    -999.25
 6700.00000  615.07930  -17.69120   81.63630    1.54740    1.79420    -999.25    -999.25    -999.25    -999.25    -999.25
 6750.00000  563.49210  -19.03410   85.13260    1.83120    1.96610    -999.25    -999.25    -999.25    -999.25    -999.25
 6800.00000  892.85710  -17.50630   86.69740    1.05970    1.30750    -999.25    -999.25    -999.25    -999.25    -999.25
 6850.00000  628.44490  -18.07510   79.91620    1.55010    1.63690    -999.25    -999.25    -999.25    -999.25    -999.25
 6900.00000  468.21490  -23.54290   73.94060    1.93660    2.41610    -999.25    -999.25    -999.25    -999.25    -999.25
 6950.00000  639.00850  -22.85220   79.18040    1.64940    1.65010    -999.25    -999.25    -999.25    -999.25    -999.25
 7000.00000  406.91570  -20.84290   76.15090    2.37130    2.69120    -999.25    -999.25    -999.25    -999.25    -999.25
 7050.00000  371.52780  -19.07270   72.06180    2.56650    3.03280    -999.25    -999.25    -999.25    -999.25    -999.25
 7100.00000  567.46030  -19.10170   83.63640    1.77520    2.05130    -999.25    -999.25    -999.25    -999.25    -999.25
