~Version ---------------------------------------------------
VERS. 2.0 : CWLS log ASCII Standard -VERSION 2.0
WRAP.  NO : ONE LINE PER DEPTH STEP
~Well ------------------------------------------------------
STRT.FT                  2450.0 : START DEPTH
STOP.FT                  6950.0 : STOP DEPTH
STEP.FT                50.00000 : STEP LENGTH
NULL.                   -999.25 : NULL VALUE
COMP. EVERGREEN OIL CORPORATION : COMPANY
WELL.       GILLETTE ELEANOR #2 : WELL
FLD .                      COST : FIELD
LOC .                           : LOCATION
CNTY.                  GONZALES : COUNTY
STAT.                     TEXAS : STATE
CTRY.  UNITED STATES OF AMERICA : COUNTRY
SRVC.              Schlumberger : SERVICE COMPANY
DATE.               23-Mar-1981 : LOGDATE
API .            42177308170000 : API NUMBER
UWI .            42177308170000 : UNIQUE WELL ID
SLAT.WGS84        29.3955893297 : SURFACE LATITUDE
SLON.WGS84       -97.5864825388 : SURFACE LONGITUDE
~Curve Information -----------------------------------------
DEPT  .FT    : DEPTH FEET
SPWS  .MV    : SPONTANEOUS POTENTIAL [BASELINE 0 MV] [SPRED]
GRRED .GAPI  : GAMMA RAY FROM RESISTIVITY LOG
GRWS  .GAPI  : GAMMA RAY [GRRED]
DRHOED.G/C3  : DENSITY CORRECTION FROM DENSITY LOG
DCALED.IN    : DIFFERENTIAL CALIPER FROM DENSITY LOG
ILDED .OHMM  : INDUCTION LOG DEEP RESISTIVITY
ILMED .OHMM  : INDUCTION LOG MEDIUM RESISTIVITY
SFLUED.OHMM  : SPHERICALLY FOCUSED LOG RESISTIVITY
SPRED .MV    : SPONTANEOUS POTENTIAL FROM RESISTIVITY LOG
TENRED.LBF   : TENSION FROM RESISTIVITY LOG
NPHIED.V/V   : NEUTRON POROSITY FROM DENSITY LOG
DPHIED.V/V   : DENSITY POROSITY FROM DENSITY LOG
CALWS .IN    : CALIPER [DCALED+BIT]
DCORWS.G/C3  : DENSITY CORRECTION [DRHOED]
DRESWS.OHMM  : DEEP RESISTIVITY [ILDED]
MRESWS.OHMM  : MEDIUM RESISTIVITY [ILMED]
SRESWS.OHMM  : SHALLOW RESISTIVITY [SFLUED]
CONDWS.MMHO  : CONDUCTIVITY [1000/DRESWS]
DENWS .G/C3  : BULK DENSITY [CALCULATED FROM DPHIED]2446-6329' (SS_2.68);6329-TD (LS_2.71)
DPOWS .V/V   : DENSITY POROSITY LIME [CALCULATED FROM DENWS]
NPOWS .V/V   : NEUTRON POROSITY LIME [CONV NPHIED] 2446-6329' (SS_2.68);6329-TD (LS_2.71)
~Params ----------------------------------------------------
PD  .                     GL : PERMANENT DATUM
EPD .FT                  307 : ELEVATION PERMANENT DATUM
LMF .                     KB : LOG MEASURED FROM
DAPD.FT                   15 : FEET ABOVE PERMANENT DATUM
DMF .                     KB : DRILLING MEASURED FROM
EKB .FT                  322 : KELLY BUSHING
EDF .FT                  321 : DRILLING FLOOR
EGL .FT                  307 : GROUND LEVEL
DATE.               03/23/81 : RUN DATE
RUN .                      1 : RUN NUMBER
DD  .FT                 6945 : DEPTH DRILLER
DL  .FT                 6970 : DEPTH LOGGER
BLI .FT                 6964 : BOTTOM LOG INTERVAL
TLI .FT                 2446 : TOP LOG INTERVAL
CS  .IN                8.625 : CASING SIZE
CBD .FT                 2446 : CASING BOTTOM DRILLER
CBL .FT                 2446 : CASING BOTTOM LOGGER
BS  .IN                7.875 : BIT SIZE
BSD .FT                 6945 : BIT SIZE AT DEPTH
DFT .            ASTRA VIS V : DRILLING FLUID TYPE
DFD .                    9.6 : DRILLING FLUID DENSITY
DFV .                     34 : DRILLING FLUID VISCOSITY
DFPH.                    8.5 : DRILLING FLUID PH
DFL .                    6.8 : DRILLING FLUID LOSS
MSS .               CIRC PIT : MUD SAMPLE SOURCE
RMS .OHMM               3.54 : RESISTIVITY MUD SAMPLE
MST .DEGF                 75 : MUD SAMPLE TEMPERATURE
RMF .OHMM               3.76 : RESISTIVITY MUD FILTRATE SAMPLE
MFST.DEGF                 75 : MUD FILTRATE SAMPLE TEMPERATURE
RMC .OHMM               5.31 : RESISTIVITY MUD CAKE
MCST.DEGF                 75 : MUD CAKE SAMPLE TEMPERATURE
MFSS.                      M : MUD FILTRATE SAMPLE SOURCE
MCSS.                      C : MUD CAKE SAMPLE SOURCE
RMB .OHMM               1.56 : RESISTIVITY MUD AT BHT
TCS .HRS                 800 : TIME CIRCULATED STOPPED
TLAB.HRS                1330 : TIME LOGGER AT BOTTOM
LUN .                   8038 : LOGGING UNIT NUMBER
LUL .                   2303 : LOGGING UNIT LOCATION
ENGI.                   FAIR : RECORDING ENGINEER
CLNT.                A2DTECH : CLIENT CODE
ORIG.            1" 5" PRINT : ORIGIN OF DATA
UWI .         42177308170000 : UNIQUE WELL ID
DICO. A2D Technologies, Inc. : DIGITIZING COMPANY
~Other -----------------------------------------------------
ALL LOGS RUN IN COMBO.
MTRX CHANGE 2446-6329' (SS_2.68);6329-TD (LS_2.71).
~ASCII -----------------------------------------------------
 2450.00000    -999.25    -999.25    -999.25    -999.25    5.31700    -999.25    -999.25    -999.25    -999.25 1373.83540    -999.25    -999.25   13.19200    -999.25    -999.25    -999.25    -999.25    -999.25    -999.25    -999.25    -999.25
 2500.00000   -4.94830   65.35560   65.35560    0.06070    6.69120    1.35320    1.48680    1.55230  -10.67610 1420.19120    0.51690    0.33890   14.56620    0.06070    1.35320    1.48680    1.55230  738.98910    2.11060    0.35050    0.47520
 2550.00000   -3.56930   76.01720   76.01720    0.09090    2.75570    3.11440    2.86500    3.91520  -10.28050 1423.03740    0.41110    0.28470   10.63070    0.09090    3.11440    2.86500    3.91520  321.08910    2.20170    0.29720    0.36850
 2600.00000  -13.41700   56.34170   56.34170    0.02320    2.20550    5.40590    6.14650    6.21340  -20.73580 1414.97240    0.35240    0.30820   10.08050    0.02320    5.40590    6.14650    6.21340  184.98310    2.16220    0.32030    0.30880
 2650.00000   -4.37060   70.98660   70.98660    0.02370    3.05410    5.23390    5.78280    4.93510  -11.95130 1429.42870    0.39150    0.24910   10.92910    0.02370    5.23390    5.78280    4.93510  191.06210    2.26150    0.26230    0.34850
 2700.00000  -11.10070   59.13130   59.13130    0.00360    2.71880    4.44180    4.92610    4.23020  -15.66190 1465.16490    0.40780    0.29660   10.59380    0.00360    4.44180    4.92610    4.23020  225.13390    2.18170    0.30890    0.36510
 2750.00000   -3.78000   72.88050   72.88050    0.04230    3.05590    3.83090    4.07130    3.64270  -10.30890 1454.68080    0.36770    0.25770   10.93090    0.04230    3.83090    4.07130    3.64270  261.03530    2.24710    0.27070    0.32430
 2800.00000   -6.21260   65.17570   65.17570    0.04520    3.16040    2.75320    3.16580    2.69350  -10.06930 1528.99170    0.43380    0.35650   11.03540    0.04520    2.75320    3.16580    2.69350  363.21370    2.08110    0.36780    0.39170
 2850.00000   -2.07730   65.53680   65.53680    0.06860    3.56100    3.67110    4.16800    3.90360   -8.29530 1515.34160    0.36490    0.28670   11.43600    0.06860    3.67110    4.16800    3.90360  272.39790    2.19830    0.29920    0.32140
 2900.00000  -15.44410   52.47070   52.47070    0.04200    3.68890    5.86120    6.98350    5.68250  -21.02420 1557.02270    0.37100    0.29840   11.56390    0.04200    5.86120    6.98350    5.68250  170.61350    2.17870    0.31070    0.32760
 2950.00000  -13.12600   66.07080   66.07080    0.02050    3.35960    5.51280    6.05260    5.08870  -17.36480 1536.44240    0.37160    0.31500   11.23460    0.02050    5.51280    6.05260    5.08870  181.39600    2.15080    0.32700    0.32820
 3000.00000  -17.96520   52.06800   52.06800    0.01930    4.57110    8.57320   10.42250    9.66150  -20.86260 1514.04750    0.35780    0.34740   12.44610    0.01930    8.57320   10.42250    9.66150  116.64260    2.09640    0.35880    0.31430
 3050.00000  -12.81380   78.16230   78.16230    0.04160    2.57990    5.76170    6.67850    7.63590  -14.64460 1545.48450    0.37080    0.29990   10.45490    0.04160    5.76170    6.67850    7.63590  173.55990    2.17620    0.31220    0.32740
 3100.00000  -16.36750   58.54310   58.54310    0.01310    2.68690    7.01580    8.25730    7.29890  -17.91410 1562.87370    0.35410    0.30070   10.56190    0.01310    7.01580    8.25730    7.29890  142.53540    2.17480    0.31300    0.31050
 3150.00000  -10.48140   58.97460   58.97460    0.04110    4.60140    3.92310    4.21720    3.12800  -11.74370 1540.20260    0.32700    0.23800   12.47640    0.04110    3.92310    4.21720    3.12800  254.90050    2.28020    0.25140    0.28320
 3200.00000   -4.60370   63.17120   63.17120    0.06510    3.20750    3.29980    3.86830    5.21770   -5.58170 1593.86120    0.34680    0.16610   11.08250    0.06510    3.29980    3.86830    5.21770  303.04870    2.40100    0.18070    0.30310
 3250.00000  -21.99780   38.11730   38.11730    0.03080    3.35560   10.76050   13.52890   12.97680  -22.47400 1622.23800    0.34880    0.31850   11.23060    0.03080   10.76050   13.52890   12.97680   92.93250    2.14490    0.33050    0.30520
 3300.00000  -23.27080   38.55520   38.55520    0.02090    3.30110    9.70290   11.89930   11.51510  -23.74700 1619.25480    0.39590    0.32980   11.17610    0.02090    9.70290   11.89930   11.51510  103.06200    2.12590    0.34160    0.35290
 3350.00000   -3.56950   64.89600   64.89600    0.09060    2.24910    2.01280    2.41320    2.14210   -4.04570 1621.57520    0.42100    0.26560   10.12410    0.09060    2.01280    2.41320    2.14210  496.82030    2.23380    0.27850    0.37860
 3400.00000  -15.32070   46.36580   46.36580    0.02070    1.36020    6.72630    7.57920    8.28640  -16.20690 1641.22890    0.35530    0.34730    9.23520    0.02070    6.72630    7.57920    8.28640  148.67020    2.09650    0.35880    0.31170
 3450.00000  -18.83940   37.15630   37.15630    0.03970    2.21180    9.82050   12.55840   12.10880  -20.38700 1672.27830    0.32040    0.32890   10.08680    0.03970    9.82050   12.55840   12.10880  101.82780    2.12740    0.34070    0.27650
 3500.00000  -17.30610   47.64370   47.64370    0.00030    1.34650    9.19790    9.91150   10.45510  -19.10900 1666.45760    0.34960    0.29080    9.22150    0.00030    9.19790    9.91150   10.45510  108.72050    2.19150    0.30320    0.30600
 3550.00000  -19.83500   40.71890   40.71890   -0.00030    1.06620    9.51970   11.03190   11.53910  -21.41640 1680.51490    0.34350    0.32100    8.94120   -0.00030    9.51970   11.03190   11.53910  105.04530    2.14070    0.33290    0.29980
 3600.00000  -23.10820   35.26210   35.26210    0.01060    0.94810    9.95290   12.18320   13.38570  -24.34590 1675.48930    0.34690    0.32930    8.82310    0.01060    9.95290   12.18320   13.38570  100.47320    2.12680    0.34110    0.30320
 3650.00000  -17.09630   38.40080   38.40080    0.00210    0.41010    8.72080    7.10840   15.14210  -17.71820 1674.72020    0.32120    0.31390    8.28510    0.00210    8.72080    7.10840   15.14210  114.66840    2.15260    0.32590    0.27730
 3700.00000   -0.50620   78.23980   78.23980    0.09760    1.03270    2.54130    2.96320    3.01330   -0.51240 1739.63840    0.36760    0.21990    8.90770    0.09760    2.54130    2.96320    3.01330  393.49940    2.31060    0.23360    0.32420
 3750.00000   -4.08280   80.98620   80.98620    0.08360    1.15780    2.71470    3.06170    1.86290    0.24220 1747.35580    0.55320    0.48570    9.03280    0.08360    2.71470    3.06170    1.86290  368.36480    1.86400    0.49470    0.51150
 3800.00000  -15.72220   43.54710   43.54710   -0.00120   -0.07470   41.11650   61.47100  157.30980  -12.86510 1693.07390    0.11790    0.05620    7.80030   -0.00120   41.11650   61.47100  157.30980   24.32110    2.58560    0.07280    0.07570
 3850.00000  -12.78700   56.13550   56.13550    0.02480    0.50080    6.10380    7.19510    9.28860   -8.04150 1760.42480    0.32010    0.23340    8.37580    0.02480    6.10380    7.19510    9.28860  163.83240    2.28790    0.24680    0.27620
 3900.00000  -26.47620   38.74300   38.74300    0.02310    0.14170    9.95130   12.94360   13.65890  -21.76560 1778.30960    0.31670    0.30950    8.01670    0.02310    9.95130   12.94360   13.65890  100.48940    2.16000    0.32160    0.27280
 3950.00000   -2.29120   80.52060   80.52060    0.10120    0.51520    2.50020    2.83070    2.90490    3.35090 1755.53280    0.40870    0.25130    8.39020    0.10120    2.50020    2.83070    2.90490  399.96800    2.25780    0.26440    0.36600
 4000.00000  -22.99720   51.02530   51.02530    0.01400    0.12970   10.00730   11.72640   12.47070  -17.22830 1800.53140    0.31980    0.29760    8.00470    0.01400   10.00730   11.72640   12.47070   99.92700    2.18000    0.30990    0.27590
 4050.00000   -8.29860   86.81400   86.81400    0.09810    0.32140    3.01430    3.66810    3.90560   -1.48880 1811.61650    0.34800    0.20100    8.19640    0.09810    3.01430    3.66810    3.90560  331.75200    2.34230    0.21500    0.30430
