~Version ---------------------------------------------------
VERS.      2.0 : CWLS log ASCII Standard -VERSION 2.0
WRAP.      YES : Multiple lines per depth step
CREA. 07/19/18 : LAS Creation Date
~Well ------------------------------------------------------
STRT.FT                           4000.0 : START DEPTH
STOP.FT                          13600.0 : STOP DEPTH
STEP.FT                         50.00000 : STEP LENGTH
NULL.                            -999.25 : NULL VALUE
COMP. TEXSTAR NORTH AMERICA INCORPORATED : COMPANY
WELL.                         HOMEYER #2 : WELL
FLD .                     CENTRAL KENEDY : FIELD
LOC .                                    : LOCATION
CNTY.                             KARNES : COUNTY
STAT.                              TEXAS : STATE
CTRY.           UNITED STATES OF AMERICA : COUNTRY
SRVC.                       Schlumberger : SERVICE COMPANY
DATE.                        30-Mar-1990 : LOGDATE
API .                     42255312470000 : API NUMBER
UWI .                     42255312470000 : UNIQUE WELL ID
SLAT.WGS84                 28.7726896993 : SURFACE LATITUDE
SLON.WGS84                -97.8709093626 : SURFACE LONGITUDE
~Curve Information -----------------------------------------
DEPT    .FT    : DEPTH FEET
CALWS   .IN    : CALIPER [DCALDED+BIT]
CONDWS  .MMHO  : DEEP CONDUCTIVITY [1000/DRESWS]
DCALDED .IN    : DIFFERENTIAL CALIPER FROM DENSITY LOG
DCORWS  .G/C3  : DENSITY CORRECTION [DRHOED]
DENWS   .G/C3  : BULK DENSITY [TOP CALC. DPHISSED M=2.68 F=1.0, 12400' DPHISSED M=2.71 F=1.0]]
DPHILSED.V/V   : DENSITY POROSITY (LS) [M=2.71 F=1.0] FROM DENSITY LOG
DPHISSED.V/V   : DENSITY POROSITY (SS) [M=2.68 F=1.0] FROM DENSITY LOG
DPOLSWS .V/V   : DENSITY POROSITY LIMESTONE [M=2.71 F=1.0] [CALC. FROM DENWS]
DRESWS  .OHMM  : DEEP RESISTIVITY [ILDED]
DRHOED  .G/C3  : DENSITY CORRECTION FROM DENSITY LOG
DTED    .US/F  : DELTA TIME FROM DIL/SONIC LOG
DTLED   .US/F  : DELTA TIME LONG SPACING FROM DIL/SONIC LOG
DTWS    .US/F  : DELTA TIME COMPRESSIONAL [DTED]
GRDED   .GAPI  : GAMMA RAY FROM DENSITY LOG
GRRED   .GAPI  : GAMMA RAY FROM RESISTIVITY LOG
GRWS    .GAPI  : GAMMA RAY [TOP GRDED 6100' GRRED 13560' GRDED]
ILDED   .OHMM  : INDUCTION LOG DEEP RESISTIVITY
ILMED   .OHMM  : INDUCTION LOG MEDIUM RESISTIVITY
MRESWS  .OHMM  : MEDIUM RESISTIVITY [ILMED]
NPHILSED.V/V   : NEUTRON POROSITY LIMESTONE FROM DENSITY LOG
NPHISSED.V/V   : NEUTRON POROSITY SANDSTONE FROM DENSITY LOG
NPOLSWS .V/V   : NEUTRON POROSITY LIMESTONE [TOP CONVERSED NPHISSED TO LIME FROM POWER LOG; 12400' NPHILSED]
PEFED   .B/E   : PHOTOELECTRIC FACTOR FROM DENSITY LOG
PEFWS   .B/E   : PHOTOELECTRIC FACTOR [PEFED]
SFLUED  .OHMM  : SPHERICALLY FOCUSED LOG RESISTIVITY
SPHILSED.V/V   : SONIC POROSITY (LS) [DTM=49 DTF=189] FROM DIL/SONIC LOG
SPHISSED.V/V   : SONIC POROSITY (SS) [DTM=55.6 DTF=189] FROM DIL/SONIC LOG
SPOLSWS .V/V   : SONIC POROSITY (LS) [DTM=49 DTF=189] [CALC. FROM DTWS]
SPRED   .MV    : SPONTANEOUS POTENTIAL FROM RESISTIVITY LOG
SPWS    .MV    : SPONTANEOUS POTENTIAL [BASELINE 0 MV] [SPRED]
SRESWS  .OHMM  : SHALLOW RESISTIVITY [SFLUED]
TENDED  .LBF   : TENSION FROM DENSITY LOG
TENRED  .LBF   : TENSION FROM RESISTIVITY LOG
~Params ----------------------------------------------------
PD  .                     GL : PERMANENT DATUM
EPD .FT                  455 : ELEVATION PERMANENT DATUM
LMF .                     KB : LOG MEASURED FROM
DAPD.FT                   23 : MEASUREMENT ABOVE PERMANENT DATUM
DMF .                     KB : DRILLING MEASURED FROM
EKB .FT                  478 : KELLY BUSHING
EDF .FT                  477 : DRILLING FLOOR
EGL .FT                  455 : GROUND LEVEL
DATE.               03/30/90 : RUN DATE
RUN .                      1 : RUN NUMBER
DD  .FT                13600 : DEPTH DRILLER
DL  .FT                13608 : DEPTH LOGGER
BLI .FT                13602 : BOTTOM LOG INTERVAL
TLI .FT                 3954 : TOP LOG INTERVAL
CS  .IN                9.625 : CASING SIZE
CBD .FT                 3950 : CASING BOTTOM DRILLER
CBL .FT                 3954 : CASING BOTTOM LOGGER
BS  .IN                  8.5 : BIT SIZE
BSD .FT                13600 : BIT SIZE AT DEPTH
DFT .               KCL KLIG : DRILLING FLUID TYPE
DFD .                   10.7 : DRILLING FLUID DENSITY
DFV .                     41 : DRILLING FLUID VISCOSITY
DFPH.                   11.5 : DRILLING FLUID PH
DFL .                    9.4 : DRILLING FLUID LOSS
MSS .               CIRC PIT : MUD SAMPLE SOURCE
RMS .OHMM               0.63 : RESISTIVITY MUD SAMPLE
MST .DEGF                 75 : MUD SAMPLE TEMPERATURE
RMF .OHMM               0.55 : RESISTIVITY MUD FILTRATE SAMPLE
MFST.DEGF                 75 : MUD FILTRATE SAMPLE TEMPERATURE
RMC .OHMM               0.95 : RESISTIVITY MUD CAKE
MCST.DEGF                 75 : MUD CAKE SAMPLE TEMPERATURE
MFSS.                   MEAS : MUD FILTRATE SAMPLE SOURCE
MCSS.                   CALC : MUD CAKE SAMPLE SOURCE
RMB .OHMM              0.167 : RESISTIVITY MUD AT BHT
TCS .HRS                1530 : TIME CIRCULATED STOPPED
TLAB.HRS                  50 : TIME LOGGER AT BOTTOM
LUN .                   8268 : LOGGING UNIT NUMBER
LUL .             PLEASANTON : LOGGING UNIT LOCATION
ENGI.                 WILKIE : RECORDING ENGINEER
WITN.         REQUARTH GIBBS : WITNESSED BY
CLNT.                A2DTECH : CLIENT CODE
ORIG.            1" 5" PRINT : ORIGIN OF DATA
UWI .         42255312470000 : UNIQUE WELL ID
DICO. A2D Technologies, Inc. : DIGITIZING COMPANY
~Other -----------------------------------------------------
GRR SATURATED AT 5988'.
~ASCII -----------------------------------------------------
# ...
 10600.00000    -999.25  492.12600    -999.25    -999.25    -999.25    -999.25    -999.25    -999.25    2.03200    -999.25   86.04850   86.48600   86.04850    -999.25   89.84130   89.84130    2.03200    2.09880    2.09880    -999.25    -999.25    -999.25    -999.25    -999.25    2.39670    -999.25    0.22250    0.26460  -10.01230   -2.67980    2.39670    -999.25 3595.68970
 10650.00000    -999.25  384.09830    -999.25    -999.25    -999.25    -999.25    -999.25    -999.25    2.60350    -999.25   82.54270   82.98010   82.54270    -999.25   89.08370   89.08370    2.60350    2.68910    2.68910    -999.25    -999.25    -999.25    -999.25    -999.25    3.16120    -999.25    0.20450    0.23960  -11.64860   -4.21200    3.16120    -999.25 3597.52710
 10700.00000    -999.25  517.46440    -999.25    -999.25    -999.25    -999.25    -999.25    -999.25    1.93250    -999.25   86.95710   87.39450   86.95710    -999.25  101.18190  101.18190    1.93250    1.99610    1.99610    -999.25    -999.25    -999.25    -999.25    -999.25    2.46410    -999.25    0.22660    0.27110  -11.36860   -3.82800    2.46410    -999.25 3598.47220
 10750.00000    -999.25  465.15950    -999.25    -999.25    -999.25    -999.25    -999.25    -999.25    2.14980    -999.25   86.21820   86.67330   86.21820    -999.25   87.01820   87.01820    2.14980    2.22050    2.22050    -999.25    -999.25    -999.25    -999.25    -999.25    2.62150    -999.25    0.22110    0.26580  -10.99640   -3.35180    2.62150    -999.25 3630.08590
 10800.00000    -999.25  507.09940    -999.25    -999.25    -999.25    -999.25    -999.25    -999.25    1.97200    -999.25   87.93390   88.40700   87.93390    -999.25   99.31140   99.31140    1.97200    2.03690    2.03690    -999.25    -999.25    -999.25    -999.25    -999.25    2.43840    -999.25    0.22960    0.27810  -11.62010   -3.87140    2.43840    -999.25 3633.49050
 10850.00000    -999.25  520.67060    -999.25    -999.25    -999.25    -999.25    -999.25    -999.25    1.92060    -999.25   87.82590   87.41370   87.82590    -999.25   84.38250   84.38250    1.92060    1.82250    1.82250    -999.25    -999.25    -999.25    -999.25    -999.25    1.95400    -999.25    0.22830    0.27730  -11.01130   -3.15860    1.95400    -999.25 3675.81670
 10900.00000    -999.25  574.91090    -999.25    -999.25    -999.25    -999.25    -999.25    -999.25    1.73940    -999.25   89.47280   85.63410   89.47280    -999.25   83.18660   83.18660    1.73940    1.79660    1.79660    -999.25    -999.25    -999.25    -999.25    -999.25    1.86760    -999.25    0.23610    0.28910  -10.01890   -2.06220    1.86760    -999.25 3664.79590
 10950.00000    -999.25  343.65440    -999.25    -999.25    -999.25    -999.25    -999.25    -999.25    2.90990    -999.25   78.32770   78.67320   78.32770    -999.25   59.59600   59.59600    2.90990    3.00560    3.00560    -999.25    -999.25    -999.25    -999.25    -999.25    3.33430    -999.25    0.17960    0.20950  -11.58270   -3.52200    3.33430    -999.25 3672.01200
 11000.00000    -999.25  403.20950    -999.25    -999.25    -999.25    -999.25    -999.25    -999.25    2.48010    -999.25   83.36170   84.00610   83.36170    -999.25   71.52950   71.52950    2.48010    2.57470    2.57470    -999.25    -999.25    -999.25    -999.25    -999.25    3.01860    -999.25    0.20730    0.24540  -12.78430   -4.61950    3.01860    -999.25 3674.65630
 11050.00000    -999.25  459.81240    -999.25    -999.25    -999.25    -999.25    -999.25    -999.25    2.17480    -999.25   86.68560   86.70010   86.68560    -999.25   90.10850   90.10850    2.17480    2.33770    2.33770    -999.25    -999.25    -999.25    -999.25    -999.25    2.79120    -999.25    0.22300    0.26920  -12.18260   -3.91380    2.79120    -999.25 3669.99240
 11100.00000    -999.25  436.87200    -999.25    -999.25    -999.25    -999.25    -999.25    -999.25    2.28900    -999.25   82.27920   82.54680   82.27920    -999.25   74.84210   74.84210    2.28900    2.45450    2.45450    -999.25    -999.25    -999.25    -999.25    -999.25    3.00160    -999.25    0.20230    0.23770  -12.72430   -4.35150    3.00160    -999.25 3719.66360
 11150.00000    -999.25  611.54600    -999.25    -999.25    -999.25    -999.25    -999.25    -999.25    1.63520    -999.25   90.86660   91.38670   90.86660    -999.25   86.50310   86.50310    1.63520    1.69430    1.69430    -999.25    -999.25    -999.25    -999.25    -999.25    1.99550    -999.25    0.24060    0.29900  -13.10830   -4.63140    1.99550    -999.25 3733.66410
 11200.00000    -999.25  558.69040    -999.25    -999.25    -999.25    -999.25    -999.25    -999.25    1.78990    -999.25   91.08860   91.52170   91.08860    -999.25   85.72650   85.72650    1.78990    1.84870    1.84870    -999.25    -999.25    -999.25    -999.25    -999.25    2.00350    -999.25    0.24480    0.30060  -12.76060   -4.17970    2.00350    -999.25 3757.10550
 11250.00000    -999.25  497.73530    -999.25    -999.25    -999.25    -999.25    -999.25    -999.25    2.00910    -999.25   87.73510   88.16820   87.73510    -999.25   81.31470   81.31470    2.00910    2.18060    2.18060    -999.25    -999.25    -999.25    -999.25    -999.25    2.24480    -999.25    0.22640    0.27670  -12.16440   -3.47950    2.24480    -999.25 3730.22270
 11300.00000    -999.25  449.51900    -999.25    -999.25    -999.25    -999.25    -999.25    -999.25    2.22460    -999.25   84.15850   84.59160   84.15850    -999.25   80.66330   80.66330    2.22460    2.36500    2.36500    -999.25    -999.25    -999.25    -999.25    -999.25    2.82170    -999.25    0.21160    0.25110  -12.38100   -3.59200    2.82170    -999.25 3751.87380
 11350.00000    -999.25  414.42190    -999.25    -999.25    -999.25    -999.25    -999.25    -999.25    2.41300    -999.25   83.81610   84.24910   83.81610    -999.25   72.25700   72.25700    2.41300    2.49240    2.49240    -999.25    -999.25    -999.25    -999.25    -999.25    2.91690    -999.25    0.21030    0.24870  -13.59480   -4.70180    2.91690    -999.25 3821.36890
 11400.00000    -999.25  420.25640    -999.25    -999.25    -999.25    -999.25    -999.25    -999.25    2.37950    -999.25   85.02850   85.46150   85.02850    -999.25   75.85640   75.85640    2.37950    2.45780    2.45780    -999.25    -999.25    -999.25    -999.25    -999.25    2.80480    -999.25    0.21710    0.25730  -14.05630   -5.05930    2.80480    -999.25 3796.98270
 11450.00000    -999.25  241.75610    -999.25    -999.25    -999.25    -999.25    -999.25    -999.25    4.13640    -999.25   71.90600   73.48820   71.90600    -999.25   69.02850   69.02850    4.13640    4.27240    4.27240    -999.25    -999.25    -999.25    -999.25    -999.25    5.02190    -999.25    0.13930    0.16360  -13.36010   -4.25910    5.02190    -999.25 3800.70360
 11500.00000    -999.25  286.54120    -999.25    -999.25    -999.25    -999.25    -999.25    -999.25    3.48990    -999.25   76.02090   76.72880   76.02090    -999.25   73.59790   73.59790    3.48990    3.40620    3.40620    -999.25    -999.25    -999.25    -999.25    -999.25    3.53120    -999.25    0.16680    0.19300  -13.56790   -4.36280    3.53120    -999.25 3821.21410
 11550.00000    -999.25  361.71600    -999.25    -999.25    -999.25    -999.25    -999.25    -999.25    2.76460    -999.25   78.90870   79.34180   78.90870    -999.25   83.64450   83.64450    2.76460    2.90190    2.90190    -999.25    -999.25    -999.25    -999.25    -999.25    3.02800    -999.25    0.18430    0.21360  -12.46180   -3.15270    3.02800    -999.25 3835.49510
 11600.00000    -999.25  305.32490    -999.25    -999.25    -999.25    -999.25    -999.25    -999.25    3.27520    -999.25   74.70740   75.14030   74.70740    -999.25   65.48880   65.48880    3.27520    3.40200    3.40200    -999.25    -999.25    -999.25    -999.25    -999.25    3.69910    -999.25    0.15850    0.18360  -12.80020   -3.38710    3.69910    -999.25 3849.73610
 11650.00000    -999.25  429.03720    -999.25    -999.25    -999.25    -999.25    -999.25    -999.25    2.33080    -999.25   84.03500   84.46810   84.03500    -999.25   86.70630   86.70630    2.33080    2.40740    2.40740    -999.25    -999.25    -999.25    -999.25    -999.25    2.60640    -999.25    0.21220    0.25020  -13.63540   -4.11820    2.60640    -999.25 3854.27830
