~Version ---------------------------------------------------
VERS. 2.0 : CWLS log ASCII Standard -VERSION 2.0
WRAP.  NO : ONE LINE PER DEPTH STEP
~Well ------------------------------------------------------
STRT.F                    500.0 : START DEPTH
STOP.F                   4650.0 : STOP DEPTH
STEP.F                 50.00000 : STEP LENGTH
NULL.                   -999.25 : NULL VALUE
COMP. PRAIRIE PRODUCING COMPANY : COMPANY
WELL.       HENSLEY T. HURTS #1 : WELL
FLD .                        WC : FIELD
LOC .                           : LOCATION
CNTY.                  GONZALES : COUNTY
STAT.                     TEXAS : STATE
CTRY.  UNITED STATES OF AMERICA : COUNTRY
SRVC.              Schlumberger : SERVICE COMPANY
DATE.               20-Aug-1976 : LOGDATE
API .            42177301620000 : API NUMBER
UWI .            42177301620000 : UNIQUE WELL ID
SLAT.WGS84           29.3870974 : SURFACE LATITUDE
SLON.WGS84          -97.8021181 : SURFACE LONGITUDE
~Curve Information -----------------------------------------
DEPT   .F    0   1   0  0 : 1 MEASURED DEPTH
LL8    .OHMM 07 220 08 00 : LATEROLOG 8
ILD    .OHMM 07 120 46 00 : INDUCTION DEEP RESISTIVITY
ILM    .OHMM 07 120 44 00 : INDUCTION MEDIUM RESISTIVITY
SPR    .MV   07 010 01 00 : SPONTANEOUS POTENTIAL FROM RESISTIVITY LOG
NPHI_SS.DEC  42 890 03 00 : NEUTRON POROSITY SANDSTONE
DPHI_SS.DEC  45 890 12 00 : DENSITY POROSITY SANDSTONE
NPHI_LS.DEC  42 890 01 00 : NEUTRON POROSITY LIMESTONE
DPHI_LS.DEC  45 890 10 00 : DENSITY POROSITY LIMESTONE
GRD    .GAPI 45 310 01 00 : GAMMA RAY FROM DENSITY LOG
CORR   .G/C3 45 356 01 00 : DENSITY CORRECTION
CALD   .IN   45 280 60 00 : CALIPER FROM DENSITY LOG
RHOB   .G/C3 45 350 01 00 : BULK DENSITY
~Params ----------------------------------------------------
PD  .                     GL : PERMANENT DATUM
EPD .FT                  448 : ELEVATION PERMANENT DATUM
LMF .                     KB : LOG MEASURED FROM
DAPD.FT                   12 : FEET ABOVE PERMANENT DATUM
DMF .                     KB : DRILLING MEASURED FROM
EKB .FT                  460 : KELLY BUSHING
EDF .FT                  458 : DRILLING FLOOR
EGL .FT                  448 : GROUND LEVEL
DATE.               08/20/76 : RUN DATE
RUN .                      1 : RUN NUMBER
DD  .FT                 4690 : DEPTH DRILLER
DL  .FT                 4692 : DEPTH LOGGER
BLI .FT                 4686 : BOTTOM LOG INTERVAL
TLI .FT                  526 : TOP LOG INTERVAL
CS  .IN                8.625 : CASING SIZE
CBD .FT                  518 : CASING BOTTOM DRILLER
CBL .FT                  526 : CASING BOTTOM LOGGER
BS  .IN                7.875 : BIT SIZE
BSD .FT                 4690 : BIT SIZE AT DEPTH
DFT .                  LO PH : DRILLING FLUID TYPE
DFD .                    9.6 : DRILLING FLUID DENSITY
DFV .                     40 : DRILLING FLUID VISCOSITY
DFPH.                     10 : DRILLING FLUID PH
DFL .                    5.4 : DRILLING FLUID LOSS
MSS .               FLOWLINE : MUD SAMPLE SOURCE
RMS .OHMM               1.07 : RESISTIVITY MUD SAMPLE
MST .DEGF                 86 : MUD SAMPLE TEMPERATURE
RMF .OHMM               1.11 : RESISTIVITY MUD FILTRATE SAMPLE
MFST.DEGF                 74 : MUD FILTRATE SAMPLE TEMPERATURE
RMC .OHMM               0.95 : RESISTIVITY MUD CAKE
MCST.DEGF                 86 : MUD CAKE SAMPLE TEMPERATURE
MFSS.                   MEAS : MUD FILTRATE SAMPLE SOURCE
MCSS.                  CHART : MUD CAKE SAMPLE SOURCE
RMB .OHMM               0.68 : RESISTIVITY MUD AT BHT
TCS .HRS                   4 : TIME CIRCULATED STOPPED
LUN .                   7694 : LOGGING UNIT NUMBER
LUL .                  PLEAS : LOGGING UNIT LOCATION
ENGI.               BREVETTI : RECORDING ENGINEER
WITN.       SMITH ALLBRITTON : WITNESSED BY
CLNT.                A2DTECH : CLIENT CODE
ORIG.        2" 5" 25" PRINT : ORIGIN OF DATA
UWI .         42177301620000 : UNIQUE WELL ID
DICO. A2D Technologies, Inc. : DIGITIZING COMPANY
~Other -----------------------------------------------------
~ASCII -----------------------------------------------------
  500.00000    -999.25    -999.25    -999.25    -999.25    0.48100    -999.25    -999.25    -999.25   32.30040    -999.25    -999.25    -999.25
  550.00000   53.87540   76.74110   36.82430  -28.43330    0.43340    0.36770    -999.25    -999.25   35.79380    0.08370   10.99890    2.06130
  600.00000   51.93770  104.44970   38.94630  -24.24460    0.51930    0.36410    -999.25    -999.25   37.48410    0.16290   13.49440    2.05430
  650.00000   13.09270   12.39640   11.38030  -46.35200    0.52110    0.20090    -999.25    -999.25   93.21540    0.08080   11.66180    2.29690
  700.00000   51.36150   96.83900   44.24110  -22.11990    0.42210    0.35120    -999.25    -999.25   44.38460    0.01520   13.72120    2.08110
  750.00000   65.79610  106.68460   49.70750  -19.94090    0.42300    0.33960    -999.25    -999.25   43.59590    0.03080   10.71330    2.08850
  800.00000   78.52830  124.03570   53.38630  -20.70760    0.45440    0.37720    -999.25    -999.25   48.89930    0.04630   11.54930    2.04550
  850.00000   99.57940  157.33450   63.95490  -23.20300    0.44190    0.33490    -999.25    -999.25   46.76720    0.14490   11.62900    2.09050
  900.00000   48.63980   57.75730   39.59230  -17.98590    0.50290    0.39300    -999.25    -999.25   63.01270    0.13100    9.15260    2.01680
  950.00000   20.20560   21.05010   18.86060  -26.08630    0.47770    0.31790    -999.25    -999.25   71.59980    0.11600    8.96730    2.09040
 1000.00000    7.93290    7.53740    6.99140  -14.64550    0.46280    0.23870    -999.25    -999.25   93.10760    0.11570    8.56940    2.25240
 1050.00000    8.39030    7.05950    6.79340   -7.63210    0.51120    0.30810    -999.25    -999.25   86.75960    0.02220    7.93670    2.13900
 1100.00000   14.55510   11.09770   10.83800  -15.30930    0.45700    0.31350    -999.25    -999.25   69.95050    0.06480    7.99890    2.13010
 1150.00000   18.59750   15.38910   15.40990  -15.26730    0.46150    0.36960    -999.25    -999.25   64.73770    0.03340    7.99200    2.03500
 1200.00000    7.75820    6.72200    6.36540  -15.67780    0.53130    0.28610    -999.25    -999.25   87.58910    0.11590    8.01770    2.15590
 1250.00000    6.80640    5.24940    5.00150  -17.29100    0.53790    0.28230    -999.25    -999.25   91.61300    0.09580    8.26540    2.20400
 1300.00000   17.61630   14.58300   15.15150  -16.49390    0.42850    0.35030    -999.25    -999.25   53.17680    0.08460    7.93850    2.11820
 1350.00000   11.21950    8.91340    8.43420  -17.20270    0.43100    0.25330    -999.25    -999.25   79.73060    0.04560    7.88670    2.34310
 1400.00000   11.31190    8.81530    9.13800  -19.39130    0.46080    0.31460    -999.25    -999.25   84.10020    0.06070    7.96550    2.11800
 1450.00000   12.49780   11.77940   12.05860  -18.80470    0.43840    0.31030    -999.25    -999.25   63.29220    0.06370    7.88750    2.12080
 1500.00000    7.99290    6.91310    7.12260  -21.14560    0.46360    0.25010    -999.25    -999.25   86.92260    0.07580    8.19680    2.22710
 1550.00000    5.30020    3.56730    3.62850  -17.74590    0.45840    0.23710    -999.25    -999.25   91.61950    0.04970    8.08980    2.23480
 1600.00000   15.49260   13.08830   14.29410  -20.50940    0.45790    0.33700    -999.25    -999.25   79.77390    0.06110    7.85170    2.04900
 1650.00000   18.74990   17.46130   18.05340  -20.84010    0.44110    0.33710    -999.25    -999.25   58.01610    0.08500    7.79080    2.09610
 1700.00000    8.78150    5.25250    5.55450  -22.85980    0.56720    0.45260    -999.25    -999.25   72.94680    0.02990    7.95570    2.03190
 1750.00000   19.02880   17.76220   18.67310  -22.58680    0.43390    0.35550    -999.25    -999.25   50.25670    0.04470    7.78920    2.03210
 1800.00000    3.29040    2.35440    2.47510  -20.25830    0.54160    0.31800    -999.25    -999.25   86.36800    0.05080    8.45950    2.12830
 1850.00000    3.03470    2.12060    2.01780  -18.75070    0.54630    0.29210    -999.25    -999.25   95.85500    0.07070    8.24870    2.15920
 1900.00000    5.13880    3.18210    3.31380  -24.17710    0.53110    0.28680    -999.25    -999.25   91.95080    0.09180    8.43610    2.17610
 1950.00000   14.94010   15.31790   15.83120  -24.97140    0.38300    0.28860    -999.25    -999.25   48.36260    0.08240    7.91600    2.12910
 2000.00000    5.72210    4.28860    4.60850  -21.44490    0.46360    0.20570    -999.25    -999.25   80.93840    0.06010    8.76770    2.29180
 2050.00000   13.76120    9.97040   12.77600  -23.65320    0.43250    0.30460    -999.25    -999.25   65.19080    0.07450    7.92160    2.12370
 2100.00000    7.91650    7.25740    7.37690  -27.52770    0.40690    0.31490    -999.25    -999.25   55.11660    0.04370    8.24540    2.15250
 2150.00000   13.79710   12.77710   13.29270  -25.24060    0.44720    0.32700    -999.25    -999.25   63.54620    0.02140    7.96000    2.10920
 2200.00000   10.81400    9.44910    9.79990  -28.27960    0.44170    0.31980    -999.25    -999.25   76.05540    0.06200    7.94380    2.12730
 2250.00000    4.68390    3.56050    3.70150  -25.46600    0.46720    0.29330    -999.25    -999.25   99.99370    0.08170    7.81320    2.18920
 2300.00000    4.13340    3.32980    3.46940  -20.70250    0.46450    0.22980    -999.25    -999.25  107.15010    0.11390    8.90400    2.26000
 2350.00000    3.97700    3.25160    3.35400  -19.86320    0.42910    0.20490    -999.25    -999.25   94.13230    0.12480    7.99170    2.31420
 2400.00000    5.26350    3.19200    3.31960  -26.73410    0.42400    0.19150    -999.25    -999.25  104.42860    0.12230    7.93060    2.31340
 2450.00000    3.76000    2.93020    3.01700  -20.65210    0.41980    0.23820    -999.25    -999.25   95.10020    0.18840    7.94860    2.26470
 2500.00000    4.09950    2.85060    2.94680  -26.59240    0.42780    0.21540    -999.25    -999.25   78.23400    0.08220    8.15210    2.28950
 2550.00000    3.44050    2.52240    2.59660  -22.93670    0.43390    0.20240    -999.25    -999.25   95.04670    0.13520    8.77710    2.30910
 2600.00000    2.84930    2.21900    2.31310  -20.74440    0.35650    0.18260    -999.25    -999.25   87.83970    0.09690    9.48590    2.35010
 2650.00000    2.66510    1.94820    2.00470  -20.75160    0.53220    -999.25    -999.25    -999.25    -999.25    -999.25    -999.25    -999.25
 2700.00000    2.38290    1.64410    1.69140  -21.66310    -999.25    -999.25    -999.25    -999.25    -999.25    -999.25    -999.25    -999.25
 2750.00000    2.38540    1.63240    1.67980  -20.36590    -999.25    -999.25    -999.25    -999.25    -999.25    -999.25    -999.25    -999.25
 2800.00000    2.15600    1.45320    1.49510  -21.68360    -999.25    -999.25    -999.25    -999.25    -999.25    -999.25    -999.25    -999.25
 2850.00000    2.68040    1.84680    1.90590  -22.20740    -999.25    -999.25    -999.25    -999.25    -999.25    -999.25    -999.25    -999.25
 2900.00000    1.94050    1.29540    1.33480  -22.48160    -999.25    -999.25    -999.25    -999.25    -999.25    -999.25    -999.25    -999.25
 2950.00000    1.52960    0.95800    0.98560  -18.30130    0.51210    0.25110    -999.25    -999.25   93.60990    0.09070    8.39600    2.23230
 3000.00000    3.61260    2.90410    2.98780  -21.18810    0.33200    0.16470    -999.25    -999.25   83.39630    0.05790    8.12510    2.37120
 3050.00000    3.23650    2.42870    2.53440  -17.44050    0.36210    0.16560    -999.25    -999.25   83.31770    0.04740    8.48360    2.36180
 3100.00000    3.04470    2.11090    2.18430  -24.65680    0.39750    0.16810    -999.25    -999.25   78.55080    0.21020    8.33310    2.37540
 3150.00000    3.12650    2.14720    2.29790  -19.84350    0.33090    0.16870    -999.25    -999.25   64.13550    0.11750    8.82430    2.33330
 3200.00000    2.79180    1.99570    2.05510  -22.89560    0.42110    0.19660    -999.25    -999.25   80.76590    0.14370    9.39740    2.33210
 3250.00000    2.29310    1.65520    1.70970  -20.33320    0.43160    0.17370    -999.25    -999.25   87.59020    0.12800    9.11760    2.35870
