~Version ---------------------------------------------------
VERS. 2.0 : CWLS log ASCII Standard -VERSION 2.0
WRAP. YES : Multiple lines per depth step
~Well ------------------------------------------------------
STRT.FT                 3750.0 : START DEPTH
STOP.FT                15800.0 : STOP DEPTH
STEP.FT               50.00000 : STEP LENGTH
NULL.                  -999.25 : NULL VALUE
COMP.        EOG RESOURCES INC : COMPANY
WELL.         JOHNSON A B  #1R : WELL
FLD .             BRANTON WEST : FIELD
LOC .                          : LOCATION
CNTY.                     LEON : COUNTY
STAT.                    TEXAS : STATE
CTRY. UNITED STATES OF AMERICA : COUNTRY
SRVC.             Schlumberger : SERVICE COMPANY
DATE.              24-Sep-2006 : LOGDATE
API .           42289315440000 : API NUMBER
UWI .           42289315440000 : UNIQUE WELL ID
SLAT.WGS84       31.3479375148 : SURFACE LATITUDE
SLON.WGS84      -96.2310147208 : SURFACE LONGITUDE
~Curve Information -----------------------------------------
DEPT    .FT        : DEPTH FEET
AT10ED  .OHMM      : 10 INCH RESISTIVITY TWO FOOT RESOLUTION FROM AIT LOG
AT20ED  .OHMM      : 20 INCH RESISTIVITY TWO FOOT RESOLUTION FROM AIT LOG
AT30ED  .OHMM      : 30 INCH RESISTIVITY TWO FOOT RESOLUTION FROM AIT LOG
AT60ED  .OHMM      : 60 INCH RESISTIVITY TWO FOOT RESOLUTION FROM AIT LOG
AT90ED  .OHMM      : 90 INCH RESISTIVITY TWO FOOT RESOLUTION FROM AIT LOG
CALWS   .IN        : CALIPER [DCALED+BITS]
CONDWS  .MMHO      : CONDUCTIVITY [1000/DRESWS]
DCALED  .IN        : DIFFERENTIAL CALIPER FROM AIT LOG
DCORWS  .G/C3      : DENSITY CORRECTION [HDRAED]
DENWS   .G/C3      : FORMATION BULK DENSITY [CALC FROM DPOWS, M=2.71,F=1.0]
DPHZLSED.V/V       : DENSITY POROSITY LIMESTONE [M=2.71, F=1.0] FROM DENSITY LOG
DPOWS   .V/V       : DENSITY POROSITY LIMESTONE [DPHZLSED]
DRESWS  .OHMM      : DEEP RESISTIVITY [AT90ED]
DTED    .US/F      : DELTA-T FROM SONIC LOG
GRED    .GAPI      : GAMMA RAY FROM CBL LOG [ADJ.TO AIT LOG <13840> SONIC LOG]
GRRED   .GAPI      : GAMMA RAY FROM AIT LOG
GRSED   .GAPI      : GAMMA RAY FROM SONIC LOG
GRTED   .GAPI      : THORIUM GAMMA RAY FROM RST LOG [ADJ.TO SONIC LOG]
GRWS    .GAPI      : GAMMA RAY [GRRED SPL.TO GRED 13840' TO TD.]
HDRAED  .G/C3      : DENSITY CORRECTION FROM DENSITY LOG
MRESWS  .OHMM      : MEDIUM RESISTIVITY [AT30ED]
NPHILSED.V/V       : NEUTRON POROSITY LIMESTONE FROM DENSITY LOG
NPOWS   .V/V       : NEUTRON POROSITY LIMESTONE [NPHILSED]
PEFWS   .B/E       : PHOTOELECTRIC FACTOR [PEFZED]
PEFZED  .B/E       : PHOTOELECTRIC FACTOR FROM DENSITY LOG
RATIOED .UNITLESS  : RATIO FROM RST LOG [ADJ.TO SONIC LOG]
SIGMED  .CU        : NEUTRON CAPTURE CROSS SECTION FROM RST LOG [ADJ.TO SONIC LOG]
SPHIED  .V/V       : SONIC POROSITY [DTM=47.6, DTF=189] FROM SONIC LOG
SPRED   .MV        : SPONTANEOUS POTENTIAL FROM AIT LOG
SPWS    .MV        : SPONTANEOUS POTENTIAL [BASELINE 0 MV,SPRED]
SRESWS  .OHMM      : SHALLOW RESISTIVITY [AT10ED]
TENRED  .LBF       : TENSION FROM AIT LOG
TENSED  .LBF       : TENSION FROM SONIC LOG
TPHILSED.V/V       : THERMAL POROSITY LIMESTONE FROM RST LOG [ADJ.TO SONIC LOG]
~Params ----------------------------------------------------
PD  .                     GL : PERMANENT DATUM
EPD .FT                  449 : ELEVATION PERMANENT DATUM
LMF .                     KB : LOG MEASURED FROM
DAPD.FT                   27 : FEET ABOVE PERMANENT DATUM
DMF .                     KB : DRILLING MEASURED FROM
EKB .FT                  476 : KELLY BUSHING
EDF .FT                  475 : DRILLING FLOOR
EGL .FT                  449 : GROUND LEVEL
DATE.               09/24/06 : RUN DATE
RUN .                      1 : RUN NUMBER
DD  .FT                13864 : DEPTH DRILLER
DL  .FT                13877 : DEPTH LOGGER
BLI .FT                13869 : BOTTOM LOG INTERVAL
TLI .FT                 3829 : TOP LOG INTERVAL
CS  .IN                10.75 : CASING SIZE
CBD .FT                 3825 : CASING BOTTOM DRILLER
CBL .FT                 3829 : CASING BOTTOM LOGGER
BS  .IN                9.875 : BIT SIZE
BSD .FT                13864 : BIT SIZE AT DEPTH
DFT .  WATER BASED DISPERSED : DRILLING FLUID TYPE
DFD .                   11.6 : DRILLING FLUID DENSITY
DFV .                     42 : DRILLING FLUID VISCOSITY
DFPH.                   10.2 : DRILLING FLUID PH
DFL .                     16 : DRILLING FLUID LOSS
MSS .       CIRCULATION TANK : MUD SAMPLE SOURCE
RMS .OHMM              0.873 : RESISTIVITY MUD SAMPLE
MST .DEGF                 82 : MUD SAMPLE TEMPERATURE
RMF .OHMM              0.698 : RESISTIVITY MUD FILTRATE SAMPLE
MFST.DEGF                 82 : MUD FILTRATE SAMPLE TEMPERATURE
RMC .OHMM              1.048 : RESISTIVITY MUD CAKE
MCST.DEGF                 82 : MUD CAKE SAMPLE TEMPERATURE
MFSS.             CALCULATED : MUD FILTRATE SAMPLE SOURCE
MCSS.             CALCULATED : MUD CAKE SAMPLE SOURCE
RMB .OHMM              0.251 : RESISTIVITY MUD AT BHT
TCS .HRS                2300 : TIME CIRCULATED STOPPED
TLAB.HRS                1015 : TIME LOGGER AT BOTTOM
LUN .                   2267 : LOGGING UNIT NUMBER
LUL .                  TYLER : LOGGING UNIT LOCATION
ENGI.        BELKNA[ MUSTATA : RECORDING ENGINEER
WITN.                  SMITH : WITNESSED BY
CLNT.                A2DTECH : CLIENT CODE
ORIG.         1" 2" 5" PRINT : ORIGIN OF DATA
UWI .         42289315440000 : UNIQUE WELL ID
DICO. A2D Technologies, Inc. : DIGITIZING COMPANY
~Other -----------------------------------------------------
AIT-CDL-CNL RUN IN COMBO & ARRAY SONIC & RST-CBL LOG RUN
GRED,GRSED,DTED,SPHIED,GRTED & TDT LOG RUN IN CSG.[NOT DELETED FROM WELL AS FOR THIS INTERVAL NO WIRELINE DATA FOUND FOR PROCESSING]
DENSITY AFFECTED BY HEAVY MUD & MUD CAKE BELOW 10,000'
SP AFFECTED AT 8400' DUE TO HIGH AC AUX USED TO CLOSE POWER POSITION CALIPER
~ASCII -----------------------------------------------------
# ...
 9000.00000    5.64240    5.81620    7.10700    7.41980    7.96430   14.37890  125.56030    4.50390    0.18770    2.56650    0.08390    0.08390    7.96430    -999.25    -999.25   58.70070    -999.25    -999.25   58.70070    0.18770    7.10700    0.34330    0.34330    4.54440    4.54440    -999.25    -999.25    -999.25  -68.74740  -19.22290    5.64240 4169.34180    -999.25    -999.25
 9050.00000  170.80370  128.57350  114.54200  138.14070  406.19880   10.90650    2.46180    1.03150   -0.00790    2.62760    0.04820    0.04820  406.19880    -999.25    -999.25   30.85050    -999.25    -999.25   30.85050   -0.00790  114.54200    0.02560    0.02560    6.04870    6.04870    -999.25    -999.25    -999.25  -69.57960  -24.26540  170.80370 4029.92500    -999.25    -999.25
 9100.00000  115.42450   90.43120   82.41990   73.52570   69.96650   10.60960   14.29260    0.73460    0.02190    2.66450    0.02660    0.02660   69.96650    -999.25    -999.25   29.21050    -999.25    -999.25   29.21050    0.02190   82.41990    0.00470    0.00470    5.71120    5.71120    -999.25    -999.25    -999.25  -64.92560  -28.83180  115.42450 4025.69870    -999.25    -999.25
 9150.00000   87.87280   73.14020   70.07740   66.42530   61.57150   10.62270   16.24130    0.74770    0.04490    2.63920    0.04140    0.04140   61.57150    -999.25    -999.25   29.59190    -999.25    -999.25   29.59190    0.04490   70.07740    0.01810    0.01810    7.47260    7.47260    -999.25    -999.25    -999.25  -56.54040  -37.50340   87.87280 4119.89160    -999.25    -999.25
 9200.00000   80.51010   69.23890   63.19900   53.70400   49.54120   10.84710   20.18520    0.97210    0.14840    2.68610    0.01400    0.01400   49.54120    -999.25    -999.25   18.71580    -999.25    -999.25   18.71580    0.14840   63.19900    0.01960    0.01960    7.26710    7.26710    -999.25    -999.25    -999.25  -56.88670  -54.90650   80.51010 4132.77930    -999.25    -999.25
 9250.00000  108.19690  114.52120   97.31380   78.26910   93.70340   10.71230   10.67200    0.83730    0.00510    2.68570    0.01420    0.01420   93.70340    -999.25    -999.25   29.12790    -999.25    -999.25   29.12790    0.00510   97.31380    0.00890    0.00890    5.24510    5.24510    -999.25    -999.25    -999.25  -27.75090  -42.82750  108.19690 4105.08300    -999.25    -999.25
 9300.00000   73.27060   57.40790   51.37440   35.16540   56.48250   10.62510   17.70460    0.75010    0.02360    2.70380    0.00360    0.00360   56.48250    -999.25    -999.25   43.37860    -999.25    -999.25   43.37860    0.02360   51.37440    0.02410    0.02410    5.82550    5.82550    -999.25    -999.25    -999.25   10.27640  -14.83270   73.27060 4232.10640    -999.25    -999.25
 9350.00000   56.48520   52.60810   46.75750   38.48470   33.66250   10.88080   29.70660    1.00580    0.01050    2.70500    0.00290    0.00290   33.66250    -999.25    -999.25   25.21670    -999.25    -999.25   25.21670    0.01050   46.75750    0.01070    0.01070    5.28210    5.28210    -999.25    -999.25    -999.25   16.57800  -10.95390   56.48520 4162.45070    -999.25    -999.25
 9400.00000    7.97930    7.16910    6.28760    5.41480    4.91410   11.24950  203.49610    1.37450    0.02140    2.66300    0.02750    0.02750    4.91410    -999.25    -999.25   69.76090    -999.25    -999.25   69.76090    0.02140    6.28760    0.15810    0.15810    5.81090    5.81090    -999.25    -999.25    -999.25   24.83850   -2.76410    7.97930 4166.29690    -999.25    -999.25
 9450.00000    3.48850    3.70890    4.75800    4.10000    4.19840   10.98720  238.18600    1.11220    0.01390    2.66040    0.02900    0.02900    4.19840    -999.25    -999.25   68.69500    -999.25    -999.25   68.69500    0.01390    4.75800    0.25300    0.25300    3.89830    3.89830    -999.25    -999.25    -999.25   19.67190   -3.91900    3.48850 4173.74660    -999.25    -999.25
 9500.00000    6.29330    5.75140    5.59880    5.27010    5.14220   10.83620  194.46930    0.96120    0.00300    2.59920    0.06480    0.06480    5.14220    -999.25    -999.25   63.66440    -999.25    -999.25   63.66440    0.00300    5.59880    0.09000    0.09000    3.02620    3.02620    -999.25    -999.25    -999.25   -2.67560  -22.25480    6.29330 4398.60790    -999.25    -999.25
 9550.00000    8.97980    5.39870    4.48710    3.74420    3.21530   10.65610  311.01300    0.78110    0.01670    2.56230    0.08640    0.08640    3.21530    -999.25    -999.25   44.54780    -999.25    -999.25   44.54780    0.01670    4.48710    0.09830    0.09830    3.32390    3.32390    -999.25    -999.25    -999.25  -56.58220  -69.34610    8.97980 4227.94240    -999.25    -999.25
 9600.00000    3.49930    3.02330    2.62420    2.31640    2.15860   11.35760  463.26320    1.48260    0.19660    2.56330    0.08580    0.08580    2.15860    -999.25    -999.25   42.88690    -999.25    -999.25   42.88690    0.19660    2.62420    0.14200    0.14200    2.73470    2.73470    -999.25    -999.25    -999.25  -51.20540  -58.02990    3.49930 4067.84640    -999.25    -999.25
 9650.00000    4.83710    5.00100    5.21920    5.39930    5.57670   10.66450  179.31750    0.78950    0.00690    2.51470    0.11420    0.11420    5.57670    -999.25    -999.25   51.27370    -999.25    -999.25   51.27370    0.00690    5.21920    0.10420    0.10420    4.78010    4.78010    -999.25    -999.25    -999.25  -21.88270  -24.09210    4.83710 4178.07810    -999.25    -999.25
 9700.00000    5.29970    4.75490    4.63860    4.42620    4.61480   11.04370  216.69410    1.16870    0.00960    2.61510    0.05550    0.05550    4.61480    -999.25    -999.25   47.66000    -999.25    -999.25   47.66000    0.00960    4.63860    0.11890    0.11890    3.06060    3.06060    -999.25    -999.25    -999.25  -22.27770  -22.02180    5.29970 4431.22510    -999.25    -999.25
 9750.00000    5.96870    5.10710    4.81590    4.65460    4.52160   11.63510  221.16070    1.76010    0.00450    2.62480    0.04980    0.04980    4.52160    -999.25    -999.25   57.80640    -999.25    -999.25   57.80640    0.00450    4.81590    0.13650    0.13650    3.03900    3.03900    -999.25    -999.25    -999.25  -18.44820  -11.26380    5.96870 4271.52290    -999.25    -999.25
 9800.00000   16.19470   13.35010   12.70230   11.86300   10.92730   10.25280   91.51390    0.37780    0.00270    2.55730    0.08930    0.08930   10.92730    -999.25    -999.25   41.15860    -999.25    -999.25   41.15860    0.00270   12.70230    0.02300    0.02300    2.54180    2.54180    -999.25    -999.25    -999.25  -41.52270  -23.43880   16.19470 4306.90380    -999.25    -999.25
 9850.00000   10.35440    9.16270    8.70210    8.05130    7.70790   10.28090  129.73700    0.40590    0.00270    2.63730    0.04250    0.04250    7.70790    -999.25    -999.25   59.89470    -999.25    -999.25   59.89470    0.00270    8.70210    0.06180    0.06180    3.15260    3.15260    -999.25    -999.25    -999.25  -37.19920  -22.90180   10.35440 4301.61520    -999.25    -999.25
 9900.00000   10.46310    9.47910    8.79060    8.19630    7.73270   10.33990  129.32090    0.46490    0.00880    2.58940    0.07050    0.07050    7.73270    -999.25    -999.25   47.75050    -999.25    -999.25   47.75050    0.00880    8.79060    0.06210    0.06210    3.16250    3.16250    -999.25    -999.25    -999.25  -36.41440  -30.44280   10.46310 4299.29980    -999.25    -999.25
 9950.00000   64.58540   27.99680   25.42700   23.59060   22.74490   10.23550   43.96590    0.36050    0.01120    2.46770    0.14170    0.14170   22.74490    -999.25    -999.25   26.86610    -999.25    -999.25   26.86610    0.01120   25.42700    0.02480    0.02480    6.78030    6.78030    -999.25    -999.25    -999.25  -82.51950  -84.87380   64.58540 4294.65140    -999.25    -999.25
 10000.00000   11.30670   10.01500    8.75550    8.02640    7.20130   10.74770  138.86380    0.87270    0.01800    2.61900    0.05320    0.05320    7.20130    -999.25    -999.25   52.46520    -999.25    -999.25   52.46520    0.01800    8.75550    0.08730    0.08730    3.54270    3.54270    -999.25    -999.25    -999.25  -56.38590  -67.06600   11.30670 4354.06050    -999.25    -999.25
