~Version ---------------------------------------------------
VERS.      2.0 : CWLS log ASCII Standard -VERSION 2.0
WRAP.      YES : Multiple lines per depth step
CREA. 01/04/13 : LAS Creation Date
~Well ------------------------------------------------------
STRT.FT                 2000.0 : START DEPTH
STOP.FT                 9700.0 : STOP DEPTH
STEP.FT               50.00000 : STEP LENGTH
NULL.                  -999.25 : NULL VALUE
COMP.   TXO PRODUCTION COMPANY : COMPANY
WELL.              TXO HULL #1 : WELL
FLD .                  BRANTON : FIELD
LOC .                          : LOCATION
CNTY.                     LEON : COUNTY
STAT.                    TEXAS : STATE
CTRY. UNITED STATES OF AMERICA : COUNTRY
SRVC.             Schlumberger : SERVICE COMPANY
DATE.              17-Jul-1985 : LOGDATE
API .           42289306650000 : API NUMBER
UWI .           42289306650000 : UNIQUE WELL ID
SLAT.WGS84       31.3703569787 : SURFACE LATITUDE
SLON.WGS84      -96.2242249712 : SURFACE LONGITUDE
~Curve Information -----------------------------------------
DEPT    .FT    : DEPTH FEET
CALDED  .IN    : CALIPER FROM CNLD LOG [ADJ.TO GRRED]
CALRED  .IN    : CALIPER FROM DIL-SFL-SONIC LOG
CALWS   .IN    : CALIPER [CALRED SPL.TO CALDED @ 9704']
CONDWS  .MMHO  : CONDUCTIVITY [1000/DRESWS]
DCORWS  .G/C3  : DENSITY CORRECTION [DRHOED]
DENWS   .G/C3  : FORMATION BULK DENSITY [CALCULATED FROM DPOWS, M=2.71, F=1.0]
DPHILSED.V/V   : DENSITY POROSITY LIMESTONE [M=2.71, F=1.0] FROM CNLD LOG [ADJ.TO GRRED]
DPOWS   .V/V   : DENSITY POROSITY LIMESTONE [DPHILSED]
DRESWS  .OHMM  : DEEP RESISTIVITY [ILMED]
DRHOED  .G/C3  : DENSITY CORRECTION FROM CNLD LOG [ADJ.TO GRRED]
DTED    .US/F  : DELTA-T FROM DIL-SFL-SONIC LOG
DTWS    .US/F  : COMPRESSIONAL SONIC [DTED]
GRDED   .GAPI  : GAMMA RAY FROM CNLD LOG [ADJ.TO GRRED]
GRRED   .GAPI  : GAMMA RAY FROM DIL-SFL-SONIC LOG
GRWS    .GAPI  : GAMMA RAY [GRRED]
ILDED   .OHMM  : DEEP INDUCTION FROM DIL-SFL-SONIC LOG
ILMED   .OHMM  : MEDIUM INDUCTION FROM DIL-SFL-SONIC LOG
MRESWS  .OHMM  : MEDIUM RESISTIVITY [ILMED]
NPHILSED.V/V   : NEUTRON POROSITY LIMESTONE FROM CNLD LOG [ADJ.TO GRRED]
NPOWS   .V/V   : NEUTRON POROSITY LIMESTONE [NPHILSED]
SFLUED  .OHMM  : SHALLOW FOCUSED FROM DIL-SFL-SONIC LOG
SPRED   .MV    : SPONTANEOUS POTENTIAL FROM DIL-SFL-SONIC LOG
SPWS    .MV    : SPONTANEOUS POTENTIAL [BASELINE 0 MV, SPRED]
SRESWS  .OHMM  : SHALLOW RESISTIVITY [SFLUED]
TENDED  .LBF   : TENSION FROM CNLD LOG [ADJ.TO GRRED]
TENRED  .LBF   : TENSION FROM DIL-SFL-SONIC LOG
~Params ----------------------------------------------------
PD  .                     GL : PERMANENT DATUM
EPD .FT                  503 : ELEVATION PERMANENT DATUM
LMF .                    RKB : LOG MEASURED FROM
DAPD.FT                 13.5 : FEET ABOVE PERMANENT DATUM
DMF .                    RKB : DRILLING MEASURED FROM
EKB .FT                516.5 : KELLY BUSHING
EDF .FT                515.5 : DRILLING FLOOR
EGL .FT                  503 : GROUND LEVEL
DATE.               07/17/85 : RUN DATE
RUN .                      2 : RUN NUMBER
DD  .FT                 9750 : DEPTH DRILLER
DL  .FT                 9736 : DEPTH LOGGER
BLI .FT                 9730 : BOTTOM LOG INTERVAL
TLI .FT                 8100 : TOP LOG INTERVAL
CS  .IN                8.625 : CASING SIZE
CBD .FT                 2000 : CASING BOTTOM DRILLER
CBL .FT                 2000 : CASING BOTTOM LOGGER
BS  .IN                7.875 : BIT SIZE
BSD .FT                 9750 : BIT SIZE AT DEPTH
DFT .         LIGNOSULFONATE : DRILLING FLUID TYPE
DFD .                    9.9 : DRILLING FLUID DENSITY
DFV .                     45 : DRILLING FLUID VISCOSITY
DFPH.                    9.5 : DRILLING FLUID PH
DFL .                   11.4 : DRILLING FLUID LOSS
MSS .               CIR TANK : MUD SAMPLE SOURCE
RMS .OHMM               2.23 : RESISTIVITY MUD SAMPLE
MST .DEGF                 75 : MUD SAMPLE TEMPERATURE
RMF .OHMM               1.99 : RESISTIVITY MUD FILTRATE SAMPLE
MFST.DEGF                 75 : MUD FILTRATE SAMPLE TEMPERATURE
RMC .OHMM               3.34 : RESISTIVITY MUD CAKE
MCST.DEGF                 75 : MUD CAKE SAMPLE TEMPERATURE
MFSS.                   MEAS : MUD FILTRATE SAMPLE SOURCE
MCSS.                   CALC : MUD CAKE SAMPLE SOURCE
RMB .OHMM               1.11 : RESISTIVITY MUD AT BHT
TCS .HRS                 100 : TIME CIRCULATED STOPPED
TLAB.HRS                1000 : TIME LOGGER AT BOTTOM
LUN .                   8276 : LOGGING UNIT NUMBER
LUL .                   3808 : LOGGING UNIT LOCATION
ENGI.              LANGHAMER : RECORDING ENGINEER
WITN.              GILLESPIE : WITNESSED BY
CLNT.                A2DTECH : CLIENT CODE
ORIG.            2" 5" PRINT : ORIGIN OF DATA
UWI .         42289306650000 : UNIQUE WELL ID
DICO. A2D Technologies, Inc. : DIGITIZING COMPANY
~Other -----------------------------------------------------
~ASCII -----------------------------------------------------
# ...
 8750.00000   14.10430   13.18380   13.18380  306.30690    0.10000    2.25260    0.26750    0.26750    3.26470    0.10000   84.77910   84.77910   90.12380   79.28510   79.28510    3.26470    2.98910    2.98910    0.27390    0.27390    3.56850  -14.17030  -10.85330    3.56850 3683.41330 3816.32080
 8800.00000   14.66660   13.23040   13.23040  262.61880    0.09970    2.27050    0.25700    0.25700    3.80780    0.09970   85.12610   85.12610   92.15670   82.04860   82.04860    3.80780    3.91330    3.91330    0.23860    0.23860    4.62620  -14.54440  -11.38750    4.62620 3670.34320 3839.95000
 8850.00000   10.63080    9.94070    9.94070  127.67800    0.05260    2.49500    0.12580    0.12580    7.83220    0.05260   67.42560   67.42560   74.07140   76.82430   76.82430    7.83220    8.93930    8.93930    0.11130    0.11130   12.51710   -8.40750   -5.41060   12.51710 3724.83300 3834.94600
 8900.00000    9.73750    9.69000    9.69000   85.82590    0.08390    2.60710    0.06020    0.06020   11.65150    0.08390   60.38130   60.38130   44.47740   42.11570   42.11570   11.65150   16.56220   16.56220    0.13320    0.13320   19.35390  -10.90690   -8.07010   19.35390 3716.06110 3864.84110
 8950.00000   11.68960   11.15290   11.15290  182.43180    0.04400    2.50750    0.11840    0.11840    5.48150    0.04400   68.98530   68.98530   50.78430   49.96740   49.96740    5.48150    6.01750    6.01750    0.11770    0.11770    9.56230  -23.12100  -18.69680    9.56230 3726.47090 3927.65940
 9000.00000   11.92420   12.04370   12.04370  293.63400    0.09950    2.32150    0.22720    0.22720    3.40560    0.09950   78.37350   78.37350   80.14170   79.24490   79.24490    3.40560    3.52100    3.52100    0.25210    0.25210    4.31030  -25.01460  -17.57340    4.31030 3801.09870 3940.61180
 9050.00000    9.90440   10.12350   10.12350   24.39340    0.00190    2.70090    0.00530    0.00530   40.99470    0.00190   53.31570   53.31570   56.34760   58.69850   58.69850   40.99470   41.79910   41.79910    0.01510    0.01510   48.52980  -17.25130   -6.79310   48.52980 3765.63350 3942.90450
 9100.00000   10.67500   11.12880   11.12880   36.57710   -0.00100    2.68690    0.01350    0.01350   27.33950   -0.00100   53.57390   53.57390   46.53850   39.25510   39.25510   27.33950   25.75930   25.75930    0.01010    0.01010   31.17240  -81.81980  -70.95550   31.17240 3760.28590 3983.51440
 9150.00000   10.66190   10.59970   10.59970   30.20840    0.00250    2.52820    0.10630    0.10630   33.10340    0.00250   59.37250   59.37250   26.47460   24.61880   24.61880   33.10340   32.51250   32.51250    0.01010    0.01010   44.38370  -83.77060  -73.67330   44.38370 3785.73780 3973.79910
 9200.00000    9.93890   10.28570   10.28570   20.62930   -0.00010    2.72010   -0.00590   -0.00590   48.47470   -0.00010   50.69190   50.69190   34.19150   34.76860   34.76860   48.47470   51.97710   51.97710    0.00840    0.00840   58.80410  -40.65290  -31.32260   58.80410 3796.94170 3989.66160
 9250.00000    9.68330   10.22940   10.22940  111.44170    0.00700    2.70620    0.00220    0.00220    8.97330    0.00700   62.22620   62.22620   48.43190   44.05080   44.05080    8.97330    9.80280    9.80280    0.04570    0.04570   14.81440  -15.69570   -7.13240   14.81440 3805.06880 4029.46260
 9300.00000    8.75470    8.79530    8.79530   72.76800    0.00550    2.59990    0.06440    0.06440   13.74230    0.00550   55.56530   55.56530   41.18240   38.51350   38.51350   13.74230   21.45340   21.45340    0.05690    0.05690   49.45680  -48.25750  -39.03620   49.45680 3813.79350 4049.89550
 9350.00000    9.93040    9.67030    9.67030   51.81320    0.00570    2.71360   -0.00210   -0.00210   19.30010    0.00570   55.22940   55.22940   61.09090   53.54620   53.54620   19.30010   20.20660   20.20660    0.03840    0.03840   26.32670  -16.91900   -8.78930   26.32670 3838.98460 4043.82400
 9400.00000    8.38640    8.62200    8.62200  153.91250    0.01180    2.63490    0.04390    0.04390    6.49720    0.01180   63.87800   63.87800   77.77310   75.28300   75.28300    6.49720    6.84370    6.84370    0.10040    0.10040    8.73750  -39.99150  -29.94990    8.73750 3879.13160 4063.84420
 9450.00000   10.41870   10.18960   10.18960  300.57110   -0.00120    2.64370    0.03880    0.03880    3.32700   -0.00120   62.74710   62.74710   74.11090   62.58540   62.58540    3.32700    3.64780    3.64780    0.10900    0.10900    4.10870  -37.51910  -24.62130    4.10870 3886.97530 4105.20750
 9500.00000    8.50050    8.76400    8.76400   94.48670   -0.01070    2.70980    0.00010    0.00010   10.58350   -0.01070   55.54490   55.54490   51.50470   49.19020   49.19020   10.58350   13.81530   13.81530    0.04710    0.04710   33.93270  -35.86930  -21.97420   33.93270 3926.41500 4068.03880
 9550.00000    8.18220    8.26940    8.26940  212.51730    0.00260    2.61710    0.05430    0.05430    4.70550    0.00260   61.97820   61.97820   52.94670   53.45200   53.45200    4.70550    5.14500    5.14500    0.07220    0.07220    8.81190  -50.56310  -38.87200    8.81190 3911.60890 4076.87430
 9600.00000    8.33060    8.37170    8.37170  204.94320   -0.00060    2.60430    0.06180    0.06180    4.87940   -0.00060   65.86240   65.86240   61.49810   62.49120   62.49120    4.87940    5.58850    5.58850    0.09190    0.09190    6.52370  -46.83840  -36.40360    6.52370 3929.13240 4085.49070
 9650.00000    7.90000    7.83400    7.83400  252.04790   -0.00520    2.61480    0.05570    0.05570    3.96750   -0.00520   66.15410   66.15410  101.06460  102.21070  102.21070    3.96750    4.41620    4.41620    0.09950    0.09950    4.99590  -35.38040  -24.94560    4.99590 3933.41260 4145.79540
 9700.00000    7.71640    7.84760    7.84760  160.71230    0.00570    2.60020    0.06420    0.06420    6.22230    0.00570    -999.25    -999.25   68.63510   40.10980   40.10980    6.22230    6.25220    6.25220    0.05260    0.05260    6.67120  -26.20340  -15.76860    6.67120 3885.13360 4150.20070
