~Version ---------------------------------------------------
VERS. 2.0 : CWLS log ASCII Standard -VERSION 2.0
WRAP. YES : Multiple lines per depth step
~Well ------------------------------------------------------
STRT.FT                         300.0 : START DEPTH
STOP.FT                       13900.0 : STOP DEPTH
STEP.FT                      50.00000 : STEP LENGTH
NULL.                         -999.25 : NULL VALUE
COMP. MOBIL PRODUCING TX. & N.M. INC. : COMPANY
WELL.               J. V. FORD JR. #1 : WELL
FLD .                         WILDCAT : FIELD
LOC .                                 : LOCATION
CNTY.                             BEE : COUNTY
STAT.                           TEXAS : STATE
CTRY.        UNITED STATES OF AMERICA : COUNTRY
SRVC.                    Schlumberger : SERVICE COMPANY
DATE.                     24-Oct-1988 : LOGDATE
API .                  42025324790000 : API NUMBER
UWI .                  42025324790000 : UNIQUE WELL ID
SLAT.WGS84              28.6662336968 : SURFACE LATITUDE
SLON.WGS84             -98.0215217404 : SURFACE LONGITUDE
~Curve Information -----------------------------------------
DEPT    .FT    : DEPTH FEET
CALMED  .IN    : CALIPER FROM MSFL [DEP ADJ TO SFLUED]
CALWS   .IN    : CALIPER [DCALED+BITED]
CONDWS  .MMHO  : CONDUCTIVITY [1000/DRESWS]
DCALED  .IN    : DIFFERENTIAL CALIPER FROM DENSITY LOG [DEP ADJ TO GRRED]
DCORWS  .G/C3  : DENSITY CORRECTION [DRHOED]
DENWS   .G/C3  : BULK DENSITY [M=2.71, F= 1] [CAL FROM DPOLSWS]
DPHILSED.V/V   : DENSITY POROSITY [M=2.71 F=1.0] FROM DENSITY LOG [DEP ADJ TO GRRED]
DPHISSED.V/V   : DENSITY POROSITY [M=2.68 F=1.0] FROM DENSITY LOG [DEP ADJ TO GRRED]
DPOLSWS .V/V   : DENSITY POROSITY [M=2.71, F= 1] [76 DPOLSCAL 12989 DPHILSED]
DRESWS  .OHMM  : DEEP RESISTIVITY [ILDED]
DRHOED  .G/C3  : DENSITY CORRECTION FROM DENSITY LOG [DEP ADJ TO GRRED]
DTED    .US/F  : DELTA TIME FROM SONIC LOG
DTLED   .US/F  : DELTA TIME LONG SPACING FROM SONIC LOG
DTWS    .US/F  : DELTA TIME [76 DTED 543.5 DTLED 1373.5 DTED 2134 DTLED 3009.5 DTED 3022 DTLED 3172 DTED 8805 DTLED 8815 DTED 9717.5 DTLED 9901 DTED 12984.5 DTLED 13003.5 DTED]
GRDED   .GAPI  : GAMMA RAY FROM DENSITY LOG [DEP ADJ TO GRRED]
GRMED   .GAPI  : GAMMA RAY FROM MSFL LOG [DEP ADJ TO GRRED]
GRRED   .GAPI  : GAMMA RAY FROM RESISTIVITY LOG
GRWS    .GAPI  : GAMMA RAY [76 GRRED 3494.5 GRDEDNRM 3506 GRDED 9027 GRRED 13030.5 GRDED]
ILDED   .OHMM  : INDUCTION LOG DEEP RESISTIVITY
ILMED   .OHMM  : INDUCTION LOG MEDIUM RESISTIVITY
MRESWS  .OHMM  : MEDIUM RESISTIVITY [ILMED]
MSFLED  .OHMM  : MICROSPHERICALLY FOCUSED LOG RESISTIVITY [DEP ADJ TO SFLUED]
NPHILSED.V/V   : NEUTRON POROSITY LIMESTONE FROM DENSITY LOG [DEP ADJ TO GRRED]
NPHISSED.V/V   : NEUTRON POROSITY SANDSTONE FROM DENSITY LOG [DEP ADJ TO GRRED]
NPOLSWS .V/V   : NEUTRON POROSITY LIMESTONE [76 NPOLSCAL 12989 NPHILSED]
SFLUED  .OHMM  : SPHERICALLY FOCUSED LOG RESISTIVITY
SPRED   .MV    : SPONTANEOUS POTENTIAL FROM RESISTIVITY LOG
SPWS    .MV    : SPONTANEOUS POTENTIAL [BASELINE 0 MV] [SPRED]
SRESWS  .OHMM  : SHALLOW RESISTIVITY [SFLUED]
TENDED  .LBF   : TENSION FROM DENSITY LOG [DEP ADJ TO GRRED]
TENMED  .LBF   : TENSION FROM MSFL LOG [DEP ADJ TO SFLUED]
TENRED  .LBF   : TENSION FROM RESISTIVITY LOG
~Params ----------------------------------------------------
PD  .                     GL : PERMANENT DATUM
EPD .FT                  350 : ELEVATION PERMANENT DATUM
LMF .                     KB : LOG MEASURED FROM
DAPD.FT                 26.5 : FEET ABOVE PERMANENT DATUM
DMF .                     KB : DRILLING MEASURED FROM
EKB .FT                376.5 : KELLY BUSHING
EDF .FT                375.5 : DRILLING FLOOR
EGL .FT                  350 : GROUND LEVEL
DATE.               10/14/88 : RUN DATE
RUN .                      2 : RUN NUMBER
DD  .FT                13900 : DEPTH DRILLER
DL  .FT                13881 : DEPTH LOGGER
BLI .FT                13881 : BOTTOM LOG INTERVAL
TLI .FT                 3505 : TOP LOG INTERVAL
CS  .IN                9.625 : CASING SIZE
CBD .FT                 3510 : CASING BOTTOM DRILLER
CBL .FT                 3505 : CASING BOTTOM LOGGER
BS  .IN                  8.5 : BIT SIZE
BSD .FT                13900 : BIT SIZE AT DEPTH
DFT .            LIGNITE CLS : DRILLING FLUID TYPE
DFD .                   11.6 : DRILLING FLUID DENSITY
DFV .                     23 : DRILLING FLUID VISCOSITY
DFPH.                     10 : DRILLING FLUID PH
DFL .                    5.9 : DRILLING FLUID LOSS
MSS .               MUD TANK : MUD SAMPLE SOURCE
RMS .OHMM               1.08 : RESISTIVITY MUD SAMPLE
MST .DEGF                 75 : MUD SAMPLE TEMPERATURE
RMF .OHMM               0.72 : RESISTIVITY MUD FILTRATE SAMPLE
MFST.DEGF                 75 : MUD FILTRATE SAMPLE TEMPERATURE
RMC .OHMM               1.59 : RESISTIVITY MUD CAKE
MCST.DEGF                 75 : MUD CAKE SAMPLE TEMPERATURE
MFSS.                   MEAS : MUD FILTRATE SAMPLE SOURCE
MCSS.                   CALC : MUD CAKE SAMPLE SOURCE
RMB .OHMM              0.289 : RESISTIVITY MUD AT BHT
TCS .HRS                1500 : TIME CIRCULATED STOPPED
TLAB.HRS                1500 : TIME LOGGER AT BOTTOM
LUN .                   8248 : LOGGING UNIT NUMBER
LUL .             PLEASANTON : LOGGING UNIT LOCATION
ENGI.                 HOOPER : RECORDING ENGINEER
WITN.           WEIMER CARAM : WITNESSED BY
CLNT.                A2DTECH : CLIENT CODE
ORIG.               5" PRINT : ORIGIN OF DATA
UWI .         42025324790000 : UNIQUE WELL ID
DICO. A2D Technologies, Inc. : DIGITIZING COMPANY
~Other -----------------------------------------------------
~ASCII -----------------------------------------------------
# ...
 5800.00000    -999.25    9.95040  109.09170    1.45040   -0.01430    2.35910    -999.25    0.20520    0.20520    9.16660   -0.01430   86.27650   87.00660   86.27650   66.76780    -999.25   63.64770   66.76780    9.16660    8.75530    8.75530    -999.25    -999.25    0.27250    0.22850    7.85220  -17.66880  -13.41770    7.85220 2209.45290    -999.25 2272.76070
 5850.00000    -999.25   12.97430  168.58860    4.47430    0.09220    2.34080    -999.25    0.21590    0.21590    5.93160    0.09220   92.69270   93.91370   92.69270   62.87710    -999.25   61.58710   62.87710    5.93160    5.18790    5.18790    -999.25    -999.25    0.34320    0.29950    4.35520  -12.04190   -7.39970    4.35520 2232.38670    -999.25 2333.92240
 5900.00000    -999.25    9.74460   72.96820    1.24460   -0.00530    2.29240    -999.25    0.24420    0.24420   13.70460   -0.00530   84.23100   84.71990   84.23100   38.77730    -999.25   38.64400   38.77730   13.70460   10.58400   10.58400    -999.25    -999.25    0.26320    0.21920    9.01800  -13.74870   -8.71530    9.01800 2291.07200    -999.25 2328.44340
 5950.00000    -999.25    9.57680  109.49190    1.07680    0.00520    2.19750    -999.25    0.29970    0.29970    9.13310    0.00520   89.13720   88.99120   89.13720   37.21120    -999.25   38.02910   37.21120    9.13310    7.82320    7.82320    -999.25    -999.25    0.27990    0.23590    7.22680  -11.22910   -5.80460    7.22680 2234.75980    -999.25 2366.19850
 6000.00000    -999.25    9.52530   90.81330    1.02530   -0.00410    2.19960    -999.25    0.29850    0.29850   11.01160   -0.00410   91.81430   92.31480   91.81430   31.16700    -999.25   37.45000   31.16700   11.01160    7.91990    7.91990    -999.25    -999.25    0.28070    0.23670    7.42160   -8.53750   -2.72190    7.42160 2278.16770    -999.25 2349.08180
 6050.00000    -999.25   10.13270  159.82100    1.63270    0.08480    2.34180    -999.25    0.21530    0.21530    6.25700    0.08480   85.21870   87.20190   85.21870   55.87630    -999.25   60.23320   55.87630    6.25700    6.12020    6.12020    -999.25    -999.25    0.27700    0.23300    6.26030  -18.11020  -11.96500    6.26030 2246.47310    -999.25 2347.42920
 6100.00000    -999.25    9.45030  156.05980    0.95030   -0.00600    2.34850    -999.25    0.21140    0.21140    6.40780   -0.00600   87.76390   89.56710   87.76390   68.47540    -999.25   70.18070   68.47540    6.40780    6.12070    6.12070    -999.25    -999.25    0.29890    0.25490    5.70350  -21.96790  -15.51040    5.70350 2304.61450    -999.25 2399.64010
 6150.00000    -999.25   11.04080  344.10380    2.54080    0.02450    2.16600    -999.25    0.31810    0.31810    2.90610    0.02450   95.56980   96.08910   95.56980   82.21830    -999.25   75.05450   82.21830    2.90610    2.69350    2.69350    -999.25    -999.25    0.40080    0.35790    2.92100  -15.63370   -8.86400    2.92100 2333.90410    -999.25 2411.33520
 6200.00000    -999.25    9.48750  178.64480    0.98750   -0.00610    2.28800    -999.25    0.24680    0.24680    5.59770   -0.00610   86.27570   86.85280   86.27570   45.88040    -999.25   46.84040   45.88040    5.59770    6.29310    6.29310    -999.25    -999.25    0.25160    0.20770    7.27300  -43.48900  -36.40700    7.27300 2322.76440    -999.25 2356.32370
 6250.00000    -999.25    9.60780  185.03780    1.10780   -0.01750    2.25570    -999.25    0.26570    0.26570    5.40430   -0.01750   86.99410   92.34420   86.99410   59.86590    -999.25   58.64160   59.86590    5.40430    6.74590    6.74590    -999.25    -999.25    0.27290    0.22890    5.04420  -35.93900  -28.54480    5.04420 2315.96310    -999.25 2413.20040
 6300.00000    -999.25    9.43980  204.03170    0.93980   -0.01550    2.32640    -999.25    0.22430    0.22430    4.90120   -0.01550   84.06820   84.64210   84.06820   61.52870    -999.25   56.00480   61.52870    4.90120    5.83490    5.83490    -999.25    -999.25    0.26260    0.21860    6.77280  -44.67130  -36.96480    6.77280 2334.42870    -999.25 2418.16360
 6350.00000    -999.25    9.42890  222.81140    0.92890    0.00680    2.43040    -999.25    0.16350    0.16350    4.48810    0.00680   84.65980   84.42320   84.65980   86.70270    -999.25   75.95610   86.70270    4.48810    4.74650    4.74650    -999.25    -999.25    0.25920    0.21530    5.15330  -29.30820  -21.28950    5.15330 2373.30570    -999.25 2409.69210
 6400.00000    -999.25    9.98220  322.78890    1.48220    0.02650    2.45830    -999.25    0.14720    0.14720    3.09800    0.02650   89.43420   90.23300   89.43420  100.80660    -999.25   88.49700  100.80660    3.09800    3.18870    3.18870    -999.25    -999.25    0.30690    0.26290    3.41100  -18.13720   -9.80620    3.41100 2369.17850    -999.25 2498.91190
 6450.00000    -999.25   10.02910  368.51420    1.52910   -0.00090    2.43730    -999.25    0.15950    0.15950    2.71360   -0.00090   88.35110   89.08890   88.35110   75.51390    -999.25   72.67320   75.51390    2.71360    2.79200    2.79200    -999.25    -999.25    0.29110    0.24710    3.53810  -14.19310   -5.57990    3.53810 2419.88500    -999.25 2515.80640
 6500.00000    -999.25    9.30680  352.08790    0.80680    0.02220    2.43830    -999.25    0.15890    0.15890    2.84020    0.02220   86.98450   86.22830   86.98450   78.75560    -999.25   73.74540   78.75560    2.84020    3.25050    3.25050    -999.25    -999.25    0.26760    0.22360    3.83890  -32.34900  -24.42580    3.83890 2427.62040    -999.25 2487.24930
 6550.00000    -999.25    9.69970  476.71260    1.19970    0.03690    2.42120    -999.25    0.16890    0.16890    2.09770    0.03690   83.47270   85.73570   83.47270   78.21650    -999.25   67.21350   78.21650    2.09770    2.23940    2.23940    -999.25    -999.25    0.21120    0.16760    2.09980  -18.68140  -11.44810    2.09980 2409.07710    -999.25 2531.60500
 6600.00000    -999.25   10.10530  451.81400    1.60530   -0.00580    2.49640    -999.25    0.12490    0.12490    2.21330   -0.00580   89.30630   90.06170   89.30630   86.64000    -999.25   75.45820   86.64000    2.21330    2.28240    2.28240    -999.25    -999.25    0.28180    0.23780    2.37710   -9.58870   -3.04540    2.37710 2519.28340    -999.25 2599.39310
 6650.00000    -999.25   10.54300  522.27500    2.04300    0.06480    2.48800    -999.25    0.12980    0.12980    1.91470    0.06480   84.03870   86.25990   84.03870   82.35670    -999.25   68.40540   82.35670    1.91470    1.84250    1.84250    -999.25    -999.25    0.27280    0.22880    2.19980   -9.44050   -3.60990    2.19980 2493.73800    -999.25 2599.91140
 6700.00000    -999.25   10.97670  464.90010    2.47670    0.00950    2.49590    -999.25    0.12520    0.12520    2.15100    0.00950   87.80570   89.60260   87.80570   82.15420    -999.25   69.01600   82.15420    2.15100    2.09070    2.09070    -999.25    -999.25    0.28120    0.23720    2.32030   -8.76780   -3.95160    2.32030 2514.92750    -999.25 2602.19680
 6750.00000    -999.25   11.05660  561.98720    2.55660    0.00150    2.43200    -999.25    0.16260    0.16260    1.77940    0.00150   93.58140   94.03070   93.58140   90.21420    -999.25   76.10280   90.21420    1.77940    1.74100    1.74100    -999.25    -999.25    0.32000    0.27610    1.82460   -6.54770   -2.74600    1.82460 2494.04540    -999.25 2597.82640
 6800.00000    -999.25    9.82570  533.50400    1.32570    0.02550    2.38120    -999.25    0.19230    0.19230    1.87440    0.02550   87.67000   88.55860   87.67000   71.23160    -999.25   71.28240   71.23160    1.87440    2.03970    2.03970    -999.25    -999.25    0.28790    0.24390    1.62180  -26.23130  -23.44400    1.62180 2520.87230    -999.25 2612.75440
 6850.00000    -999.25   10.68480  872.37200    2.18480    0.03740    1.92150    -999.25    0.46110    0.46110    1.14630    0.03740   96.33420   99.75920   96.33420   77.76040    -999.25   68.31520   77.76040    1.14630    1.07070    1.07070    -999.25    -999.25    0.46740    0.42570    1.23240   -3.98300   -2.18070    1.23240 2567.60080    -999.25 2635.71850
