~Version ---------------------------------------------------
VERS. 2.0 : CWLS log ASCII Standard -VERSION 2.0
WRAP.  NO : One line per depth step
~Well ------------------------------------------------------
STRT.FT                     1050.0 : START DEPTH
STOP.FT                    19600.0 : STOP DEPTH
STEP.FT                   50.00000 : STEP LENGTH
NULL.                      -999.25 : NULL VALUE
COMP. PAN AMERICAN PETROLEUM CORP. : COMPANY
WELL.           MURRAY FRANKLIN #1 : WELL
FLD .                      WILDCAT : FIELD
LOC .                              : LOCATION
CNTY.                    MC MULLEN : COUNTY
STAT.                        TEXAS : STATE
CTRY.     UNITED STATES OF AMERICA : COUNTRY
SRVC.                 Schlumberger : SERVICE COMPANY
DATE.                  30-Aug-1964 : LOGDATE
API .               42311001580000 : API NUMBER
UWI .               42311001580000 : UNIQUE WELL ID
SLAT.WGS84           28.5946649186 : SURFACE LATITUDE
SLON.WGS84          -98.6650291661 : SURFACE LONGITUDE
~Curve Information -----------------------------------------
DEPT  .FT    : DEPTH
ASNED .OHMM  : AMPLIFIED SHORT NORMAL 16 IN.
CALWS .IN    : CALIPER (CALSED)
CALSED.IN    : CALIPER FROM SONIC LOG (ADJ TO RES.)
CILDED.MMHO  : CONDUCTIVITY FROM LOG
CONDWS.MMHO  : CONDUCTIVITY (1000/DREWS)
DRESWS.OHMM  : DEEP RESISTIVITY (IF ILDED<1, THEN 1000/CILDED)
DTED  .US/F  : DELTA TIME  (ADJ TO RES.)
DTWS  .US/F  : DELTA TIME  (DTED)
GRNED .GAPI  : GAMMA RAY FROM NEUTRON LOG (ADJ TO RES.)
GRWS  .GAPI  : GAMMA RAY (GRNED)
ILDED .OHMM  : DEEP INDUCTION RESISTIVITY
NEUTED.CU    : NEUTRON FROM GAMMA RAY NEUTRON LOG (ADJ TO RES.)
NEUTWS.CU    : NEUTRON FROM GAMMA RAY NEUTRON LOG (NEUTED)
SPWS  .MV    : SPONTANEOUS POTENTIAL BASELINE 0 MV (SPRED)
SPRED .MV    : SPONTANEOUS POTENTIAL FROM RESISTIVITY
SRESWS.OHMM  : SHALLOW RESISTIVITY (ASNED)
~Params ----------------------------------------------------
PD  .                 2" BHO : PERMANENT DATUM
EPD .F                   395 : ELEVATION PERMANENT DATUM
LMF .                     KB : LOG MEASURED FROM
DAPD.F                  23.7 : FEET ABOVE PERMANENT DATUM
DMF .                     KB : DRILLING MEASURED FROM
EKB .F                 418.7 : KELLING BUSHING
EDF .F                 416.0 : DRILLING FLOOR
EGL .F                 395.0 : GROUND LEVEL
DATE.             08-30-1964 : RUN DATE
RUN .                      6 : RUN NUMBER
DD  .F                 19636 : DEPTH DRILLER
DL  .F                 19632 : DEPTH LOGGER
BLI .F                 19632 : BOTTOM LOG INTERVAL
TLI .F                 18788 : TOP LOG INTERVAL
CS  .IN                    5 : CASING SIZE
CBD .F                 16836 : CASING BOTTOM DRILLER
BS  .IN                 4.25 : BIT SIZE
BSD .F                 19636 : BIT SIZE AT DEPTH
DFT .        UNICAL OIL EMUL : DRILLING FLUID TYPE
TCS .HRS                   3 : TIME CURCULATED STOPPED
LUN .                   4521 : LOGGING UNIT NUMBER
LUL .                    KEN : LOGGING UNIT LOCATION
ENGI.                  ELLIS : RECORDING ENGINEER
WITN.       FREEMAN, SHAPLEY : WITNESSED BY
CLNT.                A2DTECH : CLIENT CODE
ORIG.               5" PRINT : ORIGIN OF DATA
UWI .         42311001580000 : UNIQUE WELL ID
DICO. A2D Technologies, Inc. : DIGITIZING COMPANY
~Other -----------------------------------------------------
~ASCII -----------------------------------------------------
# ...
 11800.00000   29.61900    9.63400    9.63400   25.59950   26.34210   37.96200   49.81100   49.81100    -999.25    -999.25   37.96200    -999.25    -999.25  -23.69230  -83.57600   29.61900
 11850.00000   44.52600    9.02600    9.02600   10.41220   11.14730   89.70800   48.28760   48.28760    -999.25    -999.25   89.70800    -999.25    -999.25   -1.99750  -63.97900   44.52600
 11900.00000   40.00500    9.36700    9.36700   12.26470   13.45040   74.34700   48.98550   48.98550    -999.25    -999.25   74.34700    -999.25    -999.25   -7.79470  -70.19500   40.00500
 11950.00000   43.76800    9.36100    9.36100   12.54400   14.35300   69.67200   48.49040   48.49040    -999.25    -999.25   69.67200    -999.25    -999.25   -6.14390  -68.96300   43.76800
 12000.00000   45.00400    9.36300    9.36300   13.37330   15.12240   66.12700   50.32380   50.32380    -999.25    -999.25   66.12700    -999.25    -999.25   -6.28110  -69.51900   45.00400
 12050.00000   31.91400    9.16500    9.16500   19.92010   22.88330   43.70000   50.13520   50.13520    -999.25    -999.25   43.70000    -999.25    -999.25  -18.25530  -80.21500   31.91400
 12100.00000   36.60000    9.78000    9.78000   13.70750   15.69760   63.70400   50.42560   50.42560    -999.25    -999.25   63.70400    -999.25    -999.25  -23.18990  -80.26500   36.60000
 12150.00000   48.31100    9.34000    9.34000   12.32230   14.10560   70.89400   49.47090   49.47090    -999.25    -999.25   70.89400    -999.25    -999.25   -7.12650  -59.31700   48.31100
 12200.00000   12.04500    9.45600    9.45600  134.35280  163.21200    6.12700   78.44760   78.44760    -999.25    -999.25    6.12700    -999.25    -999.25    4.83900  -42.46700   12.04500
 12250.00000   15.83400    8.77900    8.77900   60.48060   68.41350   14.61700   57.49320   57.49320    -999.25    -999.25   14.61700    -999.25    -999.25    1.10940  -41.31200   15.83400
 12300.00000   10.42800    9.19200    9.19200  127.79160  157.87810    6.33400   65.37760   65.37760    -999.25    -999.25    6.33400    -999.25    -999.25   -9.68600  -49.02400   10.42800
 12350.00000    9.47500    9.32100    9.32100  146.93120  153.37420    6.52000   77.15610   77.15610    -999.25    -999.25    6.52000    -999.25    -999.25   -8.06480  -49.44600    9.47500
 12400.00000   30.01600    8.83600    8.83600   26.02260   26.81830   37.28800   56.21410   56.21410    -999.25    -999.25   37.28800    -999.25    -999.25   -5.55770  -48.98200   30.01600
 12450.00000   34.51600    8.72800    8.72800   26.14770   27.78700   35.98800   68.48600   68.48600    -999.25    -999.25   35.98800    -999.25    -999.25   -4.73380  -48.60100   34.51600
 12500.00000   21.80700    9.03800    9.03800   56.23460   67.10060   14.90300   60.74720   60.74720    -999.25    -999.25   14.90300    -999.25    -999.25   -7.36620  -48.57000   21.80700
 12550.00000   13.41100    9.04800    9.04800   89.04720   84.99070   11.76600   60.16920   60.16920    -999.25    -999.25   11.76600    -999.25    -999.25   -5.67150  -44.21200   13.41100
 12600.00000   10.78800    9.31200    9.31200  151.49700  182.14940    5.49000   64.67400   64.67400    -999.25    -999.25    5.49000    -999.25    -999.25   -2.58680  -44.05100   10.78800
 12650.00000   10.50700    8.72500    8.72500  137.72450  156.91200    6.37300   57.18770   57.18770    -999.25    -999.25    6.37300    -999.25    -999.25   -3.24620  -49.21000   10.50700
 12700.00000    6.66300    9.43500    9.43500  295.75320  345.66200    2.89300   52.79770   52.79770    -999.25    -999.25    2.89300    -999.25    -999.25   -3.46060  -53.92400    6.66300
 12750.00000   37.14300    8.73200    8.73200   26.24740   26.97670   37.06900   52.42800   52.42800    -999.25    -999.25   37.06900    -999.25    -999.25  -12.91910  -74.37100   37.14300
 12800.00000   27.16000    8.88500    8.88500   24.46110   25.57020   39.10800   51.49640   51.49640    -999.25    -999.25   39.10800    -999.25    -999.25  -13.42600  -90.96500   27.16000
 12850.00000   31.26700    8.93100    8.93100   30.22030   31.55770   31.68800   50.75270   50.75270    -999.25    -999.25   31.68800    -999.25    -999.25   -2.35120  -94.56800   31.26700
 12900.00000   15.41800    8.71000    8.71000  156.28740  175.87060    5.68600   54.40190   54.40190    -999.25    -999.25    5.68600    -999.25    -999.25  -22.19480 -110.36600   15.41800
 12950.00000   42.40500    8.98600    8.98600   19.76050   18.15770   55.07300   48.89500   48.89500    -999.25    -999.25   55.07300    -999.25    -999.25   -1.93540  -86.06100   42.40500
 13000.00000   74.74000    8.84300    8.84300    8.58280   10.04630   99.53900   47.92550   47.92550    -999.25    -999.25   99.53900    -999.25    -999.25   -5.84300  -85.92300   74.74000
 13050.00000   48.75200    8.91500    8.91500   13.39650   14.50280   68.95200   48.09150   48.09150    -999.25    -999.25   68.95200    -999.25    -999.25    -999.25    -999.25   48.75200
 13100.00000  100.00000    8.84000    8.84000    4.49070    5.70450  175.29900   48.40010   48.40010    -999.25    -999.25  175.29900    -999.25    -999.25   -7.97720  -94.79000  100.00000
 13150.00000   64.74300    8.88200    8.88200   10.23830   12.68490   78.83400   47.53320   47.53320    -999.25    -999.25   78.83400    -999.25    -999.25   -7.52360  -98.05200   64.74300
 13200.00000   41.97200    8.58600    8.58600   21.96270   23.58380   42.40200   52.27500   52.27500    -999.25    -999.25   42.40200    -999.25    -999.25  -23.37220 -116.47900   41.97200
 13250.00000   22.20600    8.87700    8.87700   87.67500   95.50190   10.47100   47.87460   47.87460    -999.25    -999.25   10.47100    -999.25    -999.25  -29.56990 -121.65400   22.20600
 13300.00000   42.87900    8.77700    8.77700   24.15500   24.40100   40.98200   49.05030   49.05030    -999.25    -999.25   40.98200    -999.25    -999.25   -5.92160  -96.98300   42.87900
 13350.00000   44.79900    8.82400    8.82400   12.57520   14.45320   69.18900   48.49380   48.49380    -999.25    -999.25   69.18900    -999.25    -999.25  -21.68300 -111.67500   44.79900
 13400.00000   69.18900    8.85100    8.85100   11.23450   13.03470   76.71800   48.50440   48.50440    -999.25    -999.25   76.71800    -999.25    -999.25   -3.60310  -89.49300   69.18900
 13450.00000   58.79200    8.95800    8.95800   10.03420   11.61440   86.10000   49.04210   49.04210    -999.25    -999.25   86.10000    -999.25    -999.25   -3.52750  -74.52300   58.79200
 13500.00000   68.34300    8.78700    8.78700    3.79240    6.31440  158.36700   48.02900   48.02900    -999.25    -999.25  158.36700    -999.25    -999.25   -4.66490  -70.60700   68.34300
 13550.00000   57.76800    8.86400    8.86400   11.37720   14.59300   68.52600   47.85760   47.85760    -999.25    -999.25   68.52600    -999.25    -999.25  -12.28340  -90.13900   57.76800
 13600.00000   74.85100    8.80800    8.80800    4.86300    6.22440  160.65700   49.39700   49.39700    -999.25    -999.25  160.65700    -999.25    -999.25   -6.96570  -94.11200   74.85100
 13650.00000   68.13700    8.85300    8.85300    6.41240    7.22300  138.44600   48.06260   48.06260    -999.25    -999.25  138.44600    -999.25    -999.25   -9.56310  -95.50900   68.13700
 13700.00000   49.97200    8.88600    8.88600   13.17510   16.17970   61.80600   47.90570   47.90570    -999.25    -999.25   61.80600    -999.25    -999.25  -12.36150  -97.10700   49.97200
 13750.00000   42.72900    9.00700    9.00700   18.11610   20.21260   49.47400   49.29880   49.29880    -999.25    -999.25   49.47400    -999.25    -999.25  -12.11290  -95.65800   42.72900
 13800.00000   50.67100    8.67700    8.67700    7.46510    8.73220  114.51900   48.20240   48.20240    -999.25    -999.25  114.51900    -999.25    -999.25   -2.78620  -85.13100   50.67100
 13850.00000   64.04900    8.73600    8.73600   10.57880   12.17820   82.11400   48.45080   48.45080    -999.25    -999.25   82.11400    -999.25    -999.25  -11.02300  -90.71900   64.04900
 13900.00000   26.27400    9.29800    9.29800   29.94010   28.85590   34.65500   48.85440   48.85440    -999.25    -999.25   34.65500    -999.25    -999.25  -25.37230 -102.32700   26.27400
