~Version ---------------------------------------------------
VERS. 2.0 : CWLS log ASCII Standard -VERSION 2.0
WRAP.  NO : ONE LINE PER DEPTH STEP
~Well ------------------------------------------------------
STRT.F                  2600.0 : START DEPTH
STOP.F                 10950.0 : STOP DEPTH
STEP.F                50.00000 : STEP LENGTH
NULL.                  -999.25 : NULL VALUE
COMP.        PRIMARY FUELS INC : COMPANY
WELL.               COURAND #1 : WELL
FLD .                  WILDCAT : FIELD
LOC .                          : LOCATION
CNTY.                 ATASCOSA : COUNTY
STAT.                    TEXAS : STATE
CTRY. UNITED STATES OF AMERICA : COUNTRY
SRVC.             Schlumberger : SERVICE COMPANY
DATE.              04-May-1985 : LOGDATE
API .           42013332560000 : API NUMBER
UWI .           42013332560000 : UNIQUE WELL ID
SLAT.WGS84       28.9073224722 : SURFACE LATITUDE
SLON.WGS84      -98.4483829135 : SURFACE LONGITUDE
~Curve Information -----------------------------------------
DEPT.F                 : 
RHOB.G/C3 45 350 01 00 : BULK DENSITY
DRHO.G/C3 45 356 01 00 : DENSITY CORRECTION
NPHI.DEC  42 890 03 00 : NEUTRON POROSITY SANDSTONE
DPHI.DEC  45 890 12 00 : DENSITY POROSITY SANDSTONE
DCAL.IN   07 280 30 00 : DIFFERENTIAL CALIPER
DT  .US/F 60 520 00 00 : INTERVAL TRANSIT TIME
GRR .GAPI 07 310 01 00 : GAMMA RAY
ILD .OHMM 07 120 46 00 : INDUCTION LOG DEEP
ILM .OHMM 07 120 44 00 : INDUCTION LOG MEDIUM
SFLU.OHMM 07 220 01 00 : SPHERICALLY FOCUSED LOG UNAVERAGED RESISTIVITY
SPR .MV   07 010 01 00 : SPONTANEOUS POTENTIAL FROM RES. LOG
~Params ----------------------------------------------------
PD  .                     GL : PERMANENT DATUM
EPD .F                   397 : ELEVATION PERMANENT DATUM
LMF .                    RKB : LOG MEASURED FROM
DAPD.F                    18 : FEET ABOVE PERMANENT DATUM
DMF .                    RKB : DRILLING MEASURED FROM
EKB .F                   415 : KELLING BUSHING
EDF .F                   414 : DRILLING FLOOR
EGL .F                   397 : GROUND LEVEL
DATE.               05/04/85 : RUN DATE
RUN .                      1 : RUN NUMBER
DD  .F                 11008 : DEPTH DRILLER
DL  .F                 10974 : DEPTH LOGGER
BLI .F                 10974 : BOTTOM LOG INTERVAL
TLI .F                  2642 : TOP LOG INTERVAL
CS  .IN                9.625 : CASING SIZE
CBD .F                  2600 : CASING BOTTOM DRILLER
CBL .F                  2642 : CASING BOTTOM LOGGER
BS  .IN                 8.75 : BIT SIZE
BSD .F                 11008 : BIT SIZE AT DEPTH
DFT .                 HL 100 : DRILLING FLUID TYPE
DFD .                   10.1 : DRILLING FLUID DENSITY
DFV .                     41 : DRILLING FLUID VISCOSITY
DFPH.                    8.5 : DRILLING FLUID PH
DFL .                    4.5 : DRILLING FLUID LOSS
MSS .              CIRC TANK : MUD SAMPLE SOURCE
RMS .OHMM              0.961 : RESISTIVITY MUD SAMPLE
MST .F                    75 : MUD SAMPLE TEMPERATURE
RMF .OHMM              0.843 : RESISTIVITY MUD FILTRATE SAMPLE
MFST.F                    75 : MUD FILTRATE SAMPLE TEMPERATURE
RMC .OHMM               1.27 : RESISTIVITY MUD CAKE
MCST.F                    75 : MUD CAKE SAMPLE TEMPERATURE
MFSS.                   CALC : MUD FILTRATE SAMPLE SOURCE
MCSS.                   CALC : MUD CAKE SAMPLE SOURCE
RMB .OHMM              0.488 : RESISTIVITY MUD AT BHT
TCS .HRS                 210 : TIME CURCULATED STOPPED
TLAB.HRS                 915 : TIME LOGGER AT BOTTOM
LUN .                   8258 : LOGGING UNIT NUMBER
LUL .             PLEASANTON : LOGGING UNIT LOCATION
ENGI.              GARY SHAW : RECORDING ENGINEER
WITN.        LEE TIM MAGUIRE : WITNESSED BY
CLNT.                A2DTECH : CLIENT CODE
ORIG.               5" PRINT : ORIGIN OF DATA
UWI .         42013332560000 : UNIQUE WELL ID
DICO. A2D Technologies, Inc. : DIGITIZING COMPANY
~Other -----------------------------------------------------
~ASCII -----------------------------------------------------
# ...
 8700.00000    -999.25    -999.25    -999.25    -999.25    0.74070   55.08940   43.89710   13.55630   15.73640   45.34900 -120.03940
 8750.00000    -999.25    -999.25    -999.25    -999.25    1.83700   48.81620   51.83860   24.75600   21.48530   57.47480 -102.56490
 8800.00000    -999.25    -999.25    -999.25    -999.25    1.69070   53.25440   46.10290   47.73180   26.91030   57.84200 -105.56960
 8850.00000    -999.25    -999.25    -999.25    -999.25    1.45190   53.44010   59.55920   59.78360   36.20830   53.60200  -93.45860
 8900.00000    -999.25    -999.25    -999.25    -999.25    0.09250   64.79200   30.22060    1.27030    1.67260    5.68020 -132.12570
 8950.00000    -999.25    -999.25    -999.25    -999.25    0.59180   59.83710   29.82840    8.53350    9.47510   24.04530 -131.45670
 9000.00000    -999.25    -999.25    -999.25    -999.25    0.38520   67.03080   29.33820    1.68060    2.35210    9.18940 -129.19320
 9050.00000    -999.25    -999.25    -999.25    -999.25    0.38520   67.75150   31.33020    0.83480    1.07130    2.35580 -129.88190
 9100.00000    -999.25    -999.25    -999.25    -999.25    0.41480   50.47910   29.55880    8.51260   12.49120   91.89110 -127.91340
 9150.00000    -999.25    -999.25    -999.25    -999.25    2.19400   53.69820   41.02940    3.77220    4.39190   25.83420 -129.48820
 9200.00000    -999.25    -999.25    -999.25    -999.25    1.97810   54.73580   44.78030   34.05080   33.70520   65.55200 -104.68500
 9250.00000    -999.25    -999.25    -999.25    -999.25    0.50370   71.24390   34.85450    0.54650    0.92120    4.13590 -131.06300
 9300.00000    -999.25    -999.25    -999.25    -999.25    1.54090   53.51790   49.19120    6.20730    6.00920   20.76600 -119.64330
 9350.00000    -999.25    -999.25    -999.25    -999.25    0.88890   51.92200   38.55250    4.44850    7.85960   30.82580 -125.55120
 9400.00000    -999.25    -999.25    -999.25    -999.25    2.35700   56.65770   41.91180   16.58540   16.20890   20.41290 -100.45280
 9450.00000    -999.25    -999.25    -999.25    -999.25    1.74770   57.38780   32.52090    5.26540    5.39690    7.26160 -103.11020
 9500.00000    -999.25    -999.25    -999.25    -999.25    1.61790   64.39110   41.23540   44.43210   28.61450   45.34830  -98.77950
 9550.00000    -999.25    -999.25    -999.25    -999.25    1.83690   55.02960   37.05990   43.53190   47.24580   42.65000  -96.58140
 9600.00000    -999.25    -999.25    -999.25    -999.25    2.94330   56.08050   44.78120   35.93090   19.59300   26.17540  -98.22200
 9650.00000    -999.25    -999.25    -999.25    -999.25    3.23560   55.04320   37.66690   28.69810   26.67440   29.29370 -101.13770
 9700.00000    -999.25    -999.25    -999.25    -999.25    2.02090   58.45550   55.16990   18.49300   32.75900   19.26690  -85.86420
 9750.00000    -999.25    -999.25    -999.25    -999.25    2.13330   60.02860   52.95420    3.95940    3.70590    5.28220 -102.02770
 9800.00000    -999.25    -999.25    -999.25    -999.25    2.90350   55.16060   45.86410   79.18540   33.09390  100.36050  -88.44750
 9850.00000    -999.25    -999.25    -999.25    -999.25    1.30030   57.81500   60.48740   17.98070   17.52040   25.25660  -31.68630
 9900.00000    -999.25    -999.25    -999.25    -999.25    5.92620   81.56340   83.30910    3.42760    2.60660    3.53540  -35.88570
 9950.00000    -999.25    -999.25    -999.25    -999.25    1.62960   55.45630   53.17510   56.37730   53.73430   85.98740  -32.51950
 10000.00000    -999.25    -999.25    -999.25    -999.25    1.95560   63.12590   69.35010   12.03570   11.42000   15.56740  -28.30710
 10050.00000    -999.25    -999.25    -999.25    -999.25    3.34830   68.14020   65.36220    7.89140    7.07440    9.30510  -31.06300
 10100.00000    -999.25    -999.25    -999.25    -999.25    4.47410   78.90770   99.70490    5.28190    5.00330    5.56090  -23.18900
 10150.00000    -999.25    -999.25    -999.25    -999.25    1.56810   76.98900   89.73470    6.76250    6.72320    9.69630  -22.79530
 10200.00000    2.57090    0.05650    0.16380    0.07840    3.05310   82.15340   84.41720    7.89170    7.22030   11.67090  -21.61420
 10250.00000    2.26960    0.15690    0.27110    0.24780    4.32610   80.23600   92.83600    5.22780    4.90240    6.22790  -33.03150
 10300.00000    2.30430    0.00630    0.16860    0.23050    3.37390   61.79910   77.54920   10.42010    9.03470   12.54300  -26.56820
 10350.00000    2.67720    0.09050    0.03820    0.00700    2.81480   59.29060   59.60440   13.75900   12.51670   26.59830  -28.07740
 10400.00000    2.22970    0.12370    0.22460    0.20960    3.82210   74.48170   81.97930    4.86450    4.38290    4.57320  -34.21260
 10450.00000    2.71570    0.06170    0.00890    0.00210    1.90270   54.86310   55.83940   56.96900   46.12120  217.20070  -44.25310
 10500.00000    2.63440    0.05940    0.16420    0.09260    2.10350   62.42510   46.53090    2.67760    1.90110    2.27130  -96.02360
 10550.00000    2.60780    0.09930    0.00000    0.05930    2.49010   52.95760   45.86520  128.47490   27.99290  146.87760  -97.99210
 10600.00000    2.64990    0.03730    0.07060    0.03180    2.01480   49.24580   37.66670    5.67660    6.01040   12.54220 -105.47240
 10650.00000    2.60640    0.08010    0.03550    0.06730    2.19270   55.17750   48.08010   12.80300   12.51710   18.55120  -98.38580
 10700.00000    2.51260    0.14200    0.01330    0.12270    2.51840   59.80950   50.96010   42.69900   28.86240   62.49360  -84.60630
 10750.00000    2.57610    0.06690    0.14950    0.10100    2.63170   57.69230   46.97230    5.28180    4.38290   66.49520  -97.50040
 10800.00000    2.46970    0.15840    0.02350    0.12010    2.84440   51.92310   47.41510   36.58680   32.28460 1289.15750 -100.01460
 10850.00000    2.61580    0.12000    0.01730    0.06290    2.18770   62.42600   60.70870   65.11750   36.85850   63.79310  -95.56560
 10900.00000    2.42690    0.24110    0.11450    0.15180    1.92670   52.81060   49.63070   11.66930    7.07460   12.03590 -110.19690
 10950.00000    -999.25    -999.25    -999.25    -999.25    -999.25    -999.25    -999.25   58.74980   18.06270 1650.66410  -98.74670
