~Version ---------------------------------------------------
VERS.      2.0 : CWLS log ASCII Standard -VERSION 2.0
WRAP.      YES : Multiple lines per depth step
CREA. 01/04/18 : LAS Creation Date
~Well ------------------------------------------------------
STRT.FT                         3450.0 : START DEPTH
STOP.FT                        13850.0 : STOP DEPTH
STEP.FT                       50.00000 : STEP LENGTH
NULL.                          -999.25 : NULL VALUE
COMP.          TORCH OPERATING COMPANY : COMPANY
WELL.           CAROLYN WARMKE UNIT #1 : WELL
FLD .                          WILDCAT : FIELD
LOC .                                  : LOCATION
CNTY.                          FAYETTE : COUNTY
STAT.                            TEXAS : STATE
CTRY.         UNITED STATES OF AMERICA : COUNTRY
SRVC. HALLIBURTON LOGGING SERVICES INC : SERVICE COMPANY
DATE.                      31-Dec-1991 : LOGDATE
API .                   42149325050000 : API NUMBER
UWI .                   42149325050000 : UNIQUE WELL ID
SLAT.WGS84               30.0718798257 : SURFACE LATITUDE
SLON.WGS84              -96.6577022662 : SURFACE LONGITUDE
~Curve Information -----------------------------------------
DEPT    .FT    : DEPTH FEET
CALRED  .IN    : CALIPER FROM DIL/SDL/DSN LOG
CALWS   .IN    : CALIPER [TOP DCALRD+BIT 13316' CALRED]
CONDWS  .MMHO  : DEEP CONDUCTIVITY [1000/DRESWS]
CORRED  .G/C3  : DENSITY CORRECTION FROM DIL/SDL/DSN LOG
DCALED  .IN    : DIFFERENTIAL CALIPER FROM DENSITY LOG
DENWS   .G/C3  : BULK DENSITY [CALC. FROM DPOLSWS]
DPHILSED.V/V   : DENSITY POROSITY (LS) [M=2.71 F=1.0] FROM DIL/SDL/DSN LOG
DPOLSWS .V/V   : DENSITY POROSITY LIMESTONE [M=2.71 F=1.0] [DPHILSED]
DRESWS  .OHMM  : DEEP RESISTIVITY [ILDED]
DTED    .US/F  : DELTA TIME FROM DIL/LSS LOG
DTWS    .US/F  : DELTA TIME COMPRESSIONAL [DTED]
GRRED   .GAPI  : GAMMA RAY FROM RESISTIVITY LOG
GRWS    .GAPI  : GAMMA RAY [GRRED]
ILDED   .OHMM  : INDUCTION LOG DEEP RESISTIVITY
ILMED   .OHMM  : INDUCTION LOG MEDIUM RESISTIVITY
MRESWS  .OHMM  : MEDIUM RESISTIVITY [ILMED]
NPHILSED.V/V   : NEUTRON POROSITY LIMESTONE FROM DIL/SDL/DSN LOG
NPOLSWS .V/V   : NEUTRON POROSITY LIMESTONE [NPHILSED]
SGUARDED.OHMM  : SHORT GUARD RESISTIVITY
SNED    .OHMM  : 16 INCH SHORT NORMAL RESISTIVITY FROM IEL LOG
SPRED   .MV    : SPONTANEOUS POTENTIAL FROM RESISTIVITY LOG
SPWS    .MV    : SPONTANEOUS POTENTIAL [BASELINE 0 MV] [SPRED]
SRESWS  .OHMM  : SHALLOW RESISTIVITY [TOP SGUARDED 13320' SNED]
TENRED  .LBF   : TENSION FROM RESISTIVITY LOG
~Params ----------------------------------------------------
PD  .                     GL : PERMANENT DATUM
EPD .FT                  387 : ELEVATION PERMANENT DATUM
LMF .                    TKB : LOG MEASURED FROM
DAPD.FT                 22.1 : FEET ABOVE PERMANENT DATUM
DMF .                    TKB : DRILLING MEASURED FROM
EKB .FT                409.1 : KELLY BUSHING
EDF .FT                407.8 : DRILLING FLOOR
EGL .FT                  387 : GROUND LEVEL
DATE.             12/31/1991 : RUN DATE
RUN .                      2 : RUN NUMBER
DD  .FT                13866 : DEPTH DRILLER
DL  .FT                13790 : DEPTH LOGGER
BLI .FT                13788 : BOTTOM LOG INTERVAL
TLI .FT                13316 : TOP LOG INTERVAL
CS  .IN                  6.5 : CASING SIZE
CBD .FT                13316 : CASING BOTTOM DRILLER
CBL .FT                13316 : CASING BOTTOM LOGGER
BS  .IN                 4.75 : BIT SIZE
BSD .FT                13866 : BIT SIZE AT DEPTH
DFT .                    CLS : DRILLING FLUID TYPE
DFD .                   10.6 : DRILLING FLUID DENSITY
DFV .                     45 : DRILLING FLUID VISCOSITY
DFPH.                    9.9 : DRILLING FLUID PH
DFL .                    6.2 : DRILLING FLUID LOSS
MSS .               FLOWLINE : MUD SAMPLE SOURCE
RMS .OHMM               0.86 : RESISTIVITY MUD SAMPLE
MST .DEGF                 75 : MUD SAMPLE TEMPERATURE
RMF .OHMM               0.72 : RESISTIVITY MUD FILTRATE SAMPLE
MFST.DEGF                 75 : MUD FILTRATE SAMPLE TEMPERATURE
RMC .OHMM                1.1 : RESISTIVITY MUD CAKE
MCST.DEGF                 75 : MUD CAKE SAMPLE TEMPERATURE
MFSS.                   MEAS : MUD FILTRATE SAMPLE SOURCE
MCSS.                   MEAS : MUD CAKE SAMPLE SOURCE
RMB .OHMM              0.241 : RESISTIVITY MUD AT BHT
TCS .HRS                1630 : TIME CIRCULATED STOPPED
TLAB.HRS                2324 : TIME LOGGER AT BOTTOM
LUN .                   7678 : LOGGING UNIT NUMBER
LUL .                   VICT : LOGGING UNIT LOCATION
ENGI.         STAPP ROBINSON : RECORDING ENGINEER
WITN.                HOLLIER : WITNESSED BY
CLNT.                A2DTECH : CLIENT CODE
ORIG.               5" PRINT : ORIGIN OF DATA
UWI .         42149325050000 : UNIQUE WELL ID
DICO. A2D Technologies, Inc. : DIGITIZING COMPANY
~Other -----------------------------------------------------
DIL/SDL/DSN PRESENTD FROM TD TO 10600'; DIL/LSS FROM 10600' TO CASING.
ALL POROSITY LOGS RAN ON LIMESTONE MATRIX.
DID NOT RACH TO TD WITH IEL.
LOGS WERE RAN SEPARATELY THEN MURGED TOGETHER.
~ASCII -----------------------------------------------------
# ...
 6350.00000    -999.25   10.14800  616.14290    -999.25    0.27300    -999.25    -999.25    -999.25    1.62300   88.26000   88.26000   70.52160   70.52160    1.62300    2.25800    2.25800    -999.25    -999.25    3.62200    -999.25  -93.12000  -36.78530    3.62200 2815.32980
 6400.00000    -999.25    9.40600  659.63060    -999.25   -0.46900    -999.25    -999.25    -999.25    1.51600   90.09900   90.09900   67.94920   67.94920    1.51600    2.27300    2.27300    -999.25    -999.25    3.91100    -999.25 -108.72400  -52.41940    3.91100 2799.84450
 6450.00000    -999.25    9.90600  473.70910    -999.25    0.03100    -999.25    -999.25    -999.25    2.11100   86.62000   86.62000   69.00880   69.00880    2.11100    2.35900    2.35900    -999.25    -999.25    3.23700    -999.25  -72.96600  -16.69150    3.23700 2801.08740
 6500.00000    -999.25    9.90100  681.19890    -999.25    0.02600    -999.25    -999.25    -999.25    1.46800   89.31200   89.31200   72.39030   72.39030    1.46800    1.96800    1.96800    -999.25    -999.25    3.96500    -999.25  -88.38700  -32.14250    3.96500 2822.75900
 6550.00000    -999.25    9.26800  758.15010    -999.25   -0.60700    -999.25    -999.25    -999.25    1.31900   70.31800   70.31800   54.33960   54.33960    1.31900    2.02300    2.02300    -999.25    -999.25    5.07100    -999.25 -114.69500  -58.48060    5.07100 2853.22120
 6600.00000    -999.25    9.32700  731.52890    -999.25   -0.54800    -999.25    -999.25    -999.25    1.36700   89.00600   89.00600   78.61460   78.61460    1.36700    2.23500    2.23500    -999.25    -999.25    4.58800    -999.25 -109.93300  -53.74870    4.58800 2868.94410
 6650.00000    -999.25    9.12200  515.19840    -999.25   -0.75300    -999.25    -999.25    -999.25    1.94100   90.11900   90.11900   75.58050   75.58050    1.94100    2.66200    2.66200    -999.25    -999.25    4.27800    -999.25  -96.29300  -40.13870    4.27800 2877.89720
 6700.00000    -999.25    9.12200 1169.59060    -999.25   -0.75300    -999.25    -999.25    -999.25    0.85500   93.92800   93.92800   40.28410   40.28410    0.85500    1.18100    1.18100    -999.25    -999.25    3.98300    -999.25 -138.81000  -82.68580    3.98300 2879.43360
 6750.00000    -999.25   10.51400  417.88550    -999.25    0.63900    -999.25    -999.25    -999.25    2.39300   86.81900   86.81900   89.39360   89.39360    2.39300    2.41800    2.41800    -999.25    -999.25    2.86400    -999.25  -78.84300  -22.74890    2.86400 2907.67700
 6800.00000    -999.25    9.80900  599.16120    -999.25   -0.06600    -999.25    -999.25    -999.25    1.66900   78.54500   78.54500   65.03370   65.03370    1.66900    2.29100    2.29100    -999.25    -999.25    5.08400    -999.25  -85.36500  -29.30090    5.08400 2918.16890
 6850.00000    -999.25   10.13800  152.74170    -999.25    0.26300    -999.25    -999.25    -999.25    6.54700  138.56200  138.56200   66.10400   66.10400    6.54700   10.93900   10.93900    -999.25    -999.25   26.19800    -999.25  -56.07700   -0.04300   26.19800 2916.36650
 6900.00000    -999.25    9.64600 1315.78950    -999.25   -0.22900    -999.25    -999.25    -999.25    0.76000   86.02400   86.02400   67.89010   67.89010    0.76000    1.12100    1.12100    -999.25    -999.25    4.55000    -999.25 -109.00000  -52.99610    4.55000 2957.91650
 6950.00000    -999.25    8.91500  555.55560    -999.25   -0.96000    -999.25    -999.25    -999.25    1.80000   83.43900   83.43900   40.70800   40.70800    1.80000    2.79400    2.79400    -999.25    -999.25    6.15200    -999.25 -133.84400  -77.87020    6.15200 2984.55440
 7000.00000    -999.25   10.92300  464.68400    -999.25    1.04800    -999.25    -999.25    -999.25    2.15200   85.05300   85.05300   77.75760   77.75760    2.15200    2.19700    2.19700    -999.25    -999.25    3.47500    -999.25  -59.07100   -3.12720    3.47500 3086.20390
 7050.00000    -999.25    9.74700  396.35350    -999.25   -0.12800    -999.25    -999.25    -999.25    2.52300   80.30800   80.30800   99.54660   99.54660    2.52300    3.39700    3.39700    -999.25    -999.25    6.00400    -999.25  -86.79400  -30.88030    6.00400 2926.24830
 7100.00000    -999.25    9.00700 1443.00140    -999.25   -0.86800    -999.25    -999.25    -999.25    0.69300   88.60800   88.60800   42.61490   42.61490    0.69300    1.21800    1.21800    -999.25    -999.25    4.41900    -999.25 -138.82500  -82.94140    4.41900 2973.99120
 7150.00000    -999.25    8.93100 1161.44020    -999.25   -0.94400    -999.25    -999.25    -999.25    0.86100   84.50000   84.50000   52.11100   52.11100    0.86100    1.60000    1.60000    -999.25    -999.25    5.90500    -999.25 -143.30500  -87.45140    5.90500 3002.94380
 7200.00000    -999.25    9.44900  436.87200    -999.25   -0.42600    -999.25    -999.25    -999.25    2.28900   78.64800   78.64800   75.70500   75.70500    2.28900    3.40900    3.40900    -999.25    -999.25    6.16500    -999.25  -86.30300  -30.47950    6.16500 3044.63750
 7250.00000    -999.25    9.32700  220.07040    -999.25   -0.54800    -999.25    -999.25    -999.25    4.54400  130.67600  130.67600   54.11960   54.11960    4.54400    3.67900    3.67900    -999.25    -999.25    5.65800    -999.25  -59.92900   -4.13560    5.65800 3099.05370
 7300.00000    -999.25    8.99100 1033.05790    -999.25   -0.88400    -999.25    -999.25    -999.25    0.96800   83.63800   83.63800   50.46530   50.46530    0.96800    1.69600    1.69600    -999.25    -999.25    5.11600    -999.25 -141.13700  -85.37360    5.11600 3135.84520
 7350.00000    -999.25    9.70600  357.90980    -999.25   -0.16900    -999.25    -999.25    -999.25    2.79400   89.93800   89.93800   67.10800   67.10800    2.79400    3.24800    3.24800    -999.25    -999.25    4.02000    -999.25  -63.77700   -8.04370    4.02000 3195.21260
 7400.00000    -999.25    9.08200  917.43120    -999.25   -0.79300    -999.25    -999.25    -999.25    1.09000   88.52300   88.52300   48.02910   48.02910    1.09000    1.91700    1.91700    -999.25    -999.25    5.56600    -999.25 -135.92300  -80.21980    5.56600 3189.82200
 7450.00000    -999.25    9.75600  668.44920    -999.25   -0.11900    -999.25    -999.25    -999.25    1.49600   83.80400   83.80400   70.24500   70.24500    1.49600    2.39700    2.39700    -999.25    -999.25    4.91900    -999.25 -113.27400  -57.60080    4.91900 3180.76660
 7500.00000    -999.25    9.55800  109.66110    -999.25   -0.31700    -999.25    -999.25    -999.25    9.11900  111.79800  111.79800  105.12250  105.12250    9.11900   12.39600   12.39600    -999.25    -999.25   63.94300    -999.25  -71.46300  -15.81990   63.94300 3228.51710
 7550.00000    -999.25    8.94200  996.01590    -999.25   -0.93300    -999.25    -999.25    -999.25    1.00400   81.30100   81.30100   48.55330   48.55330    1.00400    1.83800    1.83800    -999.25    -999.25    5.63400    -999.25 -142.31300  -86.70000    5.63400 3221.55640
 7600.00000    -999.25    9.03900  494.31540    -999.25   -0.83600    -999.25    -999.25    -999.25    2.02300   92.44000   92.44000   56.90410   56.90410    2.02300    3.27200    3.27200    -999.25    -999.25    5.51000    -999.25  -95.03600  -39.45300    5.51000 3233.34200
 7650.00000    -999.25    9.87400  436.87200    -999.25   -0.00100    -999.25    -999.25    -999.25    2.28900   86.62100   86.62100   72.84330   72.84330    2.28900    2.42700    2.42700    -999.25    -999.25    3.80100    -999.25  -62.37000   -6.81710    3.80100 3250.17260
 7700.00000    -999.25    9.28000  383.14180    -999.25   -0.59500    -999.25    -999.25    -999.25    2.61000   76.87900   76.87900   74.35580   74.35580    2.61000    3.31700    3.31700    -999.25    -999.25    5.30700    -999.25  -78.87800  -23.35520    5.30700 3241.85960
 7750.00000    -999.25    9.00900  736.37700    -999.25   -0.86600    -999.25    -999.25    -999.25    1.35800   85.42700   85.42700   53.88680   53.88680    1.35800    2.19900    2.19900    -999.25    -999.25    6.54900    -999.25 -114.70800  -59.21520    6.54900 3361.18580
