~Version ---------------------------------------------------
VERS. 2.0 : CWLS log ASCII Standard -VERSION 2.0
WRAP.  NO : ONE LINE PER DEPTH STEP
~Well ------------------------------------------------------
STRT.F                     1050.0 : START DEPTH
STOP.F                    10450.0 : STOP DEPTH
STEP.F                   50.00000 : STEP LENGTH
NULL.                     -999.25 : NULL VALUE
COMP. GOLDKING PRODUCTION COMPANY : COMPANY
WELL.    ALICE AINSWORTH ET AL #1 : WELL
FLD .         OAK FOREST PROSPECT : FIELD
LOC .                             : LOCATION
CNTY.                    GONZALES : COUNTY
STAT.                       TEXAS : STATE
CTRY.    UNITED STATES OF AMERICA : COUNTRY
SRVC.                Schlumberger : SERVICE COMPANY
DATE.                 18-Jan-1981 : LOGDATE
API .              42177306920000 : API NUMBER
UWI .              42177306920000 : UNIQUE WELL ID
SLAT.WGS84          29.5020058328 : SURFACE LATITUDE
SLON.WGS84         -97.5543126964 : SURFACE LONGITUDE
~Curve Information -----------------------------------------
DEPT   .F                 : 
DT     .US/F 60 500 00 00 : DELTA-T (INTERVAL TRANSIT TIME)
GRR    .GAPI 07 310 01 00 : GAMMA RAY FROM RESISTIVITY LOG
ILD    .OHMM 07 120 46 00 : INDUCTION DEEP RESISTIVITY
ILM    .OHMM 07 120 44 00 : INDUCTION MEDIUM RESISTIVITY
SFLU   .OHMM 07 220 01 00 : SHALLOW FOCUSED RESISTIVITY (UNAVERAGED)
SPR    .MV   07 010 01 00 : SPONTANEOUS POTENTIAL FROM RESISTIVITY LOG
NPHI_SS.DEC  42 890 03 00 : NEUTRON POROSITY SANDSTONE
DPHI_SS.DEC  45 890 12 00 : DENSITY POROSITY SANDSTONE
DPHI_LS.DEC  45 890 10 00 : DENSITY POROSITY LIMESTONE
NPHI_LS.DEC  42 890 01 00 : NEUTRON POROSITY LIMESTONE
DRHO   .G/C3 45 356 01 00 : BULK DENSITY CORRECTION
RHOB   .G/C3 45 350 01 00 : BULK DENSITY
CALD   .IN   45 280 60 00 : CALIPER FROM DENSITY LOG
~Params ----------------------------------------------------
EKB .FT                352.1 : KELLY BUSHING
EDF .FT                351.1 : DRILLING FLOOR
EGL .FT                337.1 : GROUND LEVEL
DATE.               01/18/81 : RUN DATE
RUN .                      1 : RUN NUMBER
CLNT.                A2DTECH : CLIENT CODE
ORIG.            1" 5" PRINT : ORIGIN OF DATA
UWI .         42177306920000 : UNIQUE WELL ID
DICO. A2D Technologies, Inc. : DIGITIZING COMPANY
~Other -----------------------------------------------------
~ASCII -----------------------------------------------------
# ...
 8850.00000   62.03290   48.88290    1.72800    1.86620    3.44530  -52.11470    -999.25    -999.25    0.05240    0.21630    0.16100    2.60750   12.12810
 8900.00000   56.59260   57.43840   11.30840   11.75030   19.45580  -23.80840    -999.25    -999.25    0.02110    0.11100    0.23810    2.66790   11.01930
 8950.00000   54.99020   33.31720    7.84240    7.35730   13.33700  -55.29040    -999.25    -999.25    0.03130    0.16110    0.00250    2.66120   11.00500
 9000.00000   63.06830   48.84150    2.58030    2.80780    3.18490  -46.98600    -999.25    -999.25    0.05460    0.24050    0.13380    2.61630   11.73780
 9050.00000   62.83010   54.56930    3.40170    3.12740    2.11140  -44.38640    -999.25    -999.25    0.02810    0.23260    0.03730    2.66600   12.09690
 9100.00000   67.69230   36.75110    1.21180    1.46670    3.43930  -68.83210    -999.25    -999.25    0.08210    0.26310    0.11470    2.56730   11.42300
 9150.00000   51.91440   53.75600   39.70690   26.00800   26.84780  -40.11470    -999.25    -999.25   -0.03480    0.12610    0.00170    2.77330   10.28710
 9200.00000   50.81870   48.24350   27.20590   23.20860   31.96270  -24.09700    -999.25    -999.25   -0.02970    0.08850    0.00430    2.76500   10.52690
 9250.00000   60.21980   51.71250    3.98480    3.77420    6.43570  -24.66890    -999.25    -999.25    0.08420    0.18320    0.02550    2.55650   11.01240
 9300.00000   57.94500   39.41800    4.11910    4.53800    7.12060  -42.97700    -999.25    -999.25    0.00960    0.14640    0.00740    2.69330   11.61000
 9350.00000   58.40140   52.59280    5.23510    6.80180   13.85370  -24.70650    -999.25    -999.25   -0.00970    0.08420    0.01890    2.73060   10.89180
 9400.00000   60.88300   62.86250   14.51290   10.77780   13.71990  -11.04190    -999.25    -999.25   -0.02550    0.09520    0.03910    2.75960   10.29680
 9450.00000   55.08850   36.55760   17.84030   16.95010   25.32050  -14.29240    -999.25    -999.25   -0.01120    0.06220    0.02180    2.72950   10.09920
 9500.00000   56.12210   58.19640   16.44630   14.20070   15.65190  -23.90480    -999.25    -999.25   -0.01860    0.07940    0.00960    2.74510   10.29830
 9550.00000   56.22150   48.60970    9.68590   17.57830   24.34880  -12.68400    -999.25    -999.25    0.00060    0.06510    0.00020    2.70970   10.72860
 9600.00000   59.09480   69.90580    9.47870   10.65760   20.15590   -6.75930    -999.25    -999.25   -0.00420    0.10790    0.01660    2.71630   10.26800
 9650.00000   53.04440   52.81390   28.56810   27.63770   51.21420  -18.03020    -999.25    -999.25   -0.01140    0.02280    0.01600    2.73350   10.34530
 9700.00000   55.94270   62.63070   19.85930   20.22340   33.38180  -11.59100    -999.25    -999.25   -0.00960    0.04090    0.01000    2.72590   10.34950
 9750.00000   57.55930   59.92030   15.16840   14.25520   19.73820   -6.08730    -999.25    -999.25   -0.00360    0.07540    0.00640    2.71460   10.34430
 9800.00000   54.60470   46.47300   10.67550   10.57440   13.32240  -24.52040    -999.25    -999.25   -0.04950    0.10470    0.02580    2.79980   10.40300
 9850.00000   58.42780   68.08330   18.66530   18.36960   23.27460  -13.78530    -999.25    -999.25   -0.00750    0.04570    0.02320    2.72320   10.49800
 9900.00000   53.15170   51.17280   22.16430   20.81030   27.33120   -6.32820    -999.25    -999.25   -0.05880    0.14190    0.02640    2.81020   10.99800
 9950.00000   58.42010   74.88660   20.67800   18.66450   23.57380   -5.92130    -999.25    -999.25    0.01300    0.04810    0.02310    2.68760    9.50810
 10000.00000   59.60860   43.36200   12.37890   11.10920   14.64820  -15.59200    -999.25    -999.25    0.01820    0.03390    0.04930    2.68020   13.48000
 10050.00000   64.58490  108.74250   23.89850   58.48930   21.09840  -15.91180    -999.25    -999.25    0.14200    0.13120    0.11160    2.44560   11.13790
 10100.00000   68.07260   50.35870    4.33870    4.60250    4.03350  -23.07960    -999.25    -999.25    0.07150    0.09850    0.03030    2.58770   11.62280
 10150.00000   62.53780   90.03450    8.69620    8.84370    9.66960    2.23120    -999.25    -999.25    0.01040    0.09480    0.02570    2.68950    9.83860
 10200.00000   65.90500  107.06840    6.59090    6.76820    7.29390   -6.44160    -999.25    -999.25    0.01270    0.16280    0.03480    2.68720   10.11270
 10250.00000   68.56400   48.23620    2.72840    2.78340    2.66840  -39.17470    -999.25    -999.25    0.08630    0.13000    0.03270    2.56120   10.03990
 10300.00000   60.46470   56.16060   10.94020   10.35590   14.39710   -1.48320    -999.25    -999.25    0.01530    0.07730    0.04040    2.68320    9.23600
 10350.00000   65.72600   76.59550    6.62360    6.79690    6.51080  -20.07550    -999.25    -999.25    0.01470    0.17160    0.05910    2.67460    9.29720
 10400.00000   60.65170   77.48250   11.73950   11.56240   13.81060    4.71330    -999.25    -999.25    0.01660    0.10670    0.02100    2.67940    9.22860
 10450.00000   62.81940   42.75000    9.44880    9.63840    9.36940  -23.23270    -999.25    -999.25    0.05880    0.05990    0.03360    2.61000    8.66610
