~Version ---------------------------------------------------
VERS.      2.0 : CWLS log ASCII Standard -VERSION 2.0
WRAP.      YES : Multiple lines per depth step
CREA. 08/01/20 : LAS Creation Date
~Well ------------------------------------------------------
STRT.FT                       3500.0 : START DEPTH
STOP.FT                       9850.0 : STOP DEPTH
STEP.FT                     50.00000 : STEP LENGTH
NULL.                        -999.25 : NULL VALUE
COMP. INTERNATIONAL DRILLING SYSTEMS : COMPANY
WELL.                        COOK #1 : WELL
FLD .                         KURTEN : FIELD
LOC .                                : LOCATION
CNTY.                         BRAZOS : COUNTY
STAT.                          TEXAS : STATE
CTRY.       UNITED STATES OF AMERICA : COUNTRY
SRVC.                   Schlumberger : SERVICE COMPANY
DATE.                    18-Apr-1986 : LOGDATE
API .                 42041313380000 : API NUMBER
UWI .                 42041313380000 : UNIQUE WELL ID
SLAT.WGS84             30.6850268218 : SURFACE LATITUDE
SLON.WGS84            -96.2700084962 : SURFACE LONGITUDE
~Curve Information -----------------------------------------
DEPT    .FT    : DEPTH FEET
BITSED  .IN    : BIT SIZE
CALWS   .IN    : CALIPER [DCALRED+BITS]
CILDED  .MMHO  : CONDUCTIVITY FROM DIL-SFL-CDL-CNL LOG FROM 2" SECTION
CONDWS  .MMHO  : CONDUCTIVITY [1000/DRESWS]
DCALRED .IN    : DIFFERENTIAL CALIPER FROM DIL-SFL-CDL-CNL LOG
DCORWS  .G/C3  : DENSITY CORRECTION [DRHOED]
DENWS   .G/C3  : FORMATION BULK DENSITY [CALC. DPOLSWS M=2.71, F=1.0]
DPHILSED.V/V   : DENSITY POROSITY LIMESTONE [ M=2.71,F=1.0] FROM DIL-SFL-CDL-CNL LOG
DPHISSED.V/V   : DENSITY POROSITY SANDSTONE [ M=2.68,F=1.0] FROM DIL-SFL-CDL-CNL LOG
DPOLSWS .V/V   : DENSITY POROSITY LIMESTONE [TOP DPHILSED 9130' DPHISSED CONVERTED TO LIMESTONE MATRIX M=2.71,F=1.0, SPL. TO 9741' DPHILSED TD]
DRESWS  .OHMM  : DEEP RESISTIVITY [ILDED]
DRHOED  .G/C3  : BULK DENSITY CORRECTION FROM DIL-SFL-CDL-CNL LOG
GRRED   .GAPI  : GAMMA RAY FROM DIL-SFL-CDL-CNL LOG
GRWS    .GAPI  : GAMMA RAY [GRRED]
ILD1ED  .OHMM  : DEEP INDUCTION RESISTIVITY FROM DIL-SFL-CDL-CNL LOG FROM 2" SECTION
ILDED   .OHMM  : DEEP INDUCTION RESISTIVITY FROM DIL-SFL-CDL-CNL LOG
ILMED   .OHMM  : MEDIUM INDUCTION RESISTIVITY FROM DIL-SFL-CDL-CNL LOG
MRESWS  .OHMM  : MEDIUM RESISTIVITY [ILMED]
NPHILSED.V/V   : NEUTRON POROSITY LIMESTONE FROM DIL-SFL-CDL-CNL LOG
NPHISSED.V/V   : NEUTRON POROSITY SANDSTONE FROM DIL-SFL-CDL-CNL LOG
NPOLSWS .V/V   : NEUTRON POROSITY LIMESTONE [TOP NPHILSED 9125' MATRIX CONVERSION FOR LIMESTONE (SLB-CNL) SPL. TO 9741' NPHILSED TD]
PEED    .B/E   : PHOTO ELECTRIC CROSS SECTION FROM DIL-SFL-CDL-CNL LOG
PEFWS   .B/E   : PHOTO ELECTRIC FACTOR [PEED]
SFLAED  .OHMM  : SPHERICALLY FOCUSED LOG RESISTIVITY FROM DIL-SFL-CDL-CNL LOG FROM 2" SECTION
SFLED   .OHMM  : SPHERICALLY FOCUSED LOG RESISTIVITY FROM DIL-SFL-CDL-CNL LOG
SPRED   .MV    : SPONTANEOUS POTENTIAL FROM DIL-SFL-CDL-CNL LOG
SPWS    .MV    : SPONTANEOUS POTENTIAL [BASELINE 0MV, SPRED]
SRESWS  .OHMM  : SHALLOW RESISTIVITY [SFLED]
TENRED  .LBF   : TENSION  FROM DIL-SFL-CDL-CNL LOG
~Params ----------------------------------------------------
PD  .                     GL : PERMANENT DATUM
EPD .FT                  300 : ELEVATION PERMANENT DATUM
LMF .                     KB : LOG MEASURED FROM
DAPD.FT                 18.6 : FEET ABOVE PERMANENT DATUM
DMF .                     KB : DRILLING MEASURED FROM
EKB .FT                318.6 : KELLY BUSHING
EDF .FT                317.6 : DRILLING FLOOR
EGL .FT                  300 : GROUND LEVEL
DATE.               04/18/86 : RUN DATE
RUN .                      1 : RUN NUMBER
DD  .FT                 9899 : DEPTH DRILLER
DL  .FT                 9877 : DEPTH LOGGER
BLI .FT                 9871 : BOTTOM LOG INTERVAL
TLI .FT                 3533 : TOP LOG INTERVAL
CS  .IN                9.625 : CASING SIZE
CBD .FT                 3532 : CASING BOTTOM DRILLER
CBL .FT                 3533 : CASING BOTTOM LOGGER
BS  .IN                 8.75 : BIT SIZE
BSD .FT                 9899 : BIT SIZE AT DEPTH
DFT .                  BENEX : DRILLING FLUID TYPE
DFD .                    9.2 : DRILLING FLUID DENSITY
DFV .                     44 : DRILLING FLUID VISCOSITY
DFPH.                      9 : DRILLING FLUID PH
DFL .                    5.8 : DRILLING FLUID LOSS
MSS .              CIRC TANK : MUD SAMPLE SOURCE
RMS .OHMM               3.66 : RESISTIVITY MUD SAMPLE
MST .DEGF                 96 : MUD SAMPLE TEMPERATURE
RMF .OHMM               2.67 : RESISTIVITY MUD FILTRATE SAMPLE
MFST.DEGF                 80 : MUD FILTRATE SAMPLE TEMPERATURE
RMC .OHMM               5.49 : RESISTIVITY MUD CAKE
MCST.DEGF                 96 : MUD CAKE SAMPLE TEMPERATURE
MFSS.                  PRESS : MUD FILTRATE SAMPLE SOURCE
MCSS.                  CHART : MUD CAKE SAMPLE SOURCE
RMB .OHMM               1.77 : RESISTIVITY MUD AT BHT
TCS .HRS                 600 : TIME CIRCULATED STOPPED
TLAB.HRS                1100 : TIME LOGGER AT BOTTOM
LUN .                   8137 : LOGGING UNIT NUMBER
LUL .                BRENHAM : LOGGING UNIT LOCATION
ENGI.                   ONEY : RECORDING ENGINEER
WITN.                MITCHAM : WITNESSED BY
CLNT.                A2DTECH : CLIENT CODE
ORIG.         1" 2" 5" PRINT : ORIGIN OF DATA
UWI .         42041313380000 : UNIQUE WELL ID
DICO. A2D Technologies, Inc. : DIGITIZING COMPANY
~Other -----------------------------------------------------
DIL-SFL-CDL-CNL LOG RUN.
SFLA_1,ILD_1,CILD VERYFIED FROM 2" LINEAR SECTION.
~ASCII -----------------------------------------------------
# ...
 8500.00000    8.75000   12.34410  579.95650  594.35360    3.59410    0.08400    2.50090    0.12230    -999.25    0.12230    1.68250    0.08400   92.31900   92.31900    1.74400    1.68250    1.81380    1.81380    0.27310    -999.25    0.27310    3.03590    3.03590    2.29610    2.25560   -4.43960   -6.12130    2.25560 5045.47180
 8550.00000    8.75000   11.57900  547.62460  553.49530    2.82900    0.08190    2.50120    0.12210    -999.25    0.12210    1.80670    0.08190   90.63990   90.63990    1.84810    1.80670    1.92690    1.92690    0.27080    -999.25    0.27080    2.94270    2.94270    2.40340    2.39520   -6.31540   -7.92980    2.39520 5092.14850
 8600.00000    8.75000   10.75960  336.79480  339.13250    2.00960    0.04050    2.60830    0.05950    -999.25    0.05950    2.94870    0.04050   86.81060   86.81060    2.94500    2.94870    3.03740    3.03740    0.21010    -999.25    0.21010    3.92210    3.92210    3.87210    3.74050   -4.19050   -5.73750    3.74050 5028.25750
 8650.00000    8.75000   11.33310  348.32400  355.12620    2.58310    0.02310    2.56910    0.08240    -999.25    0.08240    2.81590    0.02310   93.48700   93.48700    2.79630    2.81590    2.87960    2.87960    0.23800    -999.25    0.23800    3.64620    3.64620    3.67180    3.61590   -5.54470   -7.02430    3.61590 4922.18460
 8700.00000    8.75000   12.13940  394.87210  384.15740    3.38940    0.07530    2.56910    0.08240    -999.25    0.08240    2.60310    0.07530   85.47390   85.47390    2.57420    2.60310    2.66210    2.66210    0.22960    -999.25    0.22960    3.65350    3.65350    3.37290    3.45440   -6.12740   -7.53970    3.45440 5046.47650
 8750.00000    8.75000   10.44890  373.20060  379.44900    1.69890    0.08760    2.55780    0.08900    -999.25    0.08900    2.63540    0.08760   83.33310   83.33310    2.76310    2.63540    2.69500    2.69500    0.24150    -999.25    0.24150    3.78680    3.78680    3.57370    3.34820   -3.66400   -5.00890    3.34820 5097.48930
 8800.00000    8.75000   10.08880  120.13040  122.98310    1.33880   -0.00730    2.62660    0.04880    -999.25    0.04880    8.13120   -0.00730   41.69000   41.69000    7.95970    8.13120    8.36910    8.36910    0.09890    -999.25    0.09890    4.92110    4.92110    9.76290   10.77810   -4.92970   -6.20720   10.77810 5146.44090
 8850.00000    8.75000   10.55580   86.95640   84.27870    1.80580   -0.02120    2.61080    0.05800    -999.25    0.05800   11.86540   -0.02120   41.37950   41.37950   13.11840   11.86540   11.93240   11.93240    0.07160    -999.25    0.07160    4.58050    4.58050   14.50370   16.24920   -7.62960   -8.83980   16.24920 5027.83270
 8900.00000    8.75000   10.55930  119.27270  115.85070    1.80930   -0.01630    2.64810    0.03620    -999.25    0.03620    8.63180   -0.01630   40.89220   40.89220    8.55550    8.63180    8.83160    8.83160    0.08420    -999.25    0.08420    4.87490    4.87490   10.30010   10.50600   -8.92050  -10.06330   10.50600 4992.03420
 8950.00000    8.75000   10.40670  112.00170  120.50520    1.65670   -0.01650    2.66160    0.02830    -999.25    0.02830    8.29840   -0.01650   51.67960   51.67960    8.84470    8.29840    8.49130    8.49130    0.08680    -999.25    0.08680    4.56020    4.56020   10.48110   10.09930   -6.39810   -7.47360   10.09930 5059.83670
 9000.00000    8.75000   10.50580  209.00010  204.84670    1.75580   -0.00100    2.61940    0.05300    -999.25    0.05300    4.88170   -0.00100   67.97550   67.97550    5.07380    4.88170    5.98900    5.98900    0.14560    -999.25    0.14560    3.95500    3.95500    6.44230    6.74530   -8.03300   -8.78920    6.74530 5076.13960
 9050.00000    8.75000   13.48830   35.72450   34.04080    4.73830    0.02880    1.94310    0.44850    -999.25    0.44850   29.37650    0.02880   27.42870   27.42870   29.73860   29.37650   30.03580   30.03580    0.12810    -999.25    0.12810    2.42190    2.42190   28.14830   32.32660  -43.11720  -43.50260   32.32660 5413.21070
 9100.00000    8.75000   12.95220   27.45610   36.02760    4.20220    0.08210    1.94490    0.44740    -999.25    0.44740   27.75650    0.08210   29.52910   29.52910   33.61220   27.75650   28.67920   28.67920    0.05610    -999.25    0.05610    3.33300    3.33300   31.41130   31.22940  -25.71860  -25.73320   31.22940 5175.29960
 9150.00000    8.75000   10.27570   94.69060   87.89430    1.52570   -0.00110    2.57620    -999.25    0.06180    0.07830   11.37730   -0.00110   41.33840   41.33840   10.84790   11.37730   11.59130   11.59130    -999.25    0.11080    0.06890    2.31550    2.31550   18.44120   17.54680  -10.06150   -9.70530   17.54680 5161.68630
 9200.00000    8.75000   15.14460  613.59840  614.47710    6.39460    0.08340    2.40570    -999.25    0.16330    0.17800    1.62740    0.08340   83.85510   83.85510    1.61170    1.62740    1.66420    1.66420    -999.25    0.41080    0.36810    2.15130    2.15130    2.18540    2.15830   -6.37130   -6.04570    2.15830 5270.35280
 9250.00000    8.75000   13.71190  567.22120  550.38800    4.96190    0.08670    2.43660    -999.25    0.14490    0.15990    1.81690    0.08670  102.39150  102.39150    1.80700    1.81690    1.87780    1.87780    -999.25    0.33410    0.29030    2.51680    2.51680    2.43030    2.45870   -6.02680   -6.20280    2.45870 5111.40530
 9300.00000    8.75000    9.93880  473.19290  496.05640    1.18880    0.08240    2.55550    -999.25    0.07410    0.09030    2.01590    0.08240   99.75590   99.75590    2.13100    2.01590    2.06160    2.06160    -999.25    0.29810    0.25410    2.78510    2.78510    3.07630    3.14330   -7.81580   -8.49350    3.14330 5184.82710
 9350.00000    8.75000   11.81640  563.31000  567.27930    3.06640    0.06630    2.51970    -999.25    0.09540    0.11130    1.76280    0.06630   96.67900   96.67900    1.73100    1.76280    1.78630    1.78630    -999.25    0.32740    0.28360    2.73470    2.73470    2.62830    2.47720   -5.39170   -6.51240    2.47720 5040.14120
 9400.00000    8.75000    8.85060  388.64400  373.70600    0.10060    0.08060    2.59160    -999.25    0.05260    0.06920    2.67590    0.08060  110.12840  110.12840    2.54240    2.67590    2.73650    2.73650    -999.25    0.30810    0.26410    3.05260    3.05260    3.52990    3.66340   -3.66700   -5.03440    3.66340 5021.98250
 9450.00000    8.75000    8.65210  658.68620  660.19670   -0.09790    0.08700    2.49070    -999.25    0.11270    0.12830    1.51470    0.08700  107.76000  107.76000    1.54840    1.51470    1.58290    1.58290    -999.25    0.36820    0.32480    2.71120    2.71120    2.32810    2.18260   -4.79490   -6.40890    2.18260 4983.83950
 9500.00000    8.75000    8.90050  308.84080  307.18190    0.15050    0.03080    2.56630    -999.25    0.06770    0.08410    3.25540    0.03080  101.67700  101.67700    2.93170    3.25540    3.33260    3.33260    -999.25    0.30360    0.25960    3.40220    3.40220    3.68070    3.60000   -1.86560   -3.72630    3.60000 4940.77030
 9550.00000    8.75000    9.46800  588.90660  566.21940    0.71800    0.07720    2.53430    -999.25    0.08670    0.10270    1.76610    0.07720  113.56600  113.56600    1.72210    1.76610    1.80740    1.80740    -999.25    0.35010    0.30650    2.93510    2.93510    2.85780    2.77990   -5.84490   -7.95220    2.77990 4932.71570
 9600.00000    8.75000    9.44950  454.92660  453.82350    0.69950    0.08630    2.55180    -999.25    0.07630    0.09250    2.20350    0.08630  109.83490  109.83490    2.21380    2.20350    2.25340    2.25340    -999.25    0.36880    0.32540    3.25260    3.25260    3.65470    3.75960   -4.41770   -6.77170    3.75960 4843.19670
 9650.00000    8.75000    8.56540  402.52820  405.48210   -0.18460    0.05550    2.45820    -999.25    0.13200    0.14720    2.46620    0.05550  125.96790  125.96790    2.54130    2.46620    2.53050    2.53050    -999.25    0.41170    0.36910    3.40620    3.40620    3.68550    3.54150   -5.04230   -7.64290    3.54150 4855.78630
 9700.00000    8.75000    8.81300  132.73690  135.16440    0.06300   -0.01570    2.49220    -999.25    0.11180    0.12740    7.39840   -0.01570  145.41350  145.41350    7.96940    7.39840    7.17120    7.17120    -999.25    0.30930    0.26540    4.22720    4.22720   11.52120   12.18290    0.54160   -5.46770   12.18290 4822.30810
