~Version ---------------------------------------------------
VERS. 2.0 : CWLS log ASCII Standard -VERSION 2.0
WRAP.  NO : ONE LINE PER DEPTH STEP
~Well ------------------------------------------------------
STRT.F                     450.0 : START DEPTH
STOP.F                    6500.0 : STOP DEPTH
STEP.F                  50.00000 : STEP LENGTH
NULL.                    -999.25 : NULL VALUE
COMP. LONGHORN OIL & GAS COMPANY : COMPANY
WELL.          DUGI DANIEL D. #1 : WELL
FLD .                STOCKDALE S : FIELD
LOC .                            : LOCATION
CNTY.                     WILSON : COUNTY
STAT.                      TEXAS : STATE
CTRY.   UNITED STATES OF AMERICA : COUNTRY
SRVC.              Dresser Atlas : SERVICE COMPANY
DATE.                22-Feb-1981 : LOGDATE
API .             42493307780000 : API NUMBER
UWI .             42493307780000 : UNIQUE WELL ID
SLAT.WGS84         29.1323653489 : SURFACE LATITUDE
SLON.WGS84        -97.9937322187 : SURFACE LONGITUDE
~Curve Information -----------------------------------------
DEPT.F                 : 
SPR .MV   07 010 01 00 : SPONTANEOUS POTENTIAL FROM RESISTIVITY LOG
CALR.IN   07 280 01 00 : CALIPER FROM RESISTIVITY LOG
AC  .MS/F 60 500 00 00 : ACOUSTIC
ILD .OHMM 07 120 46 00 : INDUCTION DEEP RESISTIVITY
ILM .OHMM 07 120 44 00 : INDUCTION MEDIUM RESISTIVITY
SFLU.OHMM 07 220 01 00 : SPHERICALLY FOCUSED LOG UNAVERAGED RESISTIVITY
GRR .GAPI 07 310 01 00 : GAMMA RAY FROM RESISTIVITY LOG
GR  .CPS  81 310 30 00 : GAMMA RAY
~Params ----------------------------------------------------
PD  .                     GL : PERMANENT DATUM
EPD .FT                  362 : ELEVATION PERMANENT DATUM
LMF .                     KB : LOG MEASURED FROM
DAPD.FT                   16 : FEET ABOVE PERMANENT DATUM
DMF .                     KB : DRILLING MEASURED FROM
EKB .FT                  378 : KELLY BUSHING
EDF .FT                  377 : DRILLING FLOOR
EGL .FT                  362 : GROUND LEVEL
DATE.               02/22/81 : RUN DATE
RUN .                      2 : RUN NUMBER
DD  .FT                 6557 : DEPTH DRILLER
DL  .FT                 6546 : DEPTH LOGGER
BLI .FT                 6544 : BOTTOM LOG INTERVAL
TLI .FT                 6013 : TOP LOG INTERVAL
CS  .IN                7.625 : CASING SIZE
CBD .FT                 6025 : CASING BOTTOM DRILLER
CBL .FT                 6013 : CASING BOTTOM LOGGER
BS  .IN                  6.5 : BIT SIZE
BSD .FT                 6557 : BIT SIZE AT DEPTH
DFT .                    KCL : DRILLING FLUID TYPE
DFD .                    9.6 : DRILLING FLUID DENSITY
DFV .                     44 : DRILLING FLUID VISCOSITY
DFPH.                    9.5 : DRILLING FLUID PH
DFL .                      6 : DRILLING FLUID LOSS
MSS .               FLOWLINE : MUD SAMPLE SOURCE
RMS .OHMM               0.35 : RESISTIVITY MUD SAMPLE
MST .DEGF                 75 : MUD SAMPLE TEMPERATURE
RMF .OHMM               0.26 : RESISTIVITY MUD FILTRATE SAMPLE
MFST.DEGF                 75 : MUD FILTRATE SAMPLE TEMPERATURE
RMC .OHMM               0.44 : RESISTIVITY MUD CAKE
MCST.DEGF                 75 : MUD CAKE SAMPLE TEMPERATURE
MFSS.                   MEAS : MUD FILTRATE SAMPLE SOURCE
MCSS.                   CACL : MUD CAKE SAMPLE SOURCE
RMB .OHMM               0.15 : RESISTIVITY MUD AT BHT
TCS .HRS                   3 : TIME CIRCULATED STOPPED
LUL .                    VIC : LOGGING UNIT LOCATION
CLNT.                A2DTECH : CLIENT CODE
ORIG.               5" PRINT : ORIGIN OF DATA
UWI .         42493307780000 : UNIQUE WELL ID
DICO. A2D Technologies, Inc. : DIGITIZING COMPANY
~Other -----------------------------------------------------
~ASCII -----------------------------------------------------
# ...
 4450.00000  -53.67320    9.73320  112.17850    1.03160    1.08780    1.52140    -999.25  134.76370
 4500.00000  -52.16120   10.19530  110.66570    0.97220    1.12180    1.44940    -999.25  147.78120
 4550.00000  -52.47130   10.42280  112.73690    0.87620    0.89880    1.33380    -999.25  126.03560
 4600.00000  -51.87360   10.00300  113.76900    0.82320    0.82710    1.28840    -999.25  116.86390
 4650.00000  -55.17140    9.61320   89.93950    2.08840    2.24210    2.12130    -999.25   96.15310
 4700.00000  -54.24560    9.71810   97.05530    1.43060    1.66470    1.78320    -999.25  104.28990
 4750.00000  -53.38980    9.86810  101.28590    1.29200    1.42240    1.79640    -999.25  100.14790
 4800.00000  -56.22180   10.02650   99.16790    1.41680    1.68270    2.06330    -999.25  102.21890
 4850.00000  -51.87650    9.90270   95.83900    1.48320    1.68360    2.24210    -999.25   99.70410
 4900.00000  -52.75800   10.01800   94.44530    1.30100    1.53190    1.69960    -999.25  103.25440
 4950.00000  -50.36190    9.52320  104.31290    1.24730    1.36250    1.59540    -999.25   99.11240
 5000.00000  -49.60110    9.47820  108.19370    0.99270    1.09870    1.37120    -999.25  102.81070
 5050.00000  -45.58940    9.80810  114.66250    0.74700    0.76650    1.21890    -999.25   94.82250
 5100.00000  -49.18740    9.73300   99.02170    1.38480    1.58590    2.00690    -999.25   92.75120
 5150.00000  -49.17490    9.32850   92.86770    1.61300    2.00690    2.22660    -999.25  101.92310
 5200.00000  -46.11340    9.23650   96.29350    1.68050    1.91190    2.10660    -999.25   94.22980
 5250.00000  -46.77660    9.26840   97.44720    1.36570    1.59750    1.95030    -999.25   94.82340
 5300.00000  -45.27690   10.68420  105.42170    1.24060    1.29740    1.51700    -999.25   90.53210
 5350.00000  -44.67770    8.95340   81.77710    2.62270    2.72180    2.77260    -999.25   96.15420
 5400.00000  -44.97750    9.20840   84.95350    1.89910    2.27340    2.22660    -999.25   96.74560
 5450.00000  -40.77760    9.28590   93.37410    1.32650    1.50040    1.52130    -999.25  112.27810
 5500.00000  -37.37900    9.23840   84.47000    1.93180    2.02090    2.09960    -999.25   83.87500
 5550.00000  -36.28910    9.29840   91.11510    1.35630    1.45940    1.74730    -999.25  110.35470
 5600.00000  -38.08100    8.77360   94.80210    1.14830    1.27070    1.41960    -999.25  107.69190
 5650.00000  -37.13430    9.32570  102.86150    0.98780    0.99720    1.32460    -999.25  104.43790
 5700.00000  -41.37980    8.59370   93.65070    1.27420    1.36430    1.57660    -999.25  109.17110
 5750.00000  -40.09800    8.39880   89.00600    1.50830    1.63700    1.79640    -999.25  102.21890
 5800.00000  -66.26540    8.32100   89.00600    1.51550    1.73530    2.00690    -999.25  102.95860
 5850.00000  -41.44460    9.40750   99.69880    1.07520    1.21050    1.51200    -999.25   97.33740
 5900.00000  -40.19520    9.37330   91.87240    1.48430    1.66470    1.93860    -999.25   91.71600
 5950.00000  -42.28480    9.38970   88.11990    1.68650    1.97930    2.18080    -999.25   90.82890
 6000.00000  -43.77410    9.35840   85.54290    2.04160    2.16570    2.50480    -999.25   89.94080
 6050.00000   -9.59520    -999.25   84.78920    2.65790    2.95770    2.97470   86.71580  101.03550
 6100.00000  -21.27680    -999.25   93.42480    1.84020    1.89220    2.36400  118.90120  116.12500
 6150.00000  -38.67940    -999.25   77.76600    4.11420    4.18150    4.21440   74.36540   92.45610
 6200.00000  -52.47330    -999.25   74.24060    4.41000    4.62990    5.49810   50.11160   71.45020
 6250.00000  -58.12610    -999.25   68.96200    6.87340    6.78980    9.14490   38.33730   71.45020
 6300.00000  -77.96100    -999.25   63.20850   10.87110   11.98050   12.83960   30.63460   62.86990
 6350.00000 -112.45530    -999.25   67.92170   12.83070   12.77490   13.38630   77.99090   85.50270
 6400.00000 -149.02720    -999.25   71.08480   51.01010   34.56380   54.59090   87.28100  102.36640
 6450.00000 -157.10520    -999.25   55.57290   33.64580   26.93730   27.22770   18.85200   51.47880
 6500.00000 -115.14190    -999.25   54.68180   24.45540   23.29140   26.02020   31.99400    -999.25
