~Version ---------------------------------------------------
VERS. 2.0 : CWLS log ASCII Standard -VERSION 2.0
WRAP. YES : Multiple lines per depth step
~Well ------------------------------------------------------
STRT.FT                   3800.0 : START DEPTH
STOP.FT                   8200.0 : STOP DEPTH
STEP.FT                 50.00000 : STEP LENGTH
NULL.                    -999.25 : NULL VALUE
COMP. CHAMPLIN PETROLEUM COMPANY : COMPANY
WELL.        ZBORIL RAYMOND A #1 : WELL
FLD .                   GIDDINGS : FIELD
LOC .                            : LOCATION
CNTY.                   BURLESON : COUNTY
STAT.                      TEXAS : STATE
CTRY.   UNITED STATES OF AMERICA : COUNTRY
SRVC.               Schlumberger : SERVICE COMPANY
DATE.                10-Jun-1980 : LOGDATE
API .             42051306750000 : API NUMBER
UWI .             42051306750000 : UNIQUE WELL ID
SLAT.WGS84             30.389486 : SURFACE LATITUDE
SLON.WGS84            -96.748373 : SURFACE LONGITUDE
~Curve Information -----------------------------------------
DEPT    .FT                                                                         : DEPTH FEET
CALDED  .IN                                                                         : CALIPER FROM CNFD LOG
CALWS   .IN                                                                         : CALIPER [CALDED]
CONDWS  .MMHO                                                                       : CONDUCTIVITY [1000/DRESWS]
DCORWS  .G/C3                                                                       : DENSITY CORRECTION [DRHOED]
DENWS   .G/C3                                                                       : FORMATION BULK DENSITY [RHOBED]
DPHILSED.V/V                                                                        : DENSITY POROSITY LIMESTONE FROM CNFD LOG [ADJ. TO GRRED/NPHILSED]
DPHISSED.V/V                               :   DENSITY POROSITY SANDSTONE [M:2.68,F : 1.0] FROM CNFD LOG [ADJ. TO GRRED]
DPOWS   .V/V :   DENSITY POROSITY [DPHISSED CONVERTED TO LIMESTONE MATRIX, M:2.68,F : 1.0 & SPL. TO DPHILSED @ 6465']
DRESWS  .OHMM                                                                       : DEEP RESISTIVITY [ILDED]
DRHOED  .G/C3                                                                       : BULK DENSITY CORRECTION FROM CNFD LOG [ADJ. TO GRRED/RHOBED]
DTED    .US/F                                                                       : DELTA-T FROM DIL-SFL-SONIC LOG
DTWS    .US/F                                                                       : COMPRESSIONAL SONIC [DTED]
GRDED   .GAPI                                                                       : GAMMA RAY FROM CNFD LOG [ADJ. TO GRRED]
GRRED   .GAPI                                                                       : GAMMA RAY FROM DIL-SFL-SONIC LOG
GRWS    .GAPI                                                                       : GAMMA RAY [GRRED SPL. TO GRDED @ 8149.27']
ILDED   .OHMM                                                                       : DEEP INDUCTION RESISTIVITY FROM DIL-SFL-SONIC LOG
ILMED   .OHMM                                                                       : MEDIUM INDUCTION RESISTIVITY FROM DIL-SFL-SONIC LOG
MRESWS  .OHMM                                                                       : MEDIUM RESISTIVITY [ILMED]
NPHILSED.V/V                                                                        : NEUTRON POROSITY LIMESTONE FROM CNFD LOG [ADJ. TO GRRED]
NPHISSED.V/V                               :   NEUTRON POROSITY SANDSTONE [M:2.68,F : 1.0] FROM CNFD LOG [ADJ. TO GRRED]
NPOWS   .V/V                                                                        : NEUTRON POROSITY [NPHISSED CONVERTED TO NEUTRON MATRIX, SPL. TO NPHILSED @ 6465']
RHOBED  .G/C3                                                                       : BULK DENSITY FROM CNFD LOG [ADJ. TO GRRED/GRDED]
SFLUED  .OHMM                                                                       : SHALLOW FOCUSED RESISTIVITY (UNAVERAGED) FROM DIL-SFL-SONIC LOG
SPRED   .MV                                                                         : SPONTANEOUS POTENTIAL FROM DIL-SFL-SONIC LOG
SPWS    .MV                                                                         : SPONTANEOUS POTENTIAL [BASELINE, 0 MV SPRED]
SRESWS  .OHMM                                                                       : SHALLOW RESISTIVITY [SFLUED]
~Params ----------------------------------------------------
PD  .                     GL : PERMANENT DATUM
EPD .FT                  333 : ELEVATION PERMANENT DATUM
LMF .                     KB : LOG MEASURED FROM
DAPD.FT                   16 : FEET ABOVE PERMANENT DATUM
DMF .                     KB : DRILLING MEASURED FROM
EKB .FT                  349 : KELLY BUSHING
EDF .FT                  348 : DRILLING FLOOR
EGL .FT                  333 : GROUND LEVEL
DATE.              6-10-1980 : RUN DATE
RUN .                      1 : RUN NUMBER
DD  .FT                 8215 : DEPTH DRILLER
DL  .FT                 8207 : DEPTH LOGGER
BLI .FT                 8203 : BOTTOM LOG INTERVAL
TLI .FT                 6147 : TOP LOG INTERVAL
CS  .IN                9.625 : CASING SIZE
CBD .FT                 3800 : CASING BOTTOM DRILLER
BS  .IN                 8.75 : BIT SIZE
BSD .FT                 8215 : BIT SIZE AT DEPTH
DFT .                 BEN-EX : DRILLING FLUID TYPE
DFD .                    9.5 : DRILLING FLUID DENSITY
DFV .                     45 : DRILLING FLUID VISCOSITY
DFPH.                    9.5 : DRILLING FLUID PH
DFL .                      6 : DRILLING FLUID LOSS
MSS .               FLOWLINE : MUD SAMPLE SOURCE
RMS .OHMM               2.89 : RESISTIVITY MUD SAMPLE
MST .DEGF                 75 : MUD SAMPLE TEMPERATURE
RMF .OHMM               1.93 : RESISTIVITY MUD FILTRATE SAMPLE
MFST.DEGF                 75 : MUD FILTRATE SAMPLE TEMPERATURE
RMC .OHMM               4.34 : RESISTIVITY MUD CAKE
MCST.DEGF                 75 : MUD CAKE SAMPLE TEMPERATURE
MFSS.                      M : MUD FILTRATE SAMPLE SOURCE
MCSS.                      C : MUD CAKE SAMPLE SOURCE
RMB .OHMM               1.16 : RESISTIVITY MUD AT BHT
TCS .HRS                 530 : TIME CIRCULATED STOPPED
TLAB.HRS                1700 : TIME LOGGER AT BOTTOM
LUN .                   8096 : LOGGING UNIT NUMBER
LUL .                BRENHAM : LOGGING UNIT LOCATION
ENGI.                   CATE : RECORDING ENGINEER
WITN.           KRAUHS CRESS : WITNESSED BY
CLNT.                A2DTECH : CLIENT CODE
ORIG.             2.5" PRINT : ORIGIN OF DATA
UWI .         42051306750000 : UNIQUE WELL ID
DICO. A2D Technologies, Inc. : DIGITIZING COMPANY
~Other -----------------------------------------------------
~ASCII -----------------------------------------------------
# ...
 6500.00000   12.41650   12.41650  681.70970    0.11180    2.55090    0.08740    -999.25    0.08740    1.46690    0.11180   95.94530   95.94530   98.06510  106.98330  106.98330    1.46690    1.51380    1.51380    0.28110    -999.25    0.28110    2.55090    1.69800   -8.86520  -11.88090    1.69800
 6550.00000   11.20320   11.20320  471.80940    0.04800    2.52160    0.10600    -999.25    0.10600    2.11950    0.04800   82.04190   82.04190   81.48300   86.11010   86.11010    2.11950    2.25930    2.25930    0.15840    -999.25    0.15840    2.52160    2.63610   -6.10820   -9.16080    2.63610
 6600.00000   10.18240   10.18240  309.75100   -0.00730    2.56360    0.08210    -999.25    0.08210    3.22840   -0.00730   75.18560   75.18560   54.58640   59.49420   59.49420    3.22840    3.35030    3.35030    0.11760    -999.25    0.11760    2.56360    3.70630   -7.56700  -10.75210    3.70630
 6650.00000   10.14770   10.14770  143.36100   -0.00340    2.55310    0.08820    -999.25    0.08820    6.97540   -0.00340   75.68570   75.68570   48.09660   61.23350   61.23350    6.97540    7.41680    7.41680    0.10900    -999.25    0.10900    2.55310    8.79820   -5.35060   -8.66830    8.79820
 6700.00000   10.74640   10.74640  486.02670    0.05140    2.55370    0.11090    -999.25    0.11090    2.05750    0.05140   90.34840   90.34840   90.99280  102.65690  102.65690    2.05750    2.15210    2.15210    0.23640    -999.25    0.23640    2.55370    2.27240   -2.53930   -5.98950    2.27240
 6750.00000   12.44050   12.44050  537.83680    0.06610    2.51320    0.10600    -999.25    0.10600    1.85930    0.06610   90.27330   90.27330  100.76850  111.85500  111.85500    1.85930    1.92090    1.92090    0.23510    -999.25    0.23510    2.51320    2.39460   -7.85180  -11.43450    2.39460
 6800.00000   11.16190   11.16190  445.51370    0.01180    2.53320    0.09900    -999.25    0.09900    2.24460    0.01180   85.89470   85.89470  108.35070  125.55400  125.55400    2.24460    2.31930    2.31930    0.21480    -999.25    0.21480    2.53320    2.73140   -4.48580   -8.20100    2.73140
 6850.00000   10.86610   10.86610  332.13760   -0.00440    2.57570    0.07460    -999.25    0.07460    3.01080   -0.00440   79.48290   79.48290   92.02880   91.87610   91.87610    3.01080    3.10420    3.10420    0.16830    -999.25    0.16830    2.57570    4.10160   -1.88570   -5.73340    4.10160
 6900.00000   11.58260   11.58260  408.96450    0.00200    2.56420    0.08020    -999.25    0.08020    2.44520    0.00200   83.05350   83.05350   97.74920  101.57720  101.57720    2.44520    2.52110    2.52110    0.18280    -999.25    0.18280    2.56420    3.04210   -5.47320   -9.45340    3.04210
 6950.00000   10.58430   10.58430  355.17670    0.03600    2.52090    0.10430    -999.25    0.10430    2.81550    0.03600   79.63440   79.63440  100.24500   91.64340   91.64340    2.81550    2.91800    2.91800    0.23330    -999.25    0.23330    2.52090    3.52590   -5.06170   -9.17450    3.52590
 7000.00000   13.22130   13.22130  599.44850    0.04190    2.52410    0.10580    -999.25    0.10580    1.66820    0.04190   91.97200   91.97200  100.39280  102.14910  102.14910    1.66820    1.73880    1.73880    0.23060    -999.25    0.23060    2.52410    2.24740   -0.11130   -4.35660    2.24740
 7050.00000   13.40340   13.40340  607.27520    0.15510    2.52650    0.10410    -999.25    0.10410    1.64670    0.15510   91.33730   91.33730  102.56660  115.57440  115.57440    1.64670    1.71110    1.71110    0.25810    -999.25    0.25810    2.52650    2.36350   -2.43300   -6.81080    2.36350
 7100.00000   12.10970   12.10970  544.21770    0.14150    2.42320    0.16240    -999.25    0.16240    1.83750    0.14150   91.10220   91.10220  102.54630  119.56880  119.56880    1.83750    1.89430    1.89430    0.24660    -999.25    0.24660    2.42320    2.35970   -3.50820   -8.01850    2.35970
 7150.00000   11.97270   11.97270  517.81280    0.03950    2.50800    0.10660    -999.25    0.10660    1.93120    0.03950   89.21520   89.21520  106.57900  109.11890  109.11890    1.93120    1.98850    1.98850    0.25020    -999.25    0.25020    2.50800    2.58520   -2.67640   -7.31920    2.58520
 7200.00000   14.27480   14.27480  680.36470    0.14580    2.36800    0.19420    -999.25    0.19420    1.46980    0.14580   95.07040   95.07040  104.78690  108.18510  108.18510    1.46980    1.53420    1.53420    0.32900    -999.25    0.32900    2.36800    1.91940  -11.19500  -15.97030    1.91940
 7250.00000   10.63990   10.63990  236.75360    0.00010    2.61340    0.04780    -999.25    0.04780    4.22380    0.00010   71.21990   71.21990   69.49560   78.19440   78.19440    4.22380    4.43720    4.43720    0.08110    -999.25    0.08110    2.61340    4.83770    1.36410   -3.54380    4.83770
 7300.00000   10.76010   10.76010  136.36050   -0.00170    2.62720    0.04250    -999.25    0.04250    7.33350   -0.00170   62.58170   62.58170   37.14380   42.97020   42.97020    7.33350    7.52070    7.52070    0.05410    -999.25    0.05410    2.62720    8.54920   -8.12230  -13.16270    8.54920
 7350.00000   12.02250   12.02250  153.41660    0.04780    2.60660    0.09400    -999.25    0.09400    6.51820    0.04780   62.24120   62.24120   29.92020   35.74910   35.74910    6.51820    6.70020    6.70020    0.05900    -999.25    0.05900    2.60660    9.12290  -11.69410  -16.86700    9.12290
 7400.00000   11.63340   11.63340  206.86800    0.01090    2.59630    0.05800    -999.25    0.05800    4.83400    0.01090   66.51510   66.51510   54.35140   61.77140   61.77140    4.83400    5.16180    5.16180    0.06810    -999.25    0.06810    2.59630    6.23100    2.45110   -2.85430    6.23100
 7450.00000   11.58700   11.58700  145.05790   -0.00070    2.62460    0.04650    -999.25    0.04650    6.89380   -0.00070   62.78890   62.78890   37.42500   41.91550   41.91550    6.89380    7.06050    7.06050    0.06490    -999.25    0.06490    2.62460    8.07000   -3.65650   -9.09440    8.07000
 7500.00000   11.38250   11.38250  204.51150   -0.01050    2.60400    0.05820    -999.25    0.05820    4.88970   -0.01050   67.64600   67.64600   44.22330   53.26600   53.26600    4.88970    5.03240    5.03240    0.07500    -999.25    0.07500    2.60400    5.71200    1.40260   -4.16780    5.71200
 7550.00000   11.05990   11.05990  224.83530    0.03730    2.60090    0.06030    -999.25    0.06030    4.44770    0.03730   67.49820   67.49820   39.15010   39.01630   39.01630    4.44770    4.61110    4.61110    0.07470    -999.25    0.07470    2.60090    5.25540   -2.80690   -8.50980    5.25540
 7600.00000   10.71950   10.71950  177.77150   -0.00240    2.59780    0.05710    -999.25    0.05710    5.62520   -0.00240   64.93650   64.93650   47.61310   53.80350   53.80350    5.62520    5.97420    5.97420    0.06800    -999.25    0.06800    2.59780    8.15100   -3.91430   -9.74980    8.15100
 7650.00000   10.29400   10.29400  113.11320    0.07450    2.59120    0.06970    -999.25    0.06970    8.84070    0.07450   58.63640   58.63640   39.48550   47.24690   47.24690    8.84070   10.27490   10.27490    0.05730    -999.25    0.05730    2.59120   22.74570  -14.48110  -20.44910   22.74570
 7700.00000   10.05830   10.05830  138.09480    0.01130    2.59100    0.06540    -999.25    0.06540    7.24140    0.01130   66.40180   66.40180   72.26360   72.42050   72.42050    7.24140    7.65370    7.65370    0.06700    -999.25    0.06700    2.59100    9.28910   -9.78570  -15.88620    9.28910
 7750.00000    9.57410    9.57410  112.55940    0.01400    2.55950    0.09210    -999.25    0.09210    8.88420    0.01400   66.66580   66.66580   52.35510   58.31520   58.31520    8.88420    9.75750    9.75750    0.07790    -999.25    0.07790    2.55950   10.66170  -18.38320  -24.61620   10.66170
 7800.00000    9.53470    9.53470  200.86370    0.04880    2.42670    0.16500    -999.25    0.16500    4.97850    0.04880   77.05550   77.05550  121.09200  128.50130  128.50130    4.97850    5.92370    5.92370    0.19840    -999.25    0.19840    2.42670    7.32990  -16.08800  -22.45350    7.32990
