~Version ---------------------------------------------------
VERS. 2.0 : CWLS log ASCII Standard -VERSION 2.0
WRAP. YES : MULTIPLE LINES PER DEPTH STEP
~Well ------------------------------------------------------
STRT.FT                   400.0 : START DEPTH
STOP.FT                  7700.0 : STOP DEPTH
STEP.FT                50.00000 : STEP LENGTH
NULL.                   -999.25 : NULL VALUE
COMP. ENCANA OIL & GAS USA INC. : COMPANY
WELL.            BARCLAY 162 #2 : WELL
FLD .                   CHITTIM : FIELD
LOC .                           : LOCATION
CNTY.                  MAVERICK : COUNTY
STAT.                     TEXAS : STATE
CTRY.  UNITED STATES OF AMERICA : COUNTRY
SRVC.              Schlumberger : SERVICE COMPANY
DATE.               22-Oct-2006 : LOGDATE
API .            42323329160000 : API NUMBER
UWI .            42323329160000 : UNIQUE WELL ID
SLAT.WGS84        28.8174515047 : SURFACE LATITUDE
SLON.WGS84      -100.3519501945 : SURFACE LONGITUDE
~Curve Information -----------------------------------------
DEPT  .FT    : DEPTH FEET
AF10ED.OHMM  : 10 INCH ARRAY RESISTIVITY FOUR FOOT RESOLUTION
AF20ED.OHMM  : 20 INCH ARRAY RESISTIVITY FOUR FOOT RESOLUTION
AF30ED.OHMM  : 30 INCH ARRAY RESISTIVITY FOUR FOOT RESOLUTION
AF60ED.OHMM  : 60 INCH ARRAY RESISTIVITY FOUR FOOT RESOLUTION
AF90ED.OHMM  : 90 INCH ARRAY RESISTIVITY FOUR FOOT RESOLUTION
BITED .IN    : BIT SIZE FROM LOG HEADER
CALWS .IN    : CALIPER [(DCALED+BITED)]
CONDWS.MMHO  : CONDUCTIVITY [1000/DRESWS]
DCALED.IN    : DIFFERENTIAL CALIPER FROM DENSITY LOG
DCORWS.G/C3  : DENSITY CORRECTION [HDRAED]
DENWS .G/C3  : BULK DENSITY [M=2.71 F=1.0] [CALCULATED FROM DPOWS]
DPHZED.V/V   : DENSITY POROSITY [M=2.71 F=1.0] FROM DENSITY LOG
DPOWS .V/V   : DENSITY POROSITY [M=2.71 F=1.0] [DPHZED]
DRESWS.OHMM  : DEEP RESISTIVITY [AF90ED]
DT1ED .US/F  : DELTA TIME SHEAR LOWER DIPOLE FROM DIPOLE SONIC LOG
DT4PED.US/F  : DELTA TIME COMP - P & S FROM DIPOLE SONIC LOG
DTSWS .US/F  : DELTA TIME SHEAR [DT1ED]
DTWS  .US/F  : DELTA TIME [DT4PED]
GRRED .GAPI  : GAMMA RAY FROM RESISTIVITY LOG
GRWS  .GAPI  : GAMMA RAY [GRRED. CASED ABOVE 620]
HDRAED.G/C3  : DENSITY CORRECTION FROM DENSITY LOG
MRESWS.OHMM  : MEDIUM RESISTIVITY [AF30ED]
NPOWS .V/V   : NEUTRON POROSITY LIMESTONE [TNPHED. CASED ABOVE 620]
PEFWS .B/E   : PHOTOELECTRIC FACTOR [PEFZED]
PEFZED.B/E   : PHOTOELECTRIC FACTOR STANDARD RESOLUTION FROM DENSITY LOG
SPHIED.V/V   : SONIC POROSITY FROM SONIC LOG
SPOWS .V/V   : SONIC POROSITY [SPHIED]
SPRED .MV    : SPONTANEOUS POTENTIAL FROM RESISTIVITY LOG
SPWS  .MV    : SPONTANEOUS POTENTIAL [BASELINE 0 MV] [SPRED]
SRESWS.OHMM  : SHALLOW RESISTIVITY [AF20ED]
TENRED.LBF   : TENSION FROM RESISTIVITY LOG
TNPHED.V/V   : THERMAL NEUTRON POROSITY LIMESTONE FROM DENSITY LOG
~Params ----------------------------------------------------
PD  .                           GL : PERMANENT DATUM
EPD .FT                      770.7 : ELEVATION PERMANENT DATUM
LMF .                           KB : LOG MEASURED FROM
DAPD.FT                         25 : FEET ABOVE PERMANENT DATUM
DMF .                           KB : DRILLING MEASURED FROM
EKB .FT                      795.7 : KELLY BUSHING
EDF .FT                      794.7 : DRILLING FLOOR
EGL .FT                      770.7 : GROUND LEVEL
DATE.                     10/22/08 : RUN DATE
RUN .                            2 : RUN NUMBER
DD  .FT                       7700 : DEPTH DRILLER
DL  .FT                       7716 : DEPTH LOGGER
BLI .FT                       7708 : BOTTOM LOG INTERVAL
TLI .FT                       6610 : TOP LOG INTERVAL
CS  .IN                      7.875 : CASING SIZE
CBD .FT                       6600 : CASING BOTTOM DRILLER
CBL .FT                       6610 : CASING BOTTOM LOGGER
BS  .IN                       6.75 : BIT SIZE
BSD .FT                       7700 : BIT SIZE AT DEPTH
DFT .                    FRESH MUD : DRILLING FLUID TYPE
DFD .                         16.4 : DRILLING FLUID DENSITY
DFV .                           64 : DRILLING FLUID VISCOSITY
DFPH.                         10.1 : DRILLING FLUID PH
DFL .                          5.2 : DRILLING FLUID LOSS
MSS .                    FLOW LINE : MUD SAMPLE SOURCE
RMS .OHMM                    0.425 : RESISTIVITY MUD SAMPLE
MST .DEGF                      114 : MUD SAMPLE TEMPERATURE
RMF .OHMM                    0.306 : RESISTIVITY MUD FILTRATE SAMPLE
MFST.DEGF                      114 : MUD FILTRATE SAMPLE TEMPERATURE
RMC .OHMM                     0.55 : RESISTIVITY MUD CAKE
MCST.DEGF                      114 : MUD CAKE SAMPLE TEMPERATURE
MFSS.                     COMPUTED : MUD FILTRATE SAMPLE SOURCE
MCSS.                     COMPUTED : MUD CAKE SAMPLE SOURCE
RMB .OHMM                    0.241 : RESISTIVITY MUD AT BHT
TCS .HRS                      1330 : TIME CIRCULATED STOPPED
TLAB.HRS                      2342 : TIME LOGGER AT BOTTOM
LUN .                         2024 : LOGGING UNIT NUMBER
LUL .                    LAREDO TX : LOGGING UNIT LOCATION
ENGI. CARLOS DOSTAL CURT LADBETLER : RECORDING ENGINEER
WITN.                   JEFF FABER : WITNESSED BY
CLNT.                      A2DTECH : CLIENT CODE
ORIG.               1" 2" 5" PRINT : ORIGIN OF DATA
UWI .               42323329160000 : UNIQUE WELL ID
DICO.       A2D Technologies, Inc. : DIGITIZING COMPANY
~Other -----------------------------------------------------
1. CURVE AF20ED WAS CHOSEN FOR SRESWS BECAUSE AF10ED SEEMED TO BEHAVE ERRATICALLY OVER PART OF RUN 1.
~ASCII -----------------------------------------------------
# ...
 5900.00000    5.70700   34.94990   24.56000   39.40340   33.02160    9.87500    9.90840   30.28320    0.03340    0.00620    2.70610    0.00230    0.00230   33.02160  106.32360   55.20550  106.32360   55.20550   31.97710   31.97710    0.00620   24.56000    0.03720    4.81130    4.81130    0.05480    0.05480   -3.82360  -24.31680   34.94990 3179.02830    0.03720
 5950.00000    6.15540  117.22110   58.85850  186.11190  168.56230    9.87500    9.88320    5.93250    0.00820    0.00110    2.73600   -0.01520   -0.01520  168.56230  106.47820   51.05560  106.47820   51.05560   36.91010   36.91010    0.00110   58.85850    0.00850    5.03570    5.03570    0.02610    0.02610  -22.60560  -43.30030  117.22110 3221.13040    0.00850
 6000.00000    5.10590   30.33190   21.65340   28.95500   29.37120    9.87500    9.86750   34.04700   -0.00750    0.00450    2.61340    0.05650    0.05650   29.37120  104.35730   53.11850  104.35730   53.11850   17.24300   17.24300    0.00450   21.65340    0.02970    5.07310    5.07310    0.03950    0.03950  -27.76970  -48.66590   30.33190 3259.59470    0.02970
 6050.00000    5.33530   21.67210   15.90440   19.68450   18.40530    9.87500    9.87620   54.33220    0.00120   -0.00390    2.59120    0.06950    0.06950   18.40530  100.91620   54.06130  100.91620   54.06130   10.77870   10.77870   -0.00390   15.90440    0.03880    5.34680    5.34680    0.04820    0.04820  -31.04390  -52.14160   21.67210 3284.32910    0.03880
 6100.00000    4.42850    7.19930    6.48350    8.36340    6.98160    9.87500    9.92060  143.23360    0.04560   -0.00300    2.44750    0.15350    0.15350    6.98160  112.53420   61.42210  112.53420   61.42210   10.32640   10.32640   -0.00300    6.48350    0.09730    5.21510    5.21510    0.09580    0.09580  -21.68780  -42.98710    7.19930 3296.40840    0.09730
 6150.00000    4.58700    9.84860    9.44470   11.54650    9.20330    9.87500    9.86760  108.65670   -0.00740    0.02460    2.73390   -0.01400   -0.01400    9.20330   97.24050   52.19380   97.24050   52.19380   21.27360   21.27360    0.02460    9.44470    0.06840    4.41220    4.41220    0.03220    0.03220   -8.84570  -30.34650    9.84860 3320.79270    0.06840
 6200.00000    5.80770   36.62130   27.84180   44.38220   38.09240    9.87500    9.85700   26.25200   -0.01800    0.00380    2.67140    0.02260    0.02260   38.09240  109.14560   56.99560  109.14560   56.99560   34.96490   34.96490    0.00380   27.84180    0.04940    4.77280    4.77280    0.06720    0.06720   20.07570   -2.14120   36.62130 3348.55300    0.04940
 6250.00000    5.03890   18.98440   17.41360   25.75030   22.87770    9.87500    9.89430   43.71070    0.01930    0.00530    2.69190    0.01060    0.01060   22.87770  111.41540   51.82890  111.41540   51.82890   41.38230   41.38230    0.00530   17.41360    0.00510    5.03690    5.03690    0.03380    0.03380  -11.24630  -34.89000   18.98440 3372.30710    0.00510
 6300.00000    5.51720   37.05940   22.86900   32.64160   31.21930    9.87500    9.90680   32.03150    0.03180    0.00080    2.67870    0.01830    0.01830   31.21930  111.04690   59.53290  111.04690   59.53290   48.70930   48.70930    0.00080   22.86900    0.06190    4.66600    4.66600    0.07850    0.07850   12.63670  -12.43380   37.05940 3335.98320    0.06190
 6350.00000    5.54960   42.91260   30.03090   47.62650   43.82310    9.87500    9.89930   22.81900    0.02430    0.00680    2.68540    0.01440    0.01440   43.82310  105.39520   55.04590  105.39520   55.04590   50.57920   50.57920    0.00680   30.03090    0.03930    4.92100    4.92100    0.05360    0.05360    8.84480  -17.65250   42.91260 3323.23610    0.03930
 6400.00000    5.24280   50.19110   33.63970   71.82570   63.26190    9.87500    9.86320   15.80730   -0.01180    0.00500    2.69120    0.01100    0.01100   63.26190  120.36710   54.74880  120.36710   54.74880   39.83880   39.83880    0.00500   33.63970    0.01970    4.90190    4.90190    0.05440    0.05440    4.42490  -23.49920   50.19110 3380.21630    0.01970
 6450.00000    5.31420   27.89410   21.10140   32.46840   26.32250    9.87500    9.84930   37.99030   -0.02570    0.00610    2.68260    0.01600    0.01600   26.32250  110.89190   57.92470  110.89190   57.92470   46.51510   46.51510    0.00610   21.10140    0.05890    4.51720    4.51720    0.07450    0.07450   23.52590   -5.82490   27.89410 3357.85600    0.05890
 6500.00000    6.11970   72.21880   44.59760   89.21000   81.61070    9.87500    9.84080   12.25330   -0.03420    0.00820    2.69910    0.00640    0.00640   81.61070  109.48930   53.21410  109.48930   53.21410   24.59080    -999.25    0.00820   44.59760    -999.25    4.95430    4.95430    0.03720    0.03720   17.29380  -13.24350   72.21880 3339.58690    0.09550
 6550.00000    6.43110   86.63450   40.80340   71.40130   81.47410    9.87500    9.85770   12.27380   -0.01730    -999.25    -999.25    -999.25    -999.25   81.47410    -999.25    -999.25    -999.25    -999.25   30.30550    -999.25    -999.25   40.80340    -999.25    -999.25    -999.25    -999.25    -999.25   15.35950  -16.33150   86.63450 3359.68040    0.10810
 6600.00000    -999.25    -999.25    -999.25    -999.25    -999.25    6.75000    -999.25    -999.25    -999.25    -999.25    -999.25    -999.25    -999.25    -999.25    -999.25    -999.25    -999.25    -999.25   17.16920    -999.25    -999.25    -999.25    -999.25    -999.25    -999.25    -999.25    -999.25    -999.25    -999.25    -999.25 2204.71020    0.06600
 6650.00000 2000.00000  187.06250  126.61030  116.69980  210.79030    6.75000    6.86670    4.74410    0.11670    0.06870    2.73150   -0.01260   -0.01260  210.79030    -999.25    -999.25    -999.25    -999.25   31.25880   31.25880    0.06870  126.61030    0.00540    6.07600    6.07600    -999.25    -999.25   17.23980  -27.63230  187.06250 2337.76290    0.00540
 6700.00000 2000.00000  154.10240  166.32400  172.57500  183.40730    6.75000    6.85080    5.45230    0.10080    0.01510    2.71220   -0.00130   -0.00130  183.40730    -999.25    -999.25    -999.25    -999.25   31.00120   31.00120    0.01510  166.32400    0.00840    5.24610    5.24610    -999.25    -999.25  -20.31450  -60.84530  154.10240 2307.50660    0.00840
 6750.00000 2000.00000  124.44980  141.14780  190.24450  158.30930    6.75000    6.77750    6.31670    0.02750    0.01640    2.73330   -0.01360   -0.01360  158.30930    -999.25    -999.25    -999.25    -999.25   30.53190   30.53190    0.01640  141.14780    0.00540    5.79910    5.79910    -999.25    -999.25  -18.52650  -54.71600  124.44980 2292.18680    0.00540
 6800.00000 2000.00000  116.69690  162.02780  188.99990  115.94450    6.75000    6.84920    8.62480    0.09920    0.02070    2.70260    0.00430    0.00430  115.94450    -999.25    -999.25    -999.25    -999.25   38.51420   38.51420    0.02070  162.02780    0.03170    5.41780    5.41780    -999.25    -999.25  -19.08710  -50.93530  116.69690 2296.52220    0.03170
 6850.00000  326.62240   67.93210   61.38210   57.52850   53.28520    6.75000    6.82910   18.76690    0.07910    0.00870    2.66350    0.02720    0.02720   53.28520    -999.25    -999.25    -999.25    -999.25   44.32010   44.32010    0.00870   61.38210    0.03470    5.18550    5.18550    -999.25    -999.25  -12.73110  -40.23800   67.93210 2329.07620    0.03470
 6900.00000  589.35070  134.09570  125.85770  110.11370   98.73170    6.75000    6.83970   10.12850    0.08970    0.02590    2.73000   -0.01170   -0.01170   98.73170    -999.25    -999.25    -999.25    -999.25   31.77970   31.77970    0.02590  125.85770    0.01100    5.37870    5.37870    -999.25    -999.25    0.85040  -22.31520  134.09570 2313.86300    0.01100
 6950.00000   32.73590   27.96880   27.39730   26.20490   23.96020    6.75000    6.94830   41.73590    0.19830    0.01350    2.68110    0.01690    0.01690   23.96020    -999.25    -999.25    -999.25    -999.25   62.64880   62.64880    0.01350   27.39730    0.05380    4.96520    4.96520    -999.25    -999.25   12.42030   -6.40400   27.96880 2362.22000    0.05380
