~Version ---------------------------------------------------
VERS. 2.0 : CWLS log ASCII Standard -VERSION 2.0
WRAP. YES : MULTIPLE LINES PER DEPTH STEP
~Well ------------------------------------------------------
STRT.FT                  550.0 : START DEPTH
STOP.FT                 8150.0 : STOP DEPTH
STEP.FT               50.00000 : STEP LENGTH
NULL.                  -999.25 : NULL VALUE
COMP.     BURK ROYALTY COMPANY : COMPANY
WELL.              J E SEAY #1 : WELL
FLD .                       WC : FIELD
LOC .                          : LOCATION
CNTY.                 ATASCOSA : COUNTY
STAT.                    TEXAS : STATE
CTRY. UNITED STATES OF AMERICA : COUNTRY
SRVC.             Schlumberger : SERVICE COMPANY
DATE.              18-Feb-1977 : LOGDATE
API .           42013305480000 : API NUMBER
UWI .           42013305480000 : UNIQUE WELL ID
SLAT.WGS84       28.9633906624 : SURFACE LATITUDE
SLON.WGS84      -98.2959587584 : SURFACE LONGITUDE
~Curve Information -----------------------------------------
DEPT    .FT    : DEPTH FEET
CALDED  .IN    : CALIPER FROM DENSITY LOG [ADJ TO LL8ED]
CALWS   .IN    : CALIPER [CALDED]
CONDWS  .MMHO  : CONDUCTIVITY [1000/DRESWS]
CORRED  .G/C3  : DENSITY CORRECTION FROM DENSITY LOG [ADJ TO LL8ED]
DCORWS  .G/C3  : DENSITY CORRECTION [CORRED]
DENWS   .G/C3  : BULK DENSITY [RHOBED]
DPHILSED.V/V   : DENSITY POROSITY [M=2.71 F=1.0] FROM DENSITY LOG [ADJ TO LL8ED]
DPHISSED.V/V   : DENSITY POROSITY [M=2.65 F=1.0] FROM DENSITY LOG [ADJ TO LL8ED]
DPOWS   .V/V   : DENSITY POROSITY [M=2.71 F=1.0] [CALCULATED FROM DENWS]
DRESWS  .OHMM  : DEEP RESISTIVITY [ILDED]
GRDED   .GAPI  : GAMMA RAY FROM DENSITY LOG [ADJ TO LL8ED]
GRWS    .GAPI  : GAMMA RAY [GRDED]
ILDED   .OHMM  : INDUCTION LOG DEEP RESISTIVITY
ILMED   .OHMM  : INDUCTION LOG MEDIUM RESISTIVITY
LL8ED   .OHMM  : 8 INCH LATEROLOG RESISTIVITY
MRESWS  .OHMM  : MEDIUM RESISTIVITY [ILMED]
NPHILSED.V/V   : NEUTRON POROSITY LIMESTONE FROM DENSITY LOG [ADJ TO LL8ED]
NPHISSED.V/V   : NEUTRON POROSITY SANDSTONE FROM DENSITY LOG [ADJ TO LL8ED]
NPOWS   .V/V   : NEUTRON POROSITY LIMESTONE [CONVERTED NPHISSED TO LIMESTONE AND SPL TO NPHILSED @6849F]
RHOBED  .G/C3  : BULK DENSITY FROM DENSITY LOG [ADJ TO LL8ED]
SPRED   .MV    : SPONTANEOUS POTENTIAL FROM RESISTIVITY LOG
SPWS    .MV    : SPONTANEOUS POTENTIAL [BASELINE 0 MV] [SPRED]
SRESWS  .OHMM  : SHALLOW RESISTIVITY [LL8ED]
~Params ----------------------------------------------------
PD  .                     GL : PERMANENT DATUM
EPD .FT                379.5 : ELEVATION PERMANENT DATUM
LMF .                     KB : LOG MEASURED FROM
DAPD.FT                 12.5 : FEET ABOVE PERMANENT DATUM
DMF .                     KB : DRILLING MEASURED FROM
EKB .FT                  392 : KELLY BUSHING
EDF .FT                  391 : DRILLING FLOOR
EGL .FT                379.5 : GROUND LEVEL
DATE.               02/18/77 : RUN DATE
RUN .                      1 : RUN NUMBER
DD  .FT                 8198 : DEPTH DRILLER
DL  .FT                 8184 : DEPTH LOGGER
BLI .FT                 8178 : BOTTOM LOG INTERVAL
TLI .FT                  504 : TOP LOG INTERVAL
CS  .IN                8.625 : CASING SIZE
CBD .FT                  504 : CASING BOTTOM DRILLER
CBL .FT                  504 : CASING BOTTOM LOGGER
BS  .IN                7.875 : BIT SIZE
BSD .FT                 8198 : BIT SIZE AT DEPTH
DFT .              SPER/TANN : DRILLING FLUID TYPE
DFD .                   10.1 : DRILLING FLUID DENSITY
DFV .                     49 : DRILLING FLUID VISCOSITY
DFPH.                     11 : DRILLING FLUID PH
DFL .                      6 : DRILLING FLUID LOSS
MSS .                    PIT : MUD SAMPLE SOURCE
RMS .OHMM                1.4 : RESISTIVITY MUD SAMPLE
MST .FT                   80 : MUD SAMPLE TEMPERATURE
RMF .OHMM                1.3 : RESISTIVITY MUD FILTRATE SAMPLE
MFST.FT                   65 : MUD FILTRATE SAMPLE TEMPERATURE
RMC .OHMM                1.3 : RESISTIVITY MUD CAKE
MCST.FT                   80 : MUD CAKE SAMPLE TEMPERATURE
MFSS.                   MEAS : MUD FILTRATE SAMPLE SOURCE
MCSS.                  CHART : MUD CAKE SAMPLE SOURCE
RMB .OHMM               0.67 : RESISTIVITY MUD AT BHT
TCS .HRS                 600 : TIME CURCULATED STOPPED
TLAB.HRS                1100 : TIME LOGGER AT BOTTOM
LUN .                   7799 : LOGGING UNIT NUMBER
LUL .                  PLEAS : LOGGING UNIT LOCATION
ENGI.              VENDLANDT : RECORDING ENGINEER
WITN.                  HENRY : WITNESSED BY
CLNT.                A2DTECH : CLIENT CODE
ORIG.          1" 2.5" PRINT : ORIGIN OF DATA
UWI .         42013305480000 : UNIQUE WELL ID
DICO. A2D Technologies, Inc. : DIGITIZING COMPANY
~Other -----------------------------------------------------
~ASCII -----------------------------------------------------
# ...
 6750.00000    -999.25    -999.25  553.49530    -999.25    -999.25    -999.25    -999.25    -999.25    -999.25    1.80670    -999.25    -999.25    1.80670    1.90460    2.44480    1.90460    -999.25    -999.25    -999.25    -999.25  -28.15830   -3.67140    2.44480
 6800.00000    -999.25    -999.25  711.94650    -999.25    -999.25    -999.25    -999.25    -999.25    -999.25    1.40460    -999.25    -999.25    1.40460    1.55010    1.96770    1.55010    -999.25    -999.25    -999.25    -999.25  -26.04590   -1.55550    1.96770
 6850.00000   11.57680   11.57680  835.14280    0.14500    0.14500    2.36770    -999.25    -999.25    0.20020    1.19740   97.09710   97.09710    1.19740    1.28110    1.78590    1.28110    -999.25    -999.25    -999.25    2.36770  -25.97240   -1.47840    1.78590
 6900.00000   11.39750   11.39750  848.68030    0.13610    0.13610    2.37370    0.19670    -999.25    0.19670    1.17830   98.55680   98.55680    1.17830    1.23880    1.78590    1.23880    0.36270    -999.25    0.36270    2.37370  -25.65420   -1.35630    1.78590
 6950.00000   10.41360   10.41360  581.02370    0.19100    0.19100    2.41460    0.17710    -999.25    0.17270    1.72110   95.61860   95.61860    1.72110    1.78590    2.27220    1.78590    0.27340    -999.25    0.27340    2.41460  -24.87660   -2.00150    2.27220
 7000.00000    9.95830    9.95830  667.37850    0.11730    0.11730    2.45910    0.15020    -999.25    0.14670    1.49840  101.93430  101.93430    1.49840    1.56920    2.02780    1.56920    0.29160    -999.25    0.29160    2.45910  -22.78230   -1.32990    2.02780
 7050.00000    9.50230    9.50230  484.21460    0.20080    0.20080    2.39030    0.20140    -999.25    0.18700    2.06520   93.09920   93.09920    2.06520    2.21410    2.70960    2.21410    0.23690    -999.25    0.23690    2.39030  -22.63930   -2.60970    2.70960
 7100.00000    9.17340    9.17340  385.16350    0.06820    0.06820    2.47850    0.15180    -999.25    0.13540    2.59630   91.50440   91.50440    2.59630    2.74910    3.29520    2.74910    0.20490    -999.25    0.20490    2.47850  -21.34800   -2.74110    3.29520
 7150.00000    9.03040    9.03040  386.96700    0.13120    0.13120    2.54940    0.09100    -999.25    0.09390    2.58420   75.29770   75.29770    2.58420    2.76120    3.77240    2.76120    0.20800    -999.25    0.20800    2.54940  -20.35860   -3.17450    3.77240
 7200.00000    8.53980    8.53980  249.05980    0.00830    0.00830    2.61720    0.05540    -999.25    0.05430    4.01510   71.53570   71.53570    4.01510    4.24810    5.82600    4.24810    0.14980    -999.25    0.14980    2.61720  -18.10250   -2.34110    5.82600
 7250.00000    8.60080    8.60080  316.10560    0.04830    0.04830    2.60000    0.05780    -999.25    0.06430    3.16350   70.95810   70.95810    3.16350    3.16660    3.79900    3.16660    0.19500    -999.25    0.19500    2.60000  -17.52010   -3.18150    3.79900
 7300.00000    8.46500    8.46500  175.68520   -0.00020   -0.00020    2.62430    0.04820    -999.25    0.05010    5.69200   65.65820   65.65820    5.69200    6.68810   12.42650    6.68810    0.09090    -999.25    0.09090    2.62430  -20.21900   -7.30310   12.42650
 7350.00000    8.39920    8.39920  118.60430    0.01080    0.01080    2.66860    0.02040    -999.25    0.02420    8.43140   44.61650   44.61650    8.43140    8.91090   10.91900    8.91090    0.08920    -999.25    0.08920    2.66860  -18.07030   -6.57710   10.91900
 7400.00000    8.35710    8.35710  174.80990    0.01320    0.01320    2.62700    0.04820    -999.25    0.04850    5.72050   54.04410   54.04410    5.72050    6.09490    7.18640    6.09490    0.12910    -999.25    0.12910    2.62700  -14.82780   -4.75740    7.18640
 7450.00000    8.54470    8.54470  161.37360    0.00720    0.00720    2.60270    0.06270    -999.25    0.06270    6.19680   40.63980   40.63980    6.19680    6.72910    7.33560    6.72910    0.10330    -999.25    0.10330    2.60270  -16.34970   -7.70200    7.33560
 7500.00000    8.51210    8.51210  159.65510    0.02140    0.02140    2.62620    0.05180    -999.25    0.04900    6.26350   70.40650   70.40650    6.26350    6.86460   13.85310    6.86460    0.11450    -999.25    0.11450    2.62620  -15.49300   -8.26810   13.85310
 7550.00000    8.37300    8.37300   51.06290    0.02320    0.02320    2.66110    0.02410    -999.25    0.02860   19.58370   39.06160   39.06160   19.58370   21.22580   53.48460   21.22580    0.05780    -999.25    0.05780    2.66110  -15.78890   -9.98670   53.48460
 7600.00000    8.29800    8.29800   90.58460    0.01320    0.01320    2.66950    0.03090    -999.25    0.02370   11.03940   32.68580   32.68580   11.03940   11.86900   12.42650   11.86900    0.08800    -999.25    0.08800    2.66950  -13.28860   -8.90920   12.42650
 7650.00000    8.33600    8.33600   49.31960   -0.00680   -0.00680    2.62640    0.04700    -999.25    0.04890   20.27590   34.86400   34.86400   20.27590   24.61660   25.07570   24.61660    0.06690    -999.25    0.06690    2.62640  -15.60500  -12.64830   25.07570
 7700.00000    8.46140    8.46140   58.47710   -0.00280   -0.00280    2.55390    0.08790    -999.25    0.09130   17.10070   65.31960   65.31960   17.10070   16.70050   20.42020   16.70050    0.16570    -999.25    0.16570    2.55390   -2.04100   -0.50710   20.42020
 7750.00000    8.39610    8.39610   36.25010    0.00900    0.00900    2.53330    0.10240    -999.25    0.10330   27.58610  100.95380  100.95380   27.58610   27.80080   70.35070   27.80080    0.19760    -999.25    0.19760    2.53330   -3.78280   -3.10990   70.35070
 7800.00000    8.38120    8.38120   30.78140    0.02150    0.02150    2.56370    0.08190    -999.25    0.08560   32.48720  111.17030  111.17030   32.48720   34.31610   60.59830   34.31610    0.15660    -999.25    0.15660    2.56370   -6.76770   -6.90690   60.59830
 7850.00000    8.37290    8.37290   14.69160    0.02930    0.02930    2.72940   -0.02410    -999.25   -0.01130   68.06610   17.23580   17.23580   68.06610   86.67620   93.09840   86.67620    0.01270    -999.25    0.01270    2.72940  -33.67380  -34.62520   93.09840
 7900.00000    8.36280    8.36280   23.16310    0.03100    0.03100    2.74220   -0.02410    -999.25   -0.01880   43.17220   30.03660   30.03660   43.17220   43.96280   66.74130   43.96280    0.02600    -999.25    0.02600    2.74220  -22.75100  -24.51450   66.74130
 7950.00000    8.68650    8.68650  297.08850    0.21190    0.21190    2.65270    0.03010    -999.25    0.03350    3.36600   74.68650   74.68650    3.36600    3.60370    4.97110    3.60370    0.24100    -999.25    0.24100    2.65270   -0.90940   -3.48510    4.97110
 8000.00000    8.31860    8.31860   23.08560    0.00820    0.00820    2.68960   -0.00360    -999.25    0.01190   43.31710   27.49000   27.49000   43.31710   46.98270   58.66070   46.98270    0.01890    -999.25    0.01890    2.68960  -38.12570  -40.90580   58.66070
 8050.00000    8.25330    8.25330   17.36510    0.02590    0.02590    2.71340    0.00050    -999.25   -0.00200   57.58690   27.86850   27.86850   57.58690   70.73070   59.29530   70.73070    0.02830    -999.25    0.02830    2.71340  -14.93410  -17.78510   59.29530
 8100.00000    8.22950    8.22950  105.88620    0.01400    0.01400    2.64980    0.03980    -999.25    0.03520    9.44410   27.43890   27.43890    9.44410    9.70790   45.29120    9.70790    0.02650    -999.25    0.02650    2.64980 -138.89300 -141.81500   45.29120
 8150.00000    8.04860    8.04860   45.50830    0.05590    0.05590    2.65340    0.02740    -999.25    0.03310   21.97400   38.46790   38.46790   21.97400   24.53470   39.06820   24.53470    0.04440    -999.25    0.04440    2.65340 -103.70790 -106.70080   39.06820
