~Version ---------------------------------------------------
VERS.      2.0 : CWLS log ASCII Standard -VERSION 2.0
WRAP.      YES : MULTIPLE LINES PER DEPTH STEP
CREA. 09/06/13 : LAS CREATION DATE
~Well ------------------------------------------------------
STRT.FT                 1750.0 : START DEPTH
STOP.FT                 7850.0 : STOP DEPTH
STEP.FT               50.00000 : STEP LENGTH
NULL.                  -999.25 : NULL VALUE
COMP.             LOVELADY I W : COMPANY
WELL.       REYNOLDS-WILSON #1 : WELL
FLD .                  WILDCAT : FIELD
LOC .                          : LOCATION
CNTY.                   DIMMIT : COUNTY
STAT.                    TEXAS : STATE
CTRY. UNITED STATES OF AMERICA : COUNTRY
SRVC.             Schlumberger : SERVICE COMPANY
DATE.              29-May-1978 : LOGDATE
API .           42127317010000 : API NUMBER
UWI .           42127317010000 : UNIQUE WELL ID
SLAT.WGS84       28.5815005355 : SURFACE LATITUDE
SLON.WGS84      -99.7303290517 : SURFACE LONGITUDE
~Curve Information -----------------------------------------
DEPT    .FT    : DEPTH FEET
ALL8ED  .OHMM  : AMPLIFIED LATARAL 8'
CALDED  .IN    : CALIPER FROM DENSITY LOG
CALWS   .IN    : CALIPER [CALDED]
CILDED  .MMHO  : CONDUCTIVITY FROM RESISTIVITY LOG
CONDWS  .MMHO  : CONDUCTIVITY [1000/DRESWS]
CORRED  .G/C3  : DENSITY CORRECTION FROM DENSITY LOG
DCORWS  .G/C3  : DENSITY CORRECTION [CORRED]
DENWS   .G/C3  : BULK DENSITY [M=2.65 F=1.0] [RHOBED]
DPHILSED.V/V   : DENSITY POROSITY [M=2.71 F=1.0] FROM DENSITY LOG
DPHISSED.V/V   : DENSITY POROSITY [M=2.65 F=1.0] FROM DENSITY LOG
DPOLSWS .V/V   : DENSITY POROSITY LIMESTONE [CALCULATED WITH DENWS]
DRESWS  .OHMM  : DEEP RESISTIVITY [ILDED] IF DRESWS<1;1000/CONDWS
GRDED   .GAPI  : GAMMA RAY FROM DENSITY LOG
GRWS    .GAPI  : GAMMA RAY [GRDED]
ILDED   .OHMM  : INDUCTION LOG DEEP RESISTIVITY
NPHILSED.V/V   : NEUTRON POROSITY LIMESTONE FROM DENSITY LOG
NPHISSED.V/V   : NEUTRON POROSITY SANDSTONE FROM DENSITY LOG
NPOLSWS .V/V   : NEUTRON POROSITY LIMESTONE [NPHILSED], CONVERTED MATRIX [NPHISSED] TO LIMESTONE FROM TOP-5725'
RHOBED  .G/C3  : BULK DENSITY FROM DENSITY LOG
SPRED   .MV    : SPONTANEOUS POTENTIAL FROM RESISTIVITY LOG     RESISTIVITY LOG
SPWS    .MV    : SPONTANEOUS POTENTIAL [BASELINE 0 MV] [SPRED]
SRESWS  .OHMM  : SHALLOW RESISTIVITY [ALL8ED]
~Params ----------------------------------------------------
PD  .                     GL : PERMANENT DATUM
EPD .FT                565.3 : ELEVATION PERMANENT DATUM
LMF .                     KB : LOG MEASURED FROM
DAPD.FT                   11 : FEET ABOVE PERMANENT DATUM
DMF .                     KB : DRILLING MEASURED FROM
EDF .FT                575.3 : DRILLING FLOOR
EGL .FT                565.3 : GROUND LEVEL
DATE.               05/29/78 : RUN DATE
RUN .                      2 : RUN NUMBER
DD  .FT                 7872 : DEPTH DRILLER
DL  .FT                 7875 : DEPTH LOGGER
BLI .FT                 7869 : BOTTOM LOG INTERVAL
TLI .FT                 7080 : TOP LOG INTERVAL
CS  .IN                10.75 : CASING SIZE
CBD .FT                 1725 : CASING BOTTOM DRILLER
BS  .IN                 8.75 : BIT SIZE
BSD .FT                 7872 : BIT SIZE AT DEPTH
DFT .              DISPERSED : DRILLING FLUID TYPE
DFD .                   10.1 : DRILLING FLUID DENSITY
DFV .                     56 : DRILLING FLUID VISCOSITY
DFPH.                     10 : DRILLING FLUID PH
DFL .                    8.2 : DRILLING FLUID LOSS
MSS .              CIRC TANK : MUD SAMPLE SOURCE
RMS .OHMM               1.06 : RESISTIVITY MUD SAMPLE
MST .DEGF                 75 : MUD SAMPLE TEMPERATURE
RMF .OHMM                0.6 : RESISTIVITY MUD FILTRATE SAMPLE
MFST.DEGF                 75 : MUD FILTRATE SAMPLE TEMPERATURE
MFSS.                   MEAS : MUD FILTRATE SAMPLE SOURCE
RMB .OHMM               0.44 : RESISTIVITY MUD AT BHT
TCS .HRS                 900 : TIME CIRCULATED STOPPED
TLAB.HRS                1500 : TIME LOGGER AT BOTTOM
LUN .                   2739 : LOGGING UNIT NUMBER
LUL .                 LAREDO : LOGGING UNIT LOCATION
CLNT.                A2DTECH : CLIENT CODE
ORIG.               1" PRINT : ORIGIN OF DATA
UWI .         42127317010000 : UNIQUE WELL ID
DICO. A2D Technologies, Inc. : DIGITIZING COMPANY
~Other -----------------------------------------------------
~ASCII -----------------------------------------------------
# ...
 6550.00000   41.68990    9.88870    9.88870   42.85540   40.47370   -0.00190   -0.00190    2.60980    0.05160    -999.25    0.05860   24.70740   41.84790   41.84790   24.70740    0.08670    -999.25    0.08670    2.60980   -9.22440   -3.02090   41.68990
 6600.00000   22.08430    9.93350    9.93350   73.39400   73.08230   -0.00370   -0.00370    2.58310    0.06850    -999.25    0.07420   13.68320   75.75370   75.75370   13.68320    0.17850    -999.25    0.17850    2.58310   -5.95070   -0.46510   22.08430
 6650.00000   45.70540    9.76460    9.76460   47.88370   41.17380    0.00510    0.00510    2.57180    0.08910    -999.25    0.08080   24.28730   61.62310   61.62310   24.28730    0.15810    -999.25    0.15810    2.57180   -8.05110   -3.28350   45.70540
 6700.00000   38.83820    9.93170    9.93170   35.73140   33.36240    0.00430    0.00430    2.58150    0.08130    -999.25    0.07510   29.97390   83.81310   83.81310   29.97390    0.17960    -999.25    0.17960    2.58150   -5.59180   -1.54210   38.83820
 6750.00000  118.87170    9.84830    9.84830   20.32560   17.35700   -0.00220   -0.00220    2.55090    0.09000    -999.25    0.09300   57.61380   81.13650   81.13650   57.61380    0.14410    -999.25    0.14410    2.55090   -7.96860   -4.63690  118.87170
 6800.00000   96.42040   10.80800   10.80800   16.59680   12.76720    0.03250    0.03250    2.51180    0.06230    -999.25    0.11590   78.32590   18.94070   18.94070   78.32590    0.01110    -999.25    0.01110    2.51180   -9.21990   -7.52220   96.42040
 6850.00000  257.33360   11.34420   11.34420    9.36350    2.88240    0.11210    0.11210    2.59860    0.10270    -999.25    0.06510  346.93900   15.22030   15.22030  346.93900    0.00840    -999.25    0.00840    2.59860  -14.93690  -15.68560  257.33360
 6900.00000  237.21910    9.14570    9.14570    5.56180    6.29220    0.00570    0.00570    2.73380    0.01510    -999.25   -0.01390  158.92640   14.61100   14.61100  158.92640    0.00960    -999.25    0.00960    2.73380  -10.34790  -13.54300  237.21910
 6950.00000    5.37880    9.73660    9.73660  253.35530  279.66550    0.19260    0.19260    2.72320    0.01290    -999.25   -0.00770    3.57570   83.08230   83.08230    3.57570    0.21050    -999.25    0.21050    2.72320    5.88570    0.24420    5.37880
 7000.00000    3.97140    9.72430    9.72430  374.01630  444.38520    0.03440    0.03440    2.61320    0.03300    -999.25    0.05660    2.25030   93.25960   93.25960    2.25030    0.24720    -999.25    0.24720    2.61320    6.37380   -1.71420    3.97140
 7050.00000    4.49950    8.94240    8.94240  342.28470  393.17450    0.08200    0.08200    2.63340    0.06150    -999.25    0.04480    2.54340   98.88170   98.88170    2.54340    0.23150    -999.25    0.23150    2.63340    6.85490   -3.67950    4.49950
 7100.00000    5.32570   11.21770   11.21770  333.97300  269.20800    0.18460    0.18460    2.23320    0.26280    -999.25    0.27880    3.71460   66.04210   66.04210    3.71460    0.24420    -999.25    0.24420    2.23320  -13.73380   -3.88080    5.32570
 7150.00000   74.58130    9.47880    9.47880   25.44930   24.07660    0.20800    0.20800    2.73890   -0.02480    -999.25   -0.01690   41.53410   19.32900   19.32900   41.53410    0.01340    -999.25    0.01340    2.73890  -19.96280   -8.95790   74.58130
 7200.00000   92.96100   12.39260   12.39260   14.52460    -999.25    0.15060    0.15060    2.27320    0.14440    -999.25    0.25540    -999.25   21.41070   21.41070    -999.25    0.02970    -999.25    0.02970    2.27320  -35.45640  -23.29960   92.96100
 7250.00000   63.65090   12.82210   12.82210   17.12330    -999.25    0.17770    0.17770    2.47960    0.15540    -999.25    0.13470    -999.25   14.88330   14.88330    -999.25    0.01780    -999.25    0.01780    2.47960  -29.73220  -16.42350   63.65090
 7300.00000   60.38030   10.45120   10.45120   23.10000    -999.25    0.19050    0.19050    2.42910    0.19440    -999.25    0.16430    -999.25   23.87090   23.87090    -999.25    0.02900    -999.25    0.02900    2.42910  -27.79830  -13.33770   60.38030
 7350.00000   54.03110    9.57950    9.57950   35.16010    -999.25    0.25650    0.25650    2.77390   -0.01900    -999.25   -0.03740    -999.25   19.58600   19.58600    -999.25    0.00910    -999.25    0.00910    2.77390  -21.35290   -5.74040   54.03110
 7400.00000  167.18530   12.35120   12.35120   10.90400    -999.25    0.20070    0.20070    2.60730    0.07090    -999.25    0.06010    -999.25   13.37160   13.37160    -999.25    0.00720    -999.25    0.00720    2.60730  -26.92340  -10.15900  167.18530
 7450.00000  281.82160   13.76030   13.76030    8.90490    -999.25    0.11540    0.11540    2.40480    0.15280    -999.25    0.17850    -999.25   20.15770   20.15770    -999.25    0.01480    -999.25    0.01480    2.40480  -32.28920  -14.37290  281.82160
 7500.00000   70.29480   12.93270   12.93270    7.96310    -999.25    0.14120    0.14120    2.46770    0.15930    -999.25    0.14170    -999.25   23.84450   23.84450    -999.25    0.01410    -999.25    0.01410    2.46770  -43.44160  -24.37340   70.29480
 7550.00000    6.93790    9.17010    9.17010   44.30540    -999.25    0.00770    0.00770    2.62990    0.04240    -999.25    0.04680    -999.25   23.04180   23.04180    -999.25    0.04130    -999.25    0.04130    2.62990  -41.70170  -21.48170    6.93790
 7600.00000   52.60680    9.19620    9.19620    6.43320    -999.25    0.00180    0.00180    2.86080   -0.10790    -999.25   -0.08820    -999.25   11.54190   11.54190    -999.25   -0.00240    -999.25   -0.00240    2.86080  -36.64560  -15.27370   52.60680
 7650.00000   30.06120    9.18980    9.18980   11.38210    -999.25    0.21740    0.21740    2.75380   -0.03250    -999.25   -0.02560    -999.25   27.32110   27.32110    -999.25    0.00850    -999.25    0.00850    2.75380  -48.86740  -26.34360   30.06120
 7700.00000   45.87620    9.38950    9.38950   41.96660    -999.25    0.08990    0.08990    2.69070    0.03240    -999.25    0.01130    -999.25   43.32400   43.32400    -999.25    0.10460    -999.25    0.10460    2.69070  -28.98080   -5.30510   45.87620
 7750.00000    2.24010    8.94570    8.94570  122.85900    -999.25    0.00640    0.00640    2.71670   -0.00500    -999.25   -0.00390    -999.25   45.94400   45.94400    -999.25    0.12020    -999.25    0.12020    2.71670  -27.07530   -2.24770    2.24010
 7800.00000    4.24740    8.83030    8.83030   79.90470    -999.25    0.04900    0.04900    2.71160   -0.00380    -999.25   -0.00090    -999.25   37.90160   37.90160    -999.25    0.09230    -999.25    0.09230    2.71160  -28.80060   -2.82110    4.24740
 7850.00000    -999.25   10.77690   10.77690    9.35590    -999.25    0.26000    0.26000    2.48680    0.10700    -999.25    0.13050    -999.25   24.22930   24.22930    -999.25    0.00980    -999.25    0.00980    2.48680  -47.56500  -20.43360    -999.25
