~Version ---------------------------------------------------
VERS.      2.0 : CWLS log ASCII Standard -VERSION 2.0
WRAP.      YES : Multiple lines per depth step
CREA. 09/17/18 : LAS Creation Date
~Well ------------------------------------------------------
STRT.FT                 1100.0 : START DEPTH
STOP.FT                 9550.0 : STOP DEPTH
STEP.FT               50.00000 : STEP LENGTH
NULL.                  -999.25 : NULL VALUE
COMP.     BURK ROYALTY COMPANY : COMPANY
WELL.             KING UNIT #1 : WELL
FLD .               JACQUELINE : FIELD
LOC .                          : LOCATION
CNTY.                 ATASCOSA : COUNTY
STAT.                    TEXAS : STATE
CTRY. UNITED STATES OF AMERICA : COUNTRY
SRVC.             Schlumberger : SERVICE COMPANY
DATE.              17-Aug-1994 : LOGDATE
API .           42013340230000 : API NUMBER
UWI .           42013340230000 : UNIQUE WELL ID
SLAT.WGS84         28.87747446 : SURFACE LATITUDE
SLON.WGS84      -98.2411771051 : SURFACE LONGITUDE
~Curve Information -----------------------------------------
DEPT    .FT    : DEPTH FEET
CALWS   .IN    : CALIPER [DCALRED+BIT]
CONDWS  .MMHO  : DEEP CONDUCTIVITY [1000/DRESWS]
DCALRED .IN    : DIFFERENTIAL CALIPER FROM PISFL-LDT-CNL LOG
DCORWS  .G/C3  : DENSITY CORRECTION [DRHOED]
DENWS   .G/C3  : BULK DENSITY [CALC. FROM DPOLSWS]
DPOLSWS .V/V   : DENSITY POROSITY (LS) [M=2.71 F=1.00] [PHNDLSED]
DRESWS  .OHMM  : DEEP RESISTIVITY [IDERED]
DRHOED  .G/C3  : DENSITY CORRECTION  FROM PISFL-LDT-CNL LOG
GRRED   .GAPI  : GAMMA RAY  FROM PISFL-LDT-CNL LOG
GRWS    .GAPI  : GAMMA RAY [GRRED]
IDERED  .OHMM  : INDUCTION DEEP ENHANCED RESOLUTION PHASE RESISTIVITY
IMERED  .OHMM  : INDUCTION MEDIUM ENHANCED RESOLUTION PHASE RESISTIVITY
MRESWS  .OHMM  : MEDIUM RESISTIVITY [IMERED]
NPHILSED.V/V   : NEUTRON POROSITY LIMESTONE  FROM PISFL-LDT-CNL LOG
NPOLSWS .V/V   : NEUTRON POROSITY LIMESTONE [NPHILSED]
PEFED   .B/E   : PHOTOELECTRIC FACTOR  FROM PISFL-LDT-CNL LOG
PEFWS   .B/E   : PHOTOELECTRIC FACTOR [PEFED]
DPHILSED.V/V   : DENSITY POROSITY (LS)  FROM PISFL-LDT-CNL LOG
SFLUED  .OHMM  : SPHERICALLY FOCUSED LOG RESISTIVITY
SPRED   .MV    : SPONTANEOUS POTENTIAL  FROM PISFL-LDT-CNL LOG
SPWS    .MV    : SPONTANEOUS POTENTIAL [BASELINE 0 MV] [SPRED]
SRESWS  .OHMM  : SHALLOW RESISTIVITY [SFLUED]
TENRED  .LBF   : TENSION  FROM PISFL-LDT-CNL LOG
~Params ----------------------------------------------------
PD  .                     GL : PERMANENT DATUM
EPD .FT                  279 : ELEVATION PERMANENT DATUM
LMF .                     KB : LOG MEASURED FROM
DAPD.FT                 14.4 : FEET ABOVE PERMANENT DATUM
DMF .                     KB : DRILLING MEASURED FROM
EKB .FT                293.4 : KELLY BUSHING
EDF .FT                292.4 : DRILLING FLOOR
EGL .FT                  279 : GROUND LEVEL
DATE.               08/17/94 : RUN DATE
RUN .                      1 : RUN NUMBER
DD  .FT                 9532 : DEPTH DRILLER
DL  .FT                 9524 : DEPTH LOGGER
BLI .FT                 9515 : BOTTOM LOG INTERVAL
TLI .FT                 1095 : TOP LOG INTERVAL
CS  .IN                8.625 : CASING SIZE
CBD .FT                 1095 : CASING BOTTOM DRILLER
CBL .FT                 1100 : CASING BOTTOM LOGGER
BS  .IN                7.875 : BIT SIZE
BSD .FT                 9532 : BIT SIZE AT DEPTH
DFT .         LIGNOSULFONATE : DRILLING FLUID TYPE
DFD .                   10.3 : DRILLING FLUID DENSITY
DFV .                     41 : DRILLING FLUID VISCOSITY
DFPH.                    8.5 : DRILLING FLUID PH
DFL .                    7.6 : DRILLING FLUID LOSS
MSS .               FLOWLINE : MUD SAMPLE SOURCE
RMS .OHMM              3.123 : RESISTIVITY MUD SAMPLE
MST .FT                   75 : MUD SAMPLE TEMPERATURE
RMF .OHMM              2.469 : RESISTIVITY MUD FILTRATE SAMPLE
MFST.FT                   75 : MUD FILTRATE SAMPLE TEMPERATURE
RMC .OHMM               1.98 : RESISTIVITY MUD CAKE
MCST.FT                   75 : MUD CAKE SAMPLE TEMPERATURE
MFSS.               MEASURED : MUD FILTRATE SAMPLE SOURCE
MCSS.               MEASURED : MUD CAKE SAMPLE SOURCE
RMB .OHMM              1.266 : RESISTIVITY MUD AT BHT
TCS .HRS                  30 : TIME CURCULATED STOPPED
TLAB.HRS                 830 : TIME LOGGER AT BOTTOM
LUN .                   2017 : LOGGING UNIT NUMBER
LUL .               VICTORIA : LOGGING UNIT LOCATION
ENGI.         DAVID BUMBAUGH : RECORDING ENGINEER
WITN.            JACK AUSTIN : WITNESSED BY
CLNT.                A2DTECH : CLIENT CODE
ORIG.           5" 10" PRINT : ORIGIN OF DATA
UWI .         42013340230000 : UNIQUE WELL ID
DICO. A2D Technologies, Inc. : DIGITIZING COMPANY
~Other -----------------------------------------------------
PISFL-LDT-CNL LOGGED I COMBO.
GAPS ON NEUTRON/DENSITY DUE TO INTERVALS NOT RECORDED ON LOG IMAGE.
~ASCII -----------------------------------------------------
# ...
 4200.00000   11.12660  610.27710    1.25160    -999.25    -999.25    -999.25    1.63860    -999.25   97.98500   97.98500    1.63860    1.76090    1.76090    -999.25    -999.25    -999.25    -999.25    -999.25    1.71300   -3.53890   -0.65120    1.71300 2186.01510
 4250.00000    9.63660  163.36930   -0.23840    -999.25    -999.25    -999.25    6.12110    -999.25   56.25110   56.25110    6.12110    6.69410    6.69410    -999.25    -999.25    -999.25    -999.25    -999.25    8.93850  -34.77530  -30.90080    8.93850 2191.98390
 4300.00000    9.78560  252.06690   -0.08940    -999.25    -999.25    -999.25    3.96720    -999.25   90.81330   90.81330    3.96720    3.98860    3.98860    -999.25    -999.25    -999.25    -999.25    -999.25    3.80670  -19.21870  -15.00520    3.80670 2135.93120
 4350.00000   10.76910  337.90630    0.89410    -999.25    -999.25    -999.25    2.95940    -999.25  105.08420  105.08420    2.95940    2.93410    2.93410    -999.25    -999.25    -999.25    -999.25    -999.25    3.16110   -7.74770   -6.34080    3.16110 2255.32860
 4400.00000   10.79900  490.82160    0.92400    -999.25    -999.25    -999.25    2.03740    -999.25   92.05710   92.05710    2.03740    2.04920    2.04920    -999.25    -999.25    -999.25    -999.25    -999.25    2.03470   -5.64560   -4.13730    2.03470 2256.18900
 4450.00000   11.18630  491.47290    1.31130    -999.25    -999.25    -999.25    2.03470    -999.25  107.30050  107.30050    2.03470    2.02080    2.02080    -999.25    -999.25    -999.25    -999.25    -999.25    2.38350   -3.24470   -1.63500    2.38350 2209.57570
 4500.00000    9.90510  495.83500    0.03010    -999.25    -999.25    -999.25    2.01680    -999.25  101.65660  101.65660    2.01680    1.97810    1.97810    -999.25    -999.25    -999.25    -999.25    -999.25    1.91080   -5.05020   -3.33910    1.91080 2291.44630
 4550.00000    9.90450  218.13580    0.02950    -999.25    -999.25    -999.25    4.58430    -999.25   90.22460   90.22460    4.58430    4.55280    4.55280    -999.25    -999.25    -999.25    -999.25    -999.25    5.50970  -19.76150  -17.94900    5.50970 2278.59790
 4600.00000   11.06710  367.21500    1.19210    -999.25    -999.25    -999.25    2.72320    -999.25   98.01400   98.01400    2.72320    2.67970    2.67970    -999.25    -999.25    -999.25    -999.25    -999.25    2.71590   -5.53650   -3.62260    2.71590 2313.82570
 4650.00000   10.05350  267.22960    0.17850    -999.25    -999.25    -999.25    3.74210    -999.25  104.19640  104.19640    3.74210    3.78060    3.78060    -999.25    -999.25    -999.25    -999.25    -999.25    5.26120  -11.18060   -9.16530    5.26120 2379.96040
 4700.00000    9.87520  232.06700    0.00020    -999.25    -999.25    -999.25    4.30910    -999.25   83.13790   83.13790    4.30910    4.26490    4.26490    -999.25    -999.25    -999.25    -999.25    -999.25    4.23070  -18.34480  -16.22810    4.23070 2352.79420
 4750.00000    9.90480  156.94150    0.02980    -999.25    -999.25    -999.25    6.37180    -999.25   81.77600   81.77600    6.37180    6.40830    6.40830    -999.25    -999.25    -999.25    -999.25    -999.25    9.39010  -29.07010  -26.85200    9.39010 2388.04910
 4800.00000   10.44130  494.85350    0.56630    -999.25    -999.25    -999.25    2.02080    -999.25   92.62050   92.62050    2.02080    2.02070    2.02070    -999.25    -999.25    -999.25    -999.25    -999.25    1.76730  -11.55230   -9.23280    1.76730 2378.86940
 4850.00000   10.76920  522.30230    0.89420    -999.25    -999.25    -999.25    1.91460    -999.25  107.53010  107.53010    1.91460    1.94320    1.94320    -999.25    -999.25    -999.25    -999.25    -999.25    2.02100   -6.03560   -3.61470    2.02100 2349.91090
 4900.00000   10.69950  621.07940    0.82450    -999.25    -999.25    -999.25    1.61010    -999.25  114.24600  114.24600    1.61010    1.65490    1.65490    -999.25    -999.25    -999.25    -999.25    -999.25    1.62120   -5.34730   -2.82500    1.62120 2410.68410
 4950.00000    9.90480  158.18780    0.02980    -999.25    -999.25    -999.25    6.32160    -999.25   91.82990   91.82990    6.32160    6.09980    6.09980    -999.25    -999.25    -999.25    -999.25    -999.25    8.63590  -27.87190  -25.24820    8.63590 2487.53960
 5000.00000   10.38170  600.09600    0.50670    0.07300    2.29940    0.24010    1.66640    0.07300   99.17110   99.17110    1.66640    1.66640    1.66640    0.30490    0.30490    -999.25    -999.25    0.24010    1.90590   -4.14410   -1.43340    1.90590 2511.29270
 5050.00000    9.78560  153.55560   -0.08940    0.04440    2.20280    0.29660    6.51230    0.04440   54.21540   54.21540    6.51230    7.36820    7.36820    0.23690    0.23690    -999.25    -999.25    0.29660   11.22750  -43.78380  -41.25810   11.22750 2460.09110
 5100.00000    9.87510  228.76490    0.00010    0.08450    2.32390    0.22580    4.37130    0.08450  102.33390  102.33390    4.37130    4.36860    4.36860    0.28040    0.28040    -999.25    -999.25    0.22580    6.75130  -18.31270  -15.97200    6.75130 2546.68410
 5150.00000    9.81540  209.94290   -0.05960    0.02790    2.25340    0.26700    4.76320    0.02790   94.25330   94.25330    4.76320    4.80600    4.80600    0.25390    0.25390    -999.25    -999.25    0.26700    7.28160  -29.62290  -27.46720    7.28160 2557.46070
 5200.00000    9.87500  697.00980    0.00000    0.06850    2.26610    0.25960    1.43470    0.06850   93.29750   93.29750    1.43470    1.54500    1.54500    0.35750    0.35750    -999.25    -999.25    0.25960    1.44360  -10.37480   -8.40410    1.44360 2544.61870
 5250.00000    9.90490  148.11960    0.02990    0.03480    2.20470    0.29550    6.75130    0.03480   49.32750   49.32750    6.75130    7.23240    7.23240    0.21920    0.21920    -999.25    -999.25    0.29550    9.56210  -40.36170  -38.57600    9.56210 2571.22530
 5300.00000    9.51570  140.19150   -0.35930    0.04750    2.28180    0.25040    7.13310    0.04750   55.81500   55.81500    7.13310    7.07310    7.07310    0.25470    0.25470    -999.25    -999.25    0.25040    8.40490  -30.96260  -29.36200    8.40490 2590.79980
 5350.00000    9.65320  159.75210   -0.22180    0.01780    2.15120    0.32680    6.25970    0.01780   38.40360   38.40360    6.25970    6.37900    6.37900    0.22990    0.22990    -999.25    -999.25    0.32680    8.87010  -41.85910  -40.44350    8.87010 2582.84890
 5400.00000    9.49580  125.28660   -0.37920    0.09870    2.20010    0.29820    7.98170    0.09870   41.79020   41.79020    7.98170    8.32050    8.32050    0.22450    0.22450    -999.25    -999.25    0.29820    9.78850  -40.05690  -38.82630    9.78850 2598.00610
 5450.00000    9.45170  123.03150   -0.42330    0.10000    2.33210    0.22100    8.12800    0.10000   49.89170   49.89170    8.12800    8.57660    8.57660    0.22370    0.22370    -999.25    -999.25    0.22100   10.85810  -34.96160  -33.91600   10.85810 2558.81080
 5500.00000   10.44390  744.93440    0.56890    0.07210    2.14300    0.33160    1.34240    0.07210  100.30120  100.30120    1.34240    1.46220    1.46220    0.35660    0.35660    -999.25    -999.25    0.33160    1.41330   -2.90510   -2.04450    1.41330 2498.64500
 5550.00000   10.50370  708.21530    0.62870    0.07720    2.23990    0.27490    1.41200    0.07720  104.36820  104.36820    1.41200    1.47530    1.47530    0.34670    0.34670    -999.25    -999.25    0.27490    1.41970   -1.97900   -1.30050    1.41970 2454.99850
 5600.00000   10.68670  739.80910    0.81170    0.08910    2.29070    0.24520    1.35170    0.08910   95.78350   95.78350    1.35170    1.38830    1.38830    0.35030    0.35030    -999.25    -999.25    0.24520    1.38530   -1.97900   -1.19000    1.38530 2511.75340
 5650.00000   10.89310  387.71710    1.01810    0.05970    2.45350    0.15000    2.57920    0.05970  104.59060  104.59060    2.57920    2.55370    2.55370    0.22720    0.22720    -999.25    -999.25    0.15000    3.02940   -5.57720   -4.67770    3.02940 2573.93530
 5700.00000   10.13660  328.76350    0.26160    0.04850    2.41350    0.17340    3.04170    0.04850  102.70510  102.70510    3.04170    2.89050    2.89050    0.24520    0.24520    -999.25    -999.25    0.17340    2.94710   -8.87660   -7.86650    2.94710 2660.47290
