~Version ---------------------------------------------------
VERS.      2.0 : CWLS log ASCII Standard -VERSION 2.0
WRAP.      YES : Multiple lines per depth step
CREA. 01/09/13 : LAS Creation Date
~Well ------------------------------------------------------
STRT.FT                    1500.0 : START DEPTH
STOP.FT                    9700.0 : STOP DEPTH
STEP.FT                  50.00000 : STEP LENGTH
NULL.                     -999.25 : NULL VALUE
COMP.        MARATHON OIL COMPANY : COMPANY
WELL.                 NEWELL A #4 : WELL
FLD .                  BEAR GRASS : FIELD
LOC .                             : LOCATION
CNTY.                        LEON : COUNTY
STAT.                       TEXAS : STATE
CTRY.    UNITED STATES OF AMERICA : COUNTRY
SRVC. HALLIBURTON Sperry Drilling : SERVICE COMPANY
DATE.                 24-Apr-2000 : LOGDATE
API .              42289313210000 : API NUMBER
UWI .              42289313210000 : UNIQUE WELL ID
SLAT.WGS84          31.3590171152 : SURFACE LATITUDE
SLON.WGS84         -96.2605957839 : SURFACE LONGITUDE
~Curve Information -----------------------------------------
DEPT    .FT    : DEPTH FEET
CALDED  .IN    : CALIPER FROM HRI-DFL-SD-DSN-GR LOG
CALWS   .IN    : CALIPER [CALDED]
CONDWS  .MMHO  : CONDUCTIVITY [1000/DRESWS]
DCALED  .IN    : DIFFERENTIAL CALIPER FROM HRI-DFL-SD-DSN-GR LOG
DCORED  .G/C3  : DENSITY CORRECTION FROM HRI-DFL-SD-DSN-GR LOG
DCORWS  .G/C3  : DENSITY CORRECTION [DCORED]
DENWS   .G/C3  : FORMATION BULK DENSITY [CALCULATED FROM DPOWS, M=2.71, F=1.0]
DFLED   .OHMM  : DIGITALLY FOCUSED LATEROLOG FROM HRI-DFL-SD-DSN-GR LOG
DPORLSED.V/V   : DENSITY POROSITY LIMESTONE [M=2.71, F=1.0] FROM HRI-DFL-SD-DSN-GR LOG
DPOWS   .V/V   : DENSITY POROSITY LIMESTONE [DPORLSED]
DRESWS  .OHMM  : DEEP RESISTIVITY [HDRSED]
GRRED   .GAPI  : GAMMA RAY FROM HRI-DFL-SD-DSN-GR LOG
GRWS    .GAPI  : GAMMA RAY [GRRED]
HDRSED  .OHMM  : DEEP HIGH RESOLUTION RESISTIVITY FROM HRI-DFL-SD-DSN-GR LOG
HMRSED  .OHMM  : MEDIUM HIGH RESOLUTION RESISTIVITY FROM HRI-DFL-SD-DSN-GR LOG
MRESWS  .OHMM  : MEDIUM RESISTIVITY [HMRSEDS]
NPORLSED.V/V   : NEUTRON POROSITY LIMESTONE FROM HRI-DFL-SD-DSN-GR LOG
NPOWS   .V/V   : NEUTRON POROSITY LIMESTONE [NPORSLSED]
SPRED   .MV    : SPONTANEOUS POTENTIAL FROM HRI-DFL-SD-DSN-GR LOG
SPWS    .MV    : SPONTANEOUS POTENTIAL [BASELINE 0 MV, SPRED]
SRESWS  .OHMM  : SHALLOW RESISTIVITY [DLFED]
TENRED  .LBF   : TENSION FROM HRI-DFL-SD-DSN-GR LOG
~Params ----------------------------------------------------
PD  .                     GL : PERMANENT DATUM
EPD .FT                  508 : ELEVATION PERMANENT DATUM
LMF .                     KB : LOG MEASURED FROM
DAPD.FT                   12 : FEET ABOVE PERMANENT DATUM
DMF .                     KB : DRILLING MEASURED FROM
EKB .FT                  520 : KELLY BUSHING
EDF .FT                  519 : DRILLING FLOOR
EGL .FT                  508 : GROUND LEVEL
DATE.               04/24/00 : RUN DATE
RUN .                      1 : RUN NUMBER
DD  .FT                 9709 : DEPTH DRILLER
DL  .FT                 9701 : DEPTH LOGGER
BLI .FT                 9693 : BOTTOM LOG INTERVAL
TLI .FT                 1523 : TOP LOG INTERVAL
CS  .IN                9.625 : CASING SIZE
CBD .FT                 1525 : CASING BOTTOM DRILLER
CBL .FT                 1523 : CASING BOTTOM LOGGER
BS  .IN                7.875 : BIT SIZE
BSD .FT                 9709 : BIT SIZE AT DEPTH
DFT .              FRESH MUD : DRILLING FLUID TYPE
DFD .                   10.1 : DRILLING FLUID DENSITY
DFV .                     39 : DRILLING FLUID VISCOSITY
DFPH.                    9.6 : DRILLING FLUID PH
DFL .                     15 : DRILLING FLUID LOSS
MSS .               MUD TANK : MUD SAMPLE SOURCE
RMS .OHMM                0.7 : RESISTIVITY MUD SAMPLE
MST .FT                   80 : MUD SAMPLE TEMPERATURE
RMF .OHMM               0.53 : RESISTIVITY MUD FILTRATE SAMPLE
MFST.FT                   79 : MUD FILTRATE SAMPLE TEMPERATURE
RMC .OHMM               0.87 : RESISTIVITY MUD CAKE
MCST.FT                   80 : MUD CAKE SAMPLE TEMPERATURE
MFSS.                   MEAS : MUD FILTRATE SAMPLE SOURCE
MCSS.                   MEAS : MUD CAKE SAMPLE SOURCE
RMB .OHMM              0.257 : RESISTIVITY MUD AT BHT
TCS .HRS                1300 : TIME CURCULATED STOPPED
TLAB.HRS                1245 : TIME LOGGER AT BOTTOM
LUN .                  52562 : LOGGING UNIT NUMBER
LUL .                 KILGOR : LOGGING UNIT LOCATION
ENGI.               J BUTLER : RECORDING ENGINEER
WITN.           PERRY FRANKS : WITNESSED BY
CLNT.                A2DTECH : CLIENT CODE
ORIG.         1" 2" 5" PRINT : ORIGIN OF DATA
UWI .         42289313210000 : UNIQUE WELL ID
DICO. A2D Technologies, Inc. : DIGITIZING COMPANY
~Other -----------------------------------------------------
~ASCII -----------------------------------------------------
# ...
 6300.00000    -999.25    -999.25  721.60480    -999.25    -999.25    -999.25    -999.25    1.41780    -999.25    -999.25    1.38580   79.73610   79.73610    1.38580    1.43820    1.43820    -999.25    -999.25 -121.86940   -7.32280    1.41780 3233.23410
 6350.00000    -999.25    -999.25   54.16770    -999.25    -999.25    -999.25    -999.25   32.19820    -999.25    -999.25   18.46120   39.58840   39.58840   18.46120   19.93340   19.93340    -999.25    -999.25 -130.60140  -16.01030   32.19820 3235.09500
 6400.00000    -999.25    -999.25   48.23460    -999.25    -999.25    -999.25    -999.25   27.70370    -999.25    -999.25   20.73200   47.33450   47.33450   20.73200   21.24230   21.24230    -999.25    -999.25 -125.32540  -10.68980   27.70370 3214.58350
 6450.00000    -999.25    -999.25  127.13430    -999.25    -999.25    -999.25    -999.25    9.82680    -999.25    -999.25    7.86570   52.31920   52.31920    7.86570    7.99430    7.99430    -999.25    -999.25 -125.48970  -10.80960    9.82680 3262.39600
 6500.00000    -999.25    -999.25  243.51640    -999.25    -999.25    -999.25    -999.25    4.31120    -999.25    -999.25    4.10650   71.44010   71.44010    4.10650    4.30170    4.30170    -999.25    -999.25 -121.56480   -6.84020    4.31120 3307.67290
 6550.00000    -999.25    -999.25  411.01520    -999.25    -999.25    -999.25    -999.25    2.77430    -999.25    -999.25    2.43300   61.38170   61.38170    2.43300    2.52510    2.52510    -999.25    -999.25 -121.74280   -6.97370    2.77430 3296.34940
 6600.00000    -999.25    -999.25  389.46880    -999.25    -999.25    -999.25    -999.25    3.23720    -999.25    -999.25    2.56760   66.14260   66.14260    2.56760    2.62290    2.62290    -999.25    -999.25 -120.55500   -5.74140    3.23720 3286.86160
 6650.00000    -999.25    -999.25  192.51500    -999.25    -999.25    -999.25    -999.25    6.45800    -999.25    -999.25    5.19440   47.03830   47.03830    5.19440    5.32540    5.32540    -999.25    -999.25 -119.83430   -4.97620    6.45800 3314.61670
 6700.00000    -999.25    -999.25  179.26930    -999.25    -999.25    -999.25    -999.25    9.56690    -999.25    -999.25    5.57820   48.03880   48.03880    5.57820    5.70600    5.70600    -999.25    -999.25 -118.41240   -3.50980    9.56690 3334.68680
 6750.00000    -999.25    -999.25  536.56700    -999.25    -999.25    -999.25    -999.25    2.24810    -999.25    -999.25    1.86370   61.46270   61.46270    1.86370    1.93820    1.93820    -999.25    -999.25 -120.75720   -5.87560    2.24810 3390.76780
 6800.00000    -999.25    -999.25  707.31360    -999.25    -999.25    -999.25    -999.25    1.99790    -999.25    -999.25    1.41380   61.81300   61.81300    1.41380    1.45750    1.45750    -999.25    -999.25 -122.88750   -8.30650    1.99790 3388.72460
 6850.00000    -999.25    -999.25  555.95710    -999.25    -999.25    -999.25    -999.25    3.43000    -999.25    -999.25    1.79870   62.29640   62.29640    1.79870    1.85710    1.85710    -999.25    -999.25 -121.67770   -7.39720    3.43000 3388.42870
 6900.00000    -999.25    -999.25  187.04170    -999.25    -999.25    -999.25    -999.25    7.07680    -999.25    -999.25    5.34640   44.76410   44.76410    5.34640    5.72860    5.72860    -999.25    -999.25 -117.25810   -3.27820    7.07680 3425.46480
 6950.00000    -999.25    -999.25   44.77360    -999.25    -999.25    -999.25    -999.25   31.15970    -999.25    -999.25   22.33460   31.10290   31.10290   22.33460   24.82510   24.82510    -999.25    -999.25 -121.52890   -7.84950   31.15970 3480.74850
 7000.00000    -999.25    -999.25   59.94450    -999.25    -999.25    -999.25    -999.25   21.75980    -999.25    -999.25   16.68210   29.27120   29.27120   16.68210   17.38810   17.38810    -999.25    -999.25 -121.43470   -8.05580   21.75980 3496.71170
 7050.00000    -999.25    -999.25  238.54390    -999.25    -999.25    -999.25    -999.25    4.56060    -999.25    -999.25    4.19210   54.71700   54.71700    4.19210    4.27390    4.27390    -999.25    -999.25 -119.27640   -6.19810    4.56060 3514.88280
 7100.00000   10.56390   10.56390  130.12530    2.70290    -999.25    -999.25    -999.25   12.09720    -999.25    -999.25    7.68490   43.47010   43.47010    7.68490    7.86270    7.86270    -999.25    -999.25 -118.37710   -5.59930   12.09720 3579.55180
 7150.00000   10.39440   10.39440  168.01080    2.57970    -999.25    -999.25    -999.25    6.90280    -999.25    -999.25    5.95200   52.11680   52.11680    5.95200    6.04950    6.04950    -999.25    -999.25 -117.73360   -5.25640    6.90280 3529.81420
 7200.00000   11.84330   11.84330  183.21730    3.99070    -999.25    -999.25    -999.25   12.30390    -999.25    -999.25    5.45800   45.63660   45.63660    5.45800    5.99590    5.99590    -999.25    -999.25 -118.10210   -5.92540   12.30390 3791.07100
 7250.00000   10.65460   10.65460  138.49460    2.75770    -999.25    -999.25    -999.25    8.95800    -999.25    -999.25    7.22050   49.08820   49.08820    7.22050    7.60470    7.60470    -999.25    -999.25 -117.18820   -5.31210    8.95800 3547.34330
 7300.00000   10.74950   10.74950   97.61910    2.86750    -999.25    -999.25    -999.25   27.02910    -999.25    -999.25   10.24390   39.74150   39.74150   10.24390   11.89260   11.89260    -999.25    -999.25 -116.59920   -5.02360   27.02910 3598.25880
 7350.00000   12.02820   12.02820  582.64870    4.39110    -999.25    -999.25    -999.25    1.94590    -999.25    -999.25    1.71630   85.13880   85.13880    1.71630    1.76470    1.76470    -999.25    -999.25 -123.86380  -12.58880    1.94590 3593.59960
 7400.00000   10.52310   10.52310  281.63460    2.68320    -999.25    -999.25    -999.25    5.19410    -999.25    -999.25    3.55070   76.08800   76.08800    3.55070    3.60930    3.60930    -999.25    -999.25 -115.03970   -4.06520    5.19410 3639.44650
 7450.00000    9.92550    9.92550   75.18800    2.12380    -999.25    -999.25    -999.25   18.02820    -999.25    -999.25   13.30000   60.22220   60.22220   13.30000   14.13320   14.13320    -999.25    -999.25 -117.99170   -7.31780   18.02820 3898.79250
 7500.00000   10.43470   10.43470  270.40910    2.61410    -999.25    -999.25    -999.25    4.37560    -999.25    -999.25    3.69810   62.06680   62.06680    3.69810    4.00880    4.00880    -999.25    -999.25 -117.76470   -7.39130    4.37560 3707.69560
 7550.00000    9.73230    9.73230   31.02140    1.89370    -999.25    -999.25    -999.25   48.29680    -999.25    -999.25   32.23580   43.25400   43.25400   32.23580   42.01780   42.01780    -999.25    -999.25 -117.62180   -7.54900   48.29680 3651.70390
 7600.00000    9.69650    9.69650   47.94050    2.02350    -999.25    -999.25    -999.25  254.77280    -999.25    -999.25   20.85920   31.16540   31.16540   20.85920   35.24660   35.24660    -999.25    -999.25 -119.63140   -9.85910  254.77280 3696.67500
 7650.00000    9.57550    9.57550   38.74090    1.73690    -999.25    -999.25    -999.25   45.34890    -999.25    -999.25   25.81250   32.29240   32.29240   25.81250   29.63410   29.63410    -999.25    -999.25 -115.11050   -5.63880   45.34890 3739.68430
 7700.00000   10.06500   10.06500   63.18120    2.16840   -0.00470   -0.00470    2.68370   26.44230    0.01540    0.01540   15.82750   40.13260   40.13260   15.82750   16.26080   16.26080    0.06120    0.06120 -112.67450   -3.52130   26.44230 3784.37180
 7750.00000   10.40200   10.40200   60.91880    2.52250    0.00150    0.00150    2.67170   24.01070    0.02240    0.02240   16.41530   46.94930   46.94930   16.41530   22.44190   22.44190    0.07220    0.07220 -118.20050   -9.70700   24.01070 3758.89790
 7800.00000   10.79890   10.79890  109.43910    3.05360    0.01070    0.01070    2.58330   13.28410    0.07410    0.07410    9.13750   53.73080   53.73080    9.13750   10.11590   10.11590    0.13280    0.13280 -119.45480  -11.62100   13.28410 3789.26640
 7850.00000   10.07360   10.07360   74.24950    2.20700    0.00420    0.00420    2.69190   22.14690    0.01060    0.01060   13.46810   37.52500   37.52500   13.46810   14.49420   14.49420    0.04510    0.04510 -118.09980  -10.92570   22.14690 3790.01680
