~Version ---------------------------------------------------
VERS. 2.0 : CWLS log ASCII Standard -VERSION 2.0
WRAP.  NO : ONE LINE PER DEPTH STEP
~Well ------------------------------------------------------
STRT.F                   300.0 : START DEPTH
STOP.F                 24000.0 : STOP DEPTH
STEP.F                50.00000 : STEP LENGTH
NULL.                  -999.25 : NULL VALUE
COMP.       PLACID OIL COMPANY : COMPANY
WELL.                PEELER #1 : WELL
FLD .                  WILDCAT : FIELD
LOC .                          : LOCATION
CNTY.                MC MULLEN : COUNTY
STAT.                    TEXAS : STATE
CTRY. UNITED STATES OF AMERICA : COUNTRY
SRVC.             Schlumberger : SERVICE COMPANY
DATE.              01-Jan-1984 : LOGDATE
API .           42311317850000 : API NUMBER
UWI .           42311317850000 : UNIQUE WELL ID
SLAT.WGS84       28.5959255047 : SURFACE LATITUDE
SLON.WGS84      -98.4401225914 : SURFACE LONGITUDE
~Curve Information -----------------------------------------
DEPT   .F                 : 
DPHI_LS.DEC  45 890 10 00 : DENSITY POROSITY LIMESTONE
CALD   .IN   45 280 60 00 : CALIPER FROM DENSITY LOG
RHOB   .G/C3 45 350 01 00 : BULK DENSITY
NPHI_LS.DEC  42 890 01 00 : NEUTRON POROSITY LIMESTONE
DT     .US/F 60 500 00 00 : DELTA-T (INTERVAL TRANSIT TIME)
GRR    .GAPI 07 310 01 00 : GAMMA RAY FROM RESISTIVITY LOG
NPHI_SS.DEC  42 890 03 00 : NEUTRON POROSITY SANDSTONE
ILM    .OHMM 07 120 44 00 : INDUCTION MEDIUM RESISTIVITY
SFLU   .OHMM 07 220 01 00 : SHALLOW FOCUSED RESISTIVITY (UNAVERAGED)
SPR    .MV   07 010 01 00 : SPONTANEOUS POTENTIAL FROM RESISTIVITY LOG
ILD    .OHMM 07 120 46 00 : INDUCTION DEEP RESISTIVITY
DCALR  .IN   07 280 01 00 : DIFFERENTIAL CALIPER FROM RESISTIVITY LOG
DPHI_SS.DEC  45 890 12 00 : DENSITY POROSITY SANDSTONE
DRHO   .G/C3 45 356 01 00 : BULK DENSITY CORRECTION
~Params ----------------------------------------------------
PD  .                     GL : PERMANENT DATUM
EPD .F                   336 : ELEVATION PERMANENT DATUM
LMF .                     KB : LOG MEASURED FROM
DMF .                     KB : DRILLING MEASURED FROM
EKB .F                   368 : KELLING BUSHING
EDF .F                   367 : DRILLING FLOOR
EGL .F                   336 : GROUND LEVEL
DATE.               1-1-1984 : RUN DATE
RUN .                      7 : RUN NUMBER
DD  .F                 24031 : DEPTH DRILLER
DL  .F                 24037 : DEPTH LOGGER
BLI .F                 24030 : BOTTOM LOG INTERVAL
TLI .F                 21000 : TOP LOG INTERVAL
CS  .IN                8.625 : CASING SIZE
CBD .F                 19500 : CASING BOTTOM DRILLER
CBL .F                 19500 : CASING BOTTOM LOGGER
BS  .IN                  7.5 : BIT SIZE
BSD .F                 24031 : BIT SIZE AT DEPTH
DFT .               INVERMUL : DRILLING FLUID TYPE
DFV .                     83 : DRILLING FLUID VISCOSITY
TCS .HRS                 800 : TIME CURCULATED STOPPED
TLAB.HRS                 200 : TIME LOGGER AT BOTTOM
LUL .               EDINBURG : LOGGING UNIT LOCATION
ENGI.              NEWMISTER : RECORDING ENGINEER
WITN.                   LONG : WITNESSED BY
CLNT.                A2DTECH : CLIENT CODE
ORIG.            1",5" PRINT : ORIGIN OF DATA
UWI .         42311317850000 : UNIQUE WELL ID
DICO. A2D Technologies, Inc. : DIGITIZING COMPANY
~Other -----------------------------------------------------
~ASCII -----------------------------------------------------
# ...
 17300.00000    0.04100   12.45000    2.64100    0.17500   74.70530  213.04370    -999.25    -999.25   14.62960  -24.01240   12.38450    -999.25    -999.25    0.01800
 17350.00000    0.12040   12.05500    2.49700    0.24700   73.27080  222.17110    -999.25    -999.25    2.62340  -44.56680    1.85760    -999.25    -999.25    0.03500
 17400.00000    0.07500   10.74100    2.58400    0.09800   68.93970  188.34070    -999.25    -999.25   11.19350  -33.86250    8.35910    -999.25    -999.25    0.02900
 17450.00000    0.02060   10.96900    2.67600    0.06400   63.15060  182.30950    -999.25    -999.25    8.70370  -29.97420   12.23470    -999.25    -999.25    0.02400
 17500.00000    0.04390   13.77000    2.63700    0.22100   64.77330  203.58410    -999.25    -999.25    6.27540  -19.28570    4.23080    -999.25    -999.25   -0.01700
 17550.00000    0.02160   14.75500    2.66600    0.17800   58.52160  161.85880    -999.25    -999.25   17.20160  -35.43510   11.22250    -999.25    -999.25   -0.00700
 17600.00000    0.03290   13.59500    2.65700    0.19900   69.27040  171.17880    -999.25    -999.25    4.75310  -25.51080    3.71530    -999.25    -999.25    0.00100
 17650.00000    0.04200   13.39900    2.64200    0.22600   73.63030  134.54510    -999.25    -999.25    7.76280  -28.24540    7.58510    -999.25    -999.25   -0.00100
 17700.00000    0.03480   14.37100    2.64700    0.21700   73.05700  132.38720    -999.25    -999.25   13.02450  -33.60120   12.38390    -999.25    -999.25   -0.00200
 17750.00000    0.04160   13.64100    2.64400    0.21100   73.33040  123.46420    -999.25    -999.25    7.16040  -31.34160    5.72760    -999.25    -999.25   -0.01800
 17800.00000    0.00920   12.82600    2.68900    0.15400   60.82090   91.21460    -999.25    -999.25    6.34540  -38.23660    5.69340    -999.25    -999.25   -0.00400
 17850.00000    0.04910   14.09800    2.62800    0.24800   80.28130  134.54010    -999.25    -999.25    5.00460  -32.37170    3.48250    -999.25    -999.25    0.00500
 17900.00000    0.02230   13.12300    2.67400    0.11600   67.23670  111.05210    -999.25    -999.25    6.38890  -32.79930    5.72760    -999.25    -999.25    0.00200
 17950.00000    0.03380   13.28200    2.65600    0.12700   67.46570   86.54740    -999.25    -999.25    5.81790  -34.31570    5.18570    -999.25    -999.25   -0.01000
 18000.00000    0.01540   12.52900    2.69100    0.12300   64.05770  105.53440    -999.25    -999.25    7.90120  -31.83260    7.28530    -999.25    -999.25    0.01000
 18050.00000    0.04910   13.94300    2.63400    0.16700   73.39170   84.73930    -999.25    -999.25    5.97220  -31.90510    4.95360    -999.25    -999.25   -0.00400
 18100.00000    0.06750   16.44700    2.60100    0.24300   73.47630  104.46930    -999.25    -999.25    5.39170  -31.14070    4.33440    -999.25    -999.25    0.00400
 18150.00000    0.06610   15.97500    2.59900    0.27700   81.26270   89.83340    -999.25    -999.25    5.32400  -28.25040    4.64400    -999.25    -999.25    0.00300
 18200.00000    0.08440   14.52200    2.54500    0.27600   82.88560  112.94610    -999.25    -999.25    5.41900  -31.47740    4.69710    -999.25    -999.25   -0.00600
 18250.00000    0.13700   14.90600    2.46600    0.28100   90.23060  100.95200    -999.25    -999.25    7.98350  -38.86470    5.26320    -999.25    -999.25   -0.00800
 18300.00000    0.11480   14.63200    2.50800    0.26400   87.97020  112.63950    -999.25    -999.25    9.32140  -35.36550    5.57090    -999.25    -999.25    0.00100
 18350.00000    0.12970   15.31700    2.48900    0.29000   92.66530  110.39990    -999.25    -999.25   12.89960  -34.51010    6.19110    -999.25    -999.25   -0.01100
 18400.00000    0.12710   15.30100    2.48300    0.27400   90.98340  122.07840    -999.25    -999.25    9.37030  -35.83200    5.88230    -999.25    -999.25    0.00500
 18450.00000    0.06660   15.23200    2.58600    0.23800   82.09010  137.98600    -999.25    -999.25    4.07440  -30.15550    3.01760    -999.25    -999.25    0.00000
 18500.00000    0.06960   16.37400    2.59900    0.27400   82.51510  126.43860    -999.25    -999.25    4.32100  -35.58950    3.09600    -999.25    -999.25   -0.00100
 18550.00000    0.09600   16.21600    2.55400    0.28300   86.01690  130.09480    -999.25    -999.25    4.30050  -33.07150    2.86380    -999.25    -999.25   -0.01500
 18600.00000    0.09940   13.53600    2.54300    0.25600   91.23620  149.68940    -999.25    -999.25    7.24070  -34.76500    6.19190    -999.25    -999.25    0.00600
 18650.00000    0.10250   15.17300    2.54200    0.25300   85.47540  127.05900    -999.25    -999.25    5.69940  -37.47660    5.26320    -999.25    -999.25    0.00100
 18700.00000    0.07750   14.75700    2.57300    0.26500   86.50750  126.97010    -999.25    -999.25    3.88880  -41.05920    4.95350    -999.25    -999.25   -0.00800
 18750.00000    0.08530   15.13500    2.56900    0.26100   91.02380  115.76090    -999.25    -999.25    4.22820  -41.99380    4.64400    -999.25    -999.25    0.00300
 18800.00000    0.10310   13.74300    2.53200    0.21900   90.99270  135.09320    -999.25    -999.25    6.67250  -46.35510    5.57280    -999.25    -999.25   -0.00500
 18850.00000    0.03030   12.57600    2.65600    0.19800   72.65880  131.14520    -999.25    -999.25    3.54900  -48.88660    3.94740    -999.25    -999.25    0.00000
 18900.00000    0.03790   10.93300    2.66600    0.00000   53.08550   41.52410    -999.25    -999.25   31.56530  -56.47980   13.77710    -999.25    -999.25    0.00700
 18950.00000    0.05260   11.44400    2.62000    0.09700   63.51500  127.71090    -999.25    -999.25    4.79420  -57.51810    4.72140    -999.25    -999.25   -0.00500
 19000.00000    0.01560   13.14700    2.69400    0.22800   74.46930  183.77220    -999.25    -999.25    2.90120  -48.42450    2.70920    -999.25    -999.25    0.00000
 19050.00000   -0.00420   13.98100    2.71900    0.21500   70.06870  146.50080    -999.25    -999.25    2.62340  -53.98750    2.16720    -999.25    -999.25   -0.00400
 19100.00000    0.05630   10.58000    2.61300    0.06300   58.89680  152.42110    -999.25    -999.25    9.81480  -52.35240   10.42310    -999.25    -999.25    0.00500
 19150.00000    0.04520   11.45000    2.63200    0.14200   69.45240  196.60270    -999.25    -999.25    3.17900  -35.85420    3.09600    -999.25    -999.25    0.00200
 19200.00000    0.03790   11.61500    2.64200    0.17200   72.02420  133.96110    -999.25    -999.25    2.77780  -23.45790    2.78640    -999.25    -999.25   -0.00500
 19250.00000    0.02210   11.21800    2.67100    0.22000   76.15080  148.01730    -999.25    -999.25    2.88590  -17.61680    2.70890    -999.25    -999.25    0.00600
 19300.00000    0.04810   10.57200    2.62700    0.09300   63.53020   84.44790    -999.25    -999.25    7.09870  -26.88470    6.24350    -999.25    -999.25    0.00700
 19350.00000    0.06940   10.04300    2.60100    0.04300   60.57950   54.00490    -999.25    -999.25    8.42140  -32.36280    8.02580    -999.25    -999.25    0.01400
 19400.00000   -0.02770   10.37500    2.75200    0.18200   65.27540   92.30170    -999.25    -999.25    5.67900   -8.22420    4.68930    -999.25    -999.25   -0.01100
 19450.00000   -0.01380    9.43100    2.73400    0.23600   73.71590   80.01480    -999.25    -999.25    4.21320  -11.04880    3.37980    -999.25    -999.25   -0.00600
 19500.00000   -0.35270    -999.25    -999.25    0.23500    -999.25   94.47980    -999.25    -999.25  135.58640  -21.27730    -999.25    -999.25    -999.25    -999.25
 19550.00000   -0.06700    7.70600    2.84700    0.12700   61.49560  110.57500    -999.25    2.78670    -999.25    -999.25    2.58170    -999.25    -999.25    -999.25
 19600.00000   -0.04360    7.72400    2.79100    0.22300   67.56650  145.61140    -999.25    3.18680    -999.25    -999.25    3.40860    -999.25    -999.25    -999.25
 19650.00000   -0.04810    7.72400    2.80300    0.16900   64.92190  150.93370    -999.25    5.05810    -999.25    -999.25    5.12030    -999.25    -999.25    -999.25
