~Version ---------------------------------------------------
VERS. 2.0 : CWLS log ASCII Standard -VERSION 2.0
WRAP. YES : Multiple lines per depth step
~Well ------------------------------------------------------
STRT.FT                   3900.0 : START DEPTH
STOP.FT                   8200.0 : STOP DEPTH
STEP.FT                 50.00000 : STEP LENGTH
NULL.                    -999.25 : NULL VALUE
COMP. CHAMPLIN PETROLEUM COMPANY : COMPANY
WELL.         FLOYD T. SWONKE #1 : WELL
FLD .                   GIDDINGS : FIELD
LOC .                            : LOCATION
CNTY.                   BURLESON : COUNTY
STAT.                      TEXAS : STATE
CTRY.   UNITED STATES OF AMERICA : COUNTRY
SRVC.               Schlumberger : SERVICE COMPANY
DATE.                21-Sep-1980 : LOGDATE
API .             42051309360000 : API NUMBER
UWI .             42051309360000 : UNIQUE WELL ID
SLAT.WGS84         30.4510572184 : SURFACE LATITUDE
SLON.WGS84        -96.7010729865 : SURFACE LONGITUDE
~Curve Information -----------------------------------------
DEPT    .FT    : 
CALWS   .IN    : CALIPER [DCALED+8.5]
CONDWS  .MMHO  : CONDUCTIVITY [1000/DRESWS]
DCALED  .IN    : DIFFERENTIAL CALIPER FROM DIL-SFL-CNFD LOG
DCORWS  .G/C3  : DENSITY CORRECTION [DRHOED]
DENWS   .G/C3  : FORMATION BULK DENSITY [CALCULATED FROM DPOWS, M=2.71, F=1.0]
DPHILSED.V/V   : DENSITY POROSITY LIMESTONE [M=2.71, F=1.0] FROM DIL-SFL-CNFD LOG [ADJ. TO GRRED]
DPHISSED.V/V   : DENSITY POROSITY SANDSTONE [M=2.65, F=1.0] FROM DIL-SFL-CNFD LOG [ADJ. TO GRRED]
DPOWS   .V/V   : DENSITY POROSITY LIMESTONE [DPHISSED CONVERTED TO LIMESTONE MATRIX(M=2.71, F=1.0) & SPL. TO DPHILSED @6394']
DRESWS  .OHMM  : DEEP RESISTIVITY [RILDED]
DRHOED  .G/C3  : BULK DENSITY CORRECTION FROM DIL-SFL-CNFD LOG
GRRED   .GAPI  : GAMMA RAY FROM DIL-SFL-CNFD LOG
GRWS    .GAPI  : GAMMA RAY [GRRED] CSG < 3712'
MRESWS  .OHMM  : MEDIUM RESISTIVITY [RILMED]
NPHILSED.V/V   : NEUTRON POROSITY LIMESTONE FROM DIL-SFL-CNFD LOG [ADJ. TO GRRED]
NPHISSED.V/V   : NEUTRON POROSITY SANDSTONE FROM DIL-SFL-CNFD LOG [ADJ. TO GRRED]
NPOWS   .V/V   : NEUTRON POROSITY LIMESTONE [NPHISSED MATRIX CONVERSION FOR LIMESTONE, SPL. TO NPHILSED @6394'] CSG < 3712'
RILDED  .OHMM  : DEEP INDUCTION RESISTIVITY FROM DIL-SFL-CNFD LOG
RILMED  .OHMM  : MEDIUM INDUCTION LOG RESISTIVITY FROM DIL-SFL-CNFD LOG
SFLUED  .OHMM  : SHALLOW FOCUSED RESISTIVITY (UNAVERAGED) FROM DIL-SFL-CNFD LOG
SPRED   .MV    : SPONTANEOUS POTENTIAL FROM DIL-SFL-CNFD LOG
SPWS    .MV    : SPONTANEOUS POTENTIAL [BASELINE 0 MV, SPRED]
SRESWS  .OHMM  : SHALLOW RESISTIVITY [SFLUED]
~Params ----------------------------------------------------
PD  .                     GL : PERMANENT DATUM
EPD .FT                  393 : ELEVATION PERMANENT DATUM
LMF .                     KB : LOG MEASURED FROM
DAPD.FT                   14 : FEET ABOVE PERMANENT DATUM
DMF .                     KB : DRILLING MEASURED FROM
EKB .FT                  407 : KELLY BUSHING
EDF .FT                  406 : DRILLING FLOOR
EGL .FT                  393 : GROUND LEVEL
DATE.               09/21/80 : RUN DATE
RUN .                      1 : RUN NUMBER
DD  .FT                 8220 : DEPTH DRILLER
DL  .FT                 8221 : DEPTH LOGGER
BLI .FT                 8215 : BOTTOM LOG INTERVAL
TLI .FT                 3912 : TOP LOG INTERVAL
CS  .IN                9.625 : CASING SIZE
CBD .FT                 3900 : CASING BOTTOM DRILLER
CBL .FT                 3912 : CASING BOTTOM LOGGER
BS  .IN                  8.5 : BIT SIZE
BSD .FT                 8220 : BIT SIZE AT DEPTH
DFT .            BENEX WL100 : DRILLING FLUID TYPE
DFD .                    9.2 : DRILLING FLUID DENSITY
DFV .                     41 : DRILLING FLUID VISCOSITY
DFPH.                      8 : DRILLING FLUID PH
DFL .                    5.6 : DRILLING FLUID LOSS
MSS .                   TANK : MUD SAMPLE SOURCE
RMS .OHMM                2.1 : RESISTIVITY MUD SAMPLE
MST .DEGF                 90 : MUD SAMPLE TEMPERATURE
RMF .OHMM               1.89 : RESISTIVITY MUD FILTRATE SAMPLE
MFST.DEGF                 75 : MUD FILTRATE SAMPLE TEMPERATURE
RMC .OHMM               3.15 : RESISTIVITY MUD CAKE
MCST.DEGF                 90 : MUD CAKE SAMPLE TEMPERATURE
MFSS.                      M : MUD FILTRATE SAMPLE SOURCE
MCSS.                      C : MUD CAKE SAMPLE SOURCE
RMB .OHMM                  1 : RESISTIVITY MUD AT BHT
TCS .HRS                2100 : TIME CIRCULATED STOPPED
TLAB.HRS                 730 : TIME LOGGER AT BOTTOM
LUN .                   7750 : LOGGING UNIT NUMBER
LUL .                BRENHAM : LOGGING UNIT LOCATION
ENGI.       ALEXANDER HARRIS : RECORDING ENGINEER
WITN.                 SCHELL : WITNESSED BY
CLNT.                A2DTECH : CLIENT CODE
ORIG.            2" 5" PRINT : ORIGIN OF DATA
UWI .         42051309360000 : UNIQUE WELL ID
DICO. A2D Technologies, Inc. : DIGITIZING COMPANY
~Other -----------------------------------------------------
~ASCII -----------------------------------------------------
 3900.00000    -999.25    -999.25    -999.25    -999.25    -999.25    -999.25    -999.25    -999.25    -999.25    -999.25   48.47310   48.47310    -999.25    -999.25    0.57380    0.53210    -999.25    -999.25    -999.25    -999.25    -999.25    -999.25
 3950.00000   10.13350  111.92320    1.63350    0.04330    2.07080    -999.25    0.35100    0.37380    8.93470    0.04330   74.46180   74.46180   11.80050    -999.25    0.39320    0.35020    8.93470   11.80050   15.89430  -14.27620   -8.63520   15.89430
 4000.00000    9.35180  132.88510    0.85180    0.05040    2.10150    -999.25    0.33240    0.35580    7.52530    0.05040   75.49370   75.49370    8.89610    -999.25    0.38110    0.33790    7.52530    8.89610   10.13360  -30.47010  -24.82910   10.13360
 4050.00000   10.91140  369.03090    2.41140    0.04300    2.19710    -999.25    0.27450    0.30000    2.70980    0.04300   85.47680   85.47680    2.83360    -999.25    0.38850    0.34540    2.70980    2.83360    2.95240   -8.27280   -2.63180    2.95240
 4100.00000   10.06970  370.20580    1.56970    0.09040    2.19460    -999.25    0.27600    0.30140    2.70120    0.09040   92.15720   92.15720    2.82420    -999.25    0.42260    0.38020    2.70120    2.82420    2.72600  -10.61210   -4.97110    2.72600
 4150.00000    9.65480  329.44590    1.15480    0.05430    2.12630    -999.25    0.31740    0.34140    3.03540    0.05430   76.63860   76.63860    3.64440    -999.25    0.41790    0.37540    3.03540    3.64440    3.69610  -24.57170  -19.16160    3.69610
 4200.00000    9.53650  329.36990    1.03650    0.08870    2.15220    -999.25    0.30170    0.32620    3.03610    0.08870  102.14220  102.14220    3.29460    -999.25    0.43610    0.39400    3.03610    3.29460    3.28040  -10.80770   -5.81000    3.28040
 4250.00000   10.25400  323.96010    1.75400    0.08070    2.28010    -999.25    0.22420    0.25140    3.08680    0.08070   90.26290   90.26290    3.21020    -999.25    0.35740    0.31380    3.08680    3.21020    2.93100  -10.39990   -5.81460    2.93100
 4300.00000    9.23500  287.42240    0.73500    0.08700    2.26980    -999.25    0.23040    0.25740    3.47920    0.08700   72.30090   72.30090    4.08010    -999.25    0.31750    0.27360    3.47920    4.08010    4.90380  -31.30810  -27.13510    4.90380
 4350.00000    9.95140  380.25710    1.45140    0.09020    2.29490    -999.25    0.21520    0.24270    2.62980    0.09020   93.43270   93.43270    2.75500    -999.25    0.33280    0.28900    2.62980    2.75500    3.52110   -7.76480   -4.00420    3.52110
 4400.00000    9.35700  398.56520    0.85700    0.09880    2.27360    -999.25    0.22810    0.25520    2.50900    0.09880   87.06060   87.06060    2.59610    -999.25    0.35710    0.31350    2.50900    2.59610    2.54610   -7.38070   -4.03250    2.54610
 4450.00000    9.59540  335.76200    1.09540    0.09320    2.31790    -999.25    0.20130    0.22930    2.97830    0.09320   94.79540   94.79540    3.08190    -999.25    0.33300    0.28920    2.97830    3.08190    3.13180   -8.10170   -5.16580    3.13180
 4500.00000    9.71420  354.29580    1.21420    0.07680    2.35780    -999.25    0.17710    0.20600    2.82250    0.07680   84.04740   84.04740    2.91730    -999.25    0.30460    0.26060    2.82250    2.91730    2.98420   -7.68710   -5.16360    2.98420
 4550.00000   10.12170  497.09200    1.62170    0.09660    2.26060    -999.25    0.23600    0.26280    2.01170    0.09660   93.08170   93.08170    2.08570    -999.25    0.37670    0.33340    2.01170    2.08570    2.23330   -3.94540   -1.83420    2.23330
 4600.00000   10.06250  600.81710    1.56250    0.07920    2.25140    -999.25    0.24160    0.26820    1.66440    0.07920   96.37120   96.37120    1.72010    -999.25    0.42960    0.38740    1.66440    1.72010    1.85870   -3.55460   -1.81810    1.85870
 4650.00000    9.69960  443.91180    1.19960    0.09560    2.24620    -999.25    0.24470    0.27120    2.25270    0.09560   84.50120   84.50120    2.32960    -999.25    0.36340    0.31990    2.25270    2.32960    2.61530   -3.91130   -2.44230    2.61530
 4700.00000   10.01160  598.55150    1.51160    0.09640    2.28880    -999.25    0.21890    0.24630    1.67070    0.09640   93.10970   93.10970    1.72670    -999.25    0.40540    0.36260    1.67070    1.72670    1.88860   -1.81530   -0.61370    1.88860
 4750.00000   10.43290  662.51490    1.93290    0.08650    2.26090    -999.25    0.23580    0.26260    1.50940    0.08650   99.24520   99.24520    1.55990    -999.25    0.37820    0.33490    1.50940    1.55990    1.68900   -2.84450   -1.91030    1.68900
 4800.00000    9.72290  682.26790    1.22290    0.05630    2.25760    -999.25    0.23780    0.26450    1.46570    0.05630   99.57580   99.57580    1.51480    -999.25    0.41340    0.37080    1.46570    1.51480    1.72140   -3.14970   -2.48300    1.72140
 4850.00000    9.82260  683.10680    1.32260    0.09650    2.25430    -999.25    0.23980    0.26650    1.46390    0.09650  113.90500  113.90500    1.51380    -999.25    0.41540    0.37280    1.46390    1.51380    1.58550   -2.61740   -2.21810    1.58550
 4900.00000    8.25840  622.12270   -0.24160    0.10040    2.26700    -999.25    0.23210    0.25900    1.60740    0.10040   90.56800   90.56800    1.66120    -999.25    0.40030    0.35740    1.60740    1.66120    1.73620   -1.74170   -1.60980    1.73620
 4950.00000    9.68210  762.42760    1.18210    0.09460    2.29150    -999.25    0.21730    0.24480    1.31160    0.09460  100.36950  100.36950    1.38990    -999.25    0.40130    0.35840    1.31160    1.38990    1.51820   -0.73670   -0.87230    1.51820
 5000.00000   10.26570  912.15910    1.76570    0.09490    2.23930    -999.25    0.24890    0.27530    1.09630    0.09490   92.04530   92.04530    1.16860    -999.25    0.37380    0.33050    1.09630    1.16860    1.64180   -2.87010   -3.27310    1.64180
 5050.00000    9.88980  501.45420    1.38980    0.09450    2.34660    -999.25    0.18390    0.21250    1.99420    0.09450   84.40810   84.40810    2.02220    -999.25    0.30070    0.25670    1.99420    2.02220    2.08540   -3.99590   -4.66630    2.08540
 5100.00000    9.96800  646.91420    1.46800    0.09040    2.35040    -999.25    0.18160    0.21030    1.54580    0.09040   99.01980   99.01980    1.61520    -999.25    0.36720    0.32380    1.54580    1.61520    1.65230   -2.39730   -3.33520    1.65230
 5150.00000   10.14710  662.16400    1.64710    0.09920    2.44850    -999.25    0.12210    0.15290    1.51020    0.09920   71.67200   71.67200    1.65920    -999.25    0.31110    0.26720    1.51020    1.65920    2.11390   -4.74650   -5.95180    2.11390
 5200.00000   11.23530  883.78260    2.73530    0.07950    2.38110    -999.25    0.16300    0.19240    1.13150    0.07950   98.60630   98.60630    1.18880    -999.25    0.39510    0.35210    1.13150    1.18880    1.32540   -2.24660   -3.71930    1.32540
 5250.00000   10.82070  860.95570    2.32070    0.09630    2.33400    -999.25    0.19150    0.21990    1.16150    0.09630   89.79440   89.79440    1.19750    -999.25    0.40250    0.35970    1.16150    1.19750    1.32560   -2.83100   -4.57120    1.32560
 5300.00000   10.37580  707.11360    1.87580    0.10460    2.46900    -999.25    0.10970    0.14090    1.41420    0.10460   80.68350   80.68350    1.48320    -999.25    0.35790    0.31440    1.41420    1.48320    1.57940   -1.23930   -3.24690    1.57940
 5350.00000   10.03850  634.59830    1.53850    0.06190    2.36540    -999.25    0.17250    0.20150    1.57580    0.06190   77.88430   77.88430    1.64290    -999.25    0.30780    0.26380    1.57580    1.64290    1.71010   -3.88830   -6.03520    1.71010
 5400.00000   10.43500  965.25100    1.93500    0.09650    2.19770    -999.25    0.27410    0.29960    1.03600    0.09650   90.48580   90.48580    1.07070    -999.25    0.44370    0.40180    1.03600    1.07070    1.15860   -2.21090   -4.48600    1.15860
 5450.00000   10.16320  844.73730    1.66320    0.10100    2.37740    -999.25    0.16520    0.19450    1.18380    0.10100   90.99010   90.99010    1.22490    -999.25    0.36620    0.32280    1.18380    1.22490    1.34730   -1.00110   -3.40440    1.34730
