~Version ---------------------------------------------------
VERS. 2.0 : CWLS log ASCII Standard -VERSION 2.0
WRAP.  NO : ONE LINE PER DEPTH STEP
~Well ------------------------------------------------------
STRT.F                  1650.0 : START DEPTH
STOP.F                  7800.0 : STOP DEPTH
STEP.F                50.00000 : STEP LENGTH
NULL.                  -999.25 : NULL VALUE
COMP.        BTA OIL PRODUCERS : COMPANY
WELL.   7702 JV-P GOOD HOPE #1 : WELL
FLD .                  WILDCAT : FIELD
LOC .                          : LOCATION
CNTY.                   DIMMIT : COUNTY
STAT.                    TEXAS : STATE
CTRY. UNITED STATES OF AMERICA : COUNTRY
SRVC.             Schlumberger : SERVICE COMPANY
DATE.              08-Nov-1976 : LOGDATE
API .           42127311200000 : API NUMBER
UWI .           42127311200000 : UNIQUE WELL ID
SLAT.WGS84       28.3844173774 : SURFACE LATITUDE
SLON.WGS84      -99.8861629411 : SURFACE LONGITUDE
~Curve Information -----------------------------------------
DEPT.F                 : 
SPR .MV   07 010 01 00 : SPONTANEOUS POTENTIAL FROM RESISTIVITY
DT  .US/F 60 520 00 00 : DELTA-T (INTERVAL TRANSIT TIME)
GRR .GAPI 07 310 01 00 : GAMMA RAY FROM RESISTIVITY
DT1 .US/F 60 520 00 00 : INTERVAL TRANSIT TIME
ILD .OHMM 07 120 46 00 : INDUCTION DEEP RESISTIVITY
ILM .OHMM 07 120 44 00 : INDUCTION MEDIUM RESISTIVITY
LL8 .OHMM 07 220 08 00 : LATERO-LOG 8
~Params ----------------------------------------------------
PD  .                     GL : PERMANENT DATUM
EPD .F                   680 : ELEVATION PERMANENT DATUM
LMF .                    RKB : LOG MEASURED FROM
DAPD.F                    10 : FEET ABOVE PERMANENT DATUM
DMF .                    RKB : DRILLING MEASURED FROM
EKB .F                   690 : KELLING BUSHING
EDF .F                   689 : DRILLING FLOOR
EGL .F                   650 : GROUND LEVEL
DATE.               11/08/75 : RUN DATE
RUN .                      1 : RUN NUMBER
DD  .F                  7800 : DEPTH DRILLER
DL  .F                  7819 : DEPTH LOGGER
BLI .F                  7813 : BOTTOM LOG INTERVAL
TLI .F                  1661 : TOP LOG INTERVAL
CS  .IN                8.625 : CASING SIZE
CBD .F                  1650 : CASING BOTTOM DRILLER
CBL .F                  1661 : CASING BOTTOM LOGGER
BS  .IN                7.875 : BIT SIZE
BSD .F                  7800 : BIT SIZE AT DEPTH
DFT .                GEL CMC : DRILLING FLUID TYPE
DFD .                    9.9 : DRILLING FLUID DENSITY
DFV .                     62 : DRILLING FLUID VISCOSITY
DFPH.                     10 : DRILLING FLUID PH
DFL .                    6.8 : DRILLING FLUID LOSS
MSS .                   CIRC : MUD SAMPLE SOURCE
RMS .OHMM               1.23 : RESISTIVITY MUD SAMPLE
MST .F                    70 : MUD SAMPLE TEMPERATURE
RMF .OHMM                  1 : RESISTIVITY MUD FILTRATE SAMPLE
MFST.F                    70 : MUD FILTRATE SAMPLE TEMPERATURE
RMC .OHMM                3.1 : RESISTIVITY MUD CAKE
MCST.F                    70 : MUD CAKE SAMPLE TEMPERATURE
MFSS.                      M : MUD FILTRATE SAMPLE SOURCE
MCSS.                      C : MUD CAKE SAMPLE SOURCE
RMB .OHMM              0.045 : RESISTIVITY MUD AT BHT
TCS .HRS                1800 : TIME CURCULATED STOPPED
TLAB.HRS                2330 : TIME LOGGER AT BOTTOM
LUN .                   7651 : LOGGING UNIT NUMBER
LUL .                 LAREDO : LOGGING UNIT LOCATION
CLNT.                A2DTECH : CLIENT CODE
ORIG.          2'' 5'' PRINT : ORIGIN OF DATA
UWI .         42127311200000 : UNIQUE WELL ID
DICO. A2D Technologies, Inc. : DIGITIZING COMPANY
~Other -----------------------------------------------------
~ASCII -----------------------------------------------------
 1650.00000    -999.25    -999.25   44.01200    -999.25    -999.25    -999.25    -999.25
 1700.00000   -8.96860   94.54270   48.95210    -999.25    8.28050   11.07320   14.47180
 1750.00000  -33.28410   92.92350   53.66770    -999.25    7.94700    8.85460    9.74860
 1800.00000  -14.34980   92.62370   92.55870    -999.25    5.29690    5.37030    5.57340
 1850.00000  -15.27440   92.77660   92.96410    -999.25    4.42950    4.97900    5.76560
 1900.00000  -17.98640  101.44460   90.15710    -999.25    2.79270    3.13940    3.56960
 1950.00000  -20.20120  108.55390   91.84000    -999.25    2.41140    2.55790    3.12860
 2000.00000  -22.42150   86.82320   61.75150    -999.25    4.61220    4.87690    5.59240
 2050.00000  -23.61830   88.46050   69.32530    -999.25    4.80880    5.01340    5.25590
 2100.00000  -20.94790  108.81440   85.84870    -999.25    1.92570    2.12570    2.36740
 2150.00000  -19.43310  109.86670   67.33710    -999.25    1.50030    1.89590    2.14020
 2200.00000  -23.46790   95.47230   62.88200    -999.25    3.62740    3.57800    4.97900
 2250.00000  -35.24630   76.58010   44.68190    -999.25    9.79100    9.57520    9.16090
 2300.00000  -34.67990   80.47980   46.74220    -999.25    7.02330    7.52520    6.97590
 2350.00000  -24.51470   74.16260   48.21730    -999.25   11.29530   11.69170   12.32040
 2400.00000  -19.70790   86.71600   63.77240    -999.25    5.53420    5.84600    5.07450
 2450.00000  -20.62780   78.67920   56.86060    -999.25    7.37140    7.62850    8.40210
 2500.00000  -22.23570   93.79190   72.52780    -999.25    3.65500    3.99740    4.32670
 2550.00000  -62.18100   73.40360   40.07000    -999.25    7.57710    7.19400   11.33510
 2600.00000  -28.25250   87.52160   64.58810    -999.25    4.45980    4.55280    4.93330
 2650.00000  -26.31160   86.82520   72.32930    -999.25    4.84380    5.33390    6.14290
 2700.00000  -71.15100   73.81910   33.45810    -999.25    4.74380    4.81060    8.81610
 2750.00000  -26.99290   82.57870   68.93240    -999.25    4.77760    4.74510    8.96970
 2800.00000  -26.60930   90.07180   66.90960    -999.25    4.42920    4.45510    5.52060
 2850.00000  -24.81270   82.12550   69.15970    -999.25    5.67930    5.99600    7.17000
 2900.00000  -24.61590   93.76110   65.60160    -999.25    3.34000    3.65230    4.07800
 2950.00000  -25.71000   90.97710   70.46890    -999.25    3.98940    4.10580    4.91960
 3000.00000  -24.36670   91.34050   65.91950    -999.25    3.36580    3.66020    4.52200
 3050.00000  -24.51420   93.76370   74.32630    -999.25    3.18290    4.00160    4.25770
 3100.00000  -22.42150   88.92190   72.52990    -999.25    4.45980    4.63810    4.33860
 3150.00000  -20.87580   98.92050   71.85630    -999.25    2.62490    2.89110    3.27200
 3200.00000  -20.72740   97.33420   73.91270    -999.25    3.17000    3.14820    3.76450
 3250.00000  -20.47830   87.60480   73.08850    -999.25    4.70540    4.69010    5.12420
 3300.00000  -20.47830   75.53950   60.11270    -999.25    6.98690    6.42270    7.08410
 3350.00000  -21.89730   75.62870   57.34830    -999.25    6.47850    6.52220    6.89120
 3400.00000  -19.89510   80.22510   62.53970    -999.25    4.74220    4.47000   10.40990
 3450.00000  -19.58150   85.82710   76.46350    -999.25    4.53150    4.69340    5.12860
 3500.00000  -20.76040   79.08410   62.72870    -999.25    4.48190    4.63360    8.35390
 3550.00000  -75.48580   82.66470   57.89820    -999.25    3.39690    4.70560   12.10930
 3600.00000  -36.17460   82.76950   68.17580    -999.25    4.44750    4.75260    5.34440
 3650.00000  -37.21910  100.02990   70.30430    -999.25    4.34880    3.66550    4.64230
 3700.00000  -30.34380   84.31140   86.64180    -999.25    4.98440    4.85410    7.38230
 3750.00000  -42.07770   78.25590   59.88870    -999.25    7.51620    6.44070   11.39970
 3800.00000  -30.64280   83.11500   75.59870    -999.25    3.97680    4.47250   10.84820
 3850.00000  -34.23680   91.64670   39.31810    -999.25    5.11280    4.45980   12.10560
 3900.00000  -43.18360   80.12320   48.65610    -999.25    4.60310    4.97900    5.84390
 3950.00000  -42.77430   71.43710   53.31770    -999.25    7.09420    7.12200   11.82280
 4000.00000  -33.03440   96.73650   76.18400    -999.25    2.59300    2.91040    3.69580
 4050.00000  -34.52070   79.92420   70.21570    -999.25    6.00580    6.16370    7.23170
 4100.00000  -35.72500   81.29840   68.50750    -999.25    4.47840    4.64780    5.45550
 4150.00000  -30.49330   88.31820   72.76120    -999.25    3.79000    3.83280    4.36660
 4200.00000  -29.62010   97.48820   75.60180    -999.25    2.47500    2.50140    3.25770
 4250.00000  -53.03080  103.02720   89.65460    -999.25    2.18690    2.16480    2.56150
 4300.00000  -50.26950   99.59690   93.69520    -999.25    2.81120    2.80780    3.09570
 4350.00000  -49.62870   89.25150   88.96580    -999.25    3.41870    3.49040    4.27640
 4400.00000  -49.63510   90.23060   88.73520    -999.25    3.53820    3.52890    4.20170
 4450.00000  -49.60310   83.71400   90.34070    -999.25    4.26000    4.39890    5.11890
 4500.00000  -48.27700   93.57200  104.72970    -999.25    3.53810    3.07520    4.08420
 4550.00000  -47.66360   92.84430  105.53890    -999.25    3.06800    3.06490    4.38980
 4600.00000  -55.31880   88.50340   99.71320    -999.25    3.41870    3.41020    4.36860
 4650.00000  -53.67320   92.25790  107.41870    -999.25    3.39450    3.47740    4.05000
 4700.00000  -76.16070   86.48570  101.80640    -999.25    4.14410    4.31940    4.36810
 4750.00000  -75.71400   84.41290   89.08110    -999.25    4.10030    4.07260    4.79020
 4800.00000  -73.59160   93.21520  102.07130    -999.25    3.05800    2.97310    3.60180
 4850.00000  -71.59000   84.52840   93.21430    -999.25    4.03070    3.86710    5.13250
 4900.00000  -70.01660   80.80720   79.95500    -999.25    4.51900    4.44740    5.49940
 4950.00000  -68.66570   83.63270   73.87390    -999.25    4.17230    4.23030    5.13250
 5000.00000  -67.45920   84.09880   79.27930    -999.25    4.08670    4.14350    5.13570
 5050.00000  -66.56610   83.79670   86.71170    -999.25    4.08670    4.05840    5.23990
 5100.00000  -65.51730   85.44100   79.27930    -999.25    3.81410    3.78790    4.95160
 5150.00000  -63.86760   83.57390   84.68500    -999.25    4.50090    4.47050    5.79140
 5200.00000  -62.67780   79.04030   76.58750    -999.25    5.03670    4.80700    6.39760
 5250.00000  -60.79390   88.29540   84.50500    -999.25    3.58420    3.58380    4.53200
 5300.00000  -57.87240   88.69870   70.49550    -999.25    3.40330    3.39170    4.46800
 5350.00000  -54.42280   83.54800   59.23420    -999.25    3.96180    4.10860    5.97930
 5400.00000  -51.12440   77.37090   59.23420    -999.25    5.61440    5.49960    6.62560
 5450.00000  -47.67620   80.80810   58.56790    -999.25    6.05810    5.53210    7.87420
 5500.00000    -999.25    -999.25    -999.25   67.58510    -999.25    -999.25    -999.25
 5550.00000  -21.21440    -999.25   30.31440   65.05750   23.28290   24.35290   37.19980
 5600.00000  -20.54020    -999.25   43.78690   65.33870   13.57950   16.65370   24.69180
 5650.00000  -17.31590    -999.25   56.58710   75.38230    6.69170    6.37430    9.20930
 5700.00000  -19.34030    -999.25   47.38020   67.74670   11.26630   11.38790   17.96880
 5750.00000  -20.09000    -999.25   80.38670   83.32860    8.08390    6.35730    4.60030
 5800.00000  -24.73620    -999.25   40.20950   56.34200   18.09190   21.06520   26.30460
 5850.00000  -22.37840    -999.25   48.32410   95.47230    5.48970    5.15960    6.07340
 5900.00000  -24.73760    -999.25   31.39750   58.33350   15.59060   20.20710   93.67710
 5950.00000  -23.46260    -999.25   58.61340   64.13880   14.05870   11.46750   12.89790
 6000.00000  -27.39520    -999.25   28.52250   56.79460   11.99180   11.91510   35.12270
 6050.00000  -27.05600    -999.25   35.60110   58.77610   18.81540   17.72380   19.93280
 6100.00000  -32.78150    -999.25   21.67890   60.68970   19.98340   20.48960   29.75330
