~Version ---------------------------------------------------
VERS. 2.0 : CWLS log ASCII Standard -VERSION 2.0
WRAP.  NO : ONE LINE PER DEPTH STEP
~Well ------------------------------------------------------
STRT.F                     2750.0 : START DEPTH
STOP.F                    11000.0 : STOP DEPTH
STEP.F                   50.00000 : STEP LENGTH
NULL.                     -999.25 : NULL VALUE
COMP. HOUSTON OIL & MINERALS CORP : COMPANY
WELL.         ARTHUR C A ET AL #1 : WELL
FLD .                     WILDCAT : FIELD
LOC .                             : LOCATION
CNTY.                     MADISON : COUNTY
STAT.                       TEXAS : STATE
CTRY.    UNITED STATES OF AMERICA : COUNTRY
SRVC.                             : SERVICE COMPANY
DATE.                             : LOGDATE
API .              42313302370000 : API NUMBER
UWI .              42313302370000 : UNIQUE WELL ID
SLAT.WGS84          31.0049875571 : SURFACE LATITUDE
SLON.WGS84         -95.8184071728 : SURFACE LONGITUDE
~Curve Information -----------------------------------------
DEPT.F                 : 
DCAL.IN   45 280 30 00 : DIFFERENTIAL CALIPER
GR  .GAPI 42 310 01 00 : GAMMA RAY
NPHI.DEC  42 890 01 00 : NEUTRON POROSITY LIMESTONE
DPHI.DEC  45 890 10 00 : DENSITY POROSITY LIMESTONE
SP  .MV   07 010 01 00 : SPONTANEOUS POTENTIAL
ALL8.OHMM 11 221 08 00 : AMP. LATEROLOG-8
ASFL.OHMM 07 221 01 00 : AMPPLIFIED SHALLOW FOCUSED LOG RESISTIVITY
ILD .OHMM 07 120 46 00 : DEEP INDUCTION RESISTIVITY
CALR.IN   07 280 01 00 : CALIPER FROM RESISTIVITY
DRHO.G/C3 45 356 01 00 : DENSITY CORRECTION
~Params ----------------------------------------------------
EKB .F                       248.45 : Kelly bushing
EGL .F                       226.35 : Ground level
EDF .F                       247.45 : Drilling floor
EPD .F                        226.8 : Permanent datum
TD  .F                      11017.0 : Total depth
DATE.                   07-APR-1979 : DATE LOGGED
CLNT.                       A2DTECH : CLIENT CODE
SL  . 2653.84' FNEL & 3823.37' FNWL : SURFACE LOCATION
PD  .                            GL : PERMANENT DATUM
LMF .                            KB : LOG MEASURED FROM
DMF .                            KB : DRILLING MEASURED FROM
DAPD.F                        21.65 : FEET ABOVE PERMANENT DATUM
DD  .F                        11000 : DEPTH DRILLER
DL  .F                        11017 : DEPTH LOGGER
BLI .F                        11010 : BOTTOM LOG INTERVAL
TLI .F                         8350 : TOP LOG INTERVAL
CS1 .IN                       10.75 : CASING SIZE
CBD1.                10.75" @ 2715' : CASING DRILLER 1
BS1 .IN                       9.875 : BIT SIZE
BSD1.F                        11000 : DEPTH DRILLED WITH BIT1
DFT .                           GEL : TYPE FLUID IN HOLE
DFD .                          10.1 : DENSITY
DFV .                            42 : VISCOSITY
DFPH.                           9.5 : PH
DFL .                           5.8 : FLUID LOSS
MSS .                           PIT : SOURCE OF SAMPLE
RMS .OHMM                      2.08 : RM
RMF .OHMM                      1.13 : RMF
RMC .OHMM                      3.16 : RMC
MFSS.                          MEAS : SOURCE RMF.
MCSS.                          CALC : SOURCE RMC.
RMB .OHMM                      0.85 : RM. AT BHT
BHT .F                          214 : BHT.
TCS .HRS                       1600 : TIME CIRC. STOPPED
TLAB.                          2200 : TIME LOGGER AT BOTTOM
LUN .                          8096 : LOGGING UNIT NUMBER
LUL .                       BRENHAM : LOGGING UNIT LOCATION
ENGI.                     GILLILAND : RECORDED BY
WITN.      FOWLER, DAILEY, HUMPHREY : WITNESSED BY
ORIG.                   1" 5" PRINT : ORIGIN OF DATA
UWI .                42313302370000 : UNIQUE WELL ID
DICO.        A2D TECHNOLOGIES, INC. : DIGITIZING COMPANY
~Other -----------------------------------------------------
~ASCII -----------------------------------------------------
# ...
 9350.00000    -999.25   63.59700    -999.25    0.28590  -35.00780    -999.25    3.12790    3.62760   13.59450    0.00000
 9400.00000    -999.25   20.67600    0.01600    0.03810  -41.71780    -999.25   50.62710   39.34170   12.94280    0.07900
 9450.00000    -999.25   25.37650    0.02440    0.01870  -33.22450    -999.25   25.89020   26.59580   11.42990   -0.00380
 9500.00000    -999.25   18.56890    0.01240    0.00560  -49.61640    -999.25   55.17500   48.05720   11.71970    0.01230
 9550.00000    -999.25   13.69100    0.10140    0.07140  -42.29280    -999.25  149.93150  202.74390   11.04880    0.02130
 9600.00000    -999.25   21.68420    0.09090    0.10790  -36.96320    -999.25   68.35600   86.69970   11.81070    0.07250
 9650.00000    -999.25   15.87430    0.09470    0.05710  -52.33900    -999.25   68.84320   63.75860   11.52220    0.03110
 9700.00000    -999.25   18.60680    0.10110    0.06050  -77.39850    -999.25   72.23740  102.79600   11.29270    0.04330
 9750.00000    -999.25   26.67850    0.10260    0.04150  -40.12650    -999.25   35.12970   32.16390   11.69540    0.18300
 9800.00000    -999.25   24.11960    0.06970    0.04530  -62.28850    -999.25   46.22050   43.92070   11.41470    0.04630
 9850.00000    -999.25   41.31100    0.04040    0.00260  -28.36140    -999.25   31.94550   23.12450   11.24700    0.00990
 9900.00000    -999.25   54.32200    0.08460    0.04970  -37.15490    -999.25   27.57160   14.99030   12.00910   -0.00210
 9950.00000    -999.25   37.25210    0.01950    0.01390  -61.98280    -999.25   67.15530   80.84990   11.63850    0.04930
 10000.00000    -999.25   32.48240    0.05190    0.02950  -45.09200    -999.25  103.65280   62.57620   11.79720   -0.00340
 10050.00000    -999.25   57.66830    0.11320    0.05290  -38.96020    -999.25   43.93560   42.45230   10.98360    0.01740
 10100.00000    -999.25   38.34150    0.03910    0.01010  -38.03670    -999.25   16.04300   20.74720   10.99860    0.02430
 10150.00000    -999.25   69.98620    0.25290    0.07030  -35.46790    -999.25   25.44320    3.69680   13.12950    0.11840
 10200.00000    -999.25   67.84790    0.18280    0.04400  -33.64010    -999.25    5.52200    4.95430   11.73730    0.11460
 10250.00000    -999.25   64.19800    0.21250    0.04850  -33.58900    -999.25    5.63310    4.19210   12.64940    0.07820
 10300.00000    -999.25   35.65400    0.02180    0.00830  -33.90810    -999.25   46.76880   31.02130   11.07600    0.02200
 10350.00000    -999.25   36.99790    0.04840    0.02070  -44.04390    -999.25   61.35390   47.23290   10.84210   -0.00080
 10400.00000    -999.25   45.49010    0.19960    0.11410  -33.30090    -999.25    5.96500    5.64290   10.72870    0.03270
 10450.00000    -999.25   57.33970    -999.25    0.27650  -49.76990    -999.25    3.86780    2.47710   16.46140    0.10250
 10500.00000    -999.25   72.31740    -999.25    0.26960  -49.38650    -999.25    2.86360    1.75300   15.74840    0.06540
 10550.00000    -999.25   44.63790    0.16160    0.02480  -44.40180    -999.25    8.09680    3.01070   11.85050    0.15640
 10600.00000    -999.25   38.52080    0.11460    0.03590  -38.08120    -999.25   13.04550   11.73780   11.00740    0.05160
 10650.00000    -999.25   41.60040    0.15800    0.02430  -43.90340    -999.25   10.94250    7.46930   11.62810    0.02890
 10700.00000    -999.25   25.99140    0.05310    0.02390  -45.42430    -999.25  155.96830   52.09630   11.11870    0.02130
 10750.00000    -999.25   28.50230    0.02090    0.01050  -34.96380    -999.25  107.66210   49.40920   10.22740   -0.00830
 10800.00000    -999.25   30.73450    0.07560    0.02670  -34.66260    -999.25   24.78790   23.70140   10.17740   -0.00760
 10850.00000    -999.25   53.76390    0.11160    0.03900  -34.12620    -999.25   10.12880   11.78580   10.11890   -0.00230
 10900.00000    -999.25   54.66010    0.15050    0.03960  -31.44170    -999.25    9.20240    7.01230   10.04260    0.00990
 10950.00000    -999.25   56.33310    0.02320    0.02590  -30.90490    -999.25   33.92370   23.54440    9.93600    0.00680
 11000.00000    -999.25   47.73470    0.13120    0.08340  -33.43560    -999.25    5.50690    3.69690    8.88410    0.20580
