~Version ---------------------------------------------------
VERS. 2.0 : CWLS log ASCII Standard -VERSION 2.0
WRAP. YES : Multiple lines per depth step
~Well ------------------------------------------------------
STRT.FT                    300.0 : START DEPTH
STOP.FT                   7750.0 : STOP DEPTH
STEP.FT                 50.00000 : STEP LENGTH
NULL.                    -999.25 : NULL VALUE
COMP. CHAMPLIN PETROLEUM COMPANY : COMPANY
WELL.             ALVIN DRGAC #1 : WELL
FLD .                CALDWELL NE : FIELD
LOC .                            : LOCATION
CNTY.                   BURLESON : COUNTY
STAT.                      TEXAS : STATE
CTRY.   UNITED STATES OF AMERICA : COUNTRY
SRVC.               Schlumberger : SERVICE COMPANY
DATE.                03-Apr-1981 : LOGDATE
API .             42051312420000 : API NUMBER
UWI .             42051312420000 : UNIQUE WELL ID
SLAT.WGS84         30.6064505753 : SURFACE LATITUDE
SLON.WGS84        -96.6018284968 : SURFACE LONGITUDE
~Curve Information -----------------------------------------
DEPT    .FT    : DEPTH FEET
CALRED  .IN    : CALIPER FROM RESISTIVITY FROM DUAL INDUCTION-SFL-COMPENSATED NEUTRON-FORMATION DENSITY LOG
CALWS   .IN    : CALIPER [CALRED SPL. TO DCALED+BIT SIZE @ 3487']
CONDWS  .MMHO  : CONDUCTIVITY [1000/DRESWS]
DCALED  .IN    : DIFFERENTIAL CALIPER FROM DUAL INDUCTION-SFL-COMPENSATED NEUTRON-FORMATION DENSITY LOG
DCORWS  .G/C3  : DENSITY CORRECTION [DRHOED]
DENWS   .G/C3  : BULK DENSITY [M=2.71 F=1.0] [CALCULATED FROM DPOWS]
DPHILSED.V/V   : DENSITY POROSITY LIMESTONE [M=2.71 F=1.0] FROM DUAL INDUCTION-SFL-COMPENSATED NEUTRON-FORMATION DENSITY LOG
DPHISSED.V/V   : DENSITY POROSITY SANDSTONE [M=2.65 F=1.0]  FROM DUAL INDUCTION-SFL-COMPENSATED NEUTRON-FORMATION DENSITY LOG
DPOWS   .V/V   : DENSITY POROSITY [DPHISSED  CONVERTED TO LIMESTONE (M=2.71, F=1.0) SPL. TO DPHILSED @ 6250']
DRESWS  .OHMM  : DEEP RESISTIVITY [ILDED]
DRHOED  .G/C3  : DENSITY CORRECTION FROM DUAL INDUCTION-SFL-COMPENSATED NEUTRON-FORMATION DENSITY LOG
DTED    .US/F  : COMPRESSIONAL SONIC FROM INDUCTION-VELOCITY LOG
DTWS    .US/F  : COMPRESSIONAL SONIC [VELED]
GRRED   .GAPI  : GAMMA RAY FROM FROM DUAL INDUCTION-SFL-COMPENSATED NEUTRON-FORMATION DENSITY-VELOCITY LOG [ GRRED IN CASING FROM 67' - 90']
GRWS    .GAPI  : GAMMA RAY [GRRED, GRRED+30 FROM 3520' to 3542']
GUARDED .OHMM  : GUARD RESISTIVITY FROM INDUCTION-VELOCITY LOG
ILDED   .OHMM  : DEEP INDUCTION FROM DUAL INDUCTION-SFL-COMPENSATED NEUTRON-FORMATION DENSITY-VELOCITY LOG
ILMED   .OHMM  : MEDIUM INDUCTION FROM DUAL INDUCTION-SFL-COMPENSATED NEUTRON-FORMATION DENSITY-VELOCITY LOG
MRESWS  .OHMM  : MEDIUM RESISTIVITY [ILMED]
NPHILSED.V/V   : NEUTRON POROSITY LIMESTONE FROM DUAL INDUCTION-SFL-COMPENSATED NEUTRON-FORMATION DENSITY LOG
NPHISSED.V/V   : NEUTRON POROSITY SANDSTONE FROM DUAL INDUCTION-SFL-COMPENSATED NEUTRON-FORMATION DENSITY LOG
NPOWS   .V/V   : NEUTRON POROSITY LIMESTONE[NPHISSED MATRIX CONVERTED TO LIMESTONE SPL. TO NPHILSED @ 6250']
SFLUED  .OHMM  : SHALLOW FOCUS RESISTIVITY UNAVERAGED FROM DUAL INDUCTION-SFL-COMPENSATED NEUTRON-FORMATION DENSITY-VELOCITY LOG
SPRED   .MV    : SPONTANEOUS POTENTIAL ROM DUAL INDUCTION-SFL-COMPENSATED NEUTRON-FORMATION DENSITY-VELOCITY LOG
SPWS    .MV    : SPONTANEOUS POTENTIAL [BASELINE 0 MV] [SPRED]
SRESWS  .OHMM  : SHALLOW RESISTIVITY [SFLUED SPLICED GUARDED AT 3540']
~Params ----------------------------------------------------
PD  .                     GL : PERMANENT DATUM
EPD .FT                  353 : ELEVATION PERMANENT DATUM
LMF .                     KB : LOG MEASURED FROM
DAPD.FT                   18 : FEET ABOVE PERMANENT DATUM
DMF .                     KB : DRILLING MEASURED FROM
EKB .FT                  371 : KELLY BUSHING
EDF .FT                  370 : DRILLING FLOOR
EGL .FT                  353 : GROUND LEVEL
DATE.               04/03/81 : RUN DATE
RUN .                      1 : RUN NUMBER
DD  .FT                 7797 : DEPTH DRILLER
DL  .FT                 7760 : DEPTH LOGGER
BLI .FT                 7754 : BOTTOM LOG INTERVAL
TLI .FT                 3537 : TOP LOG INTERVAL
CS  .IN                9.625 : CASING SIZE
CBD .FT                 3543 : CASING BOTTOM DRILLER
CBL .FT                 3537 : CASING BOTTOM LOGGER
BS  .IN                 8.75 : BIT SIZE
BSD .FT                 7797 : BIT SIZE AT DEPTH
DFT .             LOW SOLIDS : DRILLING FLUID TYPE
DFD .                    9.4 : DRILLING FLUID DENSITY
DFV .                     43 : DRILLING FLUID VISCOSITY
DFPH.                    9.5 : DRILLING FLUID PH
DFL .                    6.8 : DRILLING FLUID LOSS
MSS .               FLOWLINE : MUD SAMPLE SOURCE
RMS .OHMM               1.99 : RESISTIVITY MUD SAMPLE
MST .DEGF                 75 : MUD SAMPLE TEMPERATURE
RMF .OHMM               1.49 : RESISTIVITY MUD FILTRATE SAMPLE
MFST.DEGF                 75 : MUD FILTRATE SAMPLE TEMPERATURE
RMC .OHMM               2.98 : RESISTIVITY MUD CAKE
MCST.DEGF                 75 : MUD CAKE SAMPLE TEMPERATURE
MFSS.                      M : MUD FILTRATE SAMPLE SOURCE
MCSS.                      C : MUD CAKE SAMPLE SOURCE
RMB .OHMM               0.87 : RESISTIVITY MUD AT BHT
TCS .HRS                 700 : TIME CIRCULATED STOPPED
TLAB.HRS                1430 : TIME LOGGER AT BOTTOM
LUN .                   8138 : LOGGING UNIT NUMBER
LUL .                BRENHAM : LOGGING UNIT LOCATION
ENGI.              STAVINOHA : RECORDING ENGINEER
WITN.                  VODAK : WITNESSED BY
CLNT.                A2DTECH : CLIENT CODE
ORIG.            2" 5" PRINT : ORIGIN OF DATA
UWI .         42051312420000 : UNIQUE WELL ID
DICO. A2D Technologies, Inc. : DIGITIZING COMPANY
~Other -----------------------------------------------------
~ASCII -----------------------------------------------------
# ...
 4350.00000    -999.25    8.03940 1297.85850    4.28940    0.06800    2.35190    -999.25    0.18070    0.20940    0.77050    0.06800    -999.25    -999.25   84.09900   84.09900    -999.25    0.77050    0.83280    0.83280    0.06800    0.39600    0.35300    1.00480  -18.83240   -0.73290    1.00480
 4400.00000    -999.25    6.78430 1310.95960    3.03430    0.07850    2.32100    -999.25    0.19940    0.22750    0.76280    0.07850    -999.25    -999.25   97.86980   97.86980    -999.25    0.76280    0.83860    0.83860    0.07850    0.40790    0.36520    0.91940  -17.74210    0.11360    0.91940
 4450.00000    -999.25    6.22870  589.51840    2.47870    0.07880    2.42340    -999.25    0.13730    0.16760    1.69630    0.07880    -999.25    -999.25   90.18060   90.18060    -999.25    1.69630    1.80800    1.80800    0.07880    0.33400    0.29020    2.00300  -22.71130   -5.09930    2.00300
 4500.00000    -999.25    6.16480  525.65180    2.41480    0.10150    2.36320    -999.25    0.17380    0.20280    1.90240    0.10150    -999.25    -999.25   70.53660   70.53660    -999.25    1.90240    2.10920    2.10920    0.10150    0.23540    0.19160    3.64540  -23.93510   -6.56680    3.64540
 4550.00000    -999.25    6.36730  686.62460    2.61730    0.05450    2.41550    -999.25    0.14210    0.17220    1.45640    0.05450    -999.25    -999.25   88.51060   88.51060    -999.25    1.45640    1.55150    1.55150    0.05450    0.33590    0.29210    1.74610  -20.06800   -2.94340    1.74610
 4600.00000    -999.25    6.47620  907.52340    2.72620    0.06970    2.41280    -999.25    0.14380    0.17380    1.10190    0.06970    -999.25    -999.25   89.91410   89.91410    -999.25    1.10190    1.17640    1.17640    0.06970    0.37900    0.33580    1.34380  -19.82580   -2.94490    1.34380
 4650.00000    -999.25    6.40420  874.89060    2.65420    0.07190    2.42650    -999.25    0.13550    0.16580    1.14300    0.07190    -999.25    -999.25   88.09980   88.09980    -999.25    1.14300    1.21870    1.21870    0.07190    0.38100    0.33780    1.37180  -20.93810   -4.30090    1.37180
 4700.00000    -999.25    6.65130  881.91200    2.90130    0.07020    2.41670    -999.25    0.14140    0.17150    1.13390    0.07020    -999.25    -999.25   95.21860   95.21860    -999.25    1.13390    1.21240    1.21240    0.07020    0.42220    0.37980    1.27880  -19.19230   -2.88650    1.27880
 4750.00000    -999.25    6.00980  857.55940    2.25980    0.10260    2.44600    -999.25    0.12370    0.15440    1.16610    0.10260    -999.25    -999.25   89.97480   89.97480    -999.25    1.16610    1.25510    1.25510    0.10260    0.36710    0.32370    1.33390  -18.74980   -2.93110    1.33390
 4800.00000    -999.25    5.52750  845.16570    1.77750    0.08940    2.39960    -999.25    0.15170    0.18150    1.18320    0.08940    -999.25    -999.25   86.49830   86.49830    -999.25    1.18320    1.26250    1.26250    0.08940    0.40150    0.35870    1.39240  -18.30770   -2.97620    1.39240
 4850.00000    -999.25    4.63290 1088.85020    0.88290    -999.25    2.40220    -999.25    0.15020    0.18000    0.91840    -999.25    -999.25    -999.25   86.55650   86.55650    -999.25    0.91840    0.98710    0.98710    -999.25    0.43580    0.39370    1.15860  -18.20850   -3.36410    1.15860
 4900.00000    -999.25    4.69650 1132.88770    0.94650    0.08450    2.36200    -999.25    0.17450    0.20350    0.88270    0.08450    -999.25    -999.25   95.93140   95.93140    -999.25    0.88270    0.95770    0.95770    0.08450    0.43860    0.39660    1.14180  -16.59470   -2.23750    1.14180
 4950.00000    -999.25    4.76500  738.33430    1.01500    0.09630    2.43210    -999.25    0.13200    0.16250    1.35440    0.09630    -999.25    -999.25   83.99730   83.99730    -999.25    1.35440    1.44280    1.44280    0.09630    0.36080    0.31730    1.59130  -17.96060   -4.09050    1.59130
 5000.00000    -999.25    4.73500  457.05930    0.98500    0.01980    2.51370    -999.25    0.08260    0.11480    2.18790    0.01980    -999.25    -999.25   75.18430   75.18430    -999.25    2.18790    2.38120    2.38120    0.01980    0.28500    0.24100    2.24640  -15.91770   -2.53480    2.24640
 5050.00000    -999.25    4.78650  796.17830    1.03650    0.07300    2.38240    -999.25    0.16220    0.19160    1.25600    0.07300    -999.25    -999.25   86.81420   86.81420    -999.25    1.25600    1.38480    1.38480    0.07300    0.32020    0.27630    1.42970  -14.99270   -2.09700    1.42970
 5100.00000    -999.25    4.84700  893.09640    1.09700    0.06800    2.41860    -999.25    0.14020    0.17040    1.11970    0.06800    -999.25    -999.25   91.68700   91.68700    -999.25    1.11970    1.21800    1.21800    0.06800    0.29900    0.25500    1.32100  -12.86580   -0.45720    1.32100
 5150.00000    -999.25    4.72910  994.43120    0.97910    0.08710    2.33960    -999.25    0.18810    0.21660    1.00560    0.08710    -999.25    -999.25  107.34160  107.34160    -999.25    1.00560    1.06450    1.06450    0.08710    0.39230    0.34930    1.13730  -14.07580   -2.15440    1.13730
 5200.00000    -999.25    4.77880  765.11090    1.02880    -999.25    2.41250    -999.25    0.14400    0.17400    1.30700    -999.25    -999.25    -999.25   83.22950   83.22950    -999.25    1.30700    1.38570    1.38570    -999.25    0.36180    0.31830    1.45930  -14.06170   -2.62740    1.45930
 5250.00000    -999.25    4.66480  817.92900    0.91480    0.09400    2.27600    -999.25    0.22670    0.25380    1.22260    0.09400    -999.25    -999.25   97.80850   97.80850    -999.25    1.22260    1.27490    1.27490    0.09400    0.43730    0.39530    1.36260  -15.26500   -4.31790    1.36260
 5300.00000    -999.25    4.20940 1232.89360    0.45940    0.07780    2.24350    -999.25    0.24640    0.27280    0.81110    0.07780    -999.25    -999.25  104.82410  104.82410    -999.25    0.81110    0.88810    0.88810    0.07780    0.44150    0.39960    0.98050  -12.61530   -2.15530    0.98050
 5350.00000    -999.25    4.78730  685.02530    1.03730    0.09570    2.43140    -999.25    0.13250    0.16290    1.45980    0.09570    -999.25    -999.25   90.37140   90.37140    -999.25    1.45980    1.58950    1.58950    0.09570    0.32700    0.28320    1.71760  -13.91450   -3.94170    1.71760
 5400.00000    -999.25    4.68190  774.47340    0.93190    -999.25    2.34170    -999.25    0.18690    0.21540    1.29120    -999.25    -999.25    -999.25  117.22720  117.22720    -999.25    1.29120    1.38540    1.38540    -999.25    0.38280    0.33960    1.61440  -12.00940   -2.52370    1.61440
 5450.00000    -999.25    4.62910  693.91440    0.87910    0.09930    2.42780    -999.25    0.13460    0.16500    1.44110    0.09930    -999.25    -999.25   98.43130   98.43130    -999.25    1.44110    1.53710    1.53710    0.09930    0.34450    0.30080    1.71180  -13.96680   -4.96830    1.71180
 5500.00000    -999.25    4.53320  735.40230    0.78320    -999.25    2.44750    -999.25    0.12270    0.15350    1.35980    -999.25    -999.25    -999.25   95.61040   95.61040    -999.25    1.35980    1.47130    1.47130    -999.25    0.32280    0.27890    1.67070  -13.08620   -4.57480    1.67070
 5550.00000    -999.25    4.61080  662.03240    0.86080    0.09490    2.48070    -999.25    0.10260    0.13410    1.51050    0.09490    -999.25    -999.25   88.77010   88.77010    -999.25    1.51050    1.63530    1.63530    0.09490    0.31330    0.26940    1.84340  -12.48700   -4.46280    1.84340
 5600.00000    -999.25    5.13880  788.89240    1.38880    0.06280    2.45090    -999.25    0.12060    0.15150    1.26760    0.06280    -999.25    -999.25  107.86070  107.86070    -999.25    1.26760    1.34900    1.34900    0.06280    0.31340    0.26950    1.48050   -9.55160   -1.98810    1.48050
 5650.00000    -999.25    5.39550  818.12980    1.64550    0.08670    2.47590    -999.25    0.10550    0.13690    1.22230    0.08670    -999.25    -999.25   83.01760   83.01760    -999.25    1.22230    1.31710    1.31710    0.08670    0.33630    0.29250    1.48040  -10.27330   -2.90320    1.48040
