~Version ---------------------------------------------------
VERS. 2.0 : CWLS log ASCII Standard -VERSION 2.0
WRAP.  NO : ONE LINE PER DEPTH STEP
~Well ------------------------------------------------------
STRT.F                     3700.0 : START DEPTH
STOP.F                     7900.0 : STOP DEPTH
STEP.F                   50.00000 : STEP LENGTH
NULL.                     -999.25 : NULL VALUE
COMP. ADOBE OIL & GAS CORPORATION : COMPANY
WELL.               BERAN UNIT #1 : WELL
FLD .                    GIDDINGS : FIELD
LOC .                             : LOCATION
CNTY.                    BURLESON : COUNTY
STAT.                       TEXAS : STATE
CTRY.    UNITED STATES OF AMERICA : COUNTRY
SRVC.                Schlumberger : SERVICE COMPANY
DATE.                 07-Nov-1980 : LOGDATE
API .              42051310480000 : API NUMBER
UWI .              42051310480000 : UNIQUE WELL ID
SLAT.WGS84              30.460257 : SURFACE LATITUDE
SLON.WGS84             -96.743504 : SURFACE LONGITUDE
~Curve Information -----------------------------------------
DEPT.F                 : 
GRN .GAPI 35 310 00 00 : GAMMA RAY FROM GRN LOG
NEUT.NAPI 35 330 00 00 : NEUTRON
NPHI.DEC  42 890 03 00 : NEUTRON POROSITY
GRD .GAPI 45 310 01 00 : GAMMA RAY FROM DENSITY LOG
CALD.IN   45 280 60 00 : CALIPER FROM DENSITY LOG
DPHI.DEC  45 890 12 00 : DENSITY POROSITY
DRHO.G/C3 45 356 01 00 : BULK DENSITY CORRECTION
DT  .US/F 60 520 00 00 : DELTA-T (INTERVAL TRANSIT TIME)
ILD .OHMM 07 120 46 00 : INDUCTION DEEP RESISTIVITY
ILM .OHMM 11 120 44 00 : INDUCTION MEDIUM RESISTIVITY
SFLU.OHMM 07 220 01 00 : SFL RESISTIVITY (UNAVERAGED)
SPR .MV   07 010 01 00 : SPONTANEOUS POTENTIAL FROM RESISTIVITY
~Params ----------------------------------------------------
PD  .                     GL : PERMANENT DATUM
EPD .FT                  362 : ELEVATION PERMANENT DATUM
LMF .                    RKB : LOG MEASURED FROM
DAPD.FT                 16.5 : FEET ABOVE PERMANENT DATUM
DMF .                    RKB : DRILLING MEASURED FROM
EKB .FT                378.5 : KELLY BUSHING
EDF .FT                377.5 : DRILLING FLOOR
EGL .FT                  362 : GROUND LEVEL
DATE.               11/07/80 : RUN DATE
RUN .                      1 : RUN NUMBER
DD  .FT                 7910 : DEPTH DRILLER
DL  .FT                 7905 : DEPTH LOGGER
BLI .FT                 7902 : BOTTOM LOG INTERVAL
TLI .FT                 3708 : TOP LOG INTERVAL
CS  .IN                8.625 : CASING SIZE
CBD .FT                 3700 : CASING BOTTOM DRILLER
CBL .FT                 3708 : CASING BOTTOM LOGGER
BS  .IN                7.875 : BIT SIZE
BSD .FT                 7910 : BIT SIZE AT DEPTH
DFT .                    LNS : DRILLING FLUID TYPE
DFD .                    9.6 : DRILLING FLUID DENSITY
DFV .                     44 : DRILLING FLUID VISCOSITY
DFPH.                    9.5 : DRILLING FLUID PH
DFL .                      8 : DRILLING FLUID LOSS
MSS .               CIRC PIT : MUD SAMPLE SOURCE
RMS .OHMM               2.63 : RESISTIVITY MUD SAMPLE
MST .DEGF                 75 : MUD SAMPLE TEMPERATURE
RMF .OHMM               1.97 : RESISTIVITY MUD FILTRATE SAMPLE
MFST.DEGF                 75 : MUD FILTRATE SAMPLE TEMPERATURE
MCST.DEGF                 75 : MUD CAKE SAMPLE TEMPERATURE
MFSS.                      M : MUD FILTRATE SAMPLE SOURCE
MCSS.                      C : MUD CAKE SAMPLE SOURCE
RMB .OHMM               1.06 : RESISTIVITY MUD AT BHT
TCS .HRS                 600 : TIME CIRCULATED STOPPED
TLAB.HRS                1100 : TIME LOGGER AT BOTTOM
LUN .                   8066 : LOGGING UNIT NUMBER
ENGI.               HARRISON : RECORDING ENGINEER
WITN.               LUBINSKI : WITNESSED BY
CLNT.                A2DTECH : CLIENT CODE
ORIG.          1" 2.5" PRINT : ORIGIN OF DATA
UWI .         42051310480000 : UNIQUE WELL ID
DICO. A2D Technologies, Inc. : DIGITIZING COMPANY
~Other -----------------------------------------------------
~ASCII -----------------------------------------------------
# ...
 6500.00000   64.04260  485.96920    -999.25    -999.25    -999.25    -999.25    -999.25   81.62990    2.76250    2.86140    3.46780   -6.28480
 6550.00000   65.45360  162.40440    -999.25    -999.25    -999.25    -999.25    -999.25   89.76160    1.84440    1.95460    2.83170   -9.81690
 6600.00000   75.87670  165.42420    -999.25    -999.25    -999.25    -999.25    -999.25   99.80260    1.22000    1.29890    1.70240  -12.44130
 6650.00000   49.22860  176.55240    -999.25    -999.25    -999.25    -999.25    -999.25   93.92920    1.60070    1.68840    2.30660  -13.60630
 6700.00000   59.73780  197.21410    -999.25    -999.25    -999.25    -999.25    -999.25   92.43540    1.81750    1.92310    2.59070  -14.69680
 6750.00000   51.98670  206.82720    -999.25    -999.25    -999.25    -999.25    -999.25   94.00810    1.71490    1.79790    2.38670  -17.45730
 6800.00000   77.08190  183.67640    -999.25    -999.25    -999.25    -999.25    -999.25   94.30070    1.71740    1.82680    2.37920  -16.24980
 6850.00000   37.04120  121.56170    -999.25    -999.25    -999.25    -999.25    -999.25   94.32030    1.62260    1.68760    2.22690  -17.99860
 6900.00000   45.54290  276.86510    0.13110   59.27440    9.18860    0.05610    0.04960   75.20300    2.87800    3.06670    4.77650  -14.31770
 6950.00000   27.47430  288.89980    0.10770   32.78180    9.38810    0.06150   -0.00540   67.60130    4.59220    4.75600    5.91880  -22.64070
 7000.00000   23.77990  272.36410    0.08550   32.15470    9.82760    0.03870    0.01650   65.26180    5.81380    6.62390    7.80490  -18.10100
 7050.00000   51.34300  165.61510    0.07220   58.03100    9.70010    0.03780    0.09510   69.03080    4.50420    5.69170   12.48050  -17.41220
 7100.00000   22.37310  309.50310    0.05320   32.27940    9.80850    0.03260    0.02610   63.15480    6.97000    7.33410   10.85800  -15.78840
 7150.00000   39.90300  236.79330    0.09120   64.19480   10.41440    0.07980    0.07150   71.26060    3.44020    3.73290    5.26590  -13.92490
 7200.00000   27.81330  304.53840    0.08770   49.89910    9.51220    0.05380    0.01930   69.64590    5.15460    5.53550    5.69260  -13.70040
 7250.00000   40.09990  442.23570    0.06580   59.67560    9.29400    0.05840    0.00540   67.73240    7.23450    7.54760    9.61360  -19.44100
 7300.00000   39.07230  437.80110    0.10840   50.36240    9.52300    0.41330    0.10030   65.24820    8.66600    9.05340   15.29680  -29.94660
 7350.00000   21.04330  695.11620    0.08590   38.91580    9.00060    0.09250    0.02160   63.60470    6.95700    7.68930   15.25750  -27.24400
 7400.00000   33.42710  424.02360    0.08400   51.79490    8.75830    0.06610    0.01990   65.96880    7.27900    7.75030   12.30510  -21.90860
 7450.00000   48.03520   93.16360    0.35710  109.92430   12.20720    0.11970    -999.25  100.42020    1.37040    1.44760    2.15240  -14.53840
 7500.00000   70.74510  144.44600    0.26480  106.36480   10.96510    0.09310    0.07190   94.31870    2.36790    2.51240    3.89000   -4.17080
 7550.00000   58.10480  238.59890    0.28310  112.29680    9.04690    0.15410    0.01540   96.93750    6.39890    6.75820   11.38410   -1.98900
 7600.00000   95.21880  200.52070    0.27730  144.98900    9.28730    0.11770    0.05140   92.14420    5.86780    6.05410   10.73840   -6.85470
 7650.00000   68.53570   78.81770    0.39420   93.55510   13.95350    0.10240    -999.25  102.80940    1.92960    1.73850    3.01900  -22.50250
 7700.00000   27.95810  366.01710    0.12100   62.52160   10.24950    0.02730    0.04200   68.10180    3.68290    3.97530    7.41910   -6.47280
 7750.00000   27.84350  454.40850    0.07970   44.95890    9.33270   -0.00860    0.01890   60.73110    8.04370    8.70290   10.53550  -11.87030
 7800.00000    -999.25    -999.25    0.01230   28.03820    8.53100    0.01020    0.00640   54.02620   22.75790   25.69960   31.97060  -25.52370
 7850.00000    -999.25    -999.25    0.01040   28.66590    8.38360    0.00020    0.00480   52.63830   28.49220   24.99410   60.42230  -21.64540
 7900.00000    -999.25    -999.25    -999.25   42.91080    8.18370   -0.01710    0.04720    -999.25    -999.25    -999.25    -999.25  -22.30140
