~Version ---------------------------------------------------
VERS. 2.0 : CWLS log ASCII Standard -VERSION 2.0
WRAP.  NO : ONE LINE PER DEPTH STEP
~Well ------------------------------------------------------
STRT.F                     3750.0 : START DEPTH
STOP.F                     9800.0 : STOP DEPTH
STEP.F                   50.00000 : STEP LENGTH
NULL.                     -999.25 : NULL VALUE
COMP. MITCHELL ENERGY CORPORATION : COMPANY
WELL.                    LACEY #5 : WELL
FLD .               ALABAMA FERRY : FIELD
LOC .                             : LOCATION
CNTY.                        LEON : COUNTY
STAT.                       TEXAS : STATE
CTRY.    UNITED STATES OF AMERICA : COUNTRY
SRVC.                Schlumberger : SERVICE COMPANY
DATE.                 19-Nov-1987 : LOGDATE
API .              42289309440000 : API NUMBER
UWI .              42289309440000 : UNIQUE WELL ID
SLAT.WGS84          31.2005525642 : SURFACE LATITUDE
SLON.WGS84         -95.8560420728 : SURFACE LONGITUDE
~Curve Information -----------------------------------------
DEPT   .F    0   1   0  0 : 1 MEASURED DEPTH
GRR    .GAPI 07 310 01 00 : GAMMA RAY FROM RESISTIVITY LOG
ILD    .OHMM 07 120 46 00 : INDUCTION DEEP RESISTIVITY
ILM    .OHMM 07 120 44 00 : INDUCTION MEDIUM RESISTIVITY
SFLU   .OHMM 07 220 01 00 : SHALLOW FOCUSED RESISTIVITY (UNAVERAGED)
SPR    .MV   07 010 01 00 : SPONTANEOUS POTENTIAL FROM RESISTIVITY LOG
DCAL   .IN   07 280 01 00 : DIFFERENTIAL CALIPER
DT     .US/F 60 500 00 00 : DELTA-T (INTERVAL TRANSIT TIME)
DPHI_LS.DEC  45 890 10 00 : DENSITY POROSITY LIMESTONE
DRHO   .G/C3 45 356 01 00 : BULK DENSITY CORRECTION
PEF    .B/E  45 358 01 00 : PHOTOELECTRIC FACTOR
RHOB   .G/C3 45 350 01 00 : BULK DENSITY
~Params ----------------------------------------------------
PD  .                     GL : PERMANENT DATUM
EPD .FT                  288 : ELEVATION PERMANENT DATUM
LMF .                    RKB : LOG MEASURED FROM
DAPD.FT                 14.7 : FEET ABOVE PERMANENT DATUM
DMF .                    RKB : DRILLING MEASURED FROM
EKB .FT                  303 : KELLY BUSHING
EDF .FT                  302 : DRILLING FLOOR
EGL .FT                  288 : GROUND LEVEL
DATE.               11/19/87 : RUN DATE
RUN .                      1 : RUN NUMBER
DD  .FT                 9802 : DEPTH DRILLER
DL  .FT                 9804 : DEPTH LOGGER
BLI .FT                 9801 : BOTTOM LOG INTERVAL
TLI .FT                 7050 : TOP LOG INTERVAL
CS  .IN                8.625 : CASING SIZE
CBD .FT                 3728 : CASING BOTTOM DRILLER
CBL .FT                 3729 : CASING BOTTOM LOGGER
BS  .IN                7.875 : BIT SIZE
BSD .FT                 9802 : BIT SIZE AT DEPTH
DFT .          NON DISPERSED : DRILLING FLUID TYPE
DFD .                    9.6 : DRILLING FLUID DENSITY
DFV .                     44 : DRILLING FLUID VISCOSITY
DFPH.                      9 : DRILLING FLUID PH
DFL .                    8.9 : DRILLING FLUID LOSS
MSS .                   TANK : MUD SAMPLE SOURCE
RMS .OHMM               3.63 : RESISTIVITY MUD SAMPLE
MST .DEGF                 88 : MUD SAMPLE TEMPERATURE
RMF .OHMM               3.81 : RESISTIVITY MUD FILTRATE SAMPLE
MFST.DEGF                 81 : MUD FILTRATE SAMPLE TEMPERATURE
RMC .OHMM               3.84 : RESISTIVITY MUD CAKE
MCST.DEGF                 81 : MUD CAKE SAMPLE TEMPERATURE
MFSS.                   MEAS : MUD FILTRATE SAMPLE SOURCE
MCSS.                   MEAS : MUD CAKE SAMPLE SOURCE
RMB .OHMM              1.519 : RESISTIVITY MUD AT BHT
TCS .HRS                1230 : TIME CIRCULATED STOPPED
TLAB.HRS                1730 : TIME LOGGER AT BOTTOM
LUN .                   8505 : LOGGING UNIT NUMBER
LUL .               TYLER OH : LOGGING UNIT LOCATION
ENGI.                  RICKS : RECORDING ENGINEER
WITN.        BULLARD EDWARDS : WITNESSED BY
CLNT.                A2DTECH : CLIENT CODE
ORIG.           5" 25" PRINT : ORIGIN OF DATA
UWI .         42289309440000 : UNIQUE WELL ID
DICO. A2D Technologies, Inc. : DIGITIZING COMPANY
~Other -----------------------------------------------------
~ASCII -----------------------------------------------------
 3750.00000   62.44480   45.82650   62.31330   88.49650  -55.97560    1.26050    -999.25    -999.25    -999.25    -999.25    -999.25
 3800.00000   81.47750    6.92870    7.54480    5.34520  -24.38030    3.19310    -999.25    -999.25    -999.25    -999.25    -999.25
 3850.00000   83.28300    4.92670    5.14940    5.42750  -26.82000    3.00310    -999.25    -999.25    -999.25    -999.25    -999.25
 3900.00000   90.69220    5.00500    5.24730    5.44520  -25.32190    1.91210    -999.25    -999.25    -999.25    -999.25    -999.25
 3950.00000   84.93820    5.97060    6.22930    6.42760  -24.90030    1.81000    -999.25    -999.25    -999.25    -999.25    -999.25
 4000.00000   83.30010    4.78110    5.01440    5.08250  -22.78570    0.87990    -999.25    -999.25    -999.25    -999.25    -999.25
 4050.00000   80.35560    5.87390    6.13560    6.36860  -24.30680    0.45710    -999.25    -999.25    -999.25    -999.25    -999.25
 4100.00000   87.17650    4.32420    4.52340    4.78470  -23.59510    0.98050    -999.25    -999.25    -999.25    -999.25    -999.25
 4150.00000   90.69630    4.30070    4.52550    4.73060  -22.70080    1.22530    -999.25    -999.25    -999.25    -999.25    -999.25
 4200.00000   81.24300    6.31850    6.59110    7.32690  -19.92140    1.23190    -999.25    -999.25    -999.25    -999.25    -999.25
 4250.00000   91.50070    4.59370    4.82240    5.45420  -20.92100    0.93340    -999.25    -999.25    -999.25    -999.25    -999.25
 4300.00000   77.11760    4.08740    4.26370    5.19490  -21.05360    1.73250    -999.25    -999.25    -999.25    -999.25    -999.25
 4350.00000   88.89370    4.11710    4.29490    4.71580  -19.48230    1.51720    -999.25    -999.25    -999.25    -999.25    -999.25
 4400.00000   87.78140    5.18770    5.41380    6.26160  -18.46230    0.81030    -999.25    -999.25    -999.25    -999.25    -999.25
 4450.00000   89.29550    4.15260    4.33450    4.91460  -20.07370    0.95160    -999.25    -999.25    -999.25    -999.25    -999.25
 4500.00000   95.19090    4.14040    4.31900    4.44910  -19.96290    1.17310    -999.25    -999.25    -999.25    -999.25    -999.25
 4550.00000   93.24230    3.84400    4.01060    4.50870  -19.54370    0.87990    -999.25    -999.25    -999.25    -999.25    -999.25
 4600.00000   91.40620    4.71950    4.92330    5.32610  -21.47800    1.17210    -999.25    -999.25    -999.25    -999.25    -999.25
 4650.00000   97.24820    4.46530    4.65800    5.03230  -21.99700    1.43070    -999.25    -999.25    -999.25    -999.25    -999.25
 4700.00000   96.29630    3.85470    3.98190    4.35610  -20.33710    1.44150    -999.25    -999.25    -999.25    -999.25    -999.25
 4750.00000   83.85450    4.80060    4.97200    5.08370  -21.06340    1.23250    -999.25    -999.25    -999.25    -999.25    -999.25
 4800.00000   95.61620    4.09180    4.26890    4.20460  -20.28980    1.12130    -999.25    -999.25    -999.25    -999.25    -999.25
 4850.00000   90.15910    4.05140    4.21230    4.70750  -21.37000    1.14110    -999.25    -999.25    -999.25    -999.25    -999.25
 4900.00000   93.54150    3.71310    3.87320    4.26880  -19.66070    1.13900    -999.25    -999.25    -999.25    -999.25    -999.25
 4950.00000   94.03320    3.62750    3.76940    4.40330  -19.91900    1.46910    -999.25    -999.25    -999.25    -999.25    -999.25
 5000.00000   99.38960    3.89610    4.06560    4.37970  -17.77040    1.57970    -999.25    -999.25    -999.25    -999.25    -999.25
 5050.00000   95.10350    3.38740    3.54100    3.72870  -15.39860    1.19550    -999.25    -999.25    -999.25    -999.25    -999.25
 5100.00000   87.91350    2.65110    2.76790    3.09410  -16.91260    1.00650    -999.25    -999.25    -999.25    -999.25    -999.25
 5150.00000   78.14730    1.90080    1.99000    2.03100  -16.92450    1.02170    -999.25    -999.25    -999.25    -999.25    -999.25
 5200.00000   78.66580    4.66140    4.88010    5.47370  -15.80880    0.68130    -999.25    -999.25    -999.25    -999.25    -999.25
 5250.00000   86.43610    2.20630    2.30760    2.38250  -17.81220    1.68010    -999.25    -999.25    -999.25    -999.25    -999.25
 5300.00000   93.77870    1.86110    1.94180    1.99830  -17.04280    2.05770    -999.25    -999.25    -999.25    -999.25    -999.25
 5350.00000   91.23770    1.86640    1.95190    2.03060  -17.82100    2.60800    -999.25    -999.25    -999.25    -999.25    -999.25
 5400.00000   95.86660    1.97660    2.06350    2.21660  -15.11940    2.59470    -999.25    -999.25    -999.25    -999.25    -999.25
 5450.00000   97.60540    1.72140    1.79570    2.00640  -14.52680    2.46740    -999.25    -999.25    -999.25    -999.25    -999.25
 5500.00000   85.29010    1.58810    1.66020    1.86640  -12.56680    2.34550    -999.25    -999.25    -999.25    -999.25    -999.25
 5550.00000   90.39160    1.92080    2.00540    2.22200  -12.69020    2.32580    -999.25    -999.25    -999.25    -999.25    -999.25
 5600.00000   91.12410    1.87620    1.95720    2.26800  -18.12050    2.22030    -999.25    -999.25    -999.25    -999.25    -999.25
 5650.00000   98.85580    1.66600    1.73830    2.02010  -16.53940    2.03560    -999.25    -999.25    -999.25    -999.25    -999.25
 5700.00000   91.61320    1.86480    1.94890    2.14170  -22.84190    1.93490    -999.25    -999.25    -999.25    -999.25    -999.25
 5750.00000   96.28720    2.65990    2.77540    3.35440  -22.85080    1.91370    -999.25    -999.25    -999.25    -999.25    -999.25
 5800.00000   58.94210   18.11670   18.91460   19.59950  -27.38860    1.26840    -999.25    -999.25    -999.25    -999.25    -999.25
 5850.00000   70.29330   12.11080   12.65100   14.68040  -28.43460    1.45410    -999.25    -999.25    -999.25    -999.25    -999.25
 5900.00000   76.15170    9.63730   10.08410   11.58700  -29.06460    1.63560    -999.25    -999.25    -999.25    -999.25    -999.25
 5950.00000  104.56520    5.96640    5.71710    5.19230  -24.41680    1.59070    -999.25    -999.25    -999.25    -999.25    -999.25
 6000.00000   73.19690    7.19540    7.52930   10.56720  -22.82660    1.25770    -999.25    -999.25    -999.25    -999.25    -999.25
 6050.00000   94.57380    4.31130    4.50730    5.37630  -23.06550    1.23500    -999.25    -999.25    -999.25    -999.25    -999.25
 6100.00000   78.63090    5.11710    5.36400    6.15820  -23.17770    1.47940    -999.25    -999.25    -999.25    -999.25    -999.25
 6150.00000   84.21770    3.52420    3.68580    4.44180  -22.54210    1.96260    -999.25    -999.25    -999.25    -999.25    -999.25
 6200.00000   86.62630    4.97840    5.19960    6.74840  -22.27600    1.55920    -999.25    -999.25    -999.25    -999.25    -999.25
 6250.00000   83.09370    3.92200    4.09200    5.02680  -21.22800    1.57730    -999.25    -999.25    -999.25    -999.25    -999.25
 6300.00000   84.65670    3.14220    3.35780    3.85080  -20.26180    1.20120    -999.25    -999.25    -999.25    -999.25    -999.25
 6350.00000   74.31250    5.01960    5.25740    6.57640  -22.56530    1.58820    -999.25    -999.25    -999.25    -999.25    -999.25
 6400.00000   60.16900   10.62170   11.08460   10.06970  -20.15850    1.25150    -999.25    -999.25    -999.25    -999.25    -999.25
 6450.00000   82.23590    5.28950    5.52330    6.39070  -24.01780    1.95110    -999.25    -999.25    -999.25    -999.25    -999.25
 6500.00000   93.07200    2.80590    3.05740    3.46930  -25.30650    2.89360    -999.25    -999.25    -999.25    -999.25    -999.25
 6550.00000   91.67390    3.84720    4.07170    4.83590  -21.93750    2.52490    -999.25    -999.25    -999.25    -999.25    -999.25
 6600.00000   87.12310    2.83200    2.95430    3.66210  -23.75390    2.89180   95.42720    -999.25    -999.25    -999.25    -999.25
 6650.00000   79.42550    3.90080    4.20800    5.14650  -21.89540    2.51860   92.31350    -999.25    -999.25    -999.25    -999.25
 6700.00000   76.48400    4.55470    4.79740    5.79260  -22.92170    2.40410   87.15540    -999.25    -999.25    -999.25    -999.25
 6750.00000   67.04480    4.20120    4.41130    5.34700  -18.82170    1.53850   95.39310    -999.25    -999.25    -999.25    -999.25
