~Version ---------------------------------------------------
VERS. 2.0 : CWLS log ASCII Standard -VERSION 2.0
WRAP.  NO : ONE LINE PER DEPTH STEP
~Well ------------------------------------------------------
STRT.F                   950.0 : START DEPTH
STOP.F                  5200.0 : STOP DEPTH
STEP.F                50.00000 : STEP LENGTH
NULL.                  -999.25 : NULL VALUE
COMP. LINGEN EXPLORATION, INC. : COMPANY
WELL.       FRANK L. BAIN   #1 : WELL
FLD .             R.P. HOLLAND : FIELD
LOC .                          : LOCATION
CNTY.                   WILSON : COUNTY
STAT.                    TEXAS : STATE
CTRY. UNITED STATES OF AMERICA : COUNTRY
SRVC.            Dresser Atlas : SERVICE COMPANY
DATE.              11-May-1981 : LOGDATE
API .           42493308380000 : API NUMBER
UWI .           42493308380000 : UNIQUE WELL ID
SLAT.WGS84       29.2277619211 : SURFACE LATITUDE
SLON.WGS84      -98.0038026033 : SURFACE LONGITUDE
~Curve Information -----------------------------------------
DEPT.F                 : 
ASN .OHMM 07 041 16 00 : AMPLIFIED SHORT NORMAL RESISTIVITY
CIL .MMHO 07 110 45 00 : INDUCTION CONDUCTIVITY
IL  .OHMM 07 120 45 00 : INDUCTION LOG RESISTIVITY
SPR .MV   07 010 01 00 : SPONTANEOUS POTENTIAL FROM RESISTIVITY LOG
GR  .GAPI 05 310 01 00 : GAMMA RAY
~Params ----------------------------------------------------
PD  .                     GL : PERMANENT DATUM
EPD .FT                384.5 : ELEVATION PERMANENT DATUM
LMF .                     KB : LOG MEASURED FROM
DAPD.FT                   12 : FEET ABOVE PERMANENT DATUM
DMF .                     KB : DRILLING MEASURED FROM
EKB .FT                396.5 : KELLY BUSHING
EDF .FT                395.5 : DRILLING FLOOR
EGL .FT                384.5 : GROUND LEVEL
DATE.               05/11/81 : RUN DATE
RUN .                      1 : RUN NUMBER
DD  .FT                 5210 : DEPTH DRILLER
DL  .FT                 5213 : DEPTH LOGGER
BLI .FT                 5211 : BOTTOM LOG INTERVAL
TLI .FT                  934 : TOP LOG INTERVAL
CS  .IN                8.625 : CASING SIZE
CBD .FT                  923 : CASING BOTTOM DRILLER
CBL .FT                  934 : CASING BOTTOM LOGGER
BS  .IN                7.875 : BIT SIZE
BSD .FT                 5210 : BIT SIZE AT DEPTH
DFT .                    GEL : DRILLING FLUID TYPE
DFD .                    9.4 : DRILLING FLUID DENSITY
DFV .                     40 : DRILLING FLUID VISCOSITY
DFPH.                   10.1 : DRILLING FLUID PH
DFL .                    6.2 : DRILLING FLUID LOSS
MSS .               FLOWLINE : MUD SAMPLE SOURCE
RMS .OHMM               2.02 : RESISTIVITY MUD SAMPLE
MST .DEGF                 75 : MUD SAMPLE TEMPERATURE
RMF .OHMM               1.51 : RESISTIVITY MUD FILTRATE SAMPLE
MFST.DEGF                 75 : MUD FILTRATE SAMPLE TEMPERATURE
RMC .OHMM               2.53 : RESISTIVITY MUD CAKE
MCST.DEGF                 75 : MUD CAKE SAMPLE TEMPERATURE
MFSS.                   MEAS : MUD FILTRATE SAMPLE SOURCE
MCSS.                   CALC : MUD CAKE SAMPLE SOURCE
RMB .OHMM               1.02 : RESISTIVITY MUD AT BHT
TCS .HRS                   5 : TIME CIRCULATED STOPPED
LUL .                  ALICE : LOGGING UNIT LOCATION
ENGI.         SALCIGO MEELER : RECORDING ENGINEER
WITN.         JONES FONTENOT : WITNESSED BY
CLNT.                A2DTECH : CLIENT CODE
ORIG.               1" PRINT : ORIGIN OF DATA
UWI .         42493308380000 : UNIQUE WELL ID
DICO. A2D Technologies, Inc. : DIGITIZING COMPANY
~Other -----------------------------------------------------
~ASCII -----------------------------------------------------
  950.00000   19.31170   10.90160   74.94400  -44.64480   30.55670
 1000.00000   19.80650   34.83860   28.05920  -58.73300   49.67720
 1050.00000   24.96980   20.62180   43.80650  -59.77000   36.16360
 1100.00000   27.94190   20.75480   44.91260  -63.01600   56.24250
 1150.00000   23.95560   23.45620   41.65680  -64.29570   47.00350
 1200.00000   21.14850   26.78290   34.46600  -65.62520   40.01330
 1250.00000   20.10030   28.25450   31.36120  -65.65980   55.10400
 1300.00000   11.49940   57.08490   16.67320  -70.23870   58.66740
 1350.00000   10.23330   58.23260   18.75660  -68.21720   50.01270
 1400.00000    8.81510  116.97440    8.55010  -67.51250   72.58400
 1450.00000   11.48180   60.92140   16.41450  -70.02770   50.60720
 1500.00000    3.41400  315.96140    3.16490  -60.23430   89.97570
 1550.00000    3.23350  302.64420    3.30450  -60.99170   82.66620
 1600.00000   13.55610  148.01910    6.75590  -63.31420   69.91270
 1650.00000    3.70680  345.61130    2.89350  -61.63400   79.38840
 1700.00000    5.12460  210.08660    5.08020  -66.71230   84.84180
 1750.00000   11.04590   71.80870   14.55220  -80.04790   47.29100
 1800.00000    9.62940   84.99420   11.64410  -82.88580   53.47330
 1850.00000    6.73060  213.21390    5.20500  -66.05090   70.25650
 1900.00000    4.76940  232.57110    4.29980  -68.71840   67.93980
 1950.00000   11.79630   70.51330   14.18810  -74.56430   64.66450
 2000.00000    9.25070   92.49170   10.29300  -80.94200   58.55850
 2050.00000    3.95170  363.65620    2.50800  -65.47500   92.90270
 2100.00000    6.81980  118.29690    8.98740  -78.83680   55.58620
 2150.00000    9.00000   81.09230   12.17950  -80.23730   46.06980
 2200.00000    7.00170  119.69160    8.36120  -77.43010   63.80980
 2250.00000    7.68270   98.27700   10.17600  -78.47120   48.12210
 2300.00000    3.46240  532.70100    1.87730  -62.78350   75.90810
 2350.00000    5.25330  257.55480    3.88330  -71.60690   48.90310
 2400.00000    9.83650   91.17350   11.25780  -82.51750   39.44420
 2450.00000    7.98550  126.88170    7.87940  -82.73410   50.63280
 2500.00000    3.65000  261.53080    3.82420  -72.25420   63.74020
 2550.00000    7.83040  107.08030    9.33500  -84.81610   43.10110
 2600.00000    7.28100  123.86040    8.07360  -84.81410   39.76450
 2650.00000    7.14900  124.48670    7.92740  -84.74020   38.61990
 2700.00000    2.96600  276.68550    3.98560  -68.31630   80.04640
 2750.00000    2.59660  433.67690    2.25550  -60.94000   97.48680
 2800.00000    2.19060  592.31580    1.68830  -60.33710  103.39810
 2850.00000    3.30000  294.28320    3.30240  -74.01250   91.79110
 2900.00000    2.76810  356.00170    2.73120  -65.71800   89.03650
 2950.00000    3.98770  232.01880    4.31010  -63.85110   72.15380
 3000.00000    2.45640  424.27820    2.28900  -64.49380   98.64340
 3050.00000    2.42000  434.24930    2.30280  -62.30470   96.23770
 3100.00000    2.08540  554.60490    1.80310  -61.13120   98.30800
 3150.00000    2.05380  609.10100    1.64180  -60.91870   89.82950
 3200.00000    1.87810  640.70540    1.56080  -60.60350   95.11200
 3250.00000    1.81560  727.81080    1.37400  -61.10390   96.92070
 3300.00000    1.83530  727.59030    1.34040  -61.44330   97.97590
 3350.00000    1.84090  744.53020    1.28310  -58.85930  100.81650
 3400.00000    1.40670 1322.48010    0.75620  -57.65180   84.63280
 3450.00000    2.42080  443.09530    2.25690  -61.58820   85.59570
 3500.00000    3.49860  455.05360    2.19760  -74.25030   60.95380
 3550.00000    2.49210  431.20220    2.31910  -63.79710   75.98580
 3600.00000    2.33170  468.32250    2.13530  -65.58930   74.50980
 3650.00000    2.26320  468.39600    2.13490  -63.43330   78.93710
 3700.00000    1.80680  760.09650    1.31560  -60.21520   74.57340
 3750.00000    1.78150  694.34630    1.38660  -59.46250   76.66040
 3800.00000    1.56750  929.16440    1.07620  -60.86170   82.66300
 3850.00000    1.85150  679.97260    1.41160  -63.61140   80.79490
 3900.00000    2.64680  459.13190    2.17800  -64.89650   72.45690
 3950.00000    1.84500  681.87990    1.46650  -64.12460   75.57790
 4000.00000    2.69050  385.71030    2.59260  -59.65040   61.52800
 4050.00000    2.01150  716.86400    1.41030  -61.10400   77.67270
 4100.00000    2.38990  353.74800    2.82690  -62.94710   80.09280
 4150.00000    1.69800  713.38640    1.40180  -59.03710   79.54470
 4200.00000    1.84700  554.27190    1.80420  -58.44810   85.15530
 4250.00000    1.45860  751.73150    1.33030  -56.22970   93.53510
 4300.00000    1.47060  862.94540    1.15880  -55.86770   97.88840
 4350.00000    2.01270  661.79740    1.43450  -53.32560   96.20460
 4400.00000    2.09090  594.49180    1.68210  -59.41900   83.56670
 4450.00000    2.17690  611.85580    1.60570  -56.90120   86.82230
 4500.00000    1.98910  822.96980    1.21510  -64.30740   92.92010
 4550.00000    2.34230  509.75180    1.97360  -67.02450   78.67910
 4600.00000    1.96970  601.65460    1.66210  -65.45900   79.39150
 4650.00000    2.24360  635.23740    1.53720  -69.78910   85.58650
 4700.00000    2.79890  410.46430    2.43630  -66.21990   70.75830
 4750.00000    3.47830  327.21340    3.05610  -67.26610   64.15500
 4800.00000    3.23520  401.43350    2.49110  -63.81590   69.78060
 4850.00000    3.35100  314.22350    3.18250  -63.09020   56.48630
 4900.00000    5.12940  220.20180    4.44410  -82.10910   31.83840
 4950.00000   10.23850  112.74270   10.04170  -78.25160   28.40840
 5000.00000    6.16900  176.94620    5.65160  -95.92310   30.87550
 5050.00000    7.62970  125.12010    8.93680  -80.97990   41.11250
 5100.00000   19.93860   49.07410   51.60670  -65.78100   76.96380
 5150.00000   19.08830   69.19900   14.56380 -122.06280   16.57590
 5200.00000    7.48020  236.61960    4.22620  -49.54440    -999.25
