~Version ---------------------------------------------------
VERS. 2.0 : CWLS log ASCII Standard -VERSION 2.0
WRAP.  NO : ONE LINE PER DEPTH STEP
~Well ------------------------------------------------------
STRT.FT                            300.0 : START DEPTH
STOP.FT                          22000.0 : STOP DEPTH
STEP.FT                         50.00000 : STEP LENGTH
NULL.                            -999.25 : NULL VALUE
COMP. PAN AMERICAN PETROLEUM CORPORATION : COMPANY
WELL.                  A. M. FOERSTER #1 : WELL
FLD .                            WILDCAT : FIELD
LOC .                                    : LOCATION
CNTY.                           LA SALLE : COUNTY
STAT.                              TEXAS : STATE
CTRY.           UNITED STATES OF AMERICA : COUNTRY
SRVC.                       Schlumberger : SERVICE COMPANY
DATE.                        20-Aug-1964 : LOGDATE
API .                     42283002040000 : API NUMBER
UWI .                     42283002040000 : UNIQUE WELL ID
SLAT.WGS84                 28.3371650608 : SURFACE LATITUDE
SLON.WGS84                -98.9649233845 : SURFACE LONGITUDE
~Curve Information -----------------------------------------
DEPT  .FT    : DEPTH
CONDWS.MMHO  : CONDUCTIVITY [CILDED] FROM IEL
ILDED .OHMM  : INDUCTION LOG DEEP RESISTIVITY FROM IEL
ASNED .OHMM  : SHORT NORMAL RESISTIVITY 16 INCH FROM IEL
CILDED.MMHO  : CONDUCTIVITY FROM IEL
DRESWS.OHMM  : DEEP RESISTIVITY [ILDED] FROM IEL [IF ILDED < 1 THEN 1000/CILDED]
DTWS  .US/F  : DELTA TIME FROM SONIC LOG
NEUTWS.CU    : NEUTRON FROM GAMMA RAY NEUTRON LOG
GRNED .GAPI  : GAMMA RAY FROM NEUTRON LOG
NEUTED.NAPI  : NEUTRON  FROM GAMMA RAY NEUTRON LOG
SPED  .MV    : SPONTANEOUS POTENTIAL [MECHANICAL SHIFTS REMOVED]
SPWS  .MV    : SPONTANEOUS POTENTIAL [BASELINE 0 MV]
CALSED.IN    : CALIPER FROM SONIC LOG
DTED  .US/F  : DELTA TIME FROM SONIC LOG
SRESWS.OHMM  : SHALLOW RESISTIVITY [ASNED] FROM IEL
GRWS  .GAPI  : GAMMA RAY [GRNED] FROM GAMMA RAY NEUTRON LOG
CALWS .IN    : CALIPER [CALSED] FROM SONIC LOG
SPSED .MV    : SPONTANEOUS POTENTIAL FROM SONIC LOG [MECHANICAL SHIFTS REMOVED]
~Params ----------------------------------------------------
EKB .F                 473.5 : KELLY BUSHING
EGL .F                   445 : ELEVATION GROUND LEVEL
EDF .F                   471 : ELEVATION DERRICK FLOOR
EPD .F                   445 : ELEVATION PERMANENT DATUM
TD  .F               21995.0 : TOTAL DEPTH
DATE.            20-AUG-1964 : DATE LOGGED
CLNT.                A2DTECH : CLIENT CODE
SL  .   1320' FSL & 660' FWL : SURFACE LOCATION
PD  .                     GL : PERMANENT DATUM
LMF .                     KB : LOG MEASURED FROM
DMF .                     KB : DRILLING MEASURED FROM
DAPD.F                  28.5 : FEET ABOVE PERMANENT DATUM
DD  .F                 21995 : DEPTH DRILLER
DL  .F                 21992 : DEPTH LOGGER
BLI .F                 21991 : BOTTOM LOG INTERVAL
TLI .F                 20005 : TOP LOG INTERVAL
CS1 .IN                9.625 : CASING SIZE
CBD1.        9.625" @ 15993' : CASING DRILLER 1
CBL1.F                 15993 : CASING LOGGER 1
BS1 .IN                  8.5 : BIT SIZE
BSD1.F                 21995 : DEPTH DRILLED WITH BIT1
DFT .              XP-20-O.E : TYPE FLUID IN HOLE
DFD .                   18.4 : DENSITY
DFV .                     54 : VISCOSITY
DFPH.                    8.9 : PH
DFL .                      4 : FLUID LOSS
MSS .                MUD/PIT : SOURCE OF SAMPLE
RMS .OHMM               0.15 : RM
RMF .OHMM              0.089 : RMF
RMC .OHMM               0.32 : RMC
MFSS.                   MEAS : SOURCE RMF.
MCSS.                   MEAS : SOURCE RMC.
RMB .OHMM              0.046 : RM. AT BHT
BHT .F                   404 : BHT.
TCS .HRS                  10 : TIME CIRC. STOPPED
LUN .                   4526 : LOGGING UNIT NUMBER
LUL .                    KEN : LOGGING UNIT LOCATION
ENGI.                  HARSH : RECORDED BY
WITN.          FREEMAN/WALSH : WITNESSED BY
ORIG.          1" & 5" PRINT : ORIGIN OF DATA
UWI .         42283002040000 : UNIQUE WELL ID
DICO. A2D TECHNOLOGIES, INC. : DIGITIZING COMPANY
~Other -----------------------------------------------------
~ASCII -----------------------------------------------------
# ...
 20550.00000  118.07100    9.22000    9.03500  118.07100    9.22000   39.74100    -999.25    -999.25    -999.25  -96.29200  -30.25930    8.22300   39.74100    9.03500    -999.25    8.22300  -49.92000
 20600.00000   34.64000   30.18900   23.46100   34.64000   30.18900   49.72100    -999.25    -999.25    -999.25 -104.90000  -38.48610    8.44400   49.72100   23.46100    -999.25    8.44400  -81.15400
 20650.00000   41.09100   26.22600    9.23200   41.09100   26.22600   39.90000    -999.25    -999.25    -999.25 -110.26900  -43.47390    8.59700   39.90000    9.23200    -999.25    8.59700  -52.80900
 20700.00000   24.44900   38.56800   21.91300   24.44900   38.56800   49.69700    -999.25    5.99200    -999.25 -120.82900  -53.65270    7.98500   49.69700   21.91300    5.99200    7.98500  -52.06700
 20750.00000  240.81400    4.96300    2.53000  240.81400    4.96300   59.95700  697.00100   21.05100  697.00100 -116.94500  -49.38750    6.43000   59.95700    2.53000   21.05100    6.43000  -36.26100
 20800.00000  457.29900    2.63800    1.71900  457.29900    2.63800   61.15400  735.41400   35.20800  735.41400 -120.43300  -52.49430    7.99300   61.15400    1.71900   35.20800    7.99300  -47.11600
 20850.00000  333.25900    3.53000    3.38600  333.25900    3.53000   63.94000  858.41400   31.81300  858.41400 -117.73900  -49.41910    8.38900   63.94000    3.38600   31.81300    8.38900  -48.84300
 20900.00000   50.88600   22.61300    8.38200   50.88600   22.61300   51.83800 1339.02400   14.61000 1339.02400 -118.77500  -50.07390    6.65900   51.83800    8.38200   14.61000    6.65900  -42.40600
 20950.00000   92.18600   10.77400    7.19500   92.18600   10.77400   55.96800 1104.22900   28.57200 1104.22900 -116.75000  -47.66770    7.52200   55.96800    7.19500   28.57200    7.52200  -39.41100
 21000.00000  104.26500   10.96700    6.12800  104.26500   10.96700   60.52300 1100.14000   23.89500 1100.14000 -113.20600  -43.74250    8.46300   60.52300    6.12800   23.89500    8.46300  -43.42300
 21050.00000  165.78400    6.58600    5.40900  165.78400    6.58600   39.94000 1060.25000   24.91500 1060.25000 -116.22100  -46.37630    8.10800   39.94000    5.40900   24.91500    8.10800  -45.04800
 21100.00000   93.62600   11.62500    6.78600   93.62600   11.62500   56.49900 1338.14600   20.33700 1338.14600 -105.32400  -35.09810    7.68000   56.49900    6.78600   20.33700    7.68000  -42.67900
 21150.00000  148.40100    6.64300    6.65700  148.40100    6.64300   57.60500 1135.84900   31.18300 1135.84900 -117.09800  -46.49090    6.81200   57.60500    6.65700   31.18300    6.81200  -44.07000
 21200.00000  114.67200   10.03700    6.38800  114.67200   10.03700   58.05000 1212.20000   28.27300 1212.20000 -142.22000  -71.23170    7.48300   58.05000    6.38800   28.27300    7.48300  -80.05400
 21250.00000  196.12700    6.56200    5.92800  196.12700    6.56200   57.01500 1112.37300   35.11600 1112.37300 -125.86900  -54.49950    8.90500   57.01500    5.92800   35.11600    8.90500  -85.02200
 21300.00000   92.25900   11.66800    5.56700   92.25900   11.66800   61.75100 1067.46300   26.23600 1067.46300 -130.48000  -58.72940    9.30600   61.75100    5.56700   26.23600    9.30600  -88.47100
 21350.00000  110.72500   10.05200    6.37500  110.72500   10.05200   39.90000 1077.83610   25.41900 1077.83610 -133.15100  -61.01920    9.55400   39.90000    6.37500   25.41900    9.55400  -97.98000
 21400.00000   66.03800   15.48100    7.68300   66.03800   15.48100   54.98200 1180.04800   11.74000 1180.04800 -124.05200  -51.53900    9.19300   54.98200    7.68300   11.74000    9.19300  -92.95200
 21450.00000  134.55800    7.60000    6.47400  134.55800    7.60000   55.50200 1293.83110   19.84100 1293.83110  -94.90600  -22.01180   10.43300   55.50200    6.47400   19.84100   10.43300  -58.50500
 21500.00000  102.37800   11.15400    7.58300  102.37800   11.15400   52.28800 1450.41890   16.95100 1450.41890 -108.47400  -35.19860    9.05800   52.28800    7.58300   16.95100    9.05800  -53.04700
 21550.00000  141.54400    7.82300    6.24400  141.54400    7.82300   56.97500 1121.35710   22.35100 1121.35710 -109.97200  -36.31540   10.00600   56.97500    6.24400   22.35100   10.00600  -51.69800
 21600.00000   95.85500   11.41900    8.21800   95.85500   11.41900   52.12100 1623.92900   16.53500 1623.92900  -93.87500  -19.83720    7.67900   52.12100    8.21800   16.53500    7.67900  -38.38200
 21650.00000  204.67300    5.88600    5.94700  204.67300    5.88600   56.10000 1590.25600   11.61500 1590.25600  -81.64200   -7.22300    6.17900   56.10000    5.94700   11.61500    6.17900  -20.89300
 21700.00000  282.52200    4.66700    4.53300  282.52200    4.66700   61.23200  950.81600   27.15100  950.81600  -99.30900  -24.50880    5.78900   61.23200    4.53300   27.15100    5.78900  -29.49900
 21750.00000  158.39100    6.87900    5.70000  158.39100    6.87900   55.57600 1522.40600   18.02700 1522.40600  -83.31500   -8.34320    8.46300   55.57600    5.70000   18.02700    8.46300  -24.44800
 21800.00000  127.91900    8.62500    7.32400  127.91900    8.62500   49.77100 1714.81400   14.06400 1714.81400  -74.97500    1.21390    5.81700   49.77100    7.32400   14.06400    5.81700  -18.34100
 21850.00000  209.94400    7.53000    5.96600  209.94400    7.53000   55.94000 1021.36800   36.28100 1021.36800 -100.13300  -20.01760    6.48800   55.94000    5.96600   36.28100    6.48800  -41.11300
 21900.00000   62.34900   21.51340   12.92200   62.34900   21.51340   50.17900 1545.47300   26.24600 1545.47300  -87.66600   -3.62420    5.71000   50.17900   12.92200   26.24600    5.71000  -31.83300
 21950.00000   78.22400   13.24180   21.07300   78.22400   13.24180   51.16400 1172.84300   28.51200 1172.84300  -95.26700  -10.12580    5.98900   51.16400   21.07300   28.51200    5.98900  -37.33200
 22000.00000    -999.25    -999.25    -999.25    -999.25    -999.25    -999.25    -999.25    -999.25    -999.25    -999.25    -999.25    -999.25    -999.25    -999.25    -999.25    -999.25    -999.25
