~Version ---------------------------------------------------
VERS. 2.0 : CWLS log ASCII Standard -VERSION 2.0
WRAP.  NO : One line per depth step
~Well ------------------------------------------------------
STRT.FT                     1050.0 : START DEPTH
STOP.FT                    19600.0 : STOP DEPTH
STEP.FT                   50.00000 : STEP LENGTH
NULL.                      -999.25 : NULL VALUE
COMP. PAN AMERICAN PETROLEUM CORP. : COMPANY
WELL.           MURRAY FRANKLIN #1 : WELL
FLD .                      WILDCAT : FIELD
LOC .                              : LOCATION
CNTY.                    MC MULLEN : COUNTY
STAT.                        TEXAS : STATE
CTRY.     UNITED STATES OF AMERICA : COUNTRY
SRVC.                 Schlumberger : SERVICE COMPANY
DATE.                  30-Aug-1964 : LOGDATE
API .               42311001580000 : API NUMBER
UWI .               42311001580000 : UNIQUE WELL ID
SLAT.WGS84           28.5946649186 : SURFACE LATITUDE
SLON.WGS84          -98.6650291661 : SURFACE LONGITUDE
~Curve Information -----------------------------------------
DEPT  .FT    : DEPTH
ASNED .OHMM  : AMPLIFIED SHORT NORMAL 16 IN.
CALWS .IN    : CALIPER (CALSED)
CALSED.IN    : CALIPER FROM SONIC LOG (ADJ TO RES.)
CILDED.MMHO  : CONDUCTIVITY FROM LOG
CONDWS.MMHO  : CONDUCTIVITY (1000/DREWS)
DRESWS.OHMM  : DEEP RESISTIVITY (IF ILDED<1, THEN 1000/CILDED)
DTED  .US/F  : DELTA TIME  (ADJ TO RES.)
DTWS  .US/F  : DELTA TIME  (DTED)
GRNED .GAPI  : GAMMA RAY FROM NEUTRON LOG (ADJ TO RES.)
GRWS  .GAPI  : GAMMA RAY (GRNED)
ILDED .OHMM  : DEEP INDUCTION RESISTIVITY
NEUTED.CU    : NEUTRON FROM GAMMA RAY NEUTRON LOG (ADJ TO RES.)
NEUTWS.CU    : NEUTRON FROM GAMMA RAY NEUTRON LOG (NEUTED)
SPWS  .MV    : SPONTANEOUS POTENTIAL BASELINE 0 MV (SPRED)
SPRED .MV    : SPONTANEOUS POTENTIAL FROM RESISTIVITY
SRESWS.OHMM  : SHALLOW RESISTIVITY (ASNED)
~Params ----------------------------------------------------
PD  .                 2" BHO : PERMANENT DATUM
EPD .F                   395 : ELEVATION PERMANENT DATUM
LMF .                     KB : LOG MEASURED FROM
DAPD.F                  23.7 : FEET ABOVE PERMANENT DATUM
DMF .                     KB : DRILLING MEASURED FROM
EKB .F                 418.7 : KELLING BUSHING
EDF .F                 416.0 : DRILLING FLOOR
EGL .F                 395.0 : GROUND LEVEL
DATE.             08-30-1964 : RUN DATE
RUN .                      6 : RUN NUMBER
DD  .F                 19636 : DEPTH DRILLER
DL  .F                 19632 : DEPTH LOGGER
BLI .F                 19632 : BOTTOM LOG INTERVAL
TLI .F                 18788 : TOP LOG INTERVAL
CS  .IN                    5 : CASING SIZE
CBD .F                 16836 : CASING BOTTOM DRILLER
BS  .IN                 4.25 : BIT SIZE
BSD .F                 19636 : BIT SIZE AT DEPTH
DFT .        UNICAL OIL EMUL : DRILLING FLUID TYPE
TCS .HRS                   3 : TIME CURCULATED STOPPED
LUN .                   4521 : LOGGING UNIT NUMBER
LUL .                    KEN : LOGGING UNIT LOCATION
ENGI.                  ELLIS : RECORDING ENGINEER
WITN.       FREEMAN, SHAPLEY : WITNESSED BY
CLNT.                A2DTECH : CLIENT CODE
ORIG.               5" PRINT : ORIGIN OF DATA
UWI .         42311001580000 : UNIQUE WELL ID
DICO. A2D Technologies, Inc. : DIGITIZING COMPANY
~Other -----------------------------------------------------
~ASCII -----------------------------------------------------
# ...
 9650.00000   35.12800   15.03400   15.03400   24.15490   26.79960   37.31400   50.10820   50.10820    -999.25    -999.25   37.31400    -999.25    -999.25  -10.65520  -25.41000   35.12800
 9700.00000    8.32800   15.47700   15.47700  162.32190  154.24960    6.48300   64.41180   64.41180    -999.25    -999.25    6.48300    -999.25    -999.25   -5.22010  -19.05600    8.32800
 9750.00000   39.98400   15.46600   15.46600   25.87420   28.44630   35.15400   51.02240   51.02240    -999.25    -999.25   35.15400    -999.25    -999.25  -13.21280  -28.82200   39.98400
 9800.00000   38.19100   14.65300   14.65300   21.01520   24.34270   41.08000   54.75660   54.75660    -999.25    -999.25   41.08000    -999.25    -999.25   -8.40080  -30.78300   38.19100
 9850.00000   23.31900   14.50400   14.50400   45.13830   50.18820   19.92500   53.03090   53.03090    -999.25    -999.25   19.92500    -999.25    -999.25  -25.13650  -68.08600   23.31900
 9900.00000   74.37800   14.45300   14.45300   17.37360   19.95450   50.11400   51.65800   51.65800    -999.25    -999.25   50.11400    -999.25    -999.25   -7.62190  -71.71800   74.37800
 9950.00000   82.66100   13.32300   13.32300   16.30340   19.20010   52.08300   50.14270   50.14270    -999.25    -999.25   52.08300    -999.25    -999.25   -6.77650  -86.19000   82.66100
 10000.00000   35.24500   12.17600   12.17600  111.37380  106.79200    9.36400   51.76470   51.76470    -999.25    -999.25    9.36400    -999.25    -999.25  -18.89070 -112.95800   35.24500
 10050.00000   53.69200   13.41200   13.41200   20.27480   22.02400   45.40500   46.27420   46.27420    -999.25    -999.25   45.40500    -999.25    -999.25   -5.01380 -107.02600   53.69200
 10100.00000   47.10100   12.92100   12.92100   37.11850   40.28850   24.82100   48.64350   48.64350    -999.25    -999.25   24.82100    -999.25    -999.25   -7.85610  -99.27300   47.10100
 10150.00000   19.91620   13.06200   13.06200   62.76020   66.03710   15.14300   49.99220   49.99220    -999.25    -999.25   15.14300    -999.25    -999.25  -31.11080 -118.61700   19.91620
 10200.00000   13.96300   12.69500   12.69500  155.73850  153.53910    6.51300   54.30380   54.30380    -999.25    -999.25    6.51300    -999.25    -999.25  -29.45390 -122.65500   13.96300
 10250.00000   30.03700   13.30400   13.30400   40.37600   40.61570   24.62100   48.54930   48.54930    -999.25    -999.25   24.62100    -999.25    -999.25  -21.03300 -119.92900   30.03700
 10300.00000   14.78000   13.01100   13.01100  127.49160  127.50220    7.84300   51.55770   51.55770    -999.25    -999.25    7.84300    -999.25    -999.25  -11.03810 -115.62900   14.78000
 10350.00000   19.04800   13.13000   13.13000   41.71660   43.46500   23.00700   50.02820   50.02820    -999.25    -999.25   23.00700    -999.25    -999.25   -3.82110 -113.08000   19.04800
 10400.00000   24.72700   13.12300   13.12300   35.96370   37.83580   26.43000   50.17960   50.17960    -999.25    -999.25   26.43000    -999.25    -999.25  -11.11220 -118.16700   24.72700
 10450.00000   13.05900   13.04900   13.04900  109.10690  104.02580    9.61300   52.18560   52.18560    -999.25    -999.25    9.61300    -999.25    -999.25  -16.60640 -121.45700   13.05900
 10500.00000   35.98500   13.19200   13.19200   28.96760   31.06550   32.19000   53.61790   53.61790    -999.25    -999.25   32.19000    -999.25    -999.25   -4.15050 -106.79700   35.98500
 10550.00000   13.09300   13.14500   13.14500  124.53600  120.22120    8.31800   49.81540   49.81540    -999.25    -999.25    8.31800    -999.25    -999.25  -25.90960 -116.18300   13.09300
 10600.00000   41.04400   12.72300   12.72300   40.51900   43.82120   22.82000   52.57330   52.57330    -999.25    -999.25   22.82000    -999.25    -999.25   -1.25230  -73.67700   41.04400
 10650.00000   24.15900   12.67700   12.67700   60.01330   59.53800   16.79600   55.14310   55.14310    -999.25    -999.25   16.79600    -999.25    -999.25  -28.40630  -97.69200   24.15900
 10700.00000   30.79900   13.51300   13.51300   34.94380   38.04740   26.28300   50.64950   50.64950    -999.25    -999.25   26.28300    -999.25    -999.25  -60.63910 -131.95400   30.79900
 10750.00000   32.86400   12.86000   12.86000   31.74730   34.10290   29.32300   51.92930   51.92930    -999.25    -999.25   29.32300    -999.25    -999.25  -49.11080 -122.45500   32.86400
 10800.00000    -999.25   10.67200   10.67200    -999.25    -999.25    -999.25    -999.25    -999.25    -999.25    -999.25    -999.25    -999.25    -999.25    -999.25    -999.25    -999.25
 10850.00000   28.57100    9.87900    9.87900   30.10190   32.18120   31.07400   49.01760   49.01760    -999.25    -999.25   31.07400    -999.25    -999.25  -18.21900  -89.88400   28.57100
 10900.00000   23.06400    8.79200    8.79200  128.66860  153.84620    6.50000   54.49110   54.49110    -999.25    -999.25    6.50000    -999.25    -999.25  -62.65480 -125.72400   23.06400
 10950.00000   25.07300    8.70800    8.70800  112.15790  127.56730    7.83900   54.08640   54.08640    -999.25    -999.25    7.83900    -999.25    -999.25  -73.30170 -127.77500   25.07300
 11000.00000   35.12000    9.12100    9.12100   16.19600   17.60040   56.81700   49.54600   49.54600    -999.25    -999.25   56.81700    -999.25    -999.25  -16.47460  -62.35200   35.12000
 11050.00000   19.99820   10.22300   10.22300   32.80560   35.72450   27.99200   51.77930   51.77930    -999.25    -999.25   27.99200    -999.25    -999.25   -9.80850  -47.09000   19.99820
 11100.00000   25.41000    9.02600    9.02600   16.90190   18.46550   54.15500   49.94820   49.94820    -999.25    -999.25   54.15500    -999.25    -999.25   -7.62860  -67.64100   25.41000
 11150.00000   16.94900    9.26100    9.26100   63.27340   73.29230   13.64400   50.78600   50.78600    -999.25    -999.25   13.64400    -999.25    -999.25  -10.23490  -76.72400   16.94900
 11200.00000   14.98200    9.20600    9.20600   80.14320   99.20640   10.08000   51.93310   51.93310    -999.25    -999.25   10.08000    -999.25    -999.25  -31.21710  -93.68100   14.98200
 11250.00000   20.18000    9.54500    9.54500   28.99000   30.55580   32.72700   47.76580   47.76580    -999.25    -999.25   32.72700    -999.25    -999.25   -2.45820  -60.89700   20.18000
 11300.00000   15.48800    8.98500    8.98500   86.42710   95.50190   10.47100   51.92080   51.92080    -999.25    -999.25   10.47100    -999.25    -999.25  -20.77830  -75.19200   15.48800
 11350.00000   27.52300    8.73100    8.73100   19.10240   21.51320   46.48300   52.12960   52.12960    -999.25    -999.25   46.48300    -999.25    -999.25  -18.67940  -69.06800   27.52300
 11400.00000   33.51300    9.03100    9.03100   13.77250   15.13800   66.05900   49.01650   49.01650    -999.25    -999.25   66.05900    -999.25    -999.25  -18.43250  -65.80700   33.51300
 11450.00000   36.93900    9.46500    9.46500   16.84250   18.32410   54.57300   49.87460   49.87460    -999.25    -999.25   54.57300    -999.25    -999.25  -13.32720  -60.88900   36.93900
 11500.00000   33.50300    9.25200    9.25200   20.77530   23.28070   42.95400   39.41050   39.41050    -999.25    -999.25   42.95400    -999.25    -999.25  -26.83890  -74.58800   33.50300
 11550.00000   37.44000    9.37900    9.37900   18.56290   20.23390   49.42200   49.35410   49.35410    -999.25    -999.25   49.42200    -999.25    -999.25  -23.99360  -71.93000   37.44000
 11600.00000   41.64900    9.06600    9.06600   13.07790   15.26790   65.49700   50.91070   50.91070    -999.25    -999.25   65.49700    -999.25    -999.25  -12.38720  -60.51100   41.64900
 11650.00000   32.60000    9.36300    9.36300   24.93410   26.44310   37.81700   48.95560   48.95560    -999.25    -999.25   37.81700    -999.25    -999.25  -33.65900  -84.02900   32.60000
 11700.00000   31.32000    9.06100    9.06100   28.46740   29.18770   34.26100   49.18010   49.18010    -999.25    -999.25   34.26100    -999.25    -999.25  -54.12180 -107.66300   31.32000
 11750.00000   21.56100    8.67800    8.67800   71.89220   81.67930   12.24300   52.85190   52.85190    -999.25    -999.25   12.24300    -999.25    -999.25  -51.50750 -108.22000   21.56100
