~Version ---------------------------------------------------
VERS. 2.0 : CWLS log ASCII Standard -VERSION 2.0
WRAP.  NO : ONE LINE PER DEPTH STEP
~Well ------------------------------------------------------
STRT.F                   300.0 : START DEPTH
STOP.F                 14600.0 : STOP DEPTH
STEP.F                50.00000 : STEP LENGTH
NULL.                  -999.25 : NULL VALUE
COMP.        SHELL OIL COMPANY : COMPANY
WELL. E D HAY ETAL GAS UNIT #1 : WELL
FLD .              BUCHEL AREA : FIELD
LOC .                          : LOCATION
CNTY.                  DE WITT : COUNTY
STAT.                    TEXAS : STATE
CTRY. UNITED STATES OF AMERICA : COUNTRY
SRVC.             Schlumberger : SERVICE COMPANY
DATE.              26-Dec-1976 : LOGDATE
API .           42123303590000 : API NUMBER
UWI .           42123303590000 : UNIQUE WELL ID
SLAT.WGS84       29.0604728181 : SURFACE LATITUDE
SLON.WGS84        -97.48437084 : SURFACE LONGITUDE
~Curve Information -----------------------------------------
DEPT.F                 : 
DT  .US/F 60 500 00 00 : DELTA-T (INTERVAL TRANSIT TIME)
GRD .GAPI 45 310 01 00 : GAMMA RAY FROM DENSITY LOG
CORR.G/C3 45 356 01 00 : DENSITY CORRECTION
CALD.IN   45 280 60 00 : CALIPER FROM DENSITY LOG
RHOB.G/C3 45 350 01 00 : BULK DENSITY
ILD .OHMM 07 120 46 00 : INDUCTION DEEP RESISTIVITY
ILM .OHMM 07 120 44 00 : INDUCTION MEDIUM RESISTIVITY
LL8 .OHMM 07 220 08 00 : LATEROLOG 8
SPR .MV   07 010 01 00 : SPONTANEOUS POTENTIAL FROM RESISTIVITY LOG
~Params ----------------------------------------------------
PD  .                     GL : PERMANENT DATUM
EPD .FT                  372 : ELEVATION PERMANENT DATUM
LMF .                     KB : LOG MEASURED FROM
DAPD.FT                   28 : FEET ABOVE PERMANENT DATUM
DMF .                     KB : DRILLING MEASURED FROM
EKB .FT                  400 : KELLY BUSHING
EDF .FT                  399 : DRILLING FLOOR
EGL .FT                  372 : GROUND LEVEL
DATE.               12/26/76 : RUN DATE
RUN .                      2 : RUN NUMBER
DD  .FT                14600 : DEPTH DRILLER
DL  .FT                14609 : DEPTH LOGGER
BLI .FT                14603 : BOTTOM LOG INTERVAL
TLI .FT                 2336 : TOP LOG INTERVAL
CS  .IN                10.75 : CASING SIZE
CBD .FT                 2332 : CASING BOTTOM DRILLER
CBL .FT                 2336 : CASING BOTTOM LOGGER
BS  .IN                 8.75 : BIT SIZE
BSD .FT                14600 : BIT SIZE AT DEPTH
DFT .             IMCO GELEX : DRILLING FLUID TYPE
DFD .                   10.5 : DRILLING FLUID DENSITY
DFV .                     38 : DRILLING FLUID VISCOSITY
DFPH.                      9 : DRILLING FLUID PH
DFL .                      6 : DRILLING FLUID LOSS
MSS .               CIRC PIT : MUD SAMPLE SOURCE
RMS .OHMM               2.13 : RESISTIVITY MUD SAMPLE
MST .DEGF                 73 : MUD SAMPLE TEMPERATURE
RMF .OHMM               1.53 : RESISTIVITY MUD FILTRATE SAMPLE
MFST.DEGF                 75 : MUD FILTRATE SAMPLE TEMPERATURE
RMC .OHMM               3.19 : RESISTIVITY MUD CAKE
MCST.DEGF                 73 : MUD CAKE SAMPLE TEMPERATURE
MFSS.                      M : MUD FILTRATE SAMPLE SOURCE
MCSS.                      C : MUD CAKE SAMPLE SOURCE
RMB .OHMM               0.58 : RESISTIVITY MUD AT BHT
TCS .HRS                   5 : TIME CIRCULATED STOPPED
TLAB.HRS                1200 : TIME LOGGER AT BOTTOM
LUN .                   7685 : LOGGING UNIT NUMBER
LUL .                   VICT : LOGGING UNIT LOCATION
CLNT.                A2DTECH : CLIENT CODE
ORIG.            2" 5" PRINT : ORIGIN OF DATA
UWI .         42123303590000 : UNIQUE WELL ID
DICO. A2D Technologies, Inc. : DIGITIZING COMPANY
~Other -----------------------------------------------------
~ASCII -----------------------------------------------------
# ...
 7600.00000   82.37050   92.99750    0.11410   11.57320    2.51980    2.08250    2.17540    2.69110  -21.02240
 7650.00000   82.16560   76.67090    0.05620   11.63930    2.51630    2.36530    2.52290    3.47560  -24.87190
 7700.00000   88.19580   90.11560    0.03620   11.30310    2.59200    1.87870    1.98180    2.86200  -20.39850
 7750.00000   78.04710   80.18480    0.03910   12.25600    2.54900    2.24610    2.35920    3.70050  -28.64720
 7800.00000   71.57290   74.14000    0.04030   12.31130    2.52160    2.53710    2.69450    4.15840  -25.87150
 7850.00000   94.04060   84.67580    0.11050   10.54690    2.02680    1.31000    1.38380    2.02090  -19.36380
 7900.00000   86.36840   89.05270    0.14950   10.76040    2.20720    1.84120    1.91110    2.31540  -22.87010
 7950.00000   69.62400   74.38030    0.05910    9.00160    2.39160    2.34840    3.09250    5.61060  -68.48410
 8000.00000   73.08140   73.30320    0.05780   10.03000    2.44030    2.20010    2.61090    4.08380  -45.23400
 8050.00000   72.29820   91.69190    0.06680   10.73710    2.58190    2.95080    3.10960    3.79310  -19.26470
 8100.00000   76.54000   80.56640    0.19630   11.93120    2.26880    2.27580    2.35980    2.76440  -18.87960
 8150.00000   70.03190   41.51750    0.03680    8.35540    2.30960    1.91410    3.32920   10.54860 -133.18020
 8200.00000   74.79260   81.07590    0.06530   10.54320    2.48350    2.39790    2.53470    3.39220  -30.84870
 8250.00000   71.72300   71.73470    0.11440   10.19110    2.45270    2.53030    3.05630    4.41850  -43.46480
 8300.00000   68.77800   72.20670    0.08400    9.52400    2.44940    3.09220    3.65890    6.53860  -41.81300
 8350.00000   74.36600   99.82600    0.12850   10.39970    2.51130    2.56410    2.67030    3.45000  -16.06090
 8400.00000   69.52880   69.98110    0.04110    8.77860    2.53070    3.31960    4.06020    8.05970  -37.91470
 8450.00000   72.50630   50.75110    0.03340    8.35480    2.31580    2.58280    4.28850   10.52510 -125.45440
 8500.00000   74.61180   85.33220    0.11890   11.13640    2.45300    2.95830    3.07340    4.02900  -18.85190
 8550.00000   68.61620   44.64150    0.01810    8.34180    2.30130    2.55720    4.15820   11.44200 -119.73580
 8600.00000   71.28250   87.17830    0.03870    9.29030    2.38890    2.70110    3.99450    9.98540  -64.62940
 8650.00000   69.71020   81.81260    0.05160   11.12300    2.44780    3.00670    3.38580    4.19000  -31.56420
 8700.00000   66.39010   89.47290    0.08010   11.58430    2.45170    2.69020    2.85950    3.17040  -31.58370
 8750.00000   65.39480   34.37120    0.03430    8.40430    2.30790    2.65990    4.78740   13.25480 -123.75760
 8800.00000   65.70340   81.21390    0.15450    9.47770    2.39010    2.22750    2.31530    2.93060  -30.28670
 8850.00000   57.94540   40.64410    0.09870    8.62590    2.41740    4.29310    7.27110   18.93700  -68.20730
 8900.00000   79.00550   76.29750    0.14390   10.70390    2.34450    2.27700    2.49950    4.94770  -24.14870
 8950.00000   63.90950   44.72170    0.03060    8.65870    2.36060    3.43220    5.47290   13.52740 -102.19700
 9000.00000   72.42500   46.20690    0.08210    8.72190    2.34860    3.07070    4.37490   11.83450  -71.78890
 9050.00000   64.68320   44.02880    0.07860    9.03230    2.37970    3.82380    6.00410   13.36350  -94.25870
 9100.00000   44.26880   48.01580    0.07680    8.99560    2.48900    4.46180    7.06470   19.60040  -88.87810
 9150.00000   61.70480   50.28220    0.07950    8.71300    2.38910    3.68960    5.51020   11.19570 -104.63910
 9200.00000   70.00070   59.55290    0.01310    9.09550    2.26710    2.68520    3.00940    6.67370  -42.14000
 9250.00000   62.16820   40.10050    0.07860    8.73060    2.37210    3.50830    5.92840   13.35940 -103.29200
 9300.00000   60.23140   45.30800    0.10000    9.05960    2.45190    4.64660    7.32270   17.68000  -81.82500
 9350.00000   98.49380   82.81600    0.06160   11.27820    2.47060    2.71400    2.89640    4.31890  -16.66400
 9400.00000   62.51740   42.79000    0.07640    9.55330    2.50760    5.61760    7.91560   17.97170  -52.23910
 9450.00000   94.71950   86.13070    0.10080   11.56250    2.48200    2.60150    2.88170    4.05850  -16.15970
 9500.00000   78.71610   84.42870    0.13220   10.78290    2.36920    2.53070    2.65350    3.24990  -14.99740
 9550.00000   86.05820   90.10480    0.16300   11.32700    2.37440    1.76350    1.84040    2.59860  -12.69220
 9600.00000   61.98690   67.97470    0.03450   11.06290    2.52790    4.90870    5.06500    7.00750  -26.96860
 9650.00000   83.17120   82.21120    0.14150   11.62170    2.21190    1.74050    1.80550    2.40650  -13.29690
 9700.00000   61.56530   66.51720    0.03220   11.28860    2.54670    5.51870    5.97170    8.23750  -17.82260
 9750.00000   72.99240   76.78190    0.16010   12.05020    2.45690    2.01670    1.97670    2.96120  -13.28070
 9800.00000   84.10040   84.13730    0.13620   11.44730    2.30330    1.72660    1.79190    2.56000  -12.97920
 9850.00000   78.54990   78.17670    0.19640   12.39270    2.25100    1.74340    1.80030    2.53730  -10.84920
 9900.00000   63.30470   67.52710    0.04650   11.25040    2.54580    3.95510    4.08370    5.62370  -19.09620
 9950.00000   82.67420   86.38130    0.15120   11.37260    2.46260    2.11720    2.19060    3.13210  -11.77730
 10000.00000   70.01590   98.44460    0.17820   11.40270    2.59800    2.56910    2.65690    3.57170  -11.05450
 10050.00000   85.46000   87.95110    0.14110   12.33240    2.53220    1.60320    1.67860    2.37690  -11.47920
 10100.00000   78.14280   84.28260    0.14980   12.02890    2.44710    1.59820    1.68180    2.53890  -12.28310
 10150.00000   81.22430   83.48970    0.14330   12.34740    2.43620    1.42910    1.47530    2.09700  -12.86420
 10200.00000   83.52650   87.39220    0.13870   11.39000    2.52540    1.47150    1.54630    2.22280  -12.01550
 10250.00000   68.95450   84.47790    0.17960   11.09470    2.53440    1.88880    2.02280    2.68130  -12.62490
 10300.00000   80.59650   82.88020    0.14480   10.84010    2.38210    1.48360    1.54620    2.18330  -12.37400
 10350.00000   77.64530   82.99990    0.12090   11.92550    2.40920    1.72020    1.78680    2.39940  -12.39120
 10400.00000   79.48620   91.45340    0.13200   10.97060    2.53910    1.65180    1.73450    2.47990  -11.59320
 10450.00000   81.55940   90.81880    0.14920   11.09860    2.53800    1.72060    1.84610    2.67130  -12.25680
 10500.00000   67.40270   86.98240    0.11340   11.38020    2.55400    2.33520    2.46300    3.20360  -11.58860
 10550.00000   66.48570   82.76720    0.05190   10.71310    2.63540    2.65820    2.76620    3.69520  -10.89200
 10600.00000   72.79770   87.22280    0.10480   10.63580    2.65120    2.28670    2.40410    3.33310  -11.56430
 10650.00000   74.24870   88.72010    0.10050   10.63960    2.60170    2.08520    2.18950    2.98670  -11.23990
 10700.00000   72.19780   88.79840    0.06090   11.15300    2.59540    2.22180    2.31730    3.09860  -10.38170
 10750.00000   71.04590   96.01690    0.05040   11.19930    2.59400    2.25420    2.37880    3.24220  -10.75760
 10800.00000   73.19820   87.86220    0.11950   11.45610    2.64500    2.07000    2.20120    3.12550  -11.32090
 10850.00000   73.04250   92.34830    0.08810   11.76190    2.61140    2.11660    2.22240    3.12600  -11.91080
 10900.00000   77.21980   87.51090    0.13190   11.29590    2.57630    2.02110    2.12290    2.97330  -11.08750
 10950.00000   76.79310   89.78890    0.11600   11.77070    2.56290    2.13010    2.23710    3.22260  -11.51330
 11000.00000   76.99340   84.63820    0.09880   12.51080    2.55880    1.93830    2.03680    2.85620  -11.77750
 11050.00000   75.96920   86.63010    0.13740   13.13410    2.54640    1.96190    2.04800    2.84630  -13.11600
 11100.00000   77.58450   86.62820    0.19040   12.76230    2.59000    1.74050    1.84180    2.50450  -12.11070
 11150.00000   82.59450   82.71950    0.20460   12.72970    2.56400    1.47270    1.53070    2.25680  -11.25910
