~Version ---------------------------------------------------
VERS. 2.0 : CWLS log ASCII Standard -VERSION 2.0
WRAP.  NO : ONE LINE PER DEPTH STEP
~Well ------------------------------------------------------
STRT.F                   800.0 : START DEPTH
STOP.F                  5950.0 : STOP DEPTH
STEP.F                50.00000 : STEP LENGTH
NULL.                  -999.25 : NULL VALUE
COMP.      PRIMARY FUELS, INC. : COMPANY
WELL.       PFI FWNB UNIT A #3 : WELL
FLD .               HIGGINS NE : FIELD
LOC .                          : LOCATION
CNTY.                   WILSON : COUNTY
STAT.                    TEXAS : STATE
CTRY. UNITED STATES OF AMERICA : COUNTRY
SRVC.            Dresser Atlas : SERVICE COMPANY
DATE.              14-Apr-1983 : LOGDATE
API .           42493312560000 : API NUMBER
UWI .           42493312560000 : UNIQUE WELL ID
SLAT.WGS84       29.0417473908 : SURFACE LATITUDE
SLON.WGS84      -98.3378599735 : SURFACE LONGITUDE
~Curve Information -----------------------------------------
DEPT.F                 : 
GRR .GAPI 07 310 01 00 : GAMMA RAY FROM RES. LOG.
SPR .MV   07 010 01 00 : SPONTANEOUS POTENTIAL FROM RES.
RILD.OHMM 11 120 46 00 : INDUCTION LOG DEEP RESISTIVITY
ARFL.OHMM 07 221 01 00 : AMPLIFIED RESISTIVITY SHALLOW FILTERING
CILD.MMHO 07 110 46 00 : CONDUCTIVITY INDUCTION LOG DEEP
~Params ----------------------------------------------------
PD  .                     GL : PERMANENT DATUM
EPD .FT                  509 : ELEVATION PERMANENT DATUM
LMF .                     KB : LOG MEASURED FROM
DAPD.FT                   12 : FEET ABOVE PERMANENT DATUM
DMF .                     KB : DRILLING MEASURED FROM
EKB .FT                  521 : KELLY BUSHING
EDF .FT                  520 : DRILLING FLOOR
EGL .FT                  509 : GROUND LEVEL
DATE.               04/14/83 : RUN DATE
RUN .                      1 : RUN NUMBER
DD  .FT                 5975 : DEPTH DRILLER
DL  .FT                 5966 : DEPTH LOGGER
BLI .FT                 5964 : BOTTOM LOG INTERVAL
TLI .FT                  812 : TOP LOG INTERVAL
CS  .IN                8.625 : CASING SIZE
CBD .FT                  820 : CASING BOTTOM DRILLER
CBL .FT                  812 : CASING BOTTOM LOGGER
BS  .IN                7.875 : BIT SIZE
BSD .FT                 5975 : BIT SIZE AT DEPTH
DFT .     GEL NATIVE DRISPAC : DRILLING FLUID TYPE
DFD .                    9.3 : DRILLING FLUID DENSITY
DFV .                     36 : DRILLING FLUID VISCOSITY
DFPH.                    8.5 : DRILLING FLUID PH
DFL .                      8 : DRILLING FLUID LOSS
MSS .               FLOWLINE : MUD SAMPLE SOURCE
RMS .OHMM                  2 : RESISTIVITY MUD SAMPLE
MST .DEGF                 84 : MUD SAMPLE TEMPERATURE
RMF .OHMM                1.3 : RESISTIVITY MUD FILTRATE SAMPLE
MFST.DEGF                 84 : MUD FILTRATE SAMPLE TEMPERATURE
RMC .OHMM                2.3 : RESISTIVITY MUD CAKE
MCST.DEGF                 84 : MUD CAKE SAMPLE TEMPERATURE
MFSS.                   MEAS : MUD FILTRATE SAMPLE SOURCE
MCSS.                   MEAS : MUD CAKE SAMPLE SOURCE
RMB .OHMM               0.99 : RESISTIVITY MUD AT BHT
TCS .HRS                   4 : TIME CIRCULATED STOPPED
LUN .                   6333 : LOGGING UNIT NUMBER
LUL .                   GONZ : LOGGING UNIT LOCATION
ENGI.               WILLIAMS : RECORDING ENGINEER
WITN.                  MEYER : WITNESSED BY
CLNT.                A2DTECH : CLIENT CODE
ORIG.               1" PRINT : ORIGIN OF DATA
UWI .         42493312560000 : UNIQUE WELL ID
DICO. A2D Technologies, Inc. : DIGITIZING COMPANY
~Other -----------------------------------------------------
~ASCII -----------------------------------------------------
  800.00000   30.67940    -999.25    -999.25    -999.25    -999.25
  850.00000   50.63990   52.61750    9.76780    7.04730  121.16270
  900.00000   31.47540   58.00550   15.29070    9.49420   73.08520
  950.00000   59.08710   52.95720    5.07620    4.82640  196.50830
 1000.00000   57.02050   52.04780    7.44160    5.40830  132.55030
 1050.00000   54.08660   11.86840    6.93730    5.31490  137.41710
 1100.00000   59.32470   -5.24990   11.94530    8.14990   86.87550
 1150.00000   28.48510  -16.03300   50.13390   20.07060   15.66760
 1200.00000   23.12520  -53.25890   59.57630   20.86740   13.76460
 1250.00000   35.78040  -53.32620   48.22560   20.62000   17.21680
 1300.00000   23.92760  -48.79820   50.66320   20.87550   17.54160
 1350.00000   21.93780  -55.87060   52.03840   20.94910   17.08720
 1400.00000   19.95790  -40.14480   50.27140   20.47750   19.75500
 1450.00000   25.66140  -56.22620   47.45220   20.15190   19.46740
 1500.00000   12.01600  -92.56050   58.32710   19.42390   12.91950
 1550.00000   45.29450  -83.24240   36.81510   17.82920   23.84600
 1600.00000   25.77240  -89.75330   44.83000   19.05890   19.48920
 1650.00000   51.50250  -67.61250   66.55760   23.84590   18.85870
 1700.00000   66.37810  -13.85760   30.72820   16.59220   30.67810
 1750.00000   59.12650  -22.25440   33.97900   19.20480   25.65450
 1800.00000   61.75180  -27.13670   33.96950   24.35600   26.09280
 1850.00000   46.52680  -15.90500   15.45830   10.79150   60.02430
 1900.00000   66.29830   -7.80950    4.69390    5.38440  243.75280
 1950.00000   64.32330   -9.98410    7.93720    7.19100  122.76050
 2000.00000   50.08680  -11.94340   13.34220    8.24340   70.33800
 2050.00000   42.31240  -17.16190   15.48050    8.83090   58.63590
 2100.00000   69.20300  -12.89300    4.72020    4.24980  184.65500
 2150.00000   71.71530  -10.49870    5.16780    4.23560  195.18850
 2200.00000   64.06420  -13.23510    4.74210    4.31430  209.20920
 2250.00000   64.65350  -12.26220    4.63970    4.17390  230.14270
 2300.00000   61.70090  -10.45920    5.64600    4.33360  193.18170
 2350.00000   54.61190  -16.20680    9.25020    6.57100  105.27900
 2400.00000   47.54740  -28.03040   10.59040    7.08060   90.14900
 2450.00000   65.46350  -54.84750    6.36710    5.18000  159.19220
 2500.00000   72.41510  -39.58260    6.93270    5.09360  149.55920
 2550.00000   44.75920  -73.15050   12.17690    7.58280   83.85440
 2600.00000   65.19580  -58.41280    5.01200    5.47940  185.97730
 2650.00000   43.29760  -66.32810   10.75120    6.98480   96.63500
 2700.00000   44.84020  -72.94320   10.75570    6.91250   92.30240
 2750.00000   44.46220  -54.08230   11.01040    7.33280   95.26590
 2800.00000   38.93010  -59.27730    9.27990    6.69200  104.14570
 2850.00000   35.88160  -38.07080    9.58210    6.89580   99.51280
 2900.00000   37.09490  -59.66590    8.82360    6.53180  115.68900
 2950.00000   34.57550  -72.67620    8.84240    6.73540  115.03730
 3000.00000   30.63400  -55.04810    8.00890    5.79620  125.04840
 3050.00000   37.12990  -34.77400    7.12860    5.65630  140.77590
 3100.00000   31.26040  -56.12840    7.88500    5.99820  133.00170
 3150.00000   32.07690  -45.05350    8.88130    6.29490  115.23530
 3200.00000   29.85520  -45.25290   10.36860    7.28290   99.80020
 3250.00000   41.31070  -21.06720    9.71730    7.44240  104.24770
 3300.00000   70.24580  -10.67150    2.42750    3.19220  387.56140
 3350.00000   78.58660  -19.82190    2.54830    2.64910  458.47240
 3400.00000   63.17220  -16.01030    3.05840    3.37000  243.39020
 3450.00000   75.38900  -10.95960    2.35580    2.71320  407.58280
 3500.00000   72.96000   -9.83170    3.00250    2.99540  326.68300
 3550.00000   69.80740   -9.10380    2.57440    2.62390  429.57830
 3600.00000   71.15550  -16.12880    2.46290    2.56880  388.12330
 3650.00000   74.95890  -11.13430    2.24960    2.37860  452.58030
 3700.00000   76.77750  -29.22140    1.57590    2.06410  605.76890
 3750.00000   76.71420  -31.22750    1.39620    1.90360  689.91460
 3800.00000   76.38590  -24.74660    1.81210    2.12000  499.11210
 3850.00000   73.91480  -22.93060    1.39280    1.93060  705.03690
 3900.00000   77.99250  -26.54160    1.34300    1.88540  754.10730
 3950.00000   72.83700  -21.70150    1.53270    1.95670  580.18280
 4000.00000   43.69720  -16.58960    2.60840    3.32610  321.48270
 4050.00000   66.18350  -12.53230    2.17080    2.33130  513.44010
 4100.00000   63.48550  -20.63470    2.08130    2.23000  501.64900
 4150.00000   64.10690  -11.90820    1.40750    1.99190  724.90270
 4200.00000   56.30920  -18.52240    2.12530    2.84000  381.11400
 4250.00000   62.12860  -12.92410    1.97150    2.21640  549.59320
 4300.00000   65.20520   -9.74290    1.37120    1.92780  747.67440
 4350.00000   59.46570  -14.24560    1.47800    2.02740  660.15830
 4400.00000   63.22140  -23.69000    1.40520    2.05950  686.82120
 4450.00000   64.91380  -13.42360    1.70280    2.32610  589.11890
 4500.00000   63.45830  -17.54690    1.51530    2.14380  621.35980
 4550.00000   56.48740  -14.57390    1.52530    2.02690  611.39260
 4600.00000   54.08280  -14.94330    1.85580    2.40060  521.90350
 4650.00000   59.79460  -16.05730    1.82860    2.44730  549.66090
 4700.00000   69.71200  -15.34070    2.01510    2.26470  493.01590
 4750.00000   71.92460  -14.79160    1.51360    2.01780  644.25810
 4800.00000   70.16010   -8.79040    1.10720    1.80910  831.41220
 4850.00000   85.29060  -10.96780    0.92520    1.64770 1055.91830
 4900.00000   72.41170  -13.20570    1.15000    1.72890  862.95140
 4950.00000   67.79870  -16.73080    1.17500    1.75740  849.21910
 5000.00000   66.78370  -13.85740    1.05570    1.72800  894.03760
 5050.00000   77.57340  -16.42180    0.89580    1.59100 1095.83130
 5100.00000   74.42200  -15.66270    1.06890    1.73800  873.00150
 5150.00000   68.61710  -15.67260    1.35160    1.96700  680.61210
 5200.00000   65.31970  -33.34910    1.78200    2.32730  547.52250
 5250.00000   68.61310  -27.39950    1.93020    2.34210  519.67680
 5300.00000   67.26390  -42.27710    2.17050    2.65780  440.59400
 5350.00000   50.17890  -20.85960    3.16980    3.44030  304.18170
 5400.00000   45.25710  -47.09180    3.10290    3.21090  317.73570
 5450.00000   35.77440  -44.11480    3.48150    3.76890  258.39260
 5500.00000   56.88860  -21.27920    2.32420    3.85000  400.56170
 5550.00000   40.15060  -19.22920    3.86020    3.94610  270.04100
 5600.00000   31.79790  -27.28520    4.84880    4.75370  208.22850
 5650.00000   32.01940  -27.01380    7.50030    6.26310  148.96960
 5700.00000   20.22680  -32.42060    9.27000    8.79250  112.55730
 5750.00000   21.01400  -47.91830   10.46790   12.36810   90.75670
 5800.00000   66.92730  -12.08960   20.58520   33.11130   36.83570
 5850.00000   11.77100 -163.48130   23.43240   19.22530   41.45870
 5900.00000   50.82090  -39.08030    5.34550    6.09530  203.63230
 5950.00000   57.63550  -81.24940   11.93100   14.12660   90.80320
