~Version ---------------------------------------------------
VERS. 2.0 : CWLS log ASCII Standard -VERSION 2.0
WRAP.  NO : ONE LINE PER DEPTH STEP
~Well ------------------------------------------------------
STRT.F                             300.0 : START DEPTH
STOP.F                           21950.0 : STOP DEPTH
STEP.F                          50.00000 : STEP LENGTH
NULL.                            -999.25 : NULL VALUE
COMP. PAN AMERICAN PETROLEUM CORPORATION : COMPANY
WELL.                  A. M. FOERSTER #1 : WELL
FLD .                            WILDCAT : FIELD
LOC .                                    : LOCATION
CNTY.                           LA SALLE : COUNTY
STAT.                              TEXAS : STATE
CTRY.           UNITED STATES OF AMERICA : COUNTRY
SRVC.                       Schlumberger : SERVICE COMPANY
DATE.                        20-Aug-1964 : LOGDATE
API .                     42283002040000 : API NUMBER
UWI .                     42283002040000 : UNIQUE WELL ID
SLAT.WGS84                 28.3371650608 : SURFACE LATITUDE
SLON.WGS84                -98.9649233845 : SURFACE LONGITUDE
~Curve Information -----------------------------------------
DEPT .F                 : 
ASN  .OHMM 05 041 16 00 : AMPLIFIED SHORT NORMAL RESISTIVITY
CILD .MMHO 05 110 46 00 : INDUCTION DEEP CONDUCTIVITY
SPR  .MV   05 010 01 00 : SPONTANEOUS POTENTIAL FROM RESISTIVITY
ILD  .OHMM 05 120 46 00 : INDUCTION DEEP RESISTIVITY
DT   .US/F 60 520 31 00 : DELTA-T (INTERVAL TRANSIT TIME)
CALS .IN   60 280 50 00 : CALIPER
GRN1 .GAPI 35 310 01 00 : GAMMA RAY
GRN2 .GAPI 35 310 01 00 : GAMMA RAY
GRN3 .GAPI 35 310 01 00 : GAMMA RAY
NEUT .NAPI 35 330 01 00 : NEUTRON
NEUT1.NAPI 35 330 01 00 : NEUTRON
~Params ----------------------------------------------------
PD  .                     GL : PERMANENT DATUM
EPD .F                   445 : ELEVATION PERMANENT DATUM
LMF .                     KB : LOG MEASURED FROM
DAPD.F                  28.5 : FEET ABOVE PERMANENT DATUM
DMF .                     KB : DRILLING MEASURED FROM
EKB .F                 473.5 : KELLING BUSHING
EDF .F                   471 : DRILLING FLOOR
EGL .F                   445 : GROUND LEVEL
DATE.               08/20/64 : RUN DATE
RUN .                     11 : RUN NUMBER
DD  .F                 21995 : DEPTH DRILLER
DL  .F                 21992 : DEPTH LOGGER
BLI .F                 21991 : BOTTOM LOG INTERVAL
TLI .F                 20005 : TOP LOG INTERVAL
CS  .IN                9.625 : CASING SIZE
CBD .F                 15993 : CASING BOTTOM DRILLER
CBL .F                 15993 : CASING BOTTOM LOGGER
BS  .IN                  8.5 : BIT SIZE
BSD .F                 21995 : BIT SIZE AT DEPTH
DFT .    XP 20 O E SPER CAUS : DRILLING FLUID TYPE
DFD .                   18.4 : DRILLING FLUID DENSITY
DFV .                     54 : DRILLING FLUID VISCOSITY
DFPH.                    8.9 : DRILLING FLUID PH
DFL .                      4 : DRILLING FLUID LOSS
MSS .                MUD PIT : MUD SAMPLE SOURCE
RMS .OHMM               0.15 : RESISTIVITY MUD SAMPLE
MST .F                   120 : MUD SAMPLE TEMPERATURE
RMF .OHMM              0.089 : RESISTIVITY MUD FILTRATE SAMPLE
MFST.F                    75 : MUD FILTRATE SAMPLE TEMPERATURE
RMC .OHMM               0.32 : RESISTIVITY MUD CAKE
MCST.F                    75 : MUD CAKE SAMPLE TEMPERATURE
MFSS.                      M : MUD FILTRATE SAMPLE SOURCE
MCSS.                      M : MUD CAKE SAMPLE SOURCE
RMB .OHMM              0.046 : RESISTIVITY MUD AT BHT
TCS .HRS                  10 : TIME CURCULATED STOPPED
LUN .                   4526 : LOGGING UNIT NUMBER
LUL .                    KEN : LOGGING UNIT LOCATION
ENGI.                  HARSH : RECORDING ENGINEER
WITN.          FREEMAN WALSH : WITNESSED BY
CLNT.                A2DTECH : CLIENT CODE
ORIG.               1" PRINT : ORIGIN OF DATA
UWI .         42283002040000 : UNIQUE WELL ID
DICO. A2D Technologies, Inc. : DIGITIZING COMPANY
~Other -----------------------------------------------------
~ASCII -----------------------------------------------------
# ...
 6400.00000    2.69050  448.42700  -18.41320    2.32140   85.38580   13.17960    -999.25    -999.25    -999.25    -999.25    -999.25
 6450.00000    1.72530  548.21360  -23.57780    1.26490   92.67490   14.12970    -999.25    -999.25    -999.25    -999.25    -999.25
 6500.00000    2.89880  389.38710  -20.35930    2.82240   87.95110   13.52650    -999.25    -999.25    -999.25    -999.25    -999.25
 6550.00000    2.80850  423.39270  -17.14070    2.67860   84.78540   13.51130    -999.25    -999.25    -999.25    -999.25    -999.25
 6600.00000    2.62200  437.96710  -17.21560    2.61900   97.31870   14.35610    -999.25    -999.25    -999.25    -999.25    -999.25
 6650.00000    3.73110  260.58740  -17.36530    3.56400  106.87500   14.55200    -999.25    -999.25    -999.25    -999.25    -999.25
 6700.00000    2.22620  572.50360  -12.72440    1.74110   85.34030   14.64250    -999.25    -999.25    -999.25    -999.25    -999.25
 6750.00000    2.01490  575.23520  -15.41920    1.74850   92.74980   14.97440    -999.25    -999.25    -999.25    -999.25    -999.25
 6800.00000    2.27200  491.02990  -15.26970    1.93450   99.88720   14.95930    -999.25    -999.25    -999.25    -999.25    -999.25
 6850.00000    1.89440  636.77280  -12.98650    1.54760   93.12550   15.01960    -999.25    -999.25    -999.25    -999.25    -999.25
 6900.00000    2.79660  445.69000  -17.88920    2.35120   93.65120   14.97440    -999.25    -999.25    -999.25    -999.25    -999.25
 6950.00000    4.56780  269.55880  -18.22600    4.04750   79.45190   13.31430    -999.25    -999.25    -999.25    -999.25    -999.25
 7000.00000    2.09720  592.46500  -16.16780    1.94390   79.26780   13.93360    -999.25    -999.25    -999.25    -999.25    -999.25
 7050.00000    2.05810  588.18480  -18.01390    1.68660   82.58740   15.09500    -999.25    -999.25    -999.25    -999.25    -999.25
 7100.00000    3.17170  364.72350  -19.31140    2.75300   88.86830   15.27750    -999.25    -999.25    -999.25    -999.25    -999.25
 7150.00000    2.23850  526.15690  -17.66470    1.81050   89.14350   14.91390    -999.25    -999.25    -999.25    -999.25    -999.25
 7200.00000    2.14880  579.97010  -16.36660    1.87500   89.57780   14.41630    -999.25    -999.25    -999.25    -999.25    -999.25
 7250.00000    2.37900  450.29860  -17.72700    2.46530   90.27050   14.50330    -999.25    -999.25    -999.25    -999.25    -999.25
 7300.00000    2.06450  605.62630  -16.01800    1.65670   89.81940   14.80840    -999.25    -999.25    -999.25    -999.25    -999.25
 7350.00000    2.74550  345.04260  -22.75450    2.63390   85.61210   14.37100    -999.25    -999.25    -999.25    -999.25    -999.25
 7400.00000    2.66670  368.21120  -22.57100    2.74800   91.39740   13.76770    -999.25    -999.25    -999.25    -999.25    -999.25
 7450.00000    2.42650  493.39510  -16.29300    2.00150   90.87150   14.20700    -999.25    -999.25    -999.25    -999.25    -999.25
 7500.00000    2.68850  426.75880  -16.81610    2.42560   90.49590   14.50700    -999.25    -999.25    -999.25    -999.25    -999.25
 7550.00000    2.38990  503.48910  -15.88190    2.22470   90.59660   14.46630    -999.25    -999.25    -999.25    -999.25    -999.25
 7600.00000    2.76260  414.76750  -17.04040    2.35790   87.53760   14.34090    -999.25    -999.25    -999.25    -999.25    -999.25
 7650.00000    2.85670  394.61990  -17.56350    2.29910   85.68710   15.05570    -999.25    -999.25    -999.25    -999.25    -999.25
 7700.00000    2.53170  484.30640  -16.29300    2.21730   93.97000   14.79520    -999.25    -999.25    -999.25    -999.25    -999.25
 7750.00000    2.71130  436.84600  -17.30190    2.22470   92.15010   14.55420    -999.25    -999.25    -999.25    -999.25    -999.25
 7800.00000    2.91030  397.69000  -18.45900    2.64880   84.07500   14.70480    -999.25    -999.25    -999.25    -999.25    -999.25
 7850.00000    3.20040  372.19460  -18.46040    2.87700   85.02920   14.72400    -999.25    -999.25    -999.25    -999.25    -999.25
 7900.00000    3.25790  359.99000  -19.58150    2.92660   85.73080   14.31330    -999.25    -999.25    -999.25    -999.25    -999.25
 7950.00000    3.56550  312.77990  -18.75930    3.19940   82.65920   14.13260    -999.25    -999.25    -999.25    -999.25    -999.25
 8000.00000    3.63990  297.45890  -18.31750    3.32410   85.43060   14.20780    -999.25    -999.25    -999.25    -999.25    -999.25
 8050.00000    4.05410  280.39430  -18.12410    3.38050   81.61050   13.68020    -999.25    -999.25    -999.25    -999.25    -999.25
 8100.00000    4.21930  251.86750  -18.31090    3.83430   81.83520   13.43900    -999.25    -999.25    -999.25    -999.25    -999.25
 8150.00000    4.59280  210.38960  -17.45130    4.36010   79.28760   13.13840    -999.25    -999.25    -999.25    -999.25    -999.25
 8200.00000    3.61900  355.76260  -17.04040    2.96200   83.06850   13.19620    -999.25    -999.25    -999.25    -999.25    -999.25
 8250.00000    3.31690  340.06700  -21.89840    2.79020   81.98450   13.37950    -999.25    -999.25    -999.25    -999.25    -999.25
 8300.00000    3.09030  356.50230  -20.17940    2.78270   78.31460   13.16870    -999.25    -999.25    -999.25    -999.25    -999.25
 8350.00000    2.67060  409.56190  -17.86250    2.47020   89.92510   14.34340    -999.25    -999.25    -999.25    -999.25    -999.25
 8400.00000    2.44050  468.22140  -16.29300    2.14290   91.86330   14.84040    -999.25    -999.25    -999.25    -999.25    -999.25
 8450.00000    2.70880  411.56050  -17.56390    2.51980   80.93530   14.98090    -999.25    -999.25    -999.25    -999.25    -999.25
 8500.00000    2.54460  437.47130  -17.33930    2.32140   84.60660   15.29220    -999.25    -999.25    -999.25    -999.25    -999.25
 8550.00000    2.47320  438.33720  -17.48880    2.38840   96.81650   15.44280    -999.25    -999.25    -999.25    -999.25    -999.25
 8600.00000    2.49390  464.99450  -16.74140    2.34200   85.47770   15.32070    -999.25    -999.25    -999.25    -999.25    -999.25
 8650.00000    2.60960  420.52510  -16.77880    2.36120   85.35580   15.32290    -999.25    -999.25    -999.25    -999.25    -999.25
 8700.00000    2.99110  368.46530  -17.71300    2.71820   81.16100   14.87820    -999.25    -999.25    -999.25    -999.25    -999.25
 8750.00000    2.82090  399.10310  -16.70400    2.62650   81.83520   15.22000    -999.25    -999.25    -999.25    -999.25    -999.25
 8800.00000    2.32500  468.31870  -15.83180    2.17420   89.02620   15.45780    -999.25    -999.25    -999.25    -999.25    -999.25
 8850.00000    2.98670  352.41470  -17.11510    2.91660   80.71160   14.99100    -999.25    -999.25    -999.25    -999.25    -999.25
 8900.00000    2.81840  389.38710  -16.29300    2.59920   86.87140   15.26200    -999.25    -999.25    -999.25    -999.25    -999.25
 8950.00000    2.32880  468.23180  -15.62030    2.08340   94.87970   15.24700    -999.25    -999.25    -999.25    -999.25    -999.25
 9000.00000    2.34390  438.79840  -14.94770    2.29160   90.14960   14.96080    -999.25    -999.25    -999.25    -999.25    -999.25
 9050.00000    3.36510  298.56660  -16.30560    3.26390   84.38120   14.94580    -999.25    -999.25    -999.25    -999.25    -999.25
 9100.00000    2.99400  349.02840  -13.07920    2.97620   91.40620   15.41270    -999.25    -999.25    -999.25    -999.25    -999.25
 9150.00000    2.66870  375.06470  -13.93870    2.58190   87.87180   15.41270    -999.25    -999.25    -999.25    -999.25    -999.25
 9200.00000    2.58190  397.60840  -13.82720    2.41330  105.35580   15.41270    -999.25    -999.25    -999.25    -999.25    -999.25
 9250.00000    2.79120  353.13940  -14.74840    2.80510   91.19950   15.41260    -999.25    -999.25    -999.25    -999.25    -999.25
 9300.00000    3.11610  325.87160  -14.34980    3.00600   87.30340   15.36820    -999.25    -999.25    -999.25    -999.25    -999.25
 9350.00000    2.70290  424.89590  -11.75880    2.58930   78.99010   15.38250    -999.25    -999.25    -999.25    -999.25    -999.25
 9400.00000    2.83570  387.64320  -12.51350    2.62140   81.68540   15.38250    -999.25    -999.25    -999.25    -999.25    -999.25
