~Version ---------------------------------------------------
VERS.      2.0 : CWLS log ASCII Standard -VERSION 2.0
WRAP.      YES : MULTIPLE LINES PER DEPTH STEP
CREA. 09/06/13 : LAS CREATION DATE
~Well ------------------------------------------------------
STRT.FT                 1750.0 : START DEPTH
STOP.FT                 7850.0 : STOP DEPTH
STEP.FT               50.00000 : STEP LENGTH
NULL.                  -999.25 : NULL VALUE
COMP.             LOVELADY I W : COMPANY
WELL.       REYNOLDS-WILSON #1 : WELL
FLD .                  WILDCAT : FIELD
LOC .                          : LOCATION
CNTY.                   DIMMIT : COUNTY
STAT.                    TEXAS : STATE
CTRY. UNITED STATES OF AMERICA : COUNTRY
SRVC.             Schlumberger : SERVICE COMPANY
DATE.              29-May-1978 : LOGDATE
API .           42127317010000 : API NUMBER
UWI .           42127317010000 : UNIQUE WELL ID
SLAT.WGS84       28.5815005355 : SURFACE LATITUDE
SLON.WGS84      -99.7303290517 : SURFACE LONGITUDE
~Curve Information -----------------------------------------
DEPT    .FT    : DEPTH FEET
ALL8ED  .OHMM  : AMPLIFIED LATARAL 8'
CALDED  .IN    : CALIPER FROM DENSITY LOG
CALWS   .IN    : CALIPER [CALDED]
CILDED  .MMHO  : CONDUCTIVITY FROM RESISTIVITY LOG
CONDWS  .MMHO  : CONDUCTIVITY [1000/DRESWS]
CORRED  .G/C3  : DENSITY CORRECTION FROM DENSITY LOG
DCORWS  .G/C3  : DENSITY CORRECTION [CORRED]
DENWS   .G/C3  : BULK DENSITY [M=2.65 F=1.0] [RHOBED]
DPHILSED.V/V   : DENSITY POROSITY [M=2.71 F=1.0] FROM DENSITY LOG
DPHISSED.V/V   : DENSITY POROSITY [M=2.65 F=1.0] FROM DENSITY LOG
DPOLSWS .V/V   : DENSITY POROSITY LIMESTONE [CALCULATED WITH DENWS]
DRESWS  .OHMM  : DEEP RESISTIVITY [ILDED] IF DRESWS<1;1000/CONDWS
GRDED   .GAPI  : GAMMA RAY FROM DENSITY LOG
GRWS    .GAPI  : GAMMA RAY [GRDED]
ILDED   .OHMM  : INDUCTION LOG DEEP RESISTIVITY
NPHILSED.V/V   : NEUTRON POROSITY LIMESTONE FROM DENSITY LOG
NPHISSED.V/V   : NEUTRON POROSITY SANDSTONE FROM DENSITY LOG
NPOLSWS .V/V   : NEUTRON POROSITY LIMESTONE [NPHILSED], CONVERTED MATRIX [NPHISSED] TO LIMESTONE FROM TOP-5725'
RHOBED  .G/C3  : BULK DENSITY FROM DENSITY LOG
SPRED   .MV    : SPONTANEOUS POTENTIAL FROM RESISTIVITY LOG     RESISTIVITY LOG
SPWS    .MV    : SPONTANEOUS POTENTIAL [BASELINE 0 MV] [SPRED]
SRESWS  .OHMM  : SHALLOW RESISTIVITY [ALL8ED]
~Params ----------------------------------------------------
PD  .                     GL : PERMANENT DATUM
EPD .FT                565.3 : ELEVATION PERMANENT DATUM
LMF .                     KB : LOG MEASURED FROM
DAPD.FT                   11 : FEET ABOVE PERMANENT DATUM
DMF .                     KB : DRILLING MEASURED FROM
EDF .FT                575.3 : DRILLING FLOOR
EGL .FT                565.3 : GROUND LEVEL
DATE.               05/29/78 : RUN DATE
RUN .                      2 : RUN NUMBER
DD  .FT                 7872 : DEPTH DRILLER
DL  .FT                 7875 : DEPTH LOGGER
BLI .FT                 7869 : BOTTOM LOG INTERVAL
TLI .FT                 7080 : TOP LOG INTERVAL
CS  .IN                10.75 : CASING SIZE
CBD .FT                 1725 : CASING BOTTOM DRILLER
BS  .IN                 8.75 : BIT SIZE
BSD .FT                 7872 : BIT SIZE AT DEPTH
DFT .              DISPERSED : DRILLING FLUID TYPE
DFD .                   10.1 : DRILLING FLUID DENSITY
DFV .                     56 : DRILLING FLUID VISCOSITY
DFPH.                     10 : DRILLING FLUID PH
DFL .                    8.2 : DRILLING FLUID LOSS
MSS .              CIRC TANK : MUD SAMPLE SOURCE
RMS .OHMM               1.06 : RESISTIVITY MUD SAMPLE
MST .DEGF                 75 : MUD SAMPLE TEMPERATURE
RMF .OHMM                0.6 : RESISTIVITY MUD FILTRATE SAMPLE
MFST.DEGF                 75 : MUD FILTRATE SAMPLE TEMPERATURE
MFSS.                   MEAS : MUD FILTRATE SAMPLE SOURCE
RMB .OHMM               0.44 : RESISTIVITY MUD AT BHT
TCS .HRS                 900 : TIME CIRCULATED STOPPED
TLAB.HRS                1500 : TIME LOGGER AT BOTTOM
LUN .                   2739 : LOGGING UNIT NUMBER
LUL .                 LAREDO : LOGGING UNIT LOCATION
CLNT.                A2DTECH : CLIENT CODE
ORIG.               1" PRINT : ORIGIN OF DATA
UWI .         42127317010000 : UNIQUE WELL ID
DICO. A2D Technologies, Inc. : DIGITIZING COMPANY
~Other -----------------------------------------------------
~ASCII -----------------------------------------------------
# ...
 4950.00000    3.77930   13.63850   13.63850  298.51840  321.05820    0.07130    0.07130    2.41040    -999.25    0.16420    0.17520    3.11470   82.36000   82.36000    3.11470    -999.25    0.32740    0.27720    2.41040  -27.98180   -4.80410    3.77930
 5000.00000    4.13860   13.33040   13.33040  276.51540  293.80660    0.08080    0.08080    2.52580    -999.25    0.10750    0.10770    3.40360   87.06360   87.06360    3.40360    -999.25    0.27180    0.21940    2.52580  -28.16380   -5.24430    4.13860
 5050.00000    4.30490   13.38900   13.38900  260.99730  290.84140    0.02770    0.02770    2.51550    -999.25    0.10490    0.11370    3.43830   85.11760   85.11760    3.43830    -999.25    0.21950    0.16760    2.51550  -28.11300   -5.45170    4.30490
 5100.00000    4.56520   13.55370   13.55370  227.74540  252.56350    0.00920    0.00920    2.55580    -999.25    0.07660    0.09020    3.95940   93.96140   93.96140    3.95940    -999.25    0.20870    0.15740    2.55580  -27.19800   -4.79480    4.56520
 5150.00000    3.81590   14.11650   14.11650  304.61830  349.07670    0.04980    0.04980    2.48410    -999.25    0.09660    0.13210    2.86470  100.58620  100.58620    2.86470    -999.25    0.25570    0.20310    2.48410  -25.14470   -2.99970    3.81590
 5200.00000    3.17430   13.57870   13.57870  371.54100  402.28500    0.06700    0.06700    2.51740    -999.25    0.10080    0.11260    2.48580   82.24840   82.24840    2.48580    -999.25    0.30310    0.25180    2.51740  -24.06170   -2.17490    3.17430
 5250.00000    3.09710   12.88350   12.88350  389.37770  481.97420    0.06690    0.06690    2.49570    -999.25    0.12770    0.12530    2.07480   93.24060   93.24060    2.07480    -999.25    0.34350    0.29420    2.49570  -24.21070   -2.58200    3.09710
 5300.00000    4.81170   11.29130   11.29130  271.89210  293.36700    0.00480    0.00480    2.63200    -999.25    0.03310    0.04560    3.40870   73.04940   73.04940    3.40870    -999.25    0.20890    0.15760    2.63200  -22.92210   -1.55160    4.81170
 5350.00000    3.94040   11.63270   11.63270  313.67140  359.62170    0.04710    0.04710    2.55080    -999.25    0.04790    0.09310    2.78070   76.96340   76.96340    2.78070    -999.25    0.26650    0.21400    2.55080  -22.35140   -1.23910    3.94040
 5400.00000    6.24650   10.92270   10.92270  203.00100  213.21510    0.00160    0.00160    2.64800    -999.25    0.04020    0.03630    4.69010   57.45140   57.45140    4.69010    -999.25    0.20710    0.15590    2.64800  -22.30130   -1.44710    6.24650
 5450.00000    9.80290   10.57620   10.57620  118.05450  119.06460    0.02270    0.02270    2.62540    -999.25    0.03670    0.04950    8.39880   44.31250   44.31250    8.39880    -999.25    0.17190    0.12340    2.62540  -23.46070   -2.86470    9.80290
 5500.00000   10.85460   10.50650   10.50650  101.47160  112.32930    0.00000    0.00000    2.61340    -999.25    0.02760    0.05650    8.90240   55.14040   55.14040    8.90240    -999.25    0.13930    0.09470    2.61340  -25.31000   -4.97220   10.85460
 5550.00000    8.74380   11.43820   11.43820  140.21860  146.06430    0.06570    0.06570    2.56370    -999.25    0.05460    0.08560    6.84630   52.26740   52.26740    6.84630    -999.25    0.15460    0.10790    2.56370  -24.07660   -3.99690    8.74380
 5600.00000    8.33260   11.22050   11.22050  154.45280  146.38290    0.00320    0.00320    2.64520    -999.25    0.02720    0.03790    6.83140   54.80360   54.80360    6.83140    -999.25    0.15100    0.10470    2.64520  -21.19600   -1.37450    8.33260
 5650.00000    8.66860   10.90380   10.90380  159.81540  160.14090    0.00980    0.00980    2.68460    -999.25    0.01160    0.01490    6.24450   65.96740   65.96740    6.24450    -999.25    0.16050    0.11320    2.68460  -20.52370   -1.39710    8.66860
 5700.00000    8.69200   10.65110   10.65110  148.16770  157.79840    0.00460    0.00460    2.65590    0.03860    0.01790    0.03160    6.33720   59.11500   59.11500    6.33720    0.11230    0.16450    0.11670    2.65590  -20.26390   -1.85530    8.69200
 5750.00000   19.13410   10.04640   10.04640   62.73160   76.26190    0.01150    0.01150    2.65430    0.01770    -999.25    0.03260   13.11270   31.07270   31.07270   13.11270    0.04770    -999.25    0.04770    2.65430  -23.19270   -5.50200   19.13410
 5800.00000    9.11700   10.07580   10.07580  112.76050  101.35310    0.00650    0.00650    2.48500    0.23520    -999.25    0.13160    9.86650   53.80280   53.80280    9.86650    0.16000    -999.25    0.16000    2.48500  -19.48790   -2.51520    9.11700
 5850.00000   21.89410   10.15350   10.15350   89.99880   64.43260   -0.00240   -0.00240    2.66780    0.03390    -999.25    0.02470   15.52010   38.48780   38.48780   15.52010    0.04230    -999.25    0.04230    2.66780  -20.88610   -4.63130   21.89410
 5900.00000   32.52650   10.51780   10.51780   44.55900   44.70050    0.00410    0.00410    2.69300    0.01290    -999.25    0.00990   22.37110   33.31370   33.31370   22.37110    0.04900    -999.25    0.04900    2.69300  -23.18110   -7.64430   32.52650
 5950.00000   33.38370   10.12760   10.12760   50.49780   49.46160    0.00850    0.00850    2.68530    0.01530    -999.25    0.01440   20.21770   42.63750   42.63750   20.21770    0.04130    -999.25    0.04130    2.68530  -17.44400   -2.62510   33.38370
 6000.00000   24.70120   10.09600   10.09600   48.17110   46.23380   -0.00700   -0.00700    2.66570    0.00460    -999.25    0.02590   21.62920   27.69820   27.69820   21.62920    0.03010    -999.25    0.03010    2.66570  -20.24980   -6.14890   24.70120
 6050.00000   39.82250   10.00790   10.00790   45.88510   41.62300   -0.00360   -0.00360    2.67450    0.02790    -999.25    0.02080   24.02520   23.28240   23.28240   24.02520    0.05940    -999.25    0.05940    2.67450  -25.64720  -12.26420   39.82250
 6100.00000   32.44210    9.94170    9.94170   47.33460   43.72810    0.00750    0.00750    2.70660    0.00930    -999.25    0.00200   22.86860   22.32540   22.32540   22.86860    0.06210    -999.25    0.06210    2.70660  -22.49540   -9.83040   32.44210
 6150.00000   21.91030   10.03980   10.03980   56.43750   55.74510    0.00390    0.00390    2.63920    0.02100    -999.25    0.04140   17.93880   29.95300   29.95300   17.93880    0.06040    -999.25    0.06040    2.63920  -22.05720  -10.11010   21.91030
 6200.00000   39.57910   10.01220   10.01220   41.51660   39.62670   -0.00580   -0.00580    2.69980    0.02250    -999.25    0.00600   25.23550   21.79400   21.79400   25.23550    0.03490    -999.25    0.03490    2.69980  -23.31920  -12.09010   39.57910
 6250.00000   41.88170    9.73570    9.73570   42.10410   38.16080    0.02220    0.02220    2.53200    0.10370    -999.25    0.10410   26.20490   65.88730   65.88730   26.20490    0.12780    -999.25    0.12780    2.53200  -20.67820  -10.16700   41.88170
 6300.00000   40.68630    9.66770    9.66770   38.54060   35.03690    0.00600    0.00600    2.62510    0.04460    -999.25    0.04960   28.54130   35.95450   35.95450   28.54130    0.09440    -999.25    0.09440    2.62510  -22.44790  -12.65460   40.68630
 6350.00000  109.38980    9.60810    9.60810   18.07640   16.81500   -0.00200   -0.00200    2.69940    0.01700    -999.25    0.00620   59.47070   58.04500   58.04500   59.47070    0.06240    -999.25    0.06240    2.69940  -19.81160  -10.73630  109.38980
 6400.00000  370.79900    9.65910    9.65910    9.13600    7.07930    0.00170    0.00170    2.61970    0.04950    -999.25    0.05280  141.25680   43.96930   43.96930  141.25680    0.04760    -999.25    0.04760    2.61970  -24.97010  -16.61270  370.79900
 6450.00000   98.49570   10.42660   10.42660   15.59910   15.32930    0.01250    0.01250    2.66760    0.03890    -999.25    0.02480   65.23470   54.83670   54.83670   65.23470    0.06120    -999.25    0.06120    2.66760  -14.53630   -6.89690   98.49570
 6500.00000   63.97650   10.15580   10.15580   27.86460   26.89380    0.00330    0.00330    2.62960    0.04930    -999.25    0.04700   37.18330   58.47090   58.47090   37.18330    0.08760    -999.25    0.08760    2.62960  -11.33280   -4.41130   63.97650
