~Version ---------------------------------------------------
VERS. 2.0 : CWLS log ASCII Standard -VERSION 2.0
WRAP.  NO : ONE LINE PER DEPTH STEP
~Well ------------------------------------------------------
STRT.F                       2550.0 : START DEPTH
STOP.F                      16500.0 : STOP DEPTH
STEP.F                     50.00000 : STEP LENGTH
NULL.                       -999.25 : NULL VALUE
COMP.       UNION PACIFIC RESOURCES : COMPANY
WELL. UPR T BAR X LIGHTNING UNIT #1 : WELL
FLD .                       WILDCAT : FIELD
LOC .                               : LOCATION
CNTY.                     ROBERTSON : COUNTY
STAT.                         TEXAS : STATE
CTRY.      UNITED STATES OF AMERICA : COUNTRY
SRVC.                               : SERVICE COMPANY
DATE.                               : LOGDATE
API .                42395304830000 : API NUMBER
UWI .                42395304830000 : UNIQUE WELL ID
SLAT.WGS84            31.1540924699 : SURFACE LATITUDE
SLON.WGS84           -96.3276535393 : SURFACE LONGITUDE
~Curve Information -----------------------------------------
DEPT.F                 : 
DCAL.IN   07 280 30 00 : DIFFERENTIAL CALIPER
AT90.OHMM 07 120 90 00 : 2FT VERT. RES. 90IN D.I.
AT20.OHMM 07 120 20 00 : 2FT VERT. RES. 20IN D.I.
SP  .MV   07 010 01 00 : SPONTANEOUS POTENTIAL
GR  .GAPI 07 310 01 00 : GAMMA RAY - GAPI
ILD .OHMM 07 120 46 00 : DEEP INDUCTION RESISTIVITY
SFL .OHMM 07 220 01 00 : SPHERICAL FOCUSED RESISTIVITY
DT  .US/F 07 520 00 00 : 
AT30.OHMM 06 120 30 00 : 
HDRA.G/C3 45 356 01 00 : 
PEFZ.B/E  45 358 01 00 : 
ILM .OHMM 00 120 44 00 : MEDIUM IND.
DPHI.DEC  45 890 10 00 : 
NPHI.DEC  42 890 01 00 : 
CAL .IN   07 280 01 00 : 
~Params ----------------------------------------------------
EKB .F                399.0 : KELLY BUSHING
EGL .F                  373 : ELEVATION GROUND LEVEL
EDF .F                  398 : ELEVATION DERRICK FLOOR
EPD .F                  373 : ELEVATION PERMANENT DATUM
TD  .F              16500.0 : TOTAL DEPTH
CLNT.               A2DTECH : CLIENT CODE
PD  .                    GL : PERMANENT DATUM
LMF .                   RKB : LOG MEASURED FROM
DMF .                   RKB : DRILLING MEASURED FROM
DAPD.F                 26.9 : FEET ABOVE PERMANENT DATUM
DATE.           26-MAY-1997 : DATE LOGGED
DD  .F                16500 : DEPTH DRILLER
DL  .F                16500 : DEPTH LOGGER
BLI .F                16498 : BOTTOM LOG INTERVAL
TLI .F                15524 : TOP LOG INTERVAL
CS1 .IN               7.625 : CASING SIZE
CBD1.        7.625" @ 15550 : CASING DRILLER 1
CBL1.F                15524 : CASING LOGGER 1
BS1 .IN                6.75 : BIT SIZE
BSD1.F                16500 : DEPTH DRILLED WITH BIT1
DFT .         LOW-LIME DISP : TYPE FLUID IN HOLE
DFD .                  17.7 : DENSITY
DFV .                  46 S : VISCOSITY
DFPH.                  11.3 : PH
DFL .                  18.2 : FLUID LOSS
MSS .              FLOWLINE : SOURCE OF SAMPLE
RMS .OHMM              0.75 : RM
RMF .OHMM              0.56 : RMF
MFSS.                  CALC : SOURCE RMF.
RMC .OHMM              0.94 : RMC
MCSS.                  CALC : SOURCE RMC.
RMB .OHMM               0.4 : RM. AT BHT
BHT .F                  360 : BHT.
TCS .HRS                 17 : TIME CIRC. STOPPED
LUN .               HL 6542 : LOGGING UNIT NUMBER
LUL .                 TYLER : LOGGING UNIT LOCATION
ENGI.                DIDUCH : RECORDED BY
WITN.               CLAWSON : WITNESSED BY
ORIG.              5" PRINT : ORIGIN OF DATA
UWI .        42395304830000 : UNIQUE WELL ID
DICO. A2D TECHNOLOGIES INC. : DIGITIZING COMPANY
SL  .       845' FWL & 1' F : SURFACE LOCATION
~Other -----------------------------------------------------
~ASCII -----------------------------------------------------
# ...
 14000.00000    -999.25    -999.25    -999.25    4.24990   45.79500   10.23750   18.86580   66.48900    -999.25   -0.08060    5.28850    5.29080    0.18280    0.08160    9.60490
 14050.00000    -999.25    -999.25    -999.25    5.73730   94.50230    3.38570    3.60180   76.20690    -999.25   -0.01790    9.96860    3.47860    0.10130    0.23060   10.78410
 14100.00000    -999.25    -999.25    -999.25    4.54780   69.20490    5.73140   14.42860   81.19200    -999.25   -0.01140    9.96900    8.48590    0.26330    0.17630   10.54610
 14150.00000    -999.25    -999.25    -999.25    3.30120   92.78400    5.24080    6.59040   72.28840    -999.25   -0.01970    4.41500    5.12270    0.03680    0.16190    9.95400
 14200.00000    -999.25    -999.25    -999.25    4.85980   99.89490    3.81040    4.98430   76.51990    -999.25   -0.05020    7.03580    3.82580    0.08990    0.24350   10.65230
 14250.00000    -999.25    -999.25    -999.25    4.85630   96.48710    2.82040    3.38310   76.33770    -999.25    0.07460    9.96540    2.82690    0.08990    0.20600   10.50470
 14300.00000    -999.25    -999.25    -999.25    5.64900   92.76140    3.45900    4.62330   77.04070    -999.25   -0.03820   10.00000    3.58550    0.11170    0.18570   10.15580
 14350.00000    -999.25    -999.25    -999.25    3.92570   84.75470    2.47940    3.31370   83.73070    -999.25    0.07820    9.99710    2.53490    0.12420    0.23440   11.06340
 14400.00000    -999.25    -999.25    -999.25    3.76610   66.93600    4.24240   12.42240   69.46710    -999.25   -0.02100   10.00000    5.89710    0.20140    0.23720   10.18700
 14450.00000    -999.25    -999.25    -999.25    4.65750   77.25020    2.37510    2.90510   84.98410    -999.25    0.09340   10.00000    2.35210    0.17640    0.26480   11.11510
 14500.00000    -999.25    -999.25    -999.25    3.14250   87.44050    6.99530    8.63760   83.57370    -999.25   -0.01320    4.00940    4.45090    0.08130    0.23680    9.85320
 14550.00000    -999.25    -999.25    -999.25    2.05610   89.20080    3.20860    4.60070   88.21330    -999.25    0.03480    9.97270    3.43390    0.09140    0.17150   11.46700
 14600.00000    -999.25    -999.25    -999.25   -0.12660   91.32310    6.31360    3.24880   81.17030    -999.25    0.01660   10.00000    4.74920    0.13430    0.27450   12.12980
 14650.00000    -999.25    -999.25    -999.25   -2.61680   86.55830    3.49650    3.86540  105.04700    -999.25   -0.00380   10.00000    3.20980    0.19190    0.26730   11.34270
 14700.00000    -999.25    -999.25    -999.25   -5.10900   90.14500    2.47940    3.10700   83.73040    -999.25    0.04950   10.03050    2.52560    0.14280    0.24310   12.24650
 14750.00000    -999.25    -999.25    -999.25   -7.60000   79.20980    7.20650    5.98330   95.52630    -999.25    0.00200   10.00000    4.89780    0.14250    0.26050   15.28620
 14800.00000    -999.25    -999.25    -999.25   24.79650   89.92520    2.20300    3.63790   96.10910    -999.25    0.01700   10.00000    2.04370    0.17280    0.26350   13.04950
 14850.00000    -999.25    -999.25    -999.25   29.15890   94.49170    5.62740    5.84550  108.02580    -999.25   -0.03670   10.00000    5.89540    0.37240    0.12750   12.09780
 14900.00000    -999.25    -999.25    -999.25   27.60100   97.36670    5.25940    7.99690  103.32260    -999.25    0.07150    9.92420    5.01320    0.15180    0.26820   10.34090
 14950.00000    -999.25    -999.25    -999.25   -6.35760   73.24950   10.46010    6.82410  157.65160    -999.25   -0.18710   10.00000    7.08500    0.19890    0.36070   15.93960
 15000.00000    -999.25    -999.25    -999.25    2.36760   45.21800    5.09260    6.45040  153.76360    -999.25   -0.12990   10.00000    2.11110    0.20190    0.51730   17.12430
 15050.00000    -999.25    -999.25    -999.25   -2.14920   94.21750    5.31970    5.91910   91.08800    -999.25   -0.00640   10.00000    5.06790    0.15810    0.23440   11.62200
 15100.00000    -999.25    -999.25    -999.25    0.34270  103.97200    7.96780    7.25990   95.69470    -999.25   -0.00530    8.47110    6.78560    0.14650    0.24390   12.58400
 15150.00000    -999.25    -999.25    -999.25    6.59930  110.67660    8.34760    7.80660   94.54610    -999.25    0.02450    9.98860    7.64170    0.26120    0.18940    9.91530
 15200.00000    -999.25    -999.25    -999.25   14.51710  131.79030    5.60960   10.84910   95.95610    -999.25   -0.01360    8.24210    5.17820    0.12960    0.21760    8.73600
 15250.00000    -999.25    -999.25    -999.25    6.33920  103.18350    6.80610    8.08280   90.92390    -999.25   -0.01320    6.69270    8.06540    0.15960    0.21670    9.97730
 15300.00000    -999.25    -999.25    -999.25    9.16930  114.25410   13.53670   17.20750   92.19440    -999.25   -0.04560    6.38080   13.55290    0.13500    0.20840    9.63600
 15350.00000    -999.25    -999.25    -999.25    5.74540  110.26910    7.49720    9.29450   88.11910    -999.25   -0.04760    5.25760    7.00860    0.10620    0.19910    8.98940
 15400.00000    -999.25    -999.25    -999.25    7.66360  131.63430   14.59390   18.68690   85.61060    -999.25   -0.02880    6.75500    8.60660    0.13890    0.19470    9.17050
 15450.00000    -999.25    -999.25    -999.25    4.40990    -999.25    7.14700    8.25830    -999.25    -999.25   -0.01470   10.00000   10.45540    0.09220    -999.25    8.20850
 15500.00000    -999.25    -999.25    -999.25    5.03260    -999.25    8.34750   13.46510    -999.25    -999.25    -999.25    -999.25   15.26370    -999.25    -999.25    -999.25
 15550.00000    -999.25    -999.25    -999.25   11.33960  112.04400    7.74280    9.39470   86.07500    -999.25   -0.02100   10.03760    5.99790    0.34590    0.19010    8.17750
 15600.00000    -999.25    -999.25    -999.25    9.80770  120.43060    5.85590    7.47200   83.57180    -999.25   -0.01470    9.99900    5.27130    0.15090    0.17310    9.13470
 15650.00000    -999.25    -999.25    -999.25    5.42060  102.10210   12.15770   12.64630   85.74980    -999.25    0.00090   10.00000   10.52360    0.23460    0.20580    8.88600
 15700.00000    -999.25    -999.25    -999.25    2.61680  118.58790   13.39230   21.95240   80.97980    -999.25   -0.00440   10.00000   10.12250    0.37570    0.17850    8.73600
 15750.00000    -999.25    -999.25    -999.25   11.67060  107.46870   18.75840   14.43800   80.35770    -999.25    0.01880    9.22000   13.50500    0.40370    0.17450    8.08440
 15800.00000    -999.25    -999.25    -999.25   16.98970  113.90780    7.25980    8.80850   87.99430    -999.25    0.00410    9.96880    6.51250    0.24330    0.14290    7.54240
 15850.00000    -999.25    -999.25    -999.25   13.33710  116.79720   11.80890   15.23510   91.41250    -999.25   -0.00330   10.00010   10.34280    0.22850    0.14740    7.52580
 15900.00000    -999.25    -999.25    -999.25   18.50370  110.60690   12.69100   16.42460   93.26590    -999.25   -0.00380   10.00000   11.03610    0.09990    0.14280    7.52580
 15950.00000    -999.25    -999.25    -999.25   17.80360  104.81440   53.59380   35.21720   85.33440    -999.25   -0.05000   10.06240   27.66150    0.07820    0.09840    7.58350
 16000.00000    -999.25    -999.25    -999.25   13.16250  113.08450   12.96630   12.24580   81.60010    -999.25   -0.01630   10.00000   10.90680    0.08130    0.14970    7.55680
 16050.00000    -999.25    -999.25    -999.25    4.58960   62.12180   44.71820   60.65560   62.57600    -999.25    0.02760    9.99990   34.33770   -0.03790    0.06270    7.21560
 16100.00000    -999.25    -999.25    -999.25   -2.36760   38.67580  129.20950  247.76490   56.40750    -999.25    0.00120   10.00310   76.97080    0.01980    0.02540    7.27840
 16150.00000    -999.25    -999.25    -999.25   -0.88390   67.43740   51.84550  102.01570   62.31730    -999.25   -0.01470   10.00630   44.56350    0.02340    0.05020    7.16370
 16200.00000    -999.25    -999.25    -999.25  -15.76170   33.64490   67.54860  588.04080   54.90430    -999.25   -0.01000   10.00950   72.39610    0.00500    0.00130    7.18340
