~Version ---------------------------------------------------
VERS. 2.0 : CWLS log ASCII Standard -VERSION 2.0
WRAP.  NO : ONE LINE PER DEPTH STEP
~Well ------------------------------------------------------
STRT.F                    3500.0 : START DEPTH
STOP.F                    8250.0 : STOP DEPTH
STEP.F                  50.00000 : STEP LENGTH
NULL.                    -999.25 : NULL VALUE
COMP. CHAMPLIN PETROLEUM COMPANY : COMPANY
WELL.     RUFFINO PRESTON JR. #1 : WELL
FLD .                      BRYAN : FIELD
LOC .                            : LOCATION
CNTY.                     BRAZOS : COUNTY
STAT.                      TEXAS : STATE
CTRY.   UNITED STATES OF AMERICA : COUNTRY
SRVC.              Dresser Atlas : SERVICE COMPANY
DATE.                14-Jan-1980 : LOGDATE
API .             42041304690000 : API NUMBER
UWI .             42041304690000 : UNIQUE WELL ID
SLAT.WGS84         30.7616045344 : SURFACE LATITUDE
SLON.WGS84        -96.3855613874 : SURFACE LONGITUDE
~Curve Information -----------------------------------------
DEPT.F                 : 
GRR .GAPI 07 310 01 00 : GAMMA RAY FROM RESISTIVITY LOG
SPR .MV   07 010 01 00 : SPONTANEOUS POTENTIAL FROM RESISTIVITY LOG
ILD .OHMM 07 120 46 00 : INDUCTION DEEP RESISTIVITY
ILM .OHMM 07 120 44 00 : INDUCTION MEDIUM RESISTIVITY
SFL .OHMM 07 220 01 00 : SPHERICALLY FOCUSED LOG
DT  .US/F 60 500 00 00 : DELTA-T (INTERVAL TRANSIT TIME)
DPHI.DEC  45 890 10 00 : DENSITY POROSITY
NPHI.DEC  42 890 01 00 : NEUTRON POROSITY
RHOB.G/C3 45 350 01 00 : BULK DENSITY
DRHO.G/C3 45 356 01 00 : BULK DENSITY CORRECTION
CALD.IN   45 280 60 00 : CALIPER FROM DENSITY LOG
GRD .GAPI 45 310 01 00 : GAMMA RAY FROM DENSITY LOG
~Params ----------------------------------------------------
PD  .                     GL : PERMANENT DATUM
EPD .FT                342.0 : ELEVATION PERMANENT DATUM
LMF .                     KB : LOG MEASURED FROM
DMF .                     KB : DRILLING MEASURED FROM
EGL .FT                342.0 : GROUND LEVEL
DATE.               01/14/80 : RUN DATE
RUN .                      1 : RUN NUMBER
DD  .FT                 8300 : DEPTH DRILLER
DL  .FT                 8286 : DEPTH LOGGER
BLI .FT                 8284 : BOTTOM LOG INTERVAL
TLI .FT                 8100 : TOP LOG INTERVAL
BS  .IN                 4.75 : BIT SIZE
BSD .FT                 8300 : BIT SIZE AT DEPTH
DFT .              SALTWATER : DRILLING FLUID TYPE
DFD .                    9.6 : DRILLING FLUID DENSITY
TCS .HRS                   3 : TIME CIRCULATED STOPPED
LUN .                   6139 : LOGGING UNIT NUMBER
LUL .                  BRYAN : LOGGING UNIT LOCATION
ENGI.                 POWELL : RECORDING ENGINEER
WITN.                FARNHAM : WITNESSED BY
CLNT.                A2DTECH : CLIENT CODE
ORIG.            2" 5" PRINT : ORIGIN OF DATA
UWI .         42041304690000 : UNIQUE WELL ID
DICO. A2D Technologies, Inc. : DIGITIZING COMPANY
~Other -----------------------------------------------------
~ASCII -----------------------------------------------------
# ...
 6300.00000    -999.25   -9.24920    1.37660    1.47390    1.86550   97.04150    0.13260    0.31580    2.45790    0.01310   10.18870  102.48990
 6350.00000    -999.25   -8.68090    1.76260    1.95220    2.36870   92.86510    0.11620    0.28880    2.49180    0.02250    9.72140   83.57960
 6400.00000    -999.25   -9.24740    1.27840    1.35900    1.57980  102.99860    0.14220    0.33690    2.44650    0.04420   10.48900   79.25220
 6450.00000    -999.25   -8.42110    1.41490    1.52000    1.82990   99.86210    0.11620    0.33610    2.48070    0.07360   10.04290   87.57580
 6500.00000    -999.25   -7.59410    1.35690    1.46150    1.68380  100.95950    0.11640    0.32850    2.48540    0.04130   10.29860   81.47470
 6550.00000    -999.25   -9.29050    2.74770    2.84100    3.39350   83.59080    0.08380    0.22730    2.53360    0.00810    9.46990   72.40100
 6600.00000    -999.25   -5.10320    1.55200    1.67080    2.04410   95.73290    0.11650    0.28610    2.49060    0.01730    9.57610   81.33410
 6650.00000    -999.25   -4.39410    2.18940    2.33240    2.95320   89.25400    0.09610    0.25850    2.52030   -0.00780    9.28100   71.44630
 6700.00000    -999.25   -3.50140    1.33600    1.43870    1.75400   97.84850    0.09400    0.28140    2.51720    0.08270   10.22130   84.85170
 6750.00000    -999.25   -2.37220    1.31010    1.44300    1.79420  101.26730    0.11180    0.35590    2.49640    0.03860    9.77250   93.09880
 6800.00000    -999.25   -2.20350    1.69920    1.81410    2.25070   93.89470    0.10630    0.28490    2.50260    0.03270    9.73340   94.16060
 6850.00000    -999.25   -1.44260    1.85740    1.97110    2.25000   92.37550    0.07760    0.27350    2.54770    0.03300    9.56850   83.70210
 6900.00000    -999.25   -0.48530    1.50710    1.62690    2.01720   96.41510    0.11130    0.29760    2.49340    0.03720   10.35770   82.87900
 6950.00000    -999.25    0.72090    1.50770    1.62890    2.05270   94.01040    0.11310    0.30510    2.49130    0.04200   10.41870   88.77680
 7000.00000    -999.25  -41.48550    1.56270    1.68720    1.99240   96.34400    0.09560    0.29680    2.52350    0.05740   10.57080   84.67320
 7050.00000    -999.25  -41.31810    1.48300    1.61330    1.96510   96.32870    0.09950    0.30120    2.51970    0.05790   10.84570   86.13560
 7100.00000    -999.25  -39.77810    1.55380    1.67300    2.08800   95.21970    0.07870    0.29840    2.54760    0.04350   10.06710   95.50980
 7150.00000    -999.25  -39.55860    1.59040    1.72290    2.23270   93.70860    0.10680    0.32370    2.50020    0.04380   10.13820   82.49390
 7200.00000    -999.25  -39.92020    2.05150    2.16720    2.51260   92.25890    0.05980    0.29500    2.59530   -0.00040    9.72820   84.25670
 7250.00000    -999.25  -39.20620    2.23340    2.39040    2.35230   91.25620    0.09490    0.28350    2.51870    0.13870   10.26220   87.56900
 7300.00000    -999.25  -38.78290    2.53930    2.68620    3.68860   83.15570    0.08710    0.32220    2.53670    0.04020    9.92010   75.34310
 7350.00000    -999.25  -39.42030    4.48830    4.61360    5.15260   73.59400    0.04430    0.16030    2.61090    0.01140    9.18990   46.26360
 7400.00000    -999.25  -44.29330    6.89940    7.50440    7.95590   67.02440    0.05300    0.12430    2.60270    0.00400    9.12580   31.96470
 7450.00000    -999.25  -40.65480    9.25090    9.57890   15.07590   61.55680    0.05120    0.11340    2.59660   -0.00100    9.06590   36.50920
 7500.00000    -999.25  -35.86490    4.89080    5.22640    6.93400   68.58090    0.04050    0.13990    2.60890   -0.01420    9.05710   39.88080
 7550.00000    -999.25  -33.96350    6.25400    6.52330    8.61430   70.94260    0.04800    0.11520    2.60000   -0.00050    8.80490   35.78540
 7600.00000    -999.25  -29.34240    1.34090    1.44910    1.89540   97.35300    0.09210    0.33340    2.52580    0.05500    9.05270   96.18050
 7650.00000    -999.25  -29.45990    1.49990    1.62130    2.16470   94.91530    0.10060    0.31260    2.51410    0.03830    8.95430  104.64480
 7700.00000    -999.25  -27.25600    1.26540    1.39190    1.96960   94.02240    0.09690    0.34060    2.51330    0.06290    8.77050  103.25190
 7750.00000    -999.25  -26.48030    1.33840    1.46490    2.02590   97.42490    0.10230    0.37490    2.50400    0.11660    8.73990   98.46830
 7800.00000    -999.25  -27.12670    1.49290    1.62280    2.50160   94.09060    0.08160    0.35480    2.54900    0.01960    8.75580   86.01230
 7850.00000    -999.25  -27.00260    2.06050    2.25100    3.27240   97.35570    0.09140    0.36300    2.52510   -0.00150    8.72710   91.00560
 7900.00000    -999.25  -27.27050    2.93670    2.75880    5.10260   94.98290    0.06760    0.34300    2.56980    0.01230    8.72340   91.22530
 7950.00000    -999.25  -24.93690    2.29710    2.42900    4.13310   95.92640    0.10930    0.39680    2.49940   -0.00640    8.76070   91.38870
 8000.00000    -999.25  -24.20120    2.95550    3.07700    4.48060  102.40330    0.10160    0.37420    2.51130   -0.00050    8.73750  118.33310
 8050.00000    -999.25  -21.66940    3.27620    2.87300    3.62860   96.71250    0.12020    0.37860    2.44790    0.04720    8.89870   83.68350
 8100.00000   92.64870  -21.34660    3.88120    3.03480    5.09810   98.34790    0.24780    0.38180    2.25450   -0.01110    9.01470   91.63430
 8150.00000   53.49920 -146.24160    -999.25    -999.25    -999.25    -999.25    -999.25    -999.25    -999.25    -999.25    -999.25    -999.25
 8200.00000   52.62840 -159.82740    7.14960 1995.82850    0.38580    -999.25    -999.25    -999.25    -999.25    -999.25    -999.25    -999.25
 8250.00000   70.24250  -46.82950    9.66810   13.69780   19.00360    -999.25    -999.25    -999.25    -999.25    -999.25    -999.25    -999.25
