~Version ---------------------------------------------------
VERS. 2.0 : CWLS log ASCII Standard -VERSION 2.0
WRAP.  NO : ONE LINE PER DEPTH STEP
~Well ------------------------------------------------------
STRT.FT                 3800.0 : START DEPTH
STOP.FT                10100.0 : STOP DEPTH
STEP.FT               50.00000 : STEP LENGTH
NULL.                  -999.25 : NULL VALUE
COMP.   PATTERSON PETROLEUM LP : COMPANY
WELL.           WEIDER UNIT #1 : WELL
FLD .                 GIDDINGS : FIELD
LOC .                          : LOCATION
CNTY.                      LEE : COUNTY
STAT.                    TEXAS : STATE
CTRY. UNITED STATES OF AMERICA : COUNTRY
SRVC.             Baker Hughes : SERVICE COMPANY
DATE.              17-Nov-2000 : LOGDATE
API .           42287325060000 : API NUMBER
UWI .           42287325060000 : UNIQUE WELL ID
SLAT.WGS84        30.109798312 : SURFACE LATITUDE
SLON.WGS84      -96.8938886142 : SURFACE LONGITUDE
~Curve Information -----------------------------------------
DEPT  .FT    : DEPTH FEET
M1R6ED.OHMM  : 60 INCH DOI RESISTIVITY FROM HDI/CD/CN LOG
M1RXED.OHMM  : 120 INCH DOI RESISTIVITY FROM HDI/CD/CN LOG
TENRED.LBF   : TENSION FROM RESISTIVITY LOG
GRRED .GAPI  : GAMMA RAY FROM RESISTIVITY LOG
CALRED.IN    : CALIPER FROM RESISTIVITY LOG
SPRED .MV    : SPONTANEOUS POTENTIAL FROM RESISTIVITY LOG
M1R2ED.OHMM  : 20 INCH DOI RESISTIVITY FROM HDI/CD/CN LOG
M1R3ED.OHMM  : 30 INCH DOI RESISTIVITY FROM HDI/CD/CN LOG
M1R9ED.OHMM  : 90 INCH DOI RESISTIVITY FROM HDI/CD/CN LOG
ZCORED.G/C3  : DENSITY CORRECTION FROM HDI/CD/CN LOG
CNCFED.V/V   : NEUTRON POROSITY LIMESTONE
PEFED .B/E   : PHOTOELECTRIC FACTOR FROM DENSITY LOG
PORZED.V/V   : DENSITY POROSITY FROM HDI/CD/CN LOG
SPWS  .MV    : SPONTANEOUS POTENTIAL [BASELINE 0 MV] [SPRED]
GRWS  .GAPI  : GAMMA RAY [GRRED]
DCORWS.G/C3  : DENSITY CORRECTION [ZCORED]
CALWS .IN    : CALIPER [CALRED]
DRESWS.OHMM  : DEEP RESISTIVITY [M1R9ED]
MRESWS.OHMM  : MEDIUM RESISTIVITY [M1R3ED]
SRESWS.OHMM  : SHALLOW RESISTIVITY [M1R2ED]
CONDWS.MMHO  : CONDUCTIVITY [1000/DRESWS]
NPOWS .V/V   : NEUTRON POROSITY [CNCFED]
PEFWS .B/E   : PHOTOELECTRIC FACTOR [PEFED]
DENWS .G/C3  : BULK DENSITY [M=2.71 F=1.0] [CALCULATED FROM PORDED]
DPOWS .V/V   : DENSITY POROSITY [M=2.71 F=1] [CALCULATED FROM DENWS]
~Params ----------------------------------------------------
PD  .                     GL : PERMANENT DATUM
EPD .FT                  379 : ELEVATION PERMANENT DATUM
LMF .                     KB : LOG MEASURED FROM
DAPD.FT                   20 : FEET ABOVE PERMANENT DATUM
DMF .                     KB : DRILLING MEASURED FROM
EKB .FT                  399 : KELLY BUSHING
EDF .FT                  398 : DRILLING FLOOR
EGL .FT                  379 : GROUND LEVEL
DATE.               11/17/00 : RUN DATE
RUN .                      1 : RUN NUMBER
DD  .FT                10130 : DEPTH DRILLER
DL  .FT                10128 : DEPTH LOGGER
BLI .FT                10120 : BOTTOM LOG INTERVAL
TLI .FT                 3820 : TOP LOG INTERVAL
CS  .IN                8.625 : CASING SIZE
CBD .FT                 3820 : CASING BOTTOM DRILLER
CBL .FT                 3820 : CASING BOTTOM LOGGER
BS  .IN                7.875 : BIT SIZE
BSD .FT                10130 : BIT SIZE AT DEPTH
DFT .                  FRESH : DRILLING FLUID TYPE
DFD .                    9.8 : DRILLING FLUID DENSITY
DFV .                     37 : DRILLING FLUID VISCOSITY
DFPH.                    8.5 : DRILLING FLUID PH
DFL .                    6.8 : DRILLING FLUID LOSS
MSS .               MUD TANK : MUD SAMPLE SOURCE
RMS .OHMM                  3 : RESISTIVITY MUD SAMPLE
MST .FT                   70 : MUD SAMPLE TEMPERATURE
RMF .OHMM                2.7 : RESISTIVITY MUD FILTRATE SAMPLE
MFST.FT                   70 : MUD FILTRATE SAMPLE TEMPERATURE
RMC .OHMM                3.8 : RESISTIVITY MUD CAKE
MCST.FT                   70 : MUD CAKE SAMPLE TEMPERATURE
MFSS.               MEASURED : MUD FILTRATE SAMPLE SOURCE
MCSS.               MEASURED : MUD CAKE SAMPLE SOURCE
RMB .OHMM               0.84 : RESISTIVITY MUD AT BHT
TCS .HRS                   6 : TIME CURCULATED STOPPED
LUN .                HL 6554 : LOGGING UNIT NUMBER
LUL .               VICTORIA : LOGGING UNIT LOCATION
ENGI.                    MAY : RECORDING ENGINEER
WITN.                 NELSON : WITNESSED BY
CLNT.                A2DTECH : CLIENT CODE
ORIG.            1" 5" PRINT : ORIGIN OF DATA
UWI .         42287325060000 : UNIQUE WELL ID
DICO. A2D Technologies, Inc. : DIGITIZING COMPANY
~Other -----------------------------------------------------
ALL LOGS RUN IN COMBO.
LS_2.71 MTRX
~ASCII -----------------------------------------------------
 3800.00000    -999.25    -999.25    -999.25    -999.25    -999.25    -999.25    -999.25    -999.25    -999.25    -999.25    -999.25    -999.25    -999.25    -999.25    -999.25    -999.25    -999.25    -999.25    -999.25    -999.25    -999.25    -999.25    -999.25    -999.25    -999.25
 3850.00000    7.70080    7.22820  -23.79470   52.31440    9.93350  -24.75880   12.21210   10.97760    7.53250    -999.25    -999.25    -999.25    -999.25  -29.10410   52.31440    -999.25    9.93350    7.53250   10.97760   12.21210  132.75810    -999.25    -999.25    -999.25    -999.25
 3900.00000    7.45960    6.07590  -60.63260   74.27300    8.41390  -17.43040    8.77510    7.57320    5.41040    -999.25    -999.25    -999.25    -999.25  -23.71190   74.27300    -999.25    8.41390    5.41040    7.57320    8.77510  184.82920    -999.25    -999.25    -999.25    -999.25
 3950.00000   13.13790   10.96790  -35.76980   49.30640   10.11890  -11.36900   14.38740   11.39250    9.72060    -999.25    -999.25    -999.25    -999.25  -15.03690   49.30640    -999.25   10.11890    9.72060   11.39250   14.38740  102.87430    -999.25    -999.25    -999.25    -999.25
 4000.00000    6.88710    6.13230  -51.62640   78.96590    9.03670  -18.60220    8.69560    7.76010    6.13650    -999.25    -999.25    -999.25    -999.25  -20.07560   78.96590    -999.25    9.03670    6.13650    7.76010    8.69560  162.95940    -999.25    -999.25    -999.25    -999.25
 4050.00000    2.89750    3.10770  -29.40500  100.77690   10.07440   -1.53970    2.77790    2.86090    3.08380    -999.25    -999.25    -999.25    -999.25   -2.40780  100.77690    -999.25   10.07440    3.08380    2.86090    2.77790  324.27520    -999.25    -999.25    -999.25    -999.25
 4100.00000   41.76920   29.49620  -20.39940   54.40940    7.88680  -34.69290  196.66100   60.41370   32.30880    -999.25    -999.25    -999.25    -999.25  -34.88590   54.40940    -999.25    7.88680   32.30880   60.41370  196.66100   30.95130    -999.25    -999.25    -999.25    -999.25
 4150.00000    6.44780    5.71480   26.43170   53.41590    8.37760  -38.11330    9.10750    7.53340    5.76880    -999.25    -999.25    -999.25    -999.25  -36.84410   53.41590    -999.25    8.37760    5.76880    7.53340    9.10750  173.34630    -999.25    -999.25    -999.25    -999.25
 4200.00000    9.54230    6.80020  -51.07960   69.68920    9.26250  -24.88070   17.28260   11.19920    7.90510    -999.25    -999.25    -999.25    -999.25  -23.31590   69.68920    -999.25    9.26250    7.90510   11.19920   17.28260  126.50060    -999.25    -999.25    -999.25    -999.25
 4250.00000    4.24250    3.46670   37.38500   46.82870    8.37010  -52.89310    7.85670    5.56600    3.62800    -999.25    -999.25    -999.25    -999.25  -53.91690   46.82870    -999.25    8.37010    3.62800    5.56600    7.85670  275.63390    -999.25    -999.25    -999.25    -999.25
 4300.00000    3.26630    2.59480  -27.83590   33.35540    9.13990  -55.47040    6.47670    4.45800    2.87760    -999.25    -999.25    -999.25    -999.25  -54.93230   33.35540    -999.25    9.13990    2.87760    4.45800    6.47670  347.51180    -999.25    -999.25    -999.25    -999.25
 4350.00000    4.53250    4.36750   -1.53640  103.12420    8.38290  -10.77600    3.89860    4.29740    4.92360    -999.25    -999.25    -999.25    -999.25   -8.99550  103.12420    -999.25    8.38290    4.92360    4.29740    3.89860  203.10340    -999.25    -999.25    -999.25    -999.25
 4400.00000    3.05680    2.62300  -47.18970   62.00270    7.84090  -64.48080    6.62030    4.10520    2.72860    -999.25    -999.25    -999.25    -999.25  -64.33280   62.00270    -999.25    7.84090    2.72860    4.10520    6.62030  366.48830    -999.25    -999.25    -999.25    -999.25
 4450.00000    5.31940    4.71400  -52.82310   82.08960    7.65780  -14.99930    6.64350    5.64590    4.64600    -999.25    -999.25    -999.25    -999.25  -16.03390   82.08960    -999.25    7.65780    4.64600    5.64590    6.64350  215.23890    -999.25    -999.25    -999.25    -999.25
 4500.00000    4.49690    3.17180  -11.65960   83.00050    8.63010    0.88910    8.07690    5.88770    4.28500    -999.25    -999.25    -999.25    -999.25    0.00000   83.00050    -999.25    8.63010    4.28500    5.88770    8.07690  233.37220    -999.25    -999.25    -999.25    -999.25
 4550.00000    1.49940    1.64380  -31.35380   67.23310   17.10980    3.45870    1.27330    1.40390    1.51240    -999.25    -999.25    -999.25    -999.25    0.00000   67.23310    -999.25   17.10980    1.51240    1.40390    1.27330  661.20070    -999.25    -999.25    -999.25    -999.25
 4600.00000    2.25990    1.83280  -39.46890   64.25570    7.29950  -69.66180    3.90590    2.74000    1.94450    -999.25    -999.25    -999.25    -999.25  -69.38520   64.25570    -999.25    7.29950    1.94450    2.74000    3.90590  514.27110    -999.25    -999.25    -999.25    -999.25
 4650.00000    4.11690    3.75880  -11.46780   91.12140    7.57070  -46.83830    6.06250    4.44990    4.17260    -999.25    -999.25    -999.25    -999.25  -47.99160   91.12140    -999.25    7.57070    4.17260    4.44990    6.06250  239.65870    -999.25    -999.25    -999.25    -999.25
 4700.00000    1.49310    1.22290  -20.06130   61.50430    7.81290  -80.07420    3.08660    2.00930    1.32680    -999.25    -999.25    -999.25    -999.25  -82.97930   61.50430    -999.25    7.81290    1.32680    2.00930    3.08660  753.69310    -999.25    -999.25    -999.25    -999.25
 4750.00000    2.83560    2.25210  -52.46450  106.27660    7.76700  -27.61890    3.52850    3.04780    2.56840    -999.25    -999.25    -999.25    -999.25  -32.27570  106.27660    -999.25    7.76700    2.56840    3.04780    3.52850  389.34750    -999.25    -999.25    -999.25    -999.25
 4800.00000    1.73520    1.51880   34.12130   86.01110    7.50050  -44.52440    2.82600    2.27840    1.66410    -999.25    -999.25    -999.25    -999.25  -50.44210   86.01110    -999.25    7.50050    1.66410    2.27840    2.82600  600.92540    -999.25    -999.25    -999.25    -999.25
 4850.00000   11.89620    8.69460  -28.20650   47.54000    7.97410   -5.99110   24.36550   13.96360   10.41000    -999.25    -999.25    -999.25    -999.25  -14.43320   47.54000    -999.25    7.97410   10.41000   13.96360   24.36550   96.06150    -999.25    -999.25    -999.25    -999.25
 4900.00000    1.09250    0.86450  -46.37400   43.83600    7.30310  -79.97170    2.32350    1.48300    0.96300    -999.25    -999.25    -999.25    -999.25  -81.05440   43.83600    -999.25    7.30310    0.96300    1.48300    2.32350 1038.42160    -999.25    -999.25    -999.25    -999.25
 4950.00000    1.71190    1.33320  -38.13620   98.96510    8.06570  -42.40640    3.29510    2.26630    1.44300    -999.25    -999.25    -999.25    -999.25  -42.63660   98.96510    -999.25    8.06570    1.44300    2.26630    3.29510  693.00070    -999.25    -999.25    -999.25    -999.25
 5000.00000    1.41720    1.10240  -36.09300   82.23990    7.31110  -65.20160    2.98280    1.83770    1.22490    -999.25    -999.25    -999.25    -999.25  -65.09080   82.23990    -999.25    7.31110    1.22490    1.83770    2.98280  816.39320    -999.25    -999.25    -999.25    -999.25
 5050.00000    1.10320    0.90510  -22.15530   44.83220    7.79040  -86.85230    1.87640    1.33250    0.97200    -999.25    -999.25    -999.25    -999.25  -86.49070   44.83220    -999.25    7.79040    0.97200    1.33250    1.87640 1028.80660    -999.25    -999.25    -999.25    -999.25
 5100.00000    2.06240    2.01700   19.46900   82.10610    7.96800  -34.92300    3.05980    2.53650    2.01280    -999.25    -999.25    -999.25    -999.25  -32.52400   82.10610    -999.25    7.96800    2.01280    2.53650    3.05980  496.82030    -999.25    -999.25    -999.25    -999.25
 5150.00000    1.84700    1.80210  -49.31320   89.03630    9.51170   -6.94800    1.92920    1.86490    1.82170    -999.25    -999.25    -999.25    -999.25   -5.58550   89.03630    -999.25    9.51170    1.82170    1.86490    1.92920  548.93780    -999.25    -999.25    -999.25    -999.25
