~Version ---------------------------------------------------
VERS. 2.0 : CWLS log ASCII Standard -VERSION 2.0
WRAP. YES : Multiple lines per depth step
~Well ------------------------------------------------------
STRT.FT                    300.0 : START DEPTH
STOP.FT                  19600.0 : STOP DEPTH
STEP.FT                 50.00000 : STEP LENGTH
NULL.                    -999.25 : NULL VALUE
COMP. CITIES SERVICE OIL COMPANY : COMPANY
WELL.          PEELER RANCH A #1 : WELL
FLD .                    WILDCAT : FIELD
LOC .                            : LOCATION
CNTY.                   ATASCOSA : COUNTY
STAT.                      TEXAS : STATE
CTRY.   UNITED STATES OF AMERICA : COUNTRY
SRVC.               Schlumberger : SERVICE COMPANY
DATE.                12-Feb-1972 : LOGDATE
API .             42013301410000 : API NUMBER
UWI .             42013301410000 : UNIQUE WELL ID
SLAT.WGS84         28.6903618688 : SURFACE LATITUDE
SLON.WGS84        -98.4697337546 : SURFACE LONGITUDE
~Curve Information -----------------------------------------
DEPT  .FT    : DEPTH
ALL8ED.OHMM  : LATEROLOG-8 RESISTIVITY AMPLIFIED
ASNED .OHMM  : AMPLIFIED SHORT NORMAL 16 IN.
CALWS .IN    : CALIPER (CALSED)
CALSED.IN    : CALIPER FROM SONIC LOG (ADJ TO RES.)
CILDED.MMHO  : CONDUCTIVITY FROM LOG
CONDWS.MMHO  : CONDUCTIVITY (1000/DRESws)
DCORWS.G/C3  : DENSITY CORRECTION (DRHOED)
DENWS .G/C3  : BULK DENSITY  (RHOBED LS)
DPOWS .V/V   : DENSITY POROSITY (M=2.71 F=1 FROM DENws)
DRESWS.OHMM  : DEEP RESISTIVITY (IF ILDED<1, THEN 1000/CILDED)
DRHOED.G/C3  : DENSITY CORRECTION (ADJ TO RES.)
DTED  .US/F  : DELTA TIME  (ADJ TO RES.)
DTWS  .US/F  : DELTA TIME  (DTED)
GRDED .GAPI  : GAMMA RAY FROM DENSITY LOG (ADJ TO RES.)
GRWS  .GAPI  : GAMMA RAY (GRSED/GRDED @ 8498)
GRSED .GAPI  : GAMMA RAY FROM SONIC LOG (ADJ TO RES.)
ILDED .OHMM  : DEEP INDUCTION RESISTIVITY
NEUTED.CU    : NEUTRON FROM GAMMA RAY NEUTRON LOG (ADJ TO RES.)
NEUTWS.CU    : NEUTRON FROM GAMMA RAY NEUTRON LOG (NEUTED)
NPOWS .V/V   : NEUTRON POROSITY LIMESTONE (SNPED)
RHOBED.G/C3  : BULK DENSITY (ADJ TO RES.)
SNPED .V/V   : SIDEWALL NEUTRON POROSITY (ADJ TO RES.)
SPWS  .MV    : SPONTANEOUS POTENTIAL BASELINE 0 MV (SPRED)
SPRED .MMHO  : SPONTANEOUS POTENTIAL FROM RESISTIVITY
SRESWS.OHMM  : SHALLOW RESISTIVITY (ASNED/ALL8ED @ 12329)
~Params ----------------------------------------------------
PD  .                     GL : PERMANENT DATUM
EPD .F                   297 : ELEVATION PERMANENT DATUM
LMF .                     KB : LOG MEASURED FROM
DAPD.F                  30.5 : FEET ABOVE PERMANENT DATUM
DMF .                     KB : DRILLING MEASURED FROM
EKB .F                 327.5 : KELLING BUSHING
EDF .F                 326.5 : DRILLING FLOOR
EGL .F                   297 : GROUND LEVEL
DATE.             02-12-1972 : RUN DATE
RUN .                      9 : RUN NUMBER
DD  .F                 19629 : DEPTH DRILLER
DL  .F                 19635 : DEPTH LOGGER
BLI .F                 19628 : BOTTOM LOG INTERVAL
TLI .F                 19127 : TOP LOG INTERVAL
BS  .IN                  4.4 : BIT SIZE
BSD .F                 19629 : BIT SIZE AT DEPTH
DFT .       INVERMUL 43% OIL : DRILLING FLUID TYPE
DFD .                   19.1 : DRILLING FLUID DENSITY
DFV .                     88 : DRILLING FLUID VISCOSITY
TCS .HRS                  12 : TIME CURCULATED STOPPED
LUN .                   7504 : LOGGING UNIT NUMBER
LUL .                  PLEAS : LOGGING UNIT LOCATION
ENGI.               CLEMENTS : RECORDING ENGINEER
WITN.         GRIGSBY THOMAS : WITNESSED BY
CLNT.                A2DTECH : CLIENT CODE
ORIG.            2" 5" PRINT : ORIGIN OF DATA
UWI .         42013301410000 : UNIQUE WELL ID
DICO. A2D Technologies, Inc. : DIGITIZING COMPANY
~Other -----------------------------------------------------
~ASCII -----------------------------------------------------
# ...
 7300.00000    -999.25    1.76470   13.99000   13.99000  674.20230  737.40880    -999.25    -999.25    -999.25    1.35610    -999.25  101.34200  101.34200    -999.25    -999.25    -999.25    1.35610    -999.25    -999.25    -999.25    -999.25    -999.25   -6.29680  -15.30490    1.76470
 7350.00000    -999.25    1.87620   14.21800   14.21800  617.76450  641.84850    -999.25    -999.25    -999.25    1.55800    -999.25   98.55900   98.55900    -999.25    -999.25    -999.25    1.55800    -999.25    -999.25    -999.25    -999.25    -999.25   -6.99940  -16.06710    1.87620
 7400.00000    -999.25    1.65330   14.09000   14.09000  731.81000  648.17220    -999.25    -999.25    -999.25    1.54280    -999.25   90.10900   90.10900    -999.25    -999.25    -999.25    1.54280    -999.25    -999.25    -999.25    -999.25    -999.25   -6.58410  -15.71150    1.65330
 7450.00000    -999.25    1.88030   14.09000   14.09000  608.78240  643.99790    -999.25    -999.25    -999.25    1.55280    -999.25   94.58300   94.58300    -999.25    -999.25    -999.25    1.55280    -999.25    -999.25    -999.25    -999.25    -999.25   -7.03240  -16.21950    1.88030
 7500.00000    -999.25    1.67390   13.86400   13.86400  771.06140  779.05890    -999.25    -999.25    -999.25    1.28360    -999.25  100.95100  100.95100    -999.25    -999.25    -999.25    1.28360    -999.25    -999.25    -999.25    -999.25    -999.25   -5.34670  -14.59340    1.67390
 7550.00000    -999.25    2.12380   13.63600   13.63600  578.04390  561.60850    -999.25    -999.25    -999.25    1.78060    -999.25   92.99200   92.99200    -999.25    -999.25    -999.25    1.78060    -999.25    -999.25    -999.25    -999.25    -999.25   -4.52490  -13.83130    2.12380
 7600.00000    -999.25    2.64400   13.71000   13.71000  453.09380  460.00280    -999.25    -999.25    -999.25    2.17390    -999.25   87.82300   87.82300    -999.25    -999.25    -999.25    2.17390    -999.25    -999.25    -999.25    -999.25    -999.25   -4.59760  -13.96360    2.64400
 7650.00000    -999.25    2.81120   13.74900   13.74900  413.17370  431.25750    -999.25    -999.25    -999.25    2.31880    -999.25   81.46100   81.46100    -999.25    -999.25    -999.25    2.31880    -999.25    -999.25    -999.25    -999.25    -999.25   -4.27860  -13.70430    2.81120
 7700.00000    -999.25    2.92260   13.66100   13.66100  405.90340  447.22720    -999.25    -999.25    -999.25    2.23600    -999.25   83.74800   83.74800    -999.25    -999.25    -999.25    2.23600    -999.25    -999.25    -999.25    -999.25    -999.25   -4.01800  -13.32320    2.92260
 7750.00000    -999.25    2.14760   13.62300   13.62300  558.88220  643.99790    -999.25    -999.25    -999.25    1.55280    -999.25   96.96800   96.96800    -999.25    -999.25    -999.25    1.55280    -999.25    -999.25    -999.25    -999.25    -999.25   -4.11040  -13.24720    2.14760
 7800.00000    -999.25    1.99790   13.50700   13.50700  632.73450  614.81710    -999.25    -999.25    -999.25    1.62650    -999.25   93.68800   93.68800    -999.25    -999.25    -999.25    1.62650    -999.25    -999.25    -999.25    -999.25    -999.25   -4.50720  -13.47560    1.99790
 7850.00000    -999.25    2.11870   13.67000   13.67000  534.70840  532.22630    -999.25    -999.25    -999.25    1.87890    -999.25   87.27600   87.27600    -999.25    -999.25    -999.25    1.87890    -999.25    -999.25    -999.25    -999.25    -999.25   -7.24170  -16.04170    2.11870
 7900.00000    -999.25    2.03720   13.85200   13.85200  629.91590  631.35300    -999.25    -999.25    -999.25    1.58390    -999.25   88.99700   88.99700    -999.25    -999.25    -999.25    1.58390    -999.25    -999.25    -999.25    -999.25    -999.25  -31.01280  -39.64440    2.03720
 7950.00000    -999.25    1.63980   13.55200   13.55200  714.57090  740.24720    -999.25    -999.25    -999.25    1.35090    -999.25   93.25700   93.25700    -999.25    -999.25    -999.25    1.35090    -999.25    -999.25    -999.25    -999.25    -999.25   -5.31760  -13.78080    1.63980
 8000.00000    -999.25    1.39730   13.16700   13.16700  896.56940  928.85010    -999.25    -999.25    -999.25    1.07660    -999.25  103.82700  103.82700    -999.25    -999.25    -999.25    1.07660    -999.25    -999.25    -999.25    -999.25    -999.25   -4.35320  -12.64800    1.39730
 8050.00000    -999.25    1.75540   13.53700   13.53700  645.50900  599.98800    -999.25    -999.25    -999.25    1.66670    -999.25   97.36600   97.36600    -999.25    -999.25    -999.25    1.66670    -999.25    -999.25    -999.25    -999.25    -999.25   -5.47640  -13.60280    1.75540
 8100.00000    -999.25    2.30340   13.49300   13.49300  501.45110  519.34560    -999.25    -999.25    -999.25    1.92550    -999.25   81.85900   81.85900    -999.25    -999.25    -999.25    1.92550    -999.25    -999.25    -999.25    -999.25    -999.25   -7.19440  -15.15240    2.30340
 8150.00000    -999.25    1.97210   13.71100   13.71100  557.56500  596.30290    -999.25    -999.25    -999.25    1.67700    -999.25   84.54300   84.54300    -999.25    -999.25    -999.25    1.67700    -999.25    -999.25    -999.25    -999.25    -999.25   -5.25390  -13.04350    1.97210
 8200.00000    -999.25    2.48710   13.45800   13.45800  447.50200  474.85640    -999.25    -999.25    -999.25    2.10590    -999.25   81.66000   81.66000    -999.25    -999.25    -999.25    2.10590    -999.25    -999.25    -999.25    -999.25    -999.25   -6.35600  -13.97730    2.48710
 8250.00000    -999.25    2.23120   13.41000   13.41000  449.10180  471.20910    -999.25    -999.25    -999.25    2.12220    -999.25   82.45500   82.45500    -999.25    -999.25    -999.25    2.12220    -999.25    -999.25    -999.25    -999.25    -999.25   -8.38550  -15.83840    2.23120
 8300.00000    -999.25    1.98350   13.57300   13.57300  536.80790  503.11940    -999.25    -999.25    -999.25    1.98760    -999.25   88.02200   88.02200    -999.25    -999.25    -999.25    1.98760    -999.25    -999.25    -999.25    -999.25    -999.25   -5.42890  -12.71340    1.98350
 8350.00000    -999.25    1.82660   13.69600   13.69600  615.43580  685.11920    -999.25    -999.25    -999.25    1.45960    -999.25   92.89300   92.89300    -999.25    -999.25    -999.25    1.45960    -999.25    -999.25    -999.25    -999.25    -999.25   -5.52110  -12.63720    1.82660
 8400.00000    -999.25    1.78120   13.97000   13.97000  640.71860  698.03160    -999.25    -999.25    -999.25    1.43260    -999.25   91.40200   91.40200    -999.25    -999.25    -999.25    1.43260    -999.25    -999.25    -999.25    -999.25    -999.25   -5.00350  -11.95120    1.78120
 8450.00000    -999.25    1.85860   14.19000   14.19000  610.77840  663.92250    -999.25    -999.25    -999.25    1.50620    -999.25   91.79900   91.79900    -999.25    -999.25    -999.25    1.50620    -999.25    -999.25    -999.25    -999.25    -999.25   -5.70570  -12.48500    1.85860
 8500.00000    -999.25    2.04330   14.29600   14.29600  542.11410  607.53340    -999.25    2.47510    0.13740    1.64600    -999.25   87.42500   87.42500   61.05600   61.05600    -999.25    1.64600    -999.25    -999.25    0.29780    2.47510    0.29780   -5.79760  -12.40850    2.04330
 8550.00000    -999.25    1.84830   14.26300   14.26300  612.77450  707.71410    0.06320    2.52210    0.10990    1.41300    0.06320   93.39000   93.39000   67.29300   67.29300    -999.25    1.41300    -999.25    -999.25    0.31210    2.52210    0.31210   -4.06050  -10.50300    1.84830
 8600.00000    -999.25    1.66150   14.31000   14.31000  643.81320  766.69480    0.01700    2.39390    0.18490    1.30430    0.01700   96.57100   96.57100   62.80200   62.80200    -999.25    1.30430    -999.25    -999.25    0.33870    2.39390    0.33870   -5.02640  -11.30050    1.66150
 8650.00000    -999.25    2.63570   13.70600   13.70600  378.67120  392.68040    0.03910    2.58160    0.07510    2.54660    0.03910   81.66000   81.66000   61.46200   61.46200    -999.25    2.54660    -999.25    -999.25    0.18530    2.58160    0.18530   -7.59860  -13.70430    2.63570
