~Version ---------------------------------------------------
VERS.      2.0 : CWLS log ASCII Standard -VERSION 2.0
WRAP.      YES : Multiple lines per depth step
CREA. 03/04/13 : LAS Creation Date
~Well ------------------------------------------------------
STRT.FT                 1400.0 : START DEPTH
STOP.FT                10150.0 : STOP DEPTH
STEP.FT               50.00000 : STEP LENGTH
NULL.                  -999.25 : NULL VALUE
COMP.     TXO PRODUCTION CORP. : COMPANY
WELL.               GUEST A #1 : WELL
FLD .               BEAR GRASS : FIELD
LOC .                          : LOCATION
CNTY.                     LEON : COUNTY
STAT.                    TEXAS : STATE
CTRY. UNITED STATES OF AMERICA : COUNTRY
SRVC.            Dresser Atlas : SERVICE COMPANY
DATE.              30-Oct-1981 : LOGDATE
API .           42289304700000 : API NUMBER
UWI .           42289304700000 : UNIQUE WELL ID
SLAT.WGS84        31.355337108 : SURFACE LATITUDE
SLON.WGS84       -96.287476523 : SURFACE LONGITUDE
~Curve Information -----------------------------------------
DEPT    .FT    : DEPTH FEET
ACED    .US/F  : ACOUSTIC FROM SONIC LOG
CALDED  .IN    : CALIPER FROM DENSITY LOG
CALSED  .IN    : CALIPER FROM SONIC LOG [ADJ. TO CALDED]
CALWS   .IN    : CALIPER [CALSED]
CNLSED  .V/V   : COMPENSATED NEUTRON POROSITY LIME FROM DENSITY LOG
CONDWS  .MMHO  : CONDUCTIVITY [1000/DRESWS]
CORRED  .G/C3  : DENSITY CORRECTION FROM DENSITY LOG
DCORWS  .G/C3  : DENSITY CORRECTION [CORRED]
DENED   .G/C3  : COMPENSATED BULK DENSITY FROM DENSITY LOG
DENWS   .G/C3  : FORMATION BULK DENSITY [DENED]
DPOWS   .V/V   : DENSITY POROSITY LIME [PORDLSED]
DRESWS  .OHMM  : DEEP RESISTIVITY [RILDED]
DTWS    .US/F  : COMPRESSIONAL SONIC [ACED]
GR1ED   .GAPI  : GAMMA RAY FROM CBL LOG [ADJ. TO GRDED]
GRDED   .GAPI  : GAMMA RAY FROM DENSITY LOG
GRED    .GAPI  : GAMMA RAY FROM CBL LOG [ADJ. TO GRDED]
GRSED   .GAPI  : GAMMA RAY FROM SONIC LOG [ADJ. TO GRDED]
GRWS    .GAPI  : GAMMA RAY [GRED SPL. TO GRDED 2138'- 2296' & 10100.5-10122']
MRESWS  .OHMM  : MEDIUM RESISTIVITY [RILMED]
NPOWS   .V/V   : NEUTRON POROSITY LIME [CNLSED]
PORDLSED.V/V   : DENSITY POROSITY LIME [M=2.71, F=1.0] FROM DENSITY LOG
RFOCED  .OHMM  : SHALLOW FOCUSED RESISTIVITY FROM RESISTIVITY LOG
RILDED  .OHMM  : DEEP INDUCTION RESISTIVITY FROM RESISTIVITY LOG
RILMED  .OHMM  : MEDIUM INDUCTION RESISTIVITY FROM RESISITIVITY LOG
SPRED   .MV    : SPONTANEOUS POTENTIAL FROM RESISTIVITY LOG
SPSED   .MV    : SPONTANEOUS POTENTIAL FROM SONIC LOG [ADJ. TO SPRED]
SPWS    .MV    : SPONATNEOUS POTENTIAL [BASELINE 0 MV, SPRED]
SRESWS  .OHMM  : SHALLOW RESISTIVITY [RFOCED]
TENDED  .LBF   : TENSION FROM DENSITY LOG
TENRED  .LBF   : TENSION FROM RESISTIVITY LOG
TENSED  .LBF   : TENSION FROM SONIC LOG
~Params ----------------------------------------------------
PD  .                     GL : PERMANENT DATUM
EPD .FT                  418 : ELEVATION PERMANENT DATUM
LMF .                     KB : LOG MEASURED FROM
DAPD.FT                   23 : FEET ABOVE PERMANENT DATUM
DMF .                     KB : DRILLING MEASURED FROM
EKB .FT                  441 : KELLY BUSHING
EDF .FT                  440 : DRILLING FLOOR
EGL .FT                  418 : GROUND LEVEL
DATE.               10/30/81 : RUN DATE
RUN .                      2 : RUN NUMBER
DD  .FT                10174 : DEPTH DRILLER
DL  .FT                10156 : DEPTH LOGGER
BLI .FT                10154 : BOTTOM LOG INTERVAL
TLI .FT                 9800 : TOP LOG INTERVAL
CS  .IN                8.625 : CASING SIZE
CBD .FT                 1350 : CASING BOTTOM DRILLER
BS  .IN                7.875 : BIT SIZE
BSD .FT                10174 : BIT SIZE AT DEPTH
DFT .                  LIGNO : DRILLING FLUID TYPE
DFD .                     10 : DRILLING FLUID DENSITY
DFPH.                     10 : DRILLING FLUID PH
DFL .                   10.5 : DRILLING FLUID LOSS
MSS .               FLOWLINE : MUD SAMPLE SOURCE
RMS .OHMM               1.48 : RESISTIVITY MUD SAMPLE
MST .DEGF                 90 : MUD SAMPLE TEMPERATURE
RMF .OHMM               1.11 : RESISTIVITY MUD FILTRATE SAMPLE
MFST.DEGF                 90 : MUD FILTRATE SAMPLE TEMPERATURE
RMC .OHMM               1.85 : RESISTIVITY MUD CAKE
MCST.DEGF                 90 : MUD CAKE SAMPLE TEMPERATURE
MFSS.                      C : MUD FILTRATE SAMPLE SOURCE
MCSS.                      C : MUD CAKE SAMPLE SOURCE
RMB .OHMM               0.51 : RESISTIVITY MUD AT BHT
TCS .HRS                 600 : TIME CIRCULATED STOPPED
LUN .                   6335 : LOGGING UNIT NUMBER
LUL .                  TYLER : LOGGING UNIT LOCATION
ENGI.                  BANKS : RECORDING ENGINEER
WITN.                  WYNNE : WITNESSED BY
CLNT.                A2DTECH : CLIENT CODE
ORIG.            2" 5" PRINT : ORIGIN OF DATA
UWI .         42289304700000 : UNIQUE WELL ID
DICO. A2D Technologies, Inc. : DIGITIZING COMPANY
~Other -----------------------------------------------------
TOOL RUN: CBL-DIL-SFL-CNFD-SONIC
~ASCII -----------------------------------------------------
# ...
 9450.00000   67.71660    9.81300    9.84380    9.84380    0.05660  240.85360    0.00750    0.00750    2.57120    2.57120    0.08010    4.15190   67.71660   69.22090   80.84940   65.74290   70.34600   80.84940    4.54230    0.05660    0.08010    4.09930    4.15190    4.54230  -34.30150  -34.28560  -25.31950    4.09930   -9.23190    2.63820    1.70660
 9500.00000   62.03260    9.14690    8.54260    8.54260    0.02350  266.38960   -0.06270   -0.06270    2.51580    2.51580    0.11290    3.75390   62.03260   41.77860   54.58550   40.88900   46.24150   54.58550    4.35330    0.02350    0.11290    4.85570    3.75390    4.35330  -52.46810  -51.57880  -46.28050    4.85570   -0.65320   -2.39530    4.44300
 9550.00000   63.20840    9.35240    8.96170    8.96170    0.03380  107.56040   -0.01150   -0.01150    2.54650    2.54650    0.09540    9.29710   63.20840   59.91980   79.55520   61.38200   48.71990   79.55520   10.59120    0.03380    0.09540    8.53610    9.29710   10.59120  -30.07450  -43.68430  -29.47570    8.53610    5.92710    1.72740   -0.95070
 9600.00000   62.71810    9.51510    8.70210    8.70210    0.03250  116.49580   -0.00990   -0.00990    2.56370    2.56370    0.08480    8.58400   62.71810   55.26010   71.22640   56.55210   71.35550   71.22640   10.80710    0.03250    0.08480    9.17540    8.58400   10.80710  -19.78290  -34.06550  -21.11870    9.17540    6.93760   -3.78070    0.20990
 9650.00000   59.46010    8.94440    8.63860    8.63860    0.01910   87.58330   -0.02050   -0.02050    2.50290    2.50290    0.12090   11.41770   59.46010   29.41060   35.78470   42.41970   30.40380   35.78470   14.54090    0.01910    0.12090   18.82060   11.41770   14.54090  -47.48110  -54.94510  -46.88350   18.82060    6.73510   -7.91080   -6.28680
 9700.00000   59.66370    8.99840    8.61850    8.61850    0.01930   88.90150    0.04800    0.04800    2.48610    2.48610    0.13100   11.24840   59.66370   34.70740   48.20730   35.17250   44.08710   48.20730   13.52460    0.01930    0.13100   23.25300   11.24840   13.52460  -39.28670  -52.33620  -38.80850   23.25300    5.62850    9.69730    2.01740
 9750.00000   63.01780    9.05260    8.56410    8.56410    0.02380  134.80720   -0.06420   -0.06420    2.48620    2.48620    0.13170    7.41800   63.01780   34.37010   34.00990   47.11990   30.40710   34.00990    9.24240    0.02380    0.13170   18.70230    7.41800    9.24240  -69.68020  -82.02020  -69.32140   18.70230   12.14370    4.18660    0.70000
 9800.00000   61.24340    8.49870    8.64550    8.64550    0.04600   44.66300   -0.02170   -0.02170    2.64390    2.64390    0.03890   22.38990   61.24340   66.88420   87.35200   68.32280   80.42930   87.35200   21.35760    0.04600    0.03890   17.96030   22.38990   21.35760  -17.78570  -39.22050  -17.54630   17.96030   -0.41330    8.69230   -7.56510
 9850.00000   57.49410    8.33500    8.46480    8.46480    0.01710   83.93280    0.09580    0.09580    2.49390    2.49390    0.12660   11.91430   57.49410   41.14980   49.08630   49.12580   43.77430   49.08630   13.04650    0.01710    0.12660   10.63990   11.91430   13.04650  -54.89490  -65.65780  -54.77500   10.63990    8.07020    0.48210   -1.91010
 9900.00000   59.56760    8.21760    8.30340    8.30340    0.03650  194.07680   -0.03430   -0.03430    2.52440    2.52440    0.10990    5.15260   59.56760   42.95750   59.53040   59.97030   57.64980   59.53040    6.16460    0.03650    0.10990    7.00520    5.15260    6.16460  -26.98510  -38.46170  -26.98460    7.00520   41.85520    4.35000   -3.30620
 9950.00000   64.96520    8.53340    8.36230    8.36230    0.02310   48.85460   -0.02280   -0.02280    2.53200    2.53200    0.10380   20.46890   64.96520   28.83280   27.17890   34.56920   24.01430   27.17890   21.95810    0.02310    0.10380   28.81350   20.46890   21.95810  -46.79220  -54.94610  -46.91110   28.81350    0.95730   -3.81270    6.43680
 10000.00000   62.79810    8.70970    8.70220    8.70220    0.06830  177.17620   -0.04590   -0.04590    2.60580    2.60580    0.06320    5.64410   62.79810   78.99780  112.58160   77.36290   94.28430  112.58160    6.56860    0.06830    0.06320    7.35470    5.64410    6.56860   -0.22310   -7.70300   -0.46140    7.35470    3.90550   -0.79390    5.86370
 10050.00000   56.10340    8.01790    8.26600    8.26600    0.02580   44.42630   -0.04170   -0.04170    2.56060    2.56060    0.08640   22.50920   56.10340   36.33570   45.29730   44.36320   37.86920   45.29730   24.65380    0.02580    0.08640   31.27180   22.50920   24.65380  -60.65240  -54.18180  -60.89190   31.27180    3.12870    2.34370  -12.21220
 10100.00000   59.36730    7.97410    8.11820    8.11820    0.02200   43.45050   -0.02600   -0.02600    2.59970    2.59970    0.06490   23.01470   59.36730   44.54130   39.88860   51.31440   27.82660   39.88860   26.16950    0.02200    0.06490   28.15050   23.01470   26.16950  -65.22100  -53.94940  -65.46050   28.15050    0.96260   -2.27080    1.45400
 10150.00000    -999.25    -999.25    -999.25    -999.25    -999.25    -999.25    -999.25    -999.25    -999.25    -999.25    -999.25    -999.25    -999.25    -999.25    -999.25    -999.25    -999.25    -999.25    -999.25    -999.25    -999.25   47.48960    -999.25    -999.25    -999.25    -999.25    -999.25   47.48960    -999.25  -10.99340   16.38360
