~Version ---------------------------------------------------
VERS. 2.0 : CWLS log ASCII Standard -VERSION 2.0
WRAP.  NO : ONE LINE PER DEPTH STEP
~Well ------------------------------------------------------
STRT.F                   300.0 : START DEPTH
STOP.F                  7950.0 : STOP DEPTH
STEP.F                50.00000 : STEP LENGTH
NULL.                  -999.25 : NULL VALUE
COMP.  CONTINENTAL OIL COMPANY : COMPANY
WELL.     H. J. CHITTIM #209-1 : WELL
FLD .                  WILDCAT : FIELD
LOC .                          : LOCATION
CNTY.                 MAVERICK : COUNTY
STAT.                    TEXAS : STATE
CTRY. UNITED STATES OF AMERICA : COUNTRY
SRVC.             Schlumberger : SERVICE COMPANY
DATE.              31-Mar-1964 : LOGDATE
API .           42323000820000 : API NUMBER
UWI .           42323000820000 : UNIQUE WELL ID
SLAT.WGS84       28.7811133281 : SURFACE LATITUDE
SLON.WGS84     -100.2467463603 : SURFACE LONGITUDE
~Curve Information -----------------------------------------
DEPT.F                 : 
SPR .MV   05 010 01 00 : SPONTANEOUS POTENTIAL FROM RES.
CALS.IN   60 280 50 00 : CALIPER FROM SONIC LOG SCALE CHANGE AT 7218 (5/15)
GRN .GAPI 35 310 01 00 : GAMMA RAY
NEUT.NAPI 35 330 01 00 : NEUTRON SCALE CHANGE AT 4253 (875/3375)
ASN .OHMM 05 041 16 00 : AMPLIFIED SHORT NORMAL 16" SCALE CHANGE 4167 (0/100)
ILD .OHMM 05 120 46 00 : INDUCTION LOG DEEP SCALE CHANGE 4167 (0/100)
CILD.MMHO 05 110 46 00 : CONDUCTIVITY INDUCTION LOG DEEP SCALE CHANGE AT 4167 (200,0)
GRS .GAPI 60 310 01 00 : GAMMA RAY FROM SONIC LOG
DT  .US/F 60 520 31 00 : INTERVAL TRANSIT TIME S/C AT 1054 (110/50), 3100 (90/30), & AT 4166 (80/40)
~Params ----------------------------------------------------
PD  .                     GL : PERMANENT DATUM
LMF .                     KB : LOG MEASURED FROM
DAPD.FT                12.85 : FEET ABOVE PERMANENT DATUM
DMF .                     KB : DRILLING MEASURED FROM
EDF .FT                  707 : DRILLING FLOOR
DATE.              3-31-1964 : RUN DATE
RUN .                      3 : RUN NUMBER
DD  .FT                 7957 : DEPTH DRILLER
DL  .FT                 7978 : DEPTH LOGGER
BLI .FT                 7977 : BOTTOM LOG INTERVAL
TLI .FT                 7286 : TOP LOG INTERVAL
CBD .FT                 7280 : CASING BOTTOM DRILLER
CBL .FT                 7286 : CASING BOTTOM LOGGER
BS  .IN                6.125 : BIT SIZE
BSD .FT                 7957 : BIT SIZE AT DEPTH
DFT .       OIL EMULSION CAU : DRILLING FLUID TYPE
DFD .                   17.9 : DRILLING FLUID DENSITY
DFV .                     72 : DRILLING FLUID VISCOSITY
DFPH.                     10 : DRILLING FLUID PH
DFL .                    0.5 : DRILLING FLUID LOSS
MSS .               FLOWLINE : MUD SAMPLE SOURCE
RMS .OHMM               0.99 : RESISTIVITY MUD SAMPLE
MST .DEGF                 91 : MUD SAMPLE TEMPERATURE
RMF .OHMM               0.31 : RESISTIVITY MUD FILTRATE SAMPLE
MFST.DEGF                 82 : MUD FILTRATE SAMPLE TEMPERATURE
RMC .OHMM                2.1 : RESISTIVITY MUD CAKE
MCST.DEGF                 82 : MUD CAKE SAMPLE TEMPERATURE
MFSS.                     FP : MUD FILTRATE SAMPLE SOURCE
MCSS.                     FP : MUD CAKE SAMPLE SOURCE
RMB .OHMM               0.42 : RESISTIVITY MUD AT BHT
TCS .HRS                   9 : TIME CIRCULATED STOPPED
LUN .                   3530 : LOGGING UNIT NUMBER
LUL .                     PL : LOGGING UNIT LOCATION
ENGI.                 HODGES : RECORDING ENGINEER
WITN.                JANTZEN : WITNESSED BY
CLNT.                A2DTECH : CLIENT CODE
ORIG.               2" PRINT : ORIGIN OF DATA
UWI .         42323000820000 : UNIQUE WELL ID
DICO. A2D Technologies, Inc. : DIGITIZING COMPANY
~Other -----------------------------------------------------
~ASCII -----------------------------------------------------
# ...
 3950.00000  -82.90720   12.97550    -999.25    -999.25   14.49770   12.71250   82.04930    -999.25   65.55920
 4000.00000    -999.25    -999.25    -999.25    -999.25    -999.25    -999.25    -999.25    -999.25    -999.25
 4050.00000    -999.25    -999.25    -999.25    -999.25    -999.25    -999.25    -999.25    -999.25    -999.25
 4100.00000    -999.25    -999.25    -999.25    -999.25    -999.25    -999.25    -999.25    -999.25    -999.25
 4150.00000    -999.25    -999.25    -999.25    -999.25    -999.25    -999.25    -999.25    -999.25    -999.25
 4200.00000  -27.70900   11.21790    -999.25    -999.25   69.26040  130.03760   10.04640    -999.25   55.43910
 4250.00000  -34.13310   11.43540    -999.25    -999.25  113.25120  642.11160    4.48200    -999.25   50.95900
 4300.00000  -44.60430   11.32660    -999.25    -999.25  137.90450  236.51770    4.58540    -999.25   47.93210
 4350.00000  -79.25730   10.34680    -999.25    -999.25   32.43450   19.49140   58.26890    -999.25   51.04350
 4400.00000  -67.95670    9.88020    -999.25    -999.25   31.97230   32.57280   47.14870    -999.25   56.86350
 4450.00000  -69.27240   10.11790    -999.25    -999.25   28.41050   20.18480   51.57370    -999.25   52.52750
 4500.00000  -29.83210   10.97670    -999.25  630.19460   68.04980   86.07700   14.06490    -999.25   50.68090
 4550.00000  -19.50460   11.07760   45.93060  611.51750   27.16490   25.73180   40.85490    -999.25   60.07990
 4600.00000  -17.56990   10.56450   57.39540  704.90270   73.91740  180.89370   11.07710    -999.25   52.16780
 4650.00000  -27.16740   11.27630   72.23690  449.03620   51.57160   50.07700   19.93820    -999.25   51.64830
 4700.00000  -19.81420   10.56450   55.76310  515.65000   37.73500   43.52850   24.57500    -999.25   53.49790
 4750.00000  -18.65350   11.01540   65.49750  591.59330   40.68820   48.53680   23.95670    -999.25   51.29830
 4800.00000  -80.80500   10.37790   50.25980  605.91640   27.62710   18.47860   68.05770    -999.25   55.80510
 4850.00000  -34.59780   10.28450   67.99110  589.10100   29.81510   23.80590   47.24440    -999.25   56.77300
 4900.00000  -33.90090   10.12770   48.02330  652.60290   40.42490   50.61650   27.04790    -999.25   53.36470
 4950.00000  -30.41790   10.34560   57.14520  450.89290   25.79350   22.49610   50.12880    -999.25   59.81750
 5000.00000  -30.88310   10.67320   60.25940  470.80690   39.49150   53.23570   22.30840    -999.25   63.91610
 5050.00000  -32.73990   10.65780   85.68200  398.59920   41.37130   65.17730   17.92820    -999.25   59.88150
 5100.00000  -29.25700   10.36220   60.01290  530.58370   28.27430   25.32960   39.10360    -999.25   56.40260
 5150.00000  -27.94120   10.17570   66.74040  491.98090   40.26190   67.41140   17.51620    -999.25   54.97060
 5200.00000  -30.61900   10.31570   58.39140  541.78940   51.47920   86.67180   10.04640    -999.25   53.27800
 5250.00000  -23.37460   10.19120   76.14920  566.07000   59.41450  193.52870    6.18160    -999.25   51.29150
 5300.00000  -19.96900   10.06690   56.39950  558.59920   27.99690   22.57320   40.85390    -999.25   58.67390
 5350.00000  -68.38240   10.20680   52.16140  657.58610   50.27730   60.09280   16.53790    -999.25   51.30670
 5400.00000  -18.85120    9.95800   49.04570  615.24880   45.53160   60.40060   19.11270    -999.25   53.91450
 5450.00000  -23.06550   10.12910   73.96880  461.47810   55.85520   80.89380    7.72800    -999.25   54.96500
 5500.00000  -26.39300   10.20680   34.21770  674.39280   71.10940  638.38440    2.62750    -999.25   50.66930
 5550.00000  -68.42120    9.88030   53.28310  749.72360   47.99370   43.06630   27.82070    -999.25   58.00230
 5600.00000  -25.17080   10.02020   52.16180  559.84120   73.11250  173.65180    5.71870    -999.25   53.08170
 5650.00000  -26.74160   10.56440   53.65760  399.22180   32.72730   25.11550   48.17270    -999.25   61.17420
 5700.00000  -47.67080   10.19120   49.17130  556.72940   82.63480  446.43040    1.08190    -999.25   52.04800
 5750.00000  -48.75780    9.72490   41.69460  576.65120   43.63640   56.39450   15.92010    -999.25   57.43370
 5800.00000  -45.13650    9.67800   61.00920  478.28790   27.10320   18.56700   59.81400    -999.25   56.38920
 5850.00000  -45.96270    9.80250   54.52940  614.00880   51.86440   83.42700   14.58010    -999.25   53.84060
 5900.00000  -49.06830    9.56910   57.02180  621.47710   84.69950  468.56700    3.55490    -999.25   53.54820
 5950.00000  -46.50620    9.75590   50.79150  575.40960   99.36830  725.11550    3.60620    -999.25   51.00940
 6000.00000  -59.31680   10.06680   51.91240  678.13710  163.68300  728.35460    0.00040    -999.25   49.40220
 6050.00000  -92.32590   10.03590   39.07730  621.76220   91.60250  413.71340    5.51240    -999.25   52.78750
 6100.00000  -58.47510    9.92680   59.88790  549.26070   99.45110   99.92300   11.59200    -999.25   52.92710
 6150.00000  -44.49610   10.25350   50.91530  541.79190   98.85780  146.13640    6.90360    -999.25   57.68370
 6200.00000  -30.15500    9.64690   47.67600  643.26800  108.62870  722.18800    1.39100    -999.25   49.31420
 6250.00000  -25.34920    9.74690   58.51680  513.77440   36.61020   37.98150   27.61480    -999.25   59.96000
 6300.00000  -50.59660    9.51920   45.88660  765.29130   76.68720  271.95680    4.79140    -999.25   51.44460
 6350.00000  -39.53530   10.09800   55.80210  480.15670   29.06010   27.58090   39.56820    -999.25   50.90950
 6400.00000  -32.79070   10.19170   50.36400  557.97520   50.72400   61.37630   16.53790    -999.25   53.32670
 6450.00000  -49.07010   10.42460   49.31230  581.63420   55.10020   96.28920   13.29100    -999.25   53.52650
 6500.00000  -31.76670   10.13030   44.86960  540.54370   35.54700   45.92780   32.92120    -999.25   55.12490
 6550.00000  -82.79070   10.62670   63.00300  407.31410   54.65330  100.25790   11.84960    -999.25   56.64340
 6600.00000  -60.85270   10.05120   44.56050  599.06720   72.40370   80.91940   13.54940    -999.25   51.72260
 6650.00000  -69.26370    9.72460   35.21470  729.80750  170.29280  296.61020    3.29690    -999.25   51.53710
 6700.00000  -66.58910    9.61570   46.92810  754.70410  117.93530  330.50850    5.89440    -999.25   49.57040
 6750.00000  -53.79850    9.28910   35.58860  884.82540  113.25120  275.34670    6.18240    -999.25   51.53620
 6800.00000  -59.97520    9.32040   35.09040  783.34320  107.08780  507.68280    0.00040    -999.25   56.45530
 6850.00000  -64.10890    9.39820   45.05840  753.46410   77.56550  194.91530    8.65460    -999.25   51.72830
 6900.00000  -46.12400    9.22690   54.15540  756.57430   78.13490  545.73970    6.44130    -999.25   56.16380
 6950.00000  -36.82220    9.33580   42.81620  587.85590   31.94140   34.05240   32.61200    -999.25   55.03030
 7000.00000  -31.50230    9.50440   43.93790  532.45030   14.00620    9.63020  115.76510    -999.25   59.78060
 7050.00000  -31.24030    9.33590   45.80690  523.11240   26.27120   26.73360   38.12440    -999.25   61.14240
 7100.00000  -34.96120    9.35160   50.41740  510.65740   27.65790   27.50390   40.75220   31.55690   61.53850
 7150.00000  -30.11630    9.22610   41.07140  612.76060   20.87830   14.94610   73.31340   22.01700   57.84020
 7200.00000    -999.25    -999.25   38.95330  633.30430    -999.25    -999.25    -999.25   20.41770    -999.25
 7250.00000    -999.25    6.50090   42.19270  491.98340    -999.25    -999.25    -999.25   28.09990    -999.25
 7300.00000  -18.99220    6.57260   53.90640 1414.03480   34.71490   28.85800   34.05680   36.10150   72.68890
 7350.00000  -19.09970    6.39170   50.29300 1289.72410   43.54390   32.63880   31.00780   37.77570   78.54440
 7400.00000  -15.06210    6.34520   49.42100 1114.88620   11.01690   10.33950   99.06980   56.35670   85.48360
 7450.00000  -15.83850    6.25190   51.28970 1932.68590   23.32820   18.16750   58.29460   68.62150   59.48980
 7500.00000  -16.14910    6.34520   46.67870 1347.99290   17.64250   11.33540   87.59690   62.72450  100.03990
 7550.00000  -17.46890    6.34250   55.89990 1200.35310    9.64560    6.98770  157.66840   57.14960   86.16150
