~Version ---------------------------------------------------
VERS. 2.0 : CWLS log ASCII Standard -VERSION 2.0
WRAP. YES : MULTIPLE LINES PER DEPTH STEP
~Well ------------------------------------------------------
STRT.FT                        2500.0 : START DEPTH
STOP.FT                       18000.0 : STOP DEPTH
STEP.FT                      50.00000 : STEP LENGTH
NULL.                         -999.25 : NULL VALUE
COMP. UNION PACIFIC RESOURCES COMPANY : COMPANY
WELL.       UPR T-BAR-X KING COBRA #1 : WELL
FLD .                         WILDCAT : FIELD
LOC .                                 : LOCATION
CNTY.                            LEON : COUNTY
STAT.                           TEXAS : STATE
CTRY.        UNITED STATES OF AMERICA : COUNTRY
SRVC.                    Schlumberger : SERVICE COMPANY
DATE.                     05-Nov-1997 : LOGDATE
API .                  42289312660000 : API NUMBER
UWI .                  42289312660000 : UNIQUE WELL ID
SLAT.WGS84              31.2008912115 : SURFACE LATITUDE
SLON.WGS84             -96.2874133979 : SURFACE LONGITUDE
~Curve Information -----------------------------------------
DEPT    .FT    : DEPTH FEET
AT10ED  .OHMM  : 10 INCH RESISTIVITY TWO FOOT RESOLUTION FROM AIT LOG
AT20ED  .OHMM  : 20 INCH RESISTIVITY TWO FOOT RESOLUTION FROM AIT LOG
AT30ED  .OHMM  : 30 INCH RESISTIVITY TWO FOOT RESOLUTION FROM AIT LOG
AT60ED  .OHMM  : 60 INCH RESISTIVITY TWO FOOT RESOLUTION FROM AIT LOG
AT90ED  .OHMM  : 90 INCH RESISTIVITY TWO FOOT RESOLUTION FROM AIT LOG
CALDED  .IN    : CALIPER FROM DENSITY LOG [DEP ADJ TO GRRED]
CALRED  .IN    : CALIPER FROM RESISTIVITY LOG
CALWS   .IN    : CALIPER [2484 CALICAL 15888 CALRED]
CGRDED  .GAPI  : GAMMA RAY FROM DENSITY LOG [DEP ADJ TO GRRED]
CONDWS  .MMHO  : CONDUCTIVITY [1000/DRESWS]
DCALED  .IN    : DIFFERENTIAL CALIPER FROM DENSITY LOG
DCORWS  .G/C3  : DENSITY CORRECTION [2484 DRHOED 9946 DRHED 15888.5 DRHOED]
DENWS   .G/C3  : BULK DENSITY [M=2.71 F=1.0] [CALCULATED FROM DPOWS]
DPHILSED.V/V   : DENSITY POROSITY [M=2.71 F=1.0] FROM DENSITY LOG [DEP ADJ TO GRRED]
DPOLSED .V/V   : DENSITY POROSITY HIGH RESOLUTION [M=2.71 F=1.0] FROM DENSITY LOG
DPOWS   .V/V   : DENSITY POROSITY [M=2.71 F=1.0] [2484 DPHILSED 9942 DPOLSED 15888 DPHILSED]
DRESWS  .OHMM  : DEEP RESISTIVITY [A2484 AT90ED 9948.5 IDPHED 15892 LLDED]
DRHED   .G/C3  : DENSITY CORRECTION
DRHOED  .G/C3  : DENSITY CORRECTION FROM DENSITY LOG [DEP ADJ TO GRRED]
DTCOED  .US/F  : DELTA TIME COMPRESSIONAL FROM SONIC LOG [DEP ADJ TO GRRED]
DTED    .US/F  : DELTA TIME FROM SONIC LOG
DTLED   .US/F  : DELTA TIME LONG SPACING FROM SONIC LOG
DTLFED  .US/F  : DELTA TIME LONG SPACING FAR DETECTOR FROM SONIC LOG
DTLNED  .US/F  : DELTA TIME LONG SPACING NEAR DETECTOR FROM SONIC LOG
DTSMED  .US/F  : DELTA TIME SHEAR WAVE FROM SONIC LOG [DEP ADJ TO GRRED]
DTSWS   .US/F  : DELTA TIME SHEAR [DTSMED]
DTWS    .US/F  : DELTA TIME [2484 DTLNED 10155.5 DTLFED 10297.5 DTLNED 10506.5 DTLFED 10628.5 DTLNED 10694 DTLFED 10859 DTLNED 11620 DTLFED 13285.5 DTLNED 14723 DTLFED 15057 DTLNED 15798 DTLFED 15889.5 DTED 15912.5 DTCOED]
GRRED   .GAPI  : GAMMA RAY FROM RESISTIVITY LOG
GRSED   .GAPI  : GAMMA RAY FROM SONIC LOG [DEP ADJ TO GRRED]
GRWS    .GAPI  : GAMMA RAY [2484 GRRED 9881.5 GRREDNRM 9946 GRRED 15728.5 GRSEDNRM 15878 CGRDED 16070 GRRED]
IDPHED  .OHMM  : INDUCTION DEEP PHASE RESISTIVITY
IMPHED  .OHMM  : INDUCTION MEDIUM PHASE RESISTIVITY
LLDED   .OHMM  : LATEROLOG DEEP RESISTIVITY
LLSED   .OHMM  : LATEROLOG SHALLOW RESISTIVITY
MRESWS  .OHMM  : MEDIUM RESISTIVITY [2484 AT30ED 9949.5 IMPHED]
NPHILSED.V/V   : NEUTRON POROSITY LIMESTONE FROM DENSITY LOG [DEP ADJ TO GRRED]
NPOWS   .V/V   : NEUTRON POROSITY LIMESTONE [2484 NPHILSED 15780.5 NPHILNRM 15883.5 NPHILSED]
PEFED   .B/E   : PHOTOELECTRIC FACTOR FROM DENSITY LOG
PEFLED  .B/E   : PHOTOELECTRIC FACTOR FROM DENSITY LOG
PEFWS   .B/E   : PHOTOELECTRIC FACTOR [2484 PEFED 9952.5 PEFLED]
RESED   .OHMM  : SYNTHETIC RESISTIVITY
SFLUED  .OHMM  : SPHERICALLY FOCUSED LOG RESISTIVITY
SPHILSED.V/V   : SONIC POROSITY FROM SONIC LOG [DEP ADJ TO GRRED]
SPOWS   .V/V   : SONIC POROSITY [CAL FR DTWS; M= 47.6, F=189]
SPRED   .MV    : SPONTANEOUS POTENTIAL FROM RESISTIVITY LOG [SHIFTS ARE REMOVED]
SPWS    .MV    : SPONTANEOUS POTENTIAL [BASELINE 0 MV] [SPRED]
SRESWS  .OHMM  : SHALLOW RESISTIVITY [2484 AT10ED 9945.5 SFLUED 15891.5 LLSED]
TENDED  .LBF   : TENSION FROM DENSITY LOG [DEP ADJ TO GRRED]
TENRED  .LBF   : TENSION FROM RESISTIVITY LOG
~Params ----------------------------------------------------
PD  .                     GL : PERMANENT DATUM
EPD .FT                  348 : ELEVATION PERMANENT DATUM
LMF .                     KB : LOG MEASURED FROM
DAPD.FT                   28 : FEET ABOVE PERMANENT DATUM
DMF .                     KB : DRILLING MEASURED FROM
EKB .FT                  376 : KELLY BUSHING
EDF .FT                  374 : DRILLING FLOOR
EGL .FT                  348 : GROUND LEVEL
DATE.               11/05/97 : RUN DATE
RUN .                      3 : RUN NUMBER
DD  .FT                18038 : DEPTH DRILLER
DL  .FT                18024 : DEPTH LOGGER
BLI .FT                 1800 : BOTTOM LOG INTERVAL
TLI .FT                15888 : TOP LOG INTERVAL
CS  .IN                7.625 : CASING SIZE
CBD .FT                15888 : CASING BOTTOM DRILLER
CBL .FT                15888 : CASING BOTTOM LOGGER
BS  .IN                    6 : BIT SIZE
BSD .FT                18038 : BIT SIZE AT DEPTH
DFT .                POLYMER : DRILLING FLUID TYPE
DFD .                   18.2 : DRILLING FLUID DENSITY
DFV .                     40 : DRILLING FLUID VISCOSITY
DFPH.                      9 : DRILLING FLUID PH
DFL .                    5.6 : DRILLING FLUID LOSS
MSS .       CIRCULATION TANK : MUD SAMPLE SOURCE
RMS .OHMM               1.14 : RESISTIVITY MUD SAMPLE
MST .DEGF                 90 : MUD SAMPLE TEMPERATURE
RMF .OHMM              0.969 : RESISTIVITY MUD FILTRATE SAMPLE
MFST.DEGF                 90 : MUD FILTRATE SAMPLE TEMPERATURE
RMC .OHMM              1.311 : RESISTIVITY MUD CAKE
MCST.DEGF                 90 : MUD CAKE SAMPLE TEMPERATURE
MFSS.             CALCULATED : MUD FILTRATE SAMPLE SOURCE
MCSS.             CALCULATED : MUD CAKE SAMPLE SOURCE
RMB .OHMM              0.278 : RESISTIVITY MUD AT BHT
TCS .HRS                2200 : TIME CIRCULATED STOPPED
TLAB.HRS                 445 : TIME LOGGER AT BOTTOM
LUN .                   8400 : LOGGING UNIT NUMBER
LUL .                   6450 : LOGGING UNIT LOCATION
ENGI.                SKRBICH : RECORDING ENGINEER
WITN.          BLANKE WEAVER : WITNESSED BY
CLNT.                A2DTECH : CLIENT CODE
ORIG.         1" 2" 5" PRINT : ORIGIN OF DATA
UWI .         42289312660000 : UNIQUE WELL ID
DICO. A2D Technologies, Inc. : DIGITIZING COMPANY
~Other -----------------------------------------------------
~ASCII -----------------------------------------------------
# ...
 16000.00000    -999.25    -999.25    -999.25    -999.25    -999.25    7.54250    7.37240    7.37240   99.01080   45.16430    -999.25   -0.09620    2.51030    0.11680    -999.25    0.11680   22.14140    -999.25   -0.09620  100.89020   97.08190   96.27160    -999.25    -999.25  150.07080  150.07080  100.89020    -999.25  113.97700   99.01080    -999.25    -999.25   22.14140   27.92400    -999.25    0.16550    0.16550    -999.25    -999.25    -999.25    -999.25    -999.25    0.37740    0.37690    -999.25    -999.25   27.92400 4790.06790 6024.14650
 16050.00000    -999.25    -999.25    -999.25    -999.25    -999.25    7.18020    6.66580    6.66580   90.62190   50.46660    -999.25   -0.07160    2.57610    0.07830    -999.25    0.07830   19.81510    -999.25   -0.07160   97.14540   95.66930   95.54810    -999.25    -999.25  156.59160  156.59160   97.14540  113.98710  122.78770   90.62190    -999.25    -999.25   19.81510   21.67630    -999.25    0.18100    0.18100    -999.25    -999.25    -999.25    -999.25    -999.25    0.35180    0.35040    -999.25    -999.25   21.67630 4875.35250 6095.16160
 16100.00000    -999.25    -999.25    -999.25    -999.25    -999.25    7.05010    6.64170    6.64170   91.60230   35.53990    -999.25   -0.10760    2.54740    0.09510    -999.25    0.09510   28.13740    -999.25   -0.10760   99.40160   98.06490  100.32640    -999.25    -999.25  154.46840  154.46840   99.40160  107.21130  114.91290  107.21130    -999.25    -999.25   28.13740   31.00360    -999.25    0.19130    0.19130    -999.25    -999.25    -999.25    -999.25    -999.25    0.36840    0.36630    -999.25    -999.25   31.00360 4951.30760 5659.67680
 16150.00000    -999.25    -999.25    -999.25    -999.25    -999.25    6.32870    6.30000    6.30000   70.23200   23.49930    -999.25   -0.06420    2.52580    0.10770    -999.25    0.10770   42.55450    -999.25   -0.06420   91.67570   85.22570   85.46080    -999.25    -999.25  145.82940  145.82940   91.67570  102.87020   97.70340  102.87020    -999.25    -999.25   42.55450   31.21330    -999.25    0.12480    0.12480    -999.25    -999.25    -999.25    -999.25    -999.25    0.31120    0.31170    -999.25    -999.25   31.21330 5093.40580 6661.83250
 16200.00000    -999.25    -999.25    -999.25    -999.25    -999.25    6.20460    6.15860    6.15860   63.94020   19.09990    -999.25   -0.05930    2.51350    0.11490    -999.25    0.11490   52.35640    -999.25   -0.05930   85.51790   88.44030   83.13670    -999.25    -999.25  138.02560  138.02560   85.51790  121.37190  107.60260  121.37190    -999.25    -999.25   52.35640   59.70960    -999.25    0.12410    0.12410    -999.25    -999.25    -999.25    -999.25    -999.25    0.26900    0.26820    -999.25    -999.25   59.70960 5137.86520 6594.34470
 16250.00000    -999.25    -999.25    -999.25    -999.25    -999.25    5.84910    5.81720    5.81720   34.82850    9.74430    -999.25   -0.05420    2.70250    0.00440    -999.25    0.00440  102.62370    -999.25   -0.05420   59.30540   59.77580   59.39090    -999.25    -999.25  106.07300  106.07300   59.30540   48.03920   51.39620   48.03920    -999.25    -999.25  102.62370  110.38060    -999.25    0.02770    0.02770    -999.25    -999.25    -999.25    -999.25    -999.25    0.08410    0.08280    -999.25    -999.25  110.38060 5188.98190 6058.98630
 16300.00000    -999.25    -999.25    -999.25    -999.25    -999.25    5.95550    5.94250    5.94250   22.87980    5.97130    -999.25   -0.05450    2.71680   -0.00400    -999.25   -0.00400  167.46730    -999.25   -0.05450   51.79540   52.98510   53.63070    -999.25    -999.25   96.90200   96.90200   51.79540   34.48470   33.01570   34.48470    -999.25    -999.25  167.46730  151.12070    -999.25    0.00790    0.00790    -999.25    -999.25    -999.25    -999.25    -999.25    0.03160    0.02970    -999.25    -999.25  151.12070 5068.07860 5915.88180
 16350.00000    -999.25    -999.25    -999.25    -999.25    -999.25    5.69550    5.69880    5.69880   11.80310    4.30050    -999.25   -0.06650    2.70520    0.00280    -999.25    0.00280  232.53210    -999.25   -0.06650   51.38390   50.71170   50.22700    -999.25    -999.25   96.07180   96.07180   51.38390   20.35630   21.87600   20.35630    -999.25    -999.25  232.53210  274.54070    -999.25    0.00770    0.00770    -999.25    -999.25    -999.25    -999.25    -999.25    0.02740    0.02680    -999.25    -999.25  274.54070 5103.68800 6064.82760
 16400.00000    -999.25    -999.25    -999.25    -999.25    -999.25    5.76970    5.75920    5.75920    6.26450    4.29330    -999.25   -0.08080    2.72730   -0.01010    -999.25   -0.01010  232.92030    -999.25   -0.08080   50.12920   49.65640   49.31920    -999.25    -999.25   93.51830   93.51830   50.12920    6.32550    7.23110    6.32550    -999.25    -999.25  232.92030  277.32190    -999.25    0.00300    0.00300    -999.25    -999.25    -999.25    -999.25    -999.25    0.01930    0.01790    -999.25    -999.25  277.32190 5004.38670 6035.51030
 16450.00000    -999.25    -999.25    -999.25    -999.25    -999.25    5.91170    5.87360    5.87360    5.15130    4.39760    -999.25   -0.06100    2.71910   -0.00530    -999.25   -0.00530  227.39930    -999.25   -0.06100   52.17670   51.84680   51.48830    -999.25    -999.25   96.08030   96.08030   52.17670   10.22330    9.52280   10.22330    -999.25    -999.25  227.39930  267.23320    -999.25    0.00590    0.00590    -999.25    -999.25    -999.25    -999.25    -999.25    0.03490    0.03240    -999.25    -999.25  267.23320 5018.34620 6164.60060
 16500.00000    -999.25    -999.25    -999.25    -999.25    -999.25    6.07630    6.08480    6.08480    8.30570    3.73100    -999.25   -0.06620    2.67190    0.02230    -999.25    0.02230  268.02470    -999.25   -0.06620   49.06480   49.45540   49.11850    -999.25    -999.25   94.67860   94.67860   49.06480    8.57390    8.40000    8.57390    -999.25    -999.25  268.02470  269.04390    -999.25    0.00180    0.00180    -999.25    -999.25    -999.25    -999.25    -999.25    0.01270    0.01040    -999.25    -999.25  269.04390 4952.39500 6141.18850
 16550.00000    -999.25    -999.25    -999.25    -999.25    -999.25    5.79060    5.79500    5.79500    2.38540    4.05120    -999.25   -0.06850    2.61560    0.05520    -999.25    0.05520  246.83840    -999.25   -0.06850   51.20860   51.32870   50.99450    -999.25    -999.25   95.08080   95.08080   51.20860    6.28250    6.86710    6.28250    -999.25    -999.25  246.83840  264.20920    -999.25    0.01380    0.01380    -999.25    -999.25    -999.25    -999.25    -999.25    0.02710    0.02550    -999.25    -999.25  264.20920 5045.63920 5902.38480
 16600.00000    -999.25    -999.25    -999.25    -999.25    -999.25    5.86580    5.86270    5.86270    6.67750    5.17900    -999.25   -0.06930    2.70320    0.00400    -999.25    0.00400  193.08750    -999.25   -0.06930   50.27720   51.40030   51.08340    -999.25    -999.25   95.59250   95.59250   50.27720    7.87000    5.94250    7.87000    -999.25    -999.25  193.08750  228.43770    -999.25    0.00600    0.00600    -999.25    -999.25    -999.25    -999.25    -999.25    0.02240    0.01890    -999.25    -999.25  228.43770 5069.14360 5905.37260
 16650.00000    -999.25    -999.25    -999.25    -999.25    -999.25    5.86550    5.86220    5.86220    3.85290    3.46130    -999.25   -0.04240    2.72560   -0.00910    -999.25   -0.00910  288.91070    -999.25   -0.04240   51.06520   52.15280   51.82430    -999.25    -999.25   94.01140   94.01140   51.06520    6.80520    7.03980    6.80520    -999.25    -999.25  288.91070  288.17890    -999.25    0.00250    0.00250    -999.25    -999.25    -999.25    -999.25    -999.25    0.02620    0.02450    -999.25    -999.25  288.17890 5071.27200 6143.84330
 16700.00000    -999.25    -999.25    -999.25    -999.25    -999.25    6.00420    5.94780    5.94780    3.59550    2.74350    -999.25   -0.08650    2.71620   -0.00360    -999.25   -0.00360  364.49320    -999.25   -0.08650   46.41050   49.51610   48.98130    -999.25    -999.25   92.24270   92.24270   46.41050   10.39190   11.53510   10.39190    -999.25    -999.25  364.49320  309.77930    -999.25    0.00230    0.00230    -999.25    -999.25    -999.25    -999.25    -999.25   -0.00430   -0.00840    -999.25    -999.25  309.77930 5036.74220 6165.98340
