~Version ---------------------------------------------------
VERS.      2.0 : CWLS log ASCII Standard -VERSION 2.0
WRAP.      YES : Multiple lines per depth step
CREA. 08/08/12 : LAS Creation Date
~Well ------------------------------------------------------
STRT.FT                 3750.0 : START DEPTH
STOP.FT                10100.0 : STOP DEPTH
STEP.FT               50.00000 : STEP LENGTH
NULL.                  -999.25 : NULL VALUE
COMP.              GOSE, STEVE : COMPANY
WELL.         VACLAVIC UNIT #1 : WELL
FLD .                 GIDDINGS : FIELD
LOC .                          : LOCATION
CNTY.                  FAYETTE : COUNTY
STAT.                    TEXAS : STATE
CTRY. UNITED STATES OF AMERICA : COUNTRY
SRVC.             Schlumberger : SERVICE COMPANY
DATE.              13-Aug-1981 : LOGDATE
API .           42149308390000 : API NUMBER
UWI .           42149308390000 : UNIQUE WELL ID
SLAT.WGS84       29.9573034487 : SURFACE LATITUDE
SLON.WGS84      -96.9214592176 : SURFACE LONGITUDE
~Curve Information -----------------------------------------
DEPT    .FT    : DEPTH FEET
CALDED  .IN    : CALIPER FROM DENSITY PLAYBACK LOG
CALWS   .IN    : CALIPER [DCALED + BITS SPLICED WITH CALDED @ 9170']
CONDWS  .MMHO  : CONDUCTIVITY [1000/DRESWS]
DCALED  .IN    : DIFRENTIAL CALIPER FROM DUAL INDUCTION/DENSITY/NEUTRON/GR LOG
DCORWS  .G/C3  : DENSITY CORRECTION [DRHOED]
DENWS   .G/C3  : FORMATION BULK DENSITY [CALCUALATED FROM DPOWS, M=2.71, F=1.0 & SPLICED WITH RHOBED @ 7810']
DPHILSED.V/V   : DENSITY POROSITY LIMESTONE [M=2.71, F=1.0] FROM DUAL INDUCTION/DENSITY/NEUTRON/GR LOG
DPHISSED.V/V   : DENSITY POROSOTY SANDSTONE [M=2.68, F=1.0] FROM DUAL INDUCTION/DENSITY/NEUTRON/GR LOG
DPOWS   .V/V   : DENSITY POROSITY LIMESTONE[DPHISSED CONVERTED TO LIMESTONE(M=2.71, F=1.0) & SPLICED TO DPHILSED AT 7810']
DRESWS  .OHMM  : DEEP RESISTIVITY [ILDED]
DRHO1ED .G/C3  : DENSITY CORRECTION FROM DUAL INDUCTION/DENSITY/NEUTRON/GR LOG
DRHOED  .G/C3  : DENSITY CORRECTION FROM DENSITY PLAYBACK LOG
GRDED   .GAPI  : GAMMA RAY FROM DENSITY PLAYBACK LOG
GRRED   .GAPI  : GAMMA RAY FROM DUAL INDUCTION/DENSITY/NEUTRON/GR LOG
GRWS    .GAPI  : GAMMA RAY [GRRED]
ILDED   .OHMM  : DEEP INDUCTION FROM DUAL INDUCTION/DENSITY/NEUTRON/GR LOG
ILMED   .OHMM  : MEDIUM INDUCTION FROM DUAL INDUCTION/DENSITY/NEUTRON/GR LOG
MRESWS  .OHMM  : MEDIUM RESISTIVITY [ILMED]
NPHILSED.V/V   : NEUTRON POROSITY LIMESTONE FROM DUAL INDUCTION/DENSITY/NEUTRON/GR LOG
NPHISSED.V/V   : NEUTRON POROSITY SANDSTONE FROM DUAL INDUCTION/DENSITY/NEUTRON/GR LOG
NPOWS   .V/V   : NEUTRON POROSITY LIMESTONE [NPHISSED MATRIX CONVERTED TO LIMESTONE & SPLICED WITH NPHILSED AT 7810']
RHOBED  .G/C3  : BULK DENSITY FROM DENSITY PLAYBACK LOG
SFLUED  .OHMM  : SPHERICALLY FOCUSED (UNAVERAGED) INDUCTION FROM DUAL INDUCTION/DENSITY/NEUTRON/GR LOG
SPRED   .MV    : SPONTANEOUS POTENTIAL FROM DUAL INDUCTION/DENSITY/NEUTRON/GR LOG
SPWS    .MV    : SPONTANEOUS POTENTIAL [BASELINE 0 MV, SPRED]
SRESWS  .OHMM  : SHALLOW RESISTIVITY [SFLUED]
~Params ----------------------------------------------------
PD  .                     GL : PERMANENT DATUM
EPD .FT                  253 : ELEVATION PERMANENT DATUM
LMF .                     KB : LOG MEASURED FROM
DAPD.FT                   12 : FEET ABOVE PERMANENT DATUM
DMF .                     KB : DRILLING MEASURED FROM
EKB .FT                  265 : KELLY BUSHING
EDF .FT                  264 : DRILLING FLOOR
EGL .FT                  253 : GROUND LEVEL
DATE.               08/13/81 : RUN DATE
RUN .                      1 : RUN NUMBER
DD  .FT                10160 : DEPTH DRILLER
DL  .FT                10145 : DEPTH LOGGER
BLI .FT                10139 : BOTTOM LOG INTERVAL
TLI .FT                 3712 : TOP LOG INTERVAL
CS  .IN                8.625 : CASING SIZE
CBD .FT                 3726 : CASING BOTTOM DRILLER
CBL .FT                 3712 : CASING BOTTOM LOGGER
BS  .IN                7.875 : BIT SIZE
BSD .FT                10160 : BIT SIZE AT DEPTH
DFT .         LIGNOSULFONATE : DRILLING FLUID TYPE
DFD .                    9.2 : DRILLING FLUID DENSITY
DFV .                     50 : DRILLING FLUID VISCOSITY
DFPH.                      9 : DRILLING FLUID PH
DFL .                      6 : DRILLING FLUID LOSS
MSS .              CIRC TANK : MUD SAMPLE SOURCE
RMS .OHMM               1.34 : RESISTIVITY MUD SAMPLE
MST .DEGF                 98 : MUD SAMPLE TEMPERATURE
RMF .OHMM                1.0 : RESISTIVITY MUD FILTRATE SAMPLE
MFST.DEGF                 98 : MUD FILTRATE SAMPLE TEMPERATURE
RMC .OHMM                2.0 : RESISTIVITY MUD CAKE
MCST.DEGF                 98 : MUD CAKE SAMPLE TEMPERATURE
MFSS.             CALCULATED : MUD FILTRATE SAMPLE SOURCE
MCSS.             CALCULATED : MUD CAKE SAMPLE SOURCE
RMB .OHMM              0.633 : RESISTIVITY MUD AT BHT
TCS .HRS                1600 : TIME CIRCULATED STOPPED
TLAB.HRS                2300 : TIME LOGGER AT BOTTOM
LUN .                   8176 : LOGGING UNIT NUMBER
LUL .                BRENHAM : LOGGING UNIT LOCATION
ENGI.                  BRUCK : RECORDING ENGINEER
WITN.                BECKHAM : WITNESSED BY
CLNT.                A2DTECH : CLIENT CODE
ORIG.            2" 5" PRINT : ORIGIN OF DATA
UWI .         42149308390000 : UNIQUE WELL ID
DICO. A2D Technologies, Inc. : DIGITIZING COMPANY
~Other -----------------------------------------------------
~ASCII -----------------------------------------------------
# ...
 9150.00000    -999.25   10.68610  392.15690    2.81110    -999.25    -999.25    -999.25    -999.25    -999.25    2.55000    -999.25    -999.25    -999.25   88.50470   88.50470    2.55000    3.15050    3.15050    -999.25    -999.25    -999.25    -999.25    2.76600  -24.07910  -22.94340    2.76600
 9200.00000    9.35320    9.35320   93.72600    1.47520    0.01900    2.63740    0.04990    -999.25    0.04990   10.66940    0.02320    0.01900   30.48290   30.77940   30.77940   10.66940   15.92620   15.92620    0.04330    -999.25    0.04330    2.63740   11.48590  -31.24400  -30.08710   11.48590
 9250.00000    9.63930    9.63930  104.99570    1.74480   -0.00120    2.58560    0.07030    -999.25    0.07030    9.52420    0.00560   -0.00120   24.81990   24.66120   24.66120    9.52420   13.96800   13.96800    0.06460    -999.25    0.06460    2.58560   11.66890  -33.35710  -32.17890   11.66890
 9300.00000    9.96940    9.96940   89.39830    2.06450    0.02600    2.60920    0.05720    -999.25    0.05720   11.18590    0.02580    0.02600   25.86420   25.17720   25.17720   11.18590   20.22560   20.22560    0.02580    -999.25    0.02580    2.60920   21.99740  -32.79150  -31.59210   21.99740
 9350.00000    9.46290    9.46290   65.77430    1.60080    0.00570    2.63930    0.04170    -999.25    0.04170   15.20350    0.00350    0.00570   25.94720   26.23030   26.23030   15.20350   23.10200   23.10200    0.04270    -999.25    0.04270    2.63930   27.87800  -31.38490  -30.16430   27.87800
 9400.00000    9.63930    9.63930   73.01720    1.74190    0.00750    2.61380    0.05530    -999.25    0.05530   13.69540    0.00900    0.00750   23.92530   24.05740   24.05740   13.69540   18.15610   18.15610    0.04680    -999.25    0.04680    2.61380   13.41970  -37.93280  -36.69090   13.41970
 9450.00000    9.37720    9.37720  166.16260    1.47230    0.06700    2.63720    0.04310    -999.25    0.04310    6.01820    0.07660    0.06700   40.69310   40.17400   40.17400    6.01820    8.76550    8.76550    0.07420    -999.25    0.07420    2.63720   11.43150  -26.60520  -25.34210   11.43150
 9500.00000    9.46050    9.46050  174.49880    1.50800   -0.00770    2.50750    0.11140    -999.25    0.11140    5.73070   -0.00500   -0.00770   42.91080   41.11880   41.11880    5.73070    8.39020    8.39020    0.14240    -999.25    0.14240    2.50750    6.21200  -24.55300  -23.26860    6.21200
 9550.00000    9.41420    9.41420  115.18610    1.51440    0.00350    2.63140    0.04530    -999.25    0.04530    8.68160    0.00510    0.00350   36.43610   36.20630   36.20630    8.68160   11.92010   11.92010    0.06030    -999.25    0.06030    2.63140    9.98810  -22.04290  -20.73730    9.98810
 9600.00000    9.43050    9.43050  139.24470    1.51570    0.00380    2.62860    0.04030    -999.25    0.04030    7.18160    0.00670    0.00380   30.31680   31.72870   31.72870    7.18160   10.55280   10.55280    0.05490    -999.25    0.05490    2.62860   11.19010  -26.45510  -25.12820   11.19010
 9650.00000    9.09690    9.09690  155.00270    1.20620    0.02070    2.60930    0.05910    -999.25    0.05910    6.45150    0.01970    0.02070   46.71930   47.89350   47.89350    6.45150    7.64610    7.64610    0.08090    -999.25    0.08090    2.60930    6.56340  -25.13890  -23.79080    6.56340
 9700.00000    8.84760    8.84760   95.19460    0.96760    0.03310    2.62790    0.04730    -999.25    0.04730   10.50480    0.03710    0.03310   36.28460   36.48490   36.48490   10.50480   14.34380   14.34380    0.07320    -999.25    0.07320    2.62790   15.80070  -26.51530  -25.14590   15.80070
 9750.00000    8.50620    8.50620   50.43650    0.59990    0.01480    2.63810    0.04160    -999.25    0.04160   19.82690    0.01660    0.01480   40.90140   40.13910   40.13910   19.82690   32.34380   32.34380    0.04590    -999.25    0.04590    2.63810   23.74570  -26.59980  -25.20920   23.74570
 9800.00000    8.50280    8.50280   57.41250    0.58800    0.00990    2.59040    0.07290    -999.25    0.07290   17.41780    0.00300    0.00990   41.52140   41.39010   41.39010   17.41780   29.29960   29.29960    0.06500    -999.25    0.06500    2.59040   16.54780  -30.83080  -29.41890   16.54780
 9850.00000    8.40420    8.40420   14.92190    0.53590    0.02120    2.58690    0.06870    -999.25    0.06870   67.01550    0.02020    0.02120   26.73350   27.85230   27.85230   67.01550  351.33870  351.33870    0.04400    -999.25    0.04400    2.58690  394.70070  -33.00700  -31.57390  394.70070
 9900.00000    8.35320    8.35320   13.60580    0.47430    0.01330    2.61710    0.05210    -999.25    0.05210   73.49820    0.01630    0.01330   44.69280   45.05590   45.05590   73.49820   68.74650   68.74650    0.05410    -999.25    0.05410    2.61710  155.46690  -23.27310  -21.81870  155.46690
 9950.00000   10.53630   10.53630  150.08250    2.63360    0.03940    2.55120    0.09000    -999.25    0.09000    6.66300    0.04140    0.03940  116.08580  116.24190  116.24190    6.66300    5.94190    5.94190    0.30170    -999.25    0.30170    2.55120    7.19220  -24.49180  -23.01620    7.19220
 10000.00000    9.84070    9.84070  285.66530    1.95640    0.10270    2.52900    0.10630    -999.25    0.10630    3.50060    0.10050    0.10270  115.81770  115.30620  115.30620    3.50060    3.26800    3.26800    0.27600    -999.25    0.27600    2.52900    5.33620  -24.52880  -23.03190    5.33620
 10050.00000    8.04060    8.04060   20.73330    0.10290    0.00130    2.68470    0.01380    -999.25    0.01380   48.23150    0.00500    0.00130   22.78960   23.13160   23.13160   48.23150   43.08940   43.08940    0.02540    -999.25    0.02540    2.68470   80.97700  -23.34180  -21.82370   80.97700
 10100.00000    7.81090    7.81090   11.77600    0.02180    0.03030    2.67680    0.01700    -999.25    0.01700   84.91840    0.03140    0.03030   23.57900   23.75090   23.75090   84.91840  104.10500  104.10500    -999.25    -999.25    -999.25    2.67680   74.51460  -45.15480  -43.61630   74.51460
