~Version ---------------------------------------------------
VERS. 2.0 : CWLS log ASCII Standard -VERSION 2.0
WRAP.  NO : ONE LINE PER DEPTH STEP
~Well ------------------------------------------------------
STRT.F                       3050.0 : START DEPTH
STOP.F                       7500.0 : STOP DEPTH
STEP.F                     50.00000 : STEP LENGTH
NULL.                       -999.25 : NULL VALUE
COMP.  REPUBLIC MINERAL CORPORATION : COMPANY
WELL. NEWBERRY MILTON SIMS ET AL #3 : WELL
FLD .                        KURTEN : FIELD
LOC .                               : LOCATION
CNTY.                        BRAZOS : COUNTY
STAT.                         TEXAS : STATE
CTRY.      UNITED STATES OF AMERICA : COUNTRY
SRVC.                 Dresser Atlas : SERVICE COMPANY
DATE.                   01-Sep-1985 : LOGDATE
API .                42041313290000 : API NUMBER
UWI .                42041313290000 : UNIQUE WELL ID
SLAT.WGS84            30.6573085015 : SURFACE LATITUDE
SLON.WGS84           -96.5726772144 : SURFACE LONGITUDE
~Curve Information -----------------------------------------
DEPT   .F    0   1   0  0 : 1 MEASURED DEPTH
GRR    .GAPI 07 310 01 00 : GAMMA RAY FROM RESISTIVITY LOG
CALR   .IN   07 280 01 00 : CALIPER FROM RESISTIVITY LOG
RFOC   .OHMM 07 220 06 00 : SHALLOW FOCUSED LOG RESISTIVITY
RILD   .OHMM 07 120 46 00 : INDUCTION DEEP RESISTIVITY
RILM   .OHMM 07 120 44 00 : INDUCTION MEDIUM RESISTIVITY
SPR    .MV   07 010 01 00 : SPONTANEOUS POTENTIAL FROM RESISTIVITY LOG
CORR   .G/C3 45 356 01 00 : DENSITY CORRECTION
CN_SS  .DEC  42 890 03 00 : COMPENSATED NEUTRON POROSITY SANDSTONE
PORD_SS.DEC  45 890 12 00 : DENSITY POROSITY [SANDSTONE]
PORD_LS.DEC  45 890 10 00 : DENSITY POROSITY [LIMESTONE]
CN_LS  .DEC  42 890 01 00 : COMPENSATED NEUTRON POROSITY LIMESTONE
~Params ----------------------------------------------------
PD  .                     GL : PERMANENT DATUM
EPD .FT                  247 : ELEVATION PERMANENT DATUM
LMF .                     KB : LOG MEASURED FROM
DAPD.FT                   16 : FEET ABOVE PERMANENT DATUM
DMF .                     KB : DRILLING MEASURED FROM
EKB .FT                  263 : KELLY BUSHING
EDF .FT                  262 : DRILLING FLOOR
EGL .FT                  247 : GROUND LEVEL
DATE.               01/09/85 : RUN DATE
RUN .                      1 : RUN NUMBER
DD  .FT                 7566 : DEPTH DRILLER
DL  .FT                 7552 : DEPTH LOGGER
BLI .FT                 7549 : BOTTOM LOG INTERVAL
TLI .FT                 3032 : TOP LOG INTERVAL
CS  .IN                8.625 : CASING SIZE
CBD .FT                 3035 : CASING BOTTOM DRILLER
CBL .FT                 3033 : CASING BOTTOM LOGGER
BS  .IN                7.875 : BIT SIZE
BSD .FT                 7566 : BIT SIZE AT DEPTH
DFT .                K DRILL : DRILLING FLUID TYPE
DFD .                    9.2 : DRILLING FLUID DENSITY
DFV .                     52 : DRILLING FLUID VISCOSITY
DFPH.                    8.5 : DRILLING FLUID PH
DFL .                    4.4 : DRILLING FLUID LOSS
MSS .               FLOWLINE : MUD SAMPLE SOURCE
RMS .OHMM               2.05 : RESISTIVITY MUD SAMPLE
MST .DEGF                 75 : MUD SAMPLE TEMPERATURE
RMF .OHMM               1.15 : RESISTIVITY MUD FILTRATE SAMPLE
MFST.DEGF                 75 : MUD FILTRATE SAMPLE TEMPERATURE
RMC .OHMM               2.56 : RESISTIVITY MUD CAKE
MCST.DEGF                 75 : MUD CAKE SAMPLE TEMPERATURE
MFSS.               MEASURED : MUD FILTRATE SAMPLE SOURCE
MCSS.               MEASURED : MUD CAKE SAMPLE SOURCE
RMB .OHMM               0.88 : RESISTIVITY MUD AT BHT
TCS .HRS                   4 : TIME CIRCULATED STOPPED
LUN .                 HL6300 : LOGGING UNIT NUMBER
LUL .               BRYAN TX : LOGGING UNIT LOCATION
ENGI.                SLEVERS : RECORDING ENGINEER
WITN.           LICHTENSTEIN : WITNESSED BY
CLNT.                A2DTECH : CLIENT CODE
ORIG.            2" 5" PRINT : ORIGIN OF DATA
UWI .         42041313290000 : UNIQUE WELL ID
DICO. A2D Technologies, Inc. : DIGITIZING COMPANY
~Other -----------------------------------------------------
~ASCII -----------------------------------------------------
 3050.00000   52.88870   10.53520    7.78500    8.15030    9.28840  -42.83270    -999.25    -999.25    -999.25    -999.25    -999.25
 3100.00000   65.58140    9.34210    5.30070    5.41660    5.69120  -29.45570    -999.25    -999.25    -999.25    -999.25    -999.25
 3150.00000   67.81680   10.80420    3.60000    3.40360    3.74250  -28.90020    -999.25    -999.25    -999.25    -999.25    -999.25
 3200.00000   78.35280    9.03950    4.15680    3.75620    3.96620  -31.13480    -999.25    -999.25    -999.25    -999.25    -999.25
 3250.00000   69.59030    8.77550    4.88420    4.01140    4.60160  -35.12990    -999.25    -999.25    -999.25    -999.25    -999.25
 3300.00000   74.82030    8.49420    3.93130    3.31080    3.54380  -28.91890    -999.25    -999.25    -999.25    -999.25    -999.25
 3350.00000   81.19740    9.14660    4.09100    3.34830    3.85710  -24.23040    -999.25    -999.25    -999.25    -999.25    -999.25
 3400.00000   75.37380    9.20440    4.75810    4.21880    4.58630  -24.59150    -999.25    -999.25    -999.25    -999.25    -999.25
 3450.00000   92.56040    9.79070    2.63360    2.31670    2.42020  -22.51280    -999.25    -999.25    -999.25    -999.25    -999.25
 3500.00000   89.40700    9.71720    2.77870    2.49210    2.60440  -21.75700    -999.25    -999.25    -999.25    -999.25    -999.25
 3550.00000   84.42830    9.43600    3.14220    2.66020    2.77740  -25.64400    -999.25    -999.25    -999.25    -999.25    -999.25
 3600.00000   94.29480   10.10750    2.62160    2.32960    2.42870  -21.23810    -999.25    -999.25    -999.25    -999.25    -999.25
 3650.00000   90.07920   11.20420    2.25380    1.88950    1.97350  -24.15610    -999.25    -999.25    -999.25    -999.25    -999.25
 3700.00000   86.77430   11.49790    1.92970    1.51140    1.57800  -25.87790    -999.25    -999.25    -999.25    -999.25    -999.25
 3750.00000   82.11480   11.43410    2.15510    1.75760    1.86090  -25.71200    -999.25    -999.25    -999.25    -999.25    -999.25
 3800.00000   86.79690   12.22830    2.02300    1.54640    1.61490  -24.70600    -999.25    -999.25    -999.25    -999.25    -999.25
 3850.00000   93.35390   11.47670    1.79960    1.36440    1.42550  -25.72850    -999.25    -999.25    -999.25    -999.25    -999.25
 3900.00000   89.44540   10.98050    1.74910    1.27140    1.32750  -27.38250    -999.25    -999.25    -999.25    -999.25    -999.25
 3950.00000   96.13230   10.85830    1.85340    1.46840    1.53350  -26.45990    -999.25    -999.25    -999.25    -999.25    -999.25
 4000.00000   78.32980   10.37420    2.11680    1.53170    1.59930  -29.52630    -999.25    -999.25    -999.25    -999.25    -999.25
 4050.00000   76.62650   11.90610    1.50520    1.04280    1.15200  -25.81270    -999.25    -999.25    -999.25    -999.25    -999.25
 4100.00000   71.55630   13.12790    1.37070    0.87160    0.91170  -25.13790    -999.25    -999.25    -999.25    -999.25    -999.25
 4150.00000   66.42890   12.95210    1.50480    1.06430    1.11740  -27.65550    -999.25    -999.25    -999.25    -999.25    -999.25
 4200.00000   86.96120    9.12400    2.38500    2.16330    2.25930  -26.57960    -999.25    -999.25    -999.25    -999.25    -999.25
 4250.00000   81.44200    9.36360    2.05640    1.73340    1.80990  -29.49080    -999.25    -999.25    -999.25    -999.25    -999.25
 4300.00000   75.25100   11.03220    1.80200    1.35780    1.41830  -29.35750    -999.25    -999.25    -999.25    -999.25    -999.25
 4350.00000   69.50540   10.79780    1.77890    1.46890    1.53530  -31.25180    -999.25    -999.25    -999.25    -999.25    -999.25
 4400.00000   65.64200   12.19250    1.61900    1.18170    1.23380  -29.96580    -999.25    -999.25    -999.25    -999.25    -999.25
 4450.00000   70.47030   12.90140    1.57100    1.12860    1.17950  -27.84170    -999.25    -999.25    -999.25    -999.25    -999.25
 4500.00000   69.45880   12.44390    1.55250    1.11990    1.16940  -29.50050    -999.25    -999.25    -999.25    -999.25    -999.25
 4550.00000   65.26840   13.20180    1.56610    1.16780    1.21960  -30.62020    -999.25    -999.25    -999.25    -999.25    -999.25
 4600.00000   65.04690   13.83140    1.42020    0.91670    0.95970  -26.90970    -999.25    -999.25    -999.25    -999.25    -999.25
 4650.00000   44.25750   23.41080    1.58420    1.17480    1.22830  -31.02100    -999.25    -999.25    -999.25    -999.25    -999.25
 4700.00000   64.45720   10.22660    2.00060    1.65120    1.73000  -32.39050    -999.25    -999.25    -999.25    -999.25    -999.25
 4750.00000   79.63420    8.20200    1.96840    1.52940    1.63110  -26.45200    -999.25    -999.25    -999.25    -999.25    -999.25
 4800.00000   75.10580    8.52740    1.72390    1.31150    1.39440  -25.84140    -999.25    -999.25    -999.25    -999.25    -999.25
 4850.00000   60.14920    9.36170    1.96490    1.73020    1.80670  -30.20330    -999.25    -999.25    -999.25    -999.25    -999.25
 4900.00000  123.91590    9.93430    1.29990    0.86560    0.91970  -23.32430    -999.25    -999.25    -999.25    -999.25    -999.25
 4950.00000   88.68560   10.43640    1.67400    1.39530    1.45780  -24.96520    -999.25    -999.25    -999.25    -999.25    -999.25
 5000.00000  106.38070    9.59960    1.10560    0.71360    0.73490  -20.42160    -999.25    -999.25    -999.25    -999.25    -999.25
 5050.00000   88.25640   10.66380    1.40560    1.15130    1.20810  -21.42790    -999.25    -999.25    -999.25    -999.25    -999.25
 5100.00000   98.76090   10.00120    1.71300    1.36510    1.42610  -21.67490    -999.25    -999.25    -999.25    -999.25    -999.25
 5150.00000   88.20750    9.07690    1.91750    1.59860    1.67950  -22.38590    -999.25    -999.25    -999.25    -999.25    -999.25
 5200.00000   82.09530    8.98730    1.89580    1.48780    1.55360  -21.90290    -999.25    -999.25    -999.25    -999.25    -999.25
 5250.00000   80.04190    8.45070    1.82220    1.37850    1.47520  -20.55220    -999.25    -999.25    -999.25    -999.25    -999.25
 5300.00000   80.19290    9.95580    1.78460    1.35250    1.42830  -22.57950    -999.25    -999.25    -999.25    -999.25    -999.25
 5350.00000   89.57690   10.25060    1.64440    1.22250    1.29640  -19.34130    -999.25    -999.25    -999.25    -999.25    -999.25
 5400.00000   93.01220   10.62240    1.46800    0.90960    0.99170  -21.23910    -999.25    -999.25    -999.25    -999.25    -999.25
 5450.00000   88.04750   10.49350    1.58580    1.16600    1.24790  -22.95580    -999.25    -999.25    -999.25    -999.25    -999.25
 5500.00000   91.27570   10.27200    1.54310    1.09370    1.14240  -26.51950    0.11900    0.43420    0.14900    -999.25    -999.25
 5550.00000   80.21950   10.32980    1.62800    1.14340    1.23620  -27.21880    0.14000    0.43360    0.12830    -999.25    -999.25
 5600.00000   48.19000    8.25240    2.85810    2.41520    2.65820  -28.44400    0.00670    0.24180    0.06480    -999.25    -999.25
 5650.00000   51.43830    8.19730    3.08040    2.51510    2.74170  -27.18790    0.00950    0.24560    0.04780    -999.25    -999.25
 5700.00000   72.98900    8.31490    2.63150    2.33660    2.44210  -24.36920    0.05280    0.26940    0.10060    -999.25    -999.25
 5750.00000   82.18110    8.38180    2.63600    2.29030    2.44000  -26.32360    0.03000    0.23460    0.09610    -999.25    -999.25
 5800.00000   86.05070    8.36040    2.57180    2.18190    2.42120  -23.47680    0.02390    0.25340    0.09030    -999.25    -999.25
 5850.00000   80.81440    8.37010    2.76160    2.36280    2.59050  -23.35560    0.01200    0.25050    0.09170    -999.25    -999.25
 5900.00000   78.48860    8.35940    2.90610    2.52620    2.66340  -26.27690   -0.01880    0.23130    0.12920    -999.25    -999.25
 5950.00000   83.54740    8.42410    2.66340    2.21910    2.44520  -21.27520    0.03890    0.25820    0.09810    -999.25    -999.25
 6000.00000   87.85900    8.62860    2.26680    1.70580    1.90400  -19.88400    0.11620    0.32150    0.10440    -999.25    -999.25
 6050.00000   94.00970    9.39920    1.88780    1.26280    1.38840  -22.89510    0.12760    0.36290    0.10790    -999.25    -999.25
