~Version ---------------------------------------------------
VERS. 2.0 : CWLS log ASCII Standard -VERSION 2.0
WRAP. YES : MULTIPLE LINES PER DEPTH STEP
~Well ------------------------------------------------------
STRT.FT                 3100.0 : START DEPTH
STOP.FT                 8450.0 : STOP DEPTH
STEP.FT               50.00000 : STEP LENGTH
NULL.                  -999.25 : NULL VALUE
COMP.    REATA OIL & GAS CORP. : COMPANY
WELL.        E. J. BURKHART #1 : WELL
FLD .                  WILDCAT : FIELD
LOC .                          : LOCATION
CNTY.                ROBERTSON : COUNTY
STAT.                    TEXAS : STATE
CTRY. UNITED STATES OF AMERICA : COUNTRY
SRVC.            Dresser Atlas : SERVICE COMPANY
DATE.              18-Jun-1984 : LOGDATE
API .           42395303030000 : API NUMBER
UWI .           42395303030000 : UNIQUE WELL ID
SLAT.WGS84       30.9364688509 : SURFACE LATITUDE
SLON.WGS84      -96.3553009714 : SURFACE LONGITUDE
~Curve Information -----------------------------------------
DEPT    .FT    : DEPTH FEET
CALRED  .IN    : CALIPER FROM RESISTIVITY LOG
CALWS   .IN    : CALIPER [CALRED]
CNLSED  .V/V   : NEUTRON POROSITY LIMESTONE FROM DENSITY LOG
CNSSED  .V/V   : NEUTRON POROSITY SANDSTONE FROM DENSITY LOG
CONDWS  .MMHO  : CONDUCTIVITY [1000/DRESWS]
CORRED  .G/C3  : DENSITY CORRECTION FROM DENSITY LOG
DCORWS  .G/C3  : DENSITY CORRECTION [CORRED]
DENWS   .G/C3  : BULK DENSITY [CALCULATED FROM DPORLSED <7048> DPORSSED <7500.5> DPORLSED]
DPOWS   .V/V   : DENSITY POROSITY [M=2.71 F=1.0] <7048> [M=2.68 F=1.0] <7500.5> [M=2.71 F=1.0] [CALCULATED FROM DENWS]
DRESWS  .OHMM  : DEEP RESISTIVITY [RILDED]
GRRED   .GAPI  : GAMMA RAY FROM RESISTIVITY LOG
GRWS    .GAPI  : GAMMA RAY [GRRED, CSG ABOE 3112]
MRESWS  .OHMM  : MEDIUM RESISTIVITY [RILMED]
NPOWS   .V/V   : NEUTRON POROSITY [SPL CNLSED <7048> CNSSED <7500.5> CNLSED]
PORDLSED.V/V   : DENSITY POROSITY [M=2.71 F=1.0] FROM DENSITY LOG
PORDSSED.V/V   : DENSITY POROSITY [M=2.68 F=1.0] FROM DENSITY LOG
RFOCED  .OHMM  : FOCUSED RESISTIVITY
RILDED  .OHMM  : INDUCTION LOG DEEP RESISTIVITY
RILMED  .OHMM  : INDUCTION LOG MEDIUM RESISTIVITY
SPRED   .MV    : SPONTANEOUS POTENTIAL FROM RESISTIVITY LOG
SPWS    .MV    : SPONTANEOUS POTENTIAL [BASELINE 0 MV] [SPRED]
SRESWS  .OHMM  : SHALLOW RESISTIVITY [RFOCED]
TENRED  .LBF   : TENSION FROM RESISTIVITY LOG
~Params ----------------------------------------------------
PD  .                     GL : PERMANENT DATUM
EPD .FT                  428 : ELEVATION PERMANENT DATUM
LMF .                     KB : LOG MEASURED FROM
DAPD.FT                   16 : FEET ABOVE PERMANENT DATUM
DMF .                     KB : DRILLING MEASURED FROM
EKB .FT                  444 : KELLY BUSHING
EDF .FT                  443 : DRILLING FLOOR
EGL .FT                  428 : GROUND LEVEL
DATE.               06/18/84 : RUN DATE
RUN .                      1 : RUN NUMBER
DD  .FT                 8479 : DEPTH DRILLER
DL  .FT                 8460 : DEPTH LOGGER
BLI .FT                 8458 : BOTTOM LOG INTERVAL
TLI .FT                 3112 : TOP LOG INTERVAL
CS  .IN                9.625 : CASING SIZE
CBD .FT                 3116 : CASING BOTTOM DRILLER
CBL .FT                 3112 : CASING BOTTOM LOGGER
BS  .IN                 8.75 : BIT SIZE
BSD .FT                 8479 : BIT SIZE AT DEPTH
DFT .                  BENEX : DRILLING FLUID TYPE
DFD .                    9.3 : DRILLING FLUID DENSITY
DFV .                     42 : DRILLING FLUID VISCOSITY
DFPH.                      9 : DRILLING FLUID PH
DFL .                      7 : DRILLING FLUID LOSS
MSS .                   TANK : MUD SAMPLE SOURCE
RMS .OHMM               3.93 : RESISTIVITY MUD SAMPLE
MST .DEGF                 75 : MUD SAMPLE TEMPERATURE
RMF .OHMM               1.76 : RESISTIVITY MUD FILTRATE SAMPLE
MFST.DEGF                 75 : MUD FILTRATE SAMPLE TEMPERATURE
RMC .OHMM               4.91 : RESISTIVITY MUD CAKE
MCST.DEGF                 75 : MUD CAKE SAMPLE TEMPERATURE
MFSS.               MEASURED : MUD FILTRATE SAMPLE SOURCE
MCSS.               MEASURED : MUD CAKE SAMPLE SOURCE
RMB .OHMM               1.64 : RESISTIVITY MUD AT BHT
TCS .HRS                   8 : TIME CIRCULATED STOPPED
LUN .                HL 6300 : LOGGING UNIT NUMBER
LUL .                  BRYAN : LOGGING UNIT LOCATION
ENGI.                 WRIGHT : RECORDING ENGINEER
WITN.                MCBRIDE : WITNESSED BY
CLNT.                A2DTECH : CLIENT CODE
ORIG.            2" 5" PRINT : ORIGIN OF DATA
UWI .         42395303030000 : UNIQUE WELL ID
DICO. A2D Technologies, Inc. : DIGITIZING COMPANY
~Other -----------------------------------------------------
~ASCII -----------------------------------------------------
# ...
 6200.00000   11.71800   11.71800    -999.25    -999.25  347.33070    -999.25    -999.25    -999.25    -999.25    2.87910   52.61300   52.61300    2.95480    -999.25    -999.25    -999.25    3.30520    2.87910    2.95480  -51.92150   -2.08020    3.30520    6.77540
 6250.00000   13.93170   13.93170    -999.25    -999.25  721.34460    -999.25    -999.25    -999.25    -999.25    1.38630   79.86220   79.86220    1.43930    -999.25    -999.25    -999.25    2.19440    1.38630    1.43930  -57.59280   -7.26860    2.19440   41.03180
 6300.00000   14.59640   14.59640    -999.25    -999.25  764.99390    -999.25    -999.25    -999.25    -999.25    1.30720   77.58910   77.58910    1.34710    -999.25    -999.25    -999.25    2.19070    1.30720    1.34710  -59.17900   -8.37190    2.19070   26.85020
 6350.00000   14.25460   14.25460    -999.25    -999.25  720.14980    -999.25    -999.25    -999.25    -999.25    1.38860   81.21330   81.21330    1.42580    -999.25    -999.25    -999.25    2.19860    1.38860    1.42580  -57.46330   -6.17330    2.19860   18.84370
 6400.00000   14.29320   14.29320    -999.25    -999.25  663.17400    -999.25    -999.25    -999.25    -999.25    1.50790   82.43330   82.43330    1.54870    -999.25    -999.25    -999.25    2.26530    1.50790    1.54870  -60.13540   -8.36250    2.26530   21.84950
 6450.00000   15.72740   15.72740    -999.25    -999.25  800.70460    -999.25    -999.25    -999.25    -999.25    1.24890   84.23720   84.23720    1.30550    -999.25    -999.25    -999.25    2.09740    1.24890    1.30550  -64.49080  -12.23500    2.09740   16.33380
 6500.00000   15.57930   15.57930    0.30270    -999.25  820.88330    0.16320    0.16320    2.42840    0.16470    1.21820   78.68100   78.68100    1.25960    0.30270    0.16470    -999.25    2.08260    1.21820    1.25960  -64.50150  -11.76280    2.08260   13.77490
 6550.00000   12.27180   12.27180    0.29190    -999.25  494.41310    0.15140    0.15140    2.22880    0.28140    2.02260   70.84180   70.84180    2.08340    0.29190    0.28140    -999.25    2.72630    2.02260    2.08340  -65.66010  -12.43850    2.72630    4.77470
 6600.00000   12.67700   12.67700    0.22630    -999.25  437.77080    0.10460    0.10460    2.54770    0.09490    2.28430   72.22800   72.22800    2.40470    0.22630    0.09490    -999.25    3.00510    2.28430    2.40470  -67.83260  -14.12810    3.00510   53.04490
 6650.00000   13.14900   13.14900    0.28120    -999.25  607.20140    0.19440    0.19440    2.31960    0.22830    1.64690   64.98480   64.98480    1.68520    0.28120    0.22830    -999.25    2.55170    1.64690    1.68520  -71.63230  -17.44490    2.55170    0.22490
 6700.00000   11.72530   11.72530    0.15900    -999.25  458.77870    0.09080    0.09080    2.48170    0.13350    2.17970   66.37300   66.37300    2.40570    0.15900    0.13350    -999.25    2.67830    2.17970    2.40570  -65.50260  -10.83240    2.67830   13.65630
 6750.00000   12.01250   12.01250    0.17390    -999.25  281.54740    0.03340    0.03340    2.55710    0.08940    3.55180   39.10770   39.10770    3.72510    0.17390    0.08940    -999.25    3.89200    3.55180    3.72510  -67.13770  -11.98460    3.89200   13.17650
 6800.00000   11.61000   11.61000    0.16090    -999.25  246.12960    0.00380    0.00380    2.54620    0.09580    4.06290   34.30490   34.30490    4.16720    0.16090    0.09580    -999.25    4.62440    4.06290    4.16720  -71.82940  -16.19340    4.62440   14.27160
 6850.00000   11.17120   11.17120    0.10500    -999.25  189.02520    0.01040    0.01040    2.57530    0.07880    5.29030   32.36370   32.36370    5.64730    0.10500    0.07880    -999.25    5.45380    5.29030    5.64730  -71.98730  -15.86840    5.45380    6.65730
 6900.00000   11.60540   11.60540    0.16430    -999.25  286.95230    0.04050    0.04050    2.56520    0.08470    3.48490   44.88160   44.88160    3.72350    0.16430    0.08470    -999.25    4.31710    3.48490    3.72350  -66.90760  -10.30580    4.31710    6.97450
 6950.00000   10.89460   10.89460    0.12900    -999.25  206.30040    0.03250    0.03250    2.58530    0.07290    4.84730   40.31090   40.31090    5.15500    0.12900    0.07290    -999.25    5.95980    4.84730    5.15500  -68.61210  -11.52740    5.95980   11.31610
 7000.00000   12.26830   12.26830    0.22890    -999.25  441.20890    0.17960    0.17960    2.41570    0.17210    2.26650   83.00440   83.00440    2.36410    0.22890    0.17210    -999.25    3.34420    2.26650    2.36410  -78.67280  -21.10520    3.34420   16.35060
 7050.00000   14.19560   14.19560    -999.25    0.37860  937.99830    0.13630    0.13630    2.28890    0.23280    1.06610   88.79530   88.79530    1.09790    0.37860    -999.25    0.23280    2.08670    1.06610    1.09790  -68.99010  -10.93960    2.08670   25.70080
 7100.00000   14.79200   14.79200    -999.25    0.31590  684.18180    0.17820    0.17820    2.38990    0.17270    1.46160   81.46590   81.46590    1.51490    0.31590    -999.25    0.17270    2.35370    1.46160    1.51490  -73.54580  -15.01240    2.35370    2.40550
 7150.00000   14.59240   14.59240    -999.25    0.29340  511.84930    0.15800    0.15800    2.43120    0.14810    1.95370   78.31960   78.31960    2.03800    0.29340    -999.25    0.14810    2.81760    1.95370    2.03800  -72.35760  -13.34130    2.81760   16.73730
 7200.00000   15.67370   15.67370    -999.25    0.38050  710.98470    0.17170    0.17170    2.07650    0.35920    1.40650   77.25310   77.25310    1.45470    0.38050    -999.25    0.35920    2.34310    1.40650    1.45470  -72.16220  -12.66310    2.34310   27.79590
 7250.00000   12.71630   12.71630    -999.25    0.24830  293.56510    0.10720    0.10720    2.50010    0.10710    3.40640   71.84320   71.84320    3.55900    0.24830    -999.25    0.10710    4.50470    3.40640    3.55900  -66.68180   -6.69980    4.50470   18.34420
 7300.00000   14.96000   14.96000    -999.25    0.36140  807.55880    0.16820    0.16820    2.24050    0.26160    1.23830   80.12720   80.12720    1.28880    0.36140    -999.25    0.26160    2.31020    1.23830    1.28880  -70.46600  -10.00110    2.31020   69.04290
 7350.00000   12.63830   12.63830    -999.25    0.37290  491.47300    0.16510    0.16510    2.40260    0.16510    2.03470   87.54260   87.54260    2.11360    0.37290    -999.25    0.16510    2.89500    2.03470    2.11360  -66.78740   -5.83960    2.89500    3.63750
 7400.00000   10.65130   10.65130    -999.25    0.27730  191.99390    0.02510    0.02510    2.48360    0.11690    5.20850   90.55850   90.55850    5.38560    0.27730    -999.25    0.11690    5.80860    5.20850    5.38560  -62.20610   -0.77540    5.80860   14.62380
 7450.00000   11.05040   11.05040    -999.25    0.36870  347.66890    0.09710    0.09710    2.37270    0.18290    2.87630   94.92020   94.92020    3.01020    0.36870    -999.25    0.18290    4.37700    2.87630    3.01020  -64.28140   -2.36780    4.37700   60.54850
 7500.00000   12.17120   12.17120    -999.25    0.33510  315.67650    0.13720    0.13720    2.31540    0.21700    3.16780  114.91910  114.91910    3.43930    0.33510    -999.25    0.21700    4.60690    3.16780    3.43930  -65.41980   -3.19380    4.60690   14.70960
 7550.00000   15.66700   15.66700    0.38390    -999.25  468.27440    0.10970    0.10970    1.93020    0.45600    2.13550   65.54550   65.54550    1.83450    0.38390    0.45600    -999.25    3.76840    2.13550    1.83450  -67.06920   -4.55180    3.76840    0.00000
 7600.00000   14.46020   14.46020    0.25960    -999.25  371.11260    0.22350    0.22350    2.19050    0.30380    2.69460   58.12510   58.12510    2.75100    0.25960    0.30380    -999.25    2.98800    2.69460    2.75100  -68.86600   -6.05720    2.98800   14.61930
 7650.00000   12.02920   12.02920    0.04890    -999.25   22.48800    0.03220    0.03220    2.65960    0.02950   44.46820   14.47940   14.47940   32.41470    0.04890    0.02950    -999.25   35.70840   44.46820   32.41470  -68.91950   -5.81930   35.70840   18.62480
 7700.00000   13.62710   13.62710    0.03920    -999.25   57.40920    0.00440    0.00440    2.65580    0.03170   17.41880   13.82380   13.82380   21.51530    0.03920    0.03170    -999.25   24.80580   17.41880   21.51530  -73.22190   -9.83040   24.80580    2.92560
