~Version ---------------------------------------------------
VERS. 2.0 : CWLS log ASCII Standard -VERSION 2.0
WRAP. YES : Multiple lines per depth step
~Well ------------------------------------------------------
STRT.FT                   6600.0 : START DEPTH
STOP.FT                   8750.0 : STOP DEPTH
STEP.FT                 50.00000 : STEP LENGTH
NULL.                    -999.25 : NULL VALUE
COMP. CHAMPLIN PETROLEUM COMPANY : COMPANY
WELL.       DANSBY-DAVIS UNIT #1 : WELL
FLD .                     KURTEN : FIELD
LOC .                            : LOCATION
CNTY.                     BRAZOS : COUNTY
STAT.                      TEXAS : STATE
CTRY.   UNITED STATES OF AMERICA : COUNTRY
SRVC.                      Welex : SERVICE COMPANY
DATE.                01-Nov-1984 : LOGDATE
API .             42041311970000 : API NUMBER
UWI .             42041311970000 : UNIQUE WELL ID
SLAT.WGS84         30.7061566313 : SURFACE LATITUDE
SLON.WGS84        -96.4108820157 : SURFACE LONGITUDE
~Curve Information -----------------------------------------
DEPT    .FT    : DEPTH
CALDED  .IN    : CALIPER FROM DENSITY LOG (ADJ TO RES.)
CALWS   .IN    : CALIPER (CALDED)
CONDWS  .MMHO  : CONDUCTIVITY (1000/DRESWS)
CORRED  .G/C3  : DENSITY CORRECTION (ADJ TO RES.)
DCORWS  .G/C3  : DENSITY CORRECTION (CORRED)
DENWS   .G/C3  : BULK DENSITY  (RHOBED LS)
DPHILSED.V/V   : DENSITY POROSITY  LIMESTONE
DPOWS   .V/V   : DENSITY POROSITY (M=2.71 F=1 DPHILSED)
DRESWS  .OHMM  : DEEP RESISTIVITY (ILDED)
GRDED   .GAPI  : GAMMA RAY FROM DENSITY LOG (ADJ TO RES.)
GRRED   .GAPI  : GAMMA RAY FROM RESISTIVITY LOG
GRWS    .GAPI  : GAMMA RAY (GRRED)
ILDED   .OHMM  : DEEP INDUCTION RESISTIVITY
ILMED   .OHMM  : MEDIUM INDUCTION RESISTIVITY
MRESWS  .OHMM  : MEDIUM RESISTIVITY (ILMED)
NPHILSED.V/V   : NEUTRON POROSITY LIMESTONE (ADJ TO RES.)
NPOWS   .V/V   : NEUTRON POROSITY LIMESTONE (NPHILSED)
RHOBED  .G/C3  : BULK DENSITY (ADJ TO RES.)
SGUARDED.OHMM  : SHORT GUARD LOG RESISTIVITY
SPRED   .MV    : SPONTANEOUS POTENTIAL FROM RESISTIVITY (REMOVED INVALID DATA)
SPWS    .MV    : SPONTANEOUS POTENTIAL BASELINE 0 MV (SPRED)
SRESWS  .OHMM  : SHALLOW RESISTIVITY (SGUARDED)
TENDED  .LBF   : TENSION FROM DENSITY LOG (ADJ TO RES.)
~Params ----------------------------------------------------
PD  .                     GL : PERMANENT DATUM
EPD .FT                  334 : ELEVATION PERMANENT DATUM
LMF .                    TKB : LOG MEASURED FROM
DAPD.FT                   23 : FEET ABOVE PERMANENT DATUM
DMF .                    TKB : DRILLING MEASURED FROM
EKB .FT                  357 : KELLY BUSHING
EDF .FT                  356 : DRILLING FLOOR
EGL .FT                  334 : GROUND LEVEL
DATE.               11/01/84 : RUN DATE
RUN .                      1 : RUN NUMBER
DD  .FT                 8770 : DEPTH DRILLER
DL  .FT                 8787 : DEPTH LOGGER
BLI .FT                 8785 : BOTTOM LOG INTERVAL
TLI .FT                 6590 : TOP LOG INTERVAL
CS  .IN                8.625 : CASING SIZE
CBD .FT                 3405 : CASING BOTTOM DRILLER
BS  .IN                7.875 : BIT SIZE
BSD .FT                 8770 : BIT SIZE AT DEPTH
DFT .                  BENEX : DRILLING FLUID TYPE
DFD .                    8.9 : DRILLING FLUID DENSITY
DFV .                     38 : DRILLING FLUID VISCOSITY
DFPH.                      9 : DRILLING FLUID PH
DFL .                     12 : DRILLING FLUID LOSS
MSS .               FLOWLINE : MUD SAMPLE SOURCE
RMS .OHMM               4.83 : RESISTIVITY MUD SAMPLE
MST .DEGF                 75 : MUD SAMPLE TEMPERATURE
RMF .OHMM               5.57 : RESISTIVITY MUD FILTRATE SAMPLE
MFST.DEGF                 75 : MUD FILTRATE SAMPLE TEMPERATURE
RMC .OHMM               3.17 : RESISTIVITY MUD CAKE
MCST.DEGF                 75 : MUD CAKE SAMPLE TEMPERATURE
MFSS.                   MEAS : MUD FILTRATE SAMPLE SOURCE
MCSS.                   MEAS : MUD CAKE SAMPLE SOURCE
RMB .OHMM               1.68 : RESISTIVITY MUD AT BHT
TCS .HRS                   3 : TIME CIRCULATED STOPPED
TLAB.HRS                 630 : TIME LOGGER AT BOTTOM
LUN .                   2909 : LOGGING UNIT NUMBER
LUL .                  BRYAN : LOGGING UNIT LOCATION
ENGI.                 JUNIEL : RECORDING ENGINEER
WITN.              PENDLETON : WITNESSED BY
CLNT.                A2DTECH : CLIENT CODE
ORIG.         1" 2" 5" PRINT : ORIGIN OF DATA
UWI .         42041311970000 : UNIQUE WELL ID
DICO. A2D Technologies, Inc. : DIGITIZING COMPANY
~Other -----------------------------------------------------
~ASCII -----------------------------------------------------
 6600.00000    -999.25    -999.25  761.73070    -999.25    -999.25    -999.25    -999.25    -999.25    1.31280    -999.25   78.54020   78.54020    1.31280    1.40200    1.40200    -999.25    -999.25    -999.25    1.55000    -999.25    -999.25    1.55000    -999.25
 6650.00000    -999.25    -999.25  673.26470    -999.25    -999.25    -999.25    -999.25    -999.25    1.48530    -999.25   81.17270   81.17270    1.48530    1.57100    1.57100    -999.25    -999.25    -999.25    1.72170    -999.25    -999.25    1.72170    -999.25
 6700.00000    -999.25    -999.25  779.24100    -999.25    -999.25    -999.25    -999.25    -999.25    1.28330    -999.25   80.59630   80.59630    1.28330    1.34030    1.34030    -999.25    -999.25    -999.25    1.49350    -999.25    -999.25    1.49350    -999.25
 6750.00000    -999.25    -999.25  349.39380    -999.25    -999.25    -999.25    -999.25    -999.25    2.86210    -999.25   66.24040   66.24040    2.86210    2.94340    2.94340    -999.25    -999.25    -999.25    3.01430    -999.25    -999.25    3.01430    -999.25
 6800.00000    -999.25    -999.25  395.66350    -999.25    -999.25    -999.25    -999.25    -999.25    2.52740    -999.25   71.61590   71.61590    2.52740    2.68560    2.68560    -999.25    -999.25    -999.25    2.87900    -999.25    -999.25    2.87900    -999.25
 6850.00000    -999.25    -999.25  360.42530    -999.25    -999.25    -999.25    -999.25    -999.25    2.77450    -999.25   68.32130   68.32130    2.77450    2.93120    2.93120    -999.25    -999.25    -999.25    2.96600    -999.25    -999.25    2.96600    -999.25
 6900.00000    -999.25    -999.25  365.88490    -999.25    -999.25    -999.25    -999.25    -999.25    2.73310    -999.25   62.32360   62.32360    2.73310    2.91230    2.91230    -999.25    -999.25    -999.25    3.03600    -999.25    -999.25    3.03600    -999.25
 6950.00000    -999.25    -999.25  421.56740    -999.25    -999.25    -999.25    -999.25    -999.25    2.37210    -999.25   68.84550   68.84550    2.37210    2.47750    2.47750    -999.25    -999.25    -999.25    2.83440    -999.25    -999.25    2.83440    -999.25
 7000.00000    -999.25    -999.25  608.01360    -999.25    -999.25    -999.25    -999.25    -999.25    1.64470    -999.25   74.54380   74.54380    1.64470    1.79330    1.79330    -999.25    -999.25    -999.25    2.01660    -999.25    -999.25    2.01660    -999.25
 7050.00000    -999.25    -999.25  549.39020    -999.25    -999.25    -999.25    -999.25    -999.25    1.82020    -999.25   83.63070   83.63070    1.82020    1.90830    1.90830    -999.25    -999.25    -999.25    2.08480    -999.25    -999.25    2.08480    -999.25
 7100.00000    -999.25    -999.25  531.51910    -999.25    -999.25    -999.25    -999.25    -999.25    1.88140    -999.25   76.09870   76.09870    1.88140    2.01810    2.01810    -999.25    -999.25    -999.25    2.17330    -999.25    -999.25    2.17330    -999.25
 7150.00000    -999.25    -999.25  534.15950    -999.25    -999.25    -999.25    -999.25    -999.25    1.87210    -999.25   74.54150   74.54150    1.87210    2.01330    2.01330    -999.25    -999.25    -999.25    2.11790    -999.25    -999.25    2.11790    -999.25
 7200.00000    -999.25    -999.25  664.93780    -999.25    -999.25    -999.25    -999.25    -999.25    1.50390    -999.25   86.73560   86.73560    1.50390    1.60270    1.60270    -999.25    -999.25    -999.25    1.77310    -999.25    -999.25    1.77310    -999.25
 7250.00000    -999.25    -999.25  730.99410    -999.25    -999.25    -999.25    -999.25    -999.25    1.36800    -999.25   80.49910   80.49910    1.36800    1.46570    1.46570    -999.25    -999.25    -999.25    1.63260    -999.25    -999.25    1.63260    -999.25
 7300.00000    -999.25    -999.25  679.94830    -999.25    -999.25    -999.25    -999.25    -999.25    1.47070    -999.25   84.32330   84.32330    1.47070    1.57310    1.57310    -999.25    -999.25    -999.25    1.70410    -999.25    -999.25    1.70410    -999.25
 7350.00000    -999.25    -999.25  638.85520    -999.25    -999.25    -999.25    -999.25    -999.25    1.56530    -999.25   84.96490   84.96490    1.56530    1.67140    1.67140    -999.25    -999.25    -999.25    1.85640    -999.25    -999.25    1.85640    -999.25
 7400.00000    -999.25    -999.25  605.87700    -999.25    -999.25    -999.25    -999.25    -999.25    1.65050    -999.25   78.39100   78.39100    1.65050    1.77310    1.77310    -999.25    -999.25    -999.25    1.97890    -999.25    -999.25    1.97890    -999.25
 7450.00000   11.77070   11.77070  655.05040    0.14180    0.14180    2.49110    0.12800    0.12800    1.52660   72.62670   77.73280   77.73280    1.52660    1.64190    1.64190    0.24940    0.24940    2.49160    1.83340    -999.25    -999.25    1.83340 1983.42900
 7500.00000   10.57180   10.57180  611.73300    0.14190    0.14190    2.40320    0.17940    0.17940    1.63470   65.69060   61.94840   61.94840    1.63470    1.74750    1.74750    0.26220    0.26220    2.40230    2.02310  -29.82400   -5.39220    2.02310 2005.34860
 7550.00000   10.52580   10.52580  399.82410    0.14310    0.14310    2.46260    0.14470    0.14470    2.50110   62.39130   66.24760   66.24760    2.50110    2.63980    2.63980    0.24790    0.24790    2.45950    2.90980  -27.75370   -2.41060    2.90980 2060.83420
 7600.00000   11.04470   11.04470  403.90990    0.11550    0.11550    2.49400    0.12630    0.12630    2.47580   79.46100   79.13040   79.13040    2.47580    2.66140    2.66140    0.24330    0.24330    2.49080    3.04810  -29.16220   -2.03240    3.04810 2046.98060
 7650.00000    9.44370    9.44370  180.72400    0.02570    0.02570    2.59050    0.06990    0.06990    5.53330   32.69910   40.68170   40.68170    5.53330    5.96350    5.96350    0.11240    0.11240    2.59040    5.86860  -28.90030   -3.63420    5.86860 2040.15780
 7700.00000    9.35050    9.35050  117.84110    0.11720    0.11720    2.12450    0.34240    0.34240    8.48600   25.02260   32.86950   32.86950    8.48600    9.37600    9.37600    0.10170    0.10170    2.12070    7.53380  -37.21200  -14.12700    7.53380 2059.63920
 7750.00000    9.41650    9.41650  172.71460    0.03530    0.03530    2.58880    0.07090    0.07090    5.78990   43.73050   38.10770   38.10770    5.78990    6.13850    6.13850    0.09200    0.09200    2.58970    5.79370    -999.25    -999.25    5.79370 2055.59280
 7800.00000    9.00190    9.00190  138.97770    0.01920    0.01920    2.59290    0.06850    0.06850    7.19540   32.91220   39.05350   39.05350    7.19540    7.95600    7.95600    0.09350    0.09350    2.59370   10.21760  -23.81670   -5.09400   10.21760 2055.58130
 7850.00000    8.86900    8.86900  143.15160    0.00570    0.00570    2.60910    0.05900    0.05900    6.98560   30.47860   39.17680   39.17680    6.98560    7.45550    7.45550    0.08550    0.08550    2.60290    8.72530  -20.62280   -4.08120    8.72530 2058.55690
 7900.00000    8.47750    8.47750   67.82050    0.03080    0.03080    2.59850    0.06520    0.06520   14.74480   12.48140   21.32360   21.32360   14.74480   16.70030   16.70030    0.08720    0.08720    2.59620   20.20540  -52.17070  -35.95370   20.20540 2065.93040
 7950.00000   10.90050   10.90050  742.94210    0.17260    0.17260    2.33570    0.21890    0.21890    1.34600   72.03460   93.30540   93.30540    1.34600    1.43110    1.43110    0.36020    0.36020    2.33770    1.72540  -11.67220    4.64140    1.72540 2076.97190
 8000.00000   11.44770   11.44770  843.17030    0.17300    0.17300    2.30540    0.23660    0.23660    1.18600   80.19560   86.43170   86.43170    1.18600    1.25590    1.25590    0.32210    0.32210    2.30560    1.60140  -15.52920    0.37510    1.60140 2127.85380
 8050.00000   11.80210   11.80210  757.86290    0.12910    0.12910    2.32920    0.22270    0.22270    1.31950   76.18980   81.81190   81.81190    1.31950    1.37960    1.37960    0.34570    0.34570    2.32780    1.55130  -17.77780   -2.28270    1.55130 2089.86500
 8100.00000   11.69070   11.69070  325.81780    0.13680    0.13680    2.47160    0.13940    0.13940    3.06920   71.36490   83.85900   83.85900    3.06920    2.49030    2.49030    0.27290    0.27290    2.47060    3.05560  -21.04500   -5.95920    3.05560 2109.70290
