~Version ---------------------------------------------------
VERS. 2.0 : CWLS log ASCII Standard -VERSION 2.0
WRAP.  NO : ONE LINE PER DEPTH STEP
~Well ------------------------------------------------------
STRT.F                       750.0 : START DEPTH
STOP.F                      8200.0 : STOP DEPTH
STEP.F                    50.00000 : STEP LENGTH
NULL.                      -999.25 : NULL VALUE
COMP. HAGEN-GREENBRIAR EXPL. CORP. : COMPANY
WELL.             SHELBY BAKER  #1 : WELL
FLD .                      PILGRIM : FIELD
LOC .                              : LOCATION
CNTY.                     GONZALES : COUNTY
STAT.                        TEXAS : STATE
CTRY.     UNITED STATES OF AMERICA : COUNTRY
SRVC.                        Welex : SERVICE COMPANY
DATE.                  23-Feb-1985 : LOGDATE
API .               42177315540000 : API NUMBER
UWI .               42177315540000 : UNIQUE WELL ID
SLAT.WGS84            29.386530592 : SURFACE LATITUDE
SLON.WGS84          -97.5060703108 : SURFACE LONGITUDE
~Curve Information -----------------------------------------
DEPT  .F    0   1   0  0 : 1 MEASURED DEPTH
GRR   .GAPI 07 310 01 00 : GAMMA RAY FROM RESISTIVITY LOG
DT    .US/F 60 500 00 00 : DELTA-T (INTERVAL TRANSIT TIME)
SPR   .MV   07 010 01 00 : SPONTANEOUS POTENTIAL FROM RESISTIVITY LOG
DCAL  .IN   07 280 01 00 : DIFFERENTIAL CALIPER
ILD   .OHMM 07 120 46 00 : INDUCTION DEEP RESISTIVITY
ILM   .OHMM 07 120 44 00 : INDUCTION MEDIUM RESISTIVITY
SGUARD.OHMM 07 120 05 00 : SHALLOW/SHORT GUARD RESISTIVITY
~Params ----------------------------------------------------
PD  .                     GL : PERMANENT DATUM
EPD .FT                  280 : ELEVATION PERMANENT DATUM
LMF .                    TKB : LOG MEASURED FROM
DAPD.FT                   17 : FEET ABOVE PERMANENT DATUM
DMF .                    TKB : DRILLING MEASURED FROM
EKB .FT                  297 : KELLY BUSHING
EDF .FT                  296 : DRILLING FLOOR
EGL .FT                  280 : GROUND LEVEL
DATE.               02/23/85 : RUN DATE
RUN .                      1 : RUN NUMBER
DD  .FT                 8233 : DEPTH DRILLER
DL  .FT                 8223 : DEPTH LOGGER
BLI .FT                 8221 : BOTTOM LOG INTERVAL
TLI .FT                  735 : TOP LOG INTERVAL
CS  .IN                9.625 : CASING SIZE
CBD .FT                  753 : CASING BOTTOM DRILLER
CBL .FT                  735 : CASING BOTTOM LOGGER
BS  .IN                 8.75 : BIT SIZE
BSD .FT                 8233 : BIT SIZE AT DEPTH
DFT .         LIGNOSULFONATE : DRILLING FLUID TYPE
DFD .                    9.7 : DRILLING FLUID DENSITY
DFV .                     45 : DRILLING FLUID VISCOSITY
DFPH.                   11.5 : DRILLING FLUID PH
DFL .                    5.6 : DRILLING FLUID LOSS
MSS .               MUD TANK : MUD SAMPLE SOURCE
RMS .OHMM               1.47 : RESISTIVITY MUD SAMPLE
MST .DEGF                 75 : MUD SAMPLE TEMPERATURE
RMF .OHMM               1.56 : RESISTIVITY MUD FILTRATE SAMPLE
MFST.DEGF                 75 : MUD FILTRATE SAMPLE TEMPERATURE
RMC .OHMM                1.4 : RESISTIVITY MUD CAKE
MCST.DEGF                 75 : MUD CAKE SAMPLE TEMPERATURE
MFSS.                   MEAS : MUD FILTRATE SAMPLE SOURCE
MCSS.                   MEAS : MUD CAKE SAMPLE SOURCE
RMB .OHMM               0.57 : RESISTIVITY MUD AT BHT
TCS .HRS                   5 : TIME CIRCULATED STOPPED
TLAB.HRS                1000 : TIME LOGGER AT BOTTOM
LUN .                   1904 : LOGGING UNIT NUMBER
LUL .                   VICT : LOGGING UNIT LOCATION
ENGI.                 SOLARI : RECORDING ENGINEER
WITN. HAGEN FERGUSON  BROOKS : WITNESSED BY
CLNT.                A2DTECH : CLIENT CODE
ORIG.               5" PRINT : ORIGIN OF DATA
UWI .         42177315540000 : UNIQUE WELL ID
DICO. A2D Technologies, Inc. : DIGITIZING COMPANY
~Other -----------------------------------------------------
~ASCII -----------------------------------------------------
  750.00000   56.34310  175.89360  -58.89320    4.43290    1.16590    1.10420    1.25730
  800.00000   88.94740  164.40490  -62.04850    4.13330    1.39750    1.27550    1.49380
  850.00000   95.91400  162.95720  -62.34630    5.02130    1.36760    1.35600    1.47390
  900.00000   64.39260  151.54420  -62.20580    5.96420    1.36820    1.31000    1.69210
  950.00000   93.35720  162.25930  -62.41200    7.15330    1.33910    1.26700    1.46200
 1000.00000   93.10510  139.86550  -64.06280    7.41550    1.66890    1.62040    1.80390
 1050.00000   12.63700  136.29850  -96.89030    8.22540    1.68180    2.03860    2.57640
 1100.00000   66.07180  143.28140  -63.34580    6.31760    1.62890    1.63790    1.80410
 1150.00000   72.19630  156.03050  -62.64630    5.54150    1.29660    1.21530    1.47170
 1200.00000   75.57640  141.95580  -62.82770    3.55100    1.31120    1.32350    1.66290
 1250.00000   39.64920  135.66720  -80.32050    2.46980    1.47650    1.67610    2.20580
 1300.00000   73.85670  149.22570  -64.85730    1.76610    1.55930    1.58050    1.79300
 1350.00000   58.88940  125.79190  -73.77870    1.76410    2.03020    2.23450    2.87050
 1400.00000   78.22220  148.36240  -63.95730    2.50070    1.81920    1.82100    1.90270
 1450.00000   68.37120  129.11450  -67.99660    2.37980    1.61190    1.64740    2.12610
 1500.00000   93.81640  123.61840  -72.71330    2.98130    2.11130    2.36160    2.99750
 1550.00000   72.55860  122.16600  -85.57640    4.11550    2.01000    2.35350    3.04140
 1600.00000   78.63560  125.03450  -70.74220    2.95430    1.96800    1.98890    2.47820
 1650.00000   85.81210  135.15920  -67.69170    2.09340    1.52790    1.61730    2.18910
 1700.00000   85.09700  147.99500  -62.15880    2.42570    1.52130    1.57100    1.73240
 1750.00000   95.59850  125.73370  -68.40840    2.70290    1.85480    1.80110    2.78860
 1800.00000   77.30940  127.91040  -67.42000    2.64180    2.17890    2.37010    2.65380
 1850.00000  100.40420  146.63860  -59.68410    2.19750    1.22380    1.23420    1.48630
 1900.00000   64.23730  148.69110  -59.44940    2.32970    1.10450    1.12280    1.37390
 1950.00000   82.10870  150.78130  -59.28720    2.63790    1.29650    1.28010    1.60270
 2000.00000   76.14690  122.07000  -64.02530    2.94540    2.48400    2.74770    2.93470
 2050.00000   47.30920  117.54770  -62.92370    2.71350    3.75070    3.82590    4.43870
 2100.00000   26.94870  118.62960  -52.30280    2.97070   11.13300    9.08100    8.59210
 2150.00000   51.73700  123.11580  -64.91260    3.12160    4.59270    4.90050    5.21650
 2200.00000   85.54200  112.86990  -65.22410    2.54470    6.25170    6.71350    7.38570
 2250.00000   64.68740  116.74570  -60.94440    2.61730    3.34460    3.54330    4.27380
 2300.00000    1.34430  113.14160  -43.24380    3.91850   20.75880   15.65460   14.80480
 2350.00000   35.23030  113.04210  -56.19180    6.12800   12.92460   11.28500   10.14700
 2400.00000   26.57220  118.67200  -50.62110    7.28050   17.24750   13.48850   11.41820
 2450.00000   10.43940  115.86830  -50.93590    4.80560   19.70810   14.06570   13.76280
 2500.00000   91.63830  114.22150  -60.64590    2.33130   10.22590   10.12290   11.46170
 2550.00000   30.90760  105.63710  -51.18140    2.67400   21.60680   19.92890   20.07080
 2600.00000   21.11800  120.79080  -48.24980    3.80380   18.17980   14.26810   15.42960
 2650.00000   55.50040  113.12040  -55.88440    2.26210    6.35370    6.52840    8.12040
 2700.00000    8.46330  108.19380  -48.46390    2.08630   27.09870   17.99670   16.55170
 2750.00000   27.00930   80.72600  -59.56870    2.85460   17.58180   14.65900   16.63310
 2800.00000   40.87350  110.86470  -59.41410    1.91420   10.47230    9.08620    9.78300
 2850.00000   67.60550  110.79790  -57.87400    1.64770    6.96480    7.53710    8.12570
 2900.00000   88.86440  111.43360  -64.40100    2.58000    3.43020    3.51390    4.09620
 2950.00000   74.65610  119.11740  -57.52500    2.19640    4.64730    4.48950    5.52680
 3000.00000   89.59750  125.78170  -63.28080    2.58460    1.59920    1.70120    1.96070
 3050.00000  119.64950  127.02110  -67.02810    1.91260    2.25960    2.48310    2.93430
 3100.00000   79.08440   84.13470  -63.04350    2.97720    2.23880    2.34930    3.41390
 3150.00000  106.77110  129.97230  -60.63240    2.84480    1.39380    1.39660    1.66880
 3200.00000   92.09490  120.22380  -62.73990    2.39490    2.03820    2.12120    2.34490
 3250.00000   88.77570  132.70380  -61.93740    3.95190    1.40220    1.35270    1.60740
 3300.00000   81.69250  117.90930  -63.13180    4.23700    2.15480    2.13580    2.38510
 3350.00000   84.93790  139.89120  -61.34050    1.70320    1.17280    1.23170    1.46210
 3400.00000  109.19970  120.48830  -65.42470    2.60860    2.26870    2.44240    2.73070
 3450.00000   56.58340  113.69180  -67.52980    3.50260    2.74110    2.75290    2.92390
 3500.00000   91.07650  110.29840  -73.49480    1.70500    3.69660    4.21240    4.63160
 3550.00000   37.35430  107.19610  -79.16220    1.23590    4.25340    5.31340    5.61530
 3600.00000   93.39410  103.50080  -75.32510    1.29850    3.57670    4.01230    4.32020
 3650.00000   85.16890  102.52920  -69.76210    2.12140    2.55780    2.81940    3.21040
 3700.00000   75.13090  104.75650  -72.89270    2.06870    2.60110    2.70610    3.05610
 3750.00000   87.02710  109.63660  -73.72180    1.75500    2.59920    2.77360    3.29050
 3800.00000   52.45070  105.47560  -85.56870    1.85400    3.64440    4.56570    5.08960
 3850.00000   63.44430  106.66310  -81.14770    1.11810    3.24570    3.58370    4.15410
 3900.00000   49.99560   99.04830  -80.86980    1.25540    4.81710    6.17790    6.59260
 3950.00000   26.43180  103.30020  -84.65130    1.25020    4.64710    5.41950    5.92270
 4000.00000   85.36600  100.63350  -68.24040    1.70680    1.76460    1.93620    2.34540
 4050.00000   45.22320   99.83610  -85.41720    1.83350    3.95260    4.49370    5.64190
 4100.00000   59.27770  106.91130  -76.38060    1.40040    2.42180    2.47560    2.89660
 4150.00000   23.48510   91.48400  -88.30590    1.07430    5.04350    6.18270    7.08910
 4200.00000   34.83590  101.49090  -88.30270    1.20800    3.41650    4.36740    5.33990
 4250.00000   45.57450   99.77890  -72.20540    1.91310    2.62070    3.23080    5.14830
 4300.00000   61.33230  102.32160  -75.56180    1.24850    2.52550    3.24040    4.22550
 4350.00000   67.99520   96.65400  -65.68730    1.21780    2.37020    2.74600    3.80090
 4400.00000   48.10000  119.75370  -58.75750    2.19080    1.42440    1.64360    2.32380
 4450.00000   25.71970  100.63050 -107.31620    1.40900    1.46030    1.92640    4.12190
 4500.00000   35.42840   97.55280  -96.15680    2.07500    1.67930    2.15190    4.37940
 4550.00000   22.50490  100.13680 -110.54210    1.17700    1.29870    1.74360    3.56160
 4600.00000   22.27710   96.85520 -108.99890    1.34170    1.38620    1.85700    4.34290
 4650.00000   38.30840   95.62120 -110.70480    1.30220    1.13910    1.49780    3.58500
 4700.00000   86.10710  112.29050  -67.12350    2.02510    1.41220    1.46280    1.72740
 4750.00000   12.67980   94.29790 -122.85780    0.90150    1.25130    1.51030    4.30060
 4800.00000   81.72620  105.58720  -50.41220    1.25960    2.00280    2.03800    1.99950
 4850.00000   82.77850   97.86240  -57.03910    0.69920    1.86310    2.06570    2.60390
 4900.00000   15.75700   95.54860 -114.47620    1.32000    1.09410    1.60260    4.25030
 4950.00000   30.89020   90.65920 -109.12540    1.02270    1.48470    2.07940    5.11470
 5000.00000   77.53070   96.13090  -67.55590    1.41100    1.74980    2.06210    2.49070
 5050.00000   32.19880   95.00520 -109.05000    1.71140    1.33420    1.97170    5.02310
 5100.00000   90.18080   96.65310  -61.83060    2.19700    1.89500    2.14560    2.80660
 5150.00000  107.42160  101.98070  -50.61830    3.40270    1.81060    1.86650    2.24310
 5200.00000  112.59930  104.67420  -40.13070    3.36480    1.59530    1.61790    1.89510
