~Version ---------------------------------------------------
VERS. 2.0 : CWLS log ASCII Standard -VERSION 2.0
WRAP.  NO : ONE LINE PER DEPTH STEP
~Well ------------------------------------------------------
STRT.F                    300.0 : START DEPTH
STOP.F                   6750.0 : STOP DEPTH
STEP.F                 50.00000 : STEP LENGTH
NULL.                   -999.25 : NULL VALUE
COMP. EVERGREEN OIL CORPORATION : COMPANY
WELL.          SELMA VICKERS #1 : WELL
FLD .                      COST : FIELD
LOC .                           : LOCATION
CNTY.                  GONZALES : COUNTY
STAT.                     TEXAS : STATE
CTRY.  UNITED STATES OF AMERICA : COUNTRY
SRVC.              Schlumberger : SERVICE COMPANY
DATE.               04-Sep-1980 : LOGDATE
API .            42177305970000 : API NUMBER
UWI .            42177305970000 : UNIQUE WELL ID
SLAT.WGS84        29.4181485878 : SURFACE LATITUDE
SLON.WGS84        -97.580112582 : SURFACE LONGITUDE
~Curve Information -----------------------------------------
DEPT.F                 : 
GRR .GAPI 07 310 01 00 : GAMMA RAY FROM RESISTIVITY LOG
ILD .OHMM 07 120 46 00 : INDUCTION DEEP RESISTIVITY
ILM .OHMM 07 120 44 00 : INDUCTION MEDIUM RESISTIVITY
SFLU.OHMM 07 220 01 00 : SHALLOW FOCUSED RESISTIVITY (UNAVERAGED)
SPR .MV   07 010 01 00 : SPONTANEOUS POTENTIAL FROM RESISTIVITY LOG
DT  .US/F 60 500 00 00 : DELTA-T (INTERVAL TRANSIT TIME)
DPHI.DEC  45 890 10 00 : DENSITY POROSITY
NPHI.DEC  42 890 01 00 : NEUTRON POROSITY
GRD .GAPI 45 310 01 00 : GAMMA RAY FROM DENSITY LOG
RHOB.G/C3 45 350 01 00 : BULK DENSITY
DRHO.G/C3 45 356 01 00 : BULK DENSITY CORRECTION
CALD.IN   45 280 60 00 : CALIPER FROM DENSITY LOG
~Params ----------------------------------------------------
PD  .                     GL : PERMANENT DATUM
EPD .FT                  349 : ELEVATION PERMANENT DATUM
LMF .                     KB : LOG MEASURED FROM
DAPD.FT                   11 : FEET ABOVE PERMANENT DATUM
DMF .                     KB : DRILLING MEASURED FROM
EKB .FT                  360 : KELLY BUSHING
EDF .FT                  359 : DRILLING FLOOR
EGL .FT                  349 : GROUND LEVEL
DATE.             09/04/1980 : RUN DATE
RUN .                      2 : RUN NUMBER
DD  .FT                 6800 : DEPTH DRILLER
DL  .FT                 6779 : DEPTH LOGGER
BLI .FT                 6772 : BOTTOM LOG INTERVAL
TLI .FT                 4750 : TOP LOG INTERVAL
CS  .IN                8.625 : CASING SIZE
CBD .FT                 2162 : CASING BOTTOM DRILLER
BS  .IN                7.875 : BIT SIZE
BSD .FT                 6800 : BIT SIZE AT DEPTH
DFT .         LIGNOSULFONATE : DRILLING FLUID TYPE
DFD .                    9.1 : DRILLING FLUID DENSITY
DFV .                     34 : DRILLING FLUID VISCOSITY
DFPH.                     10 : DRILLING FLUID PH
DFL .                     20 : DRILLING FLUID LOSS
MSS .               CIRC PIT : MUD SAMPLE SOURCE
RMS .OHMM               2.45 : RESISTIVITY MUD SAMPLE
MST .DEGF                 88 : MUD SAMPLE TEMPERATURE
RMF .OHMM               2.49 : RESISTIVITY MUD FILTRATE SAMPLE
MFST.DEGF                 74 : MUD FILTRATE SAMPLE TEMPERATURE
RMC .OHMM               3.68 : RESISTIVITY MUD CAKE
MCST.DEGF                 88 : MUD CAKE SAMPLE TEMPERATURE
MFSS.                      M : MUD FILTRATE SAMPLE SOURCE
MCSS.                      C : MUD CAKE SAMPLE SOURCE
RMB .OHMM               1.28 : RESISTIVITY MUD AT BHT
TCS .HRS                 100 : TIME CIRCULATED STOPPED
TLAB.HRS                1600 : TIME LOGGER AT BOTTOM
LUN .                   8013 : LOGGING UNIT NUMBER
LUL .               VICTORIA : LOGGING UNIT LOCATION
ENGI.              PERTERSON : RECORDING ENGINEER
WITN.               THOMPSON : WITNESSED BY
CLNT.                A2DTECH : CLIENT CODE
ORIG.        0.5" 2.5" PRINT : ORIGIN OF DATA
UWI .         42177305970000 : UNIQUE WELL ID
DICO. A2D Technologies, Inc. : DIGITIZING COMPANY
~Other -----------------------------------------------------
~ASCII -----------------------------------------------------
# ...
 3100.00000   61.95330    7.82050    8.07740   10.34040  -30.66650  110.55230    -999.25    -999.25    -999.25    -999.25    -999.25    -999.25
 3150.00000   47.93790    8.09620    8.57950   10.32840  -30.20390  108.29950    -999.25    -999.25    -999.25    -999.25    -999.25    -999.25
 3200.00000   98.86900    1.66720    1.73070    1.89910  -18.25140  127.79270    -999.25    -999.25    -999.25    -999.25    -999.25    -999.25
 3250.00000   52.89950    9.64790    9.96330   11.07760  -31.02930   99.76520    -999.25    -999.25    -999.25    -999.25    -999.25    -999.25
 3300.00000   42.20990    9.83130   10.14840   10.56780  -29.81860  107.58410    -999.25    -999.25    -999.25    -999.25    -999.25    -999.25
 3350.00000   64.66770    2.26810    2.34920    2.66430  -20.48680  111.55680    -999.25    -999.25    -999.25    -999.25    -999.25    -999.25
 3400.00000   59.89120    5.75660    6.57270   11.16020  -27.14980  108.98560    -999.25    -999.25    -999.25    -999.25    -999.25    -999.25
 3450.00000   82.53510    1.25130    1.29390    1.53130  -20.34820  125.38450    -999.25    -999.25    -999.25    -999.25    -999.25    -999.25
 3500.00000   59.50760    4.04370    4.52320    4.75620  -21.69780  102.09960    -999.25    -999.25    -999.25    -999.25    -999.25    -999.25
 3550.00000   56.97590    8.68090    8.96170    9.50020  -31.07630  106.51570    -999.25    -999.25    -999.25    -999.25    -999.25    -999.25
 3600.00000   87.39920    1.64300    1.74350    2.15870  -19.66880  123.89760    -999.25    -999.25    -999.25    -999.25    -999.25    -999.25
 3650.00000   67.89320    7.10640    7.36290    9.82370  -31.86060  100.05890    -999.25    -999.25    -999.25    -999.25    -999.25    -999.25
 3700.00000   73.64080    3.28960    4.57860    6.55560  -31.19950  100.26500    -999.25    -999.25    -999.25    -999.25    -999.25    -999.25
 3750.00000   96.95900    3.61110    3.80040    3.45530  -22.24340  105.69500    -999.25    -999.25    -999.25    -999.25    -999.25    -999.25
 3800.00000   72.41370    7.56480    7.81760   10.12870  -28.03610   97.69840    -999.25    -999.25    -999.25    -999.25    -999.25    -999.25
 3850.00000   51.44030    8.15010    8.41430    9.64530  -33.00260  104.22020    -999.25    -999.25    -999.25    -999.25    -999.25    -999.25
 3900.00000  104.37580    2.59420    2.68930    3.00170  -19.96500  107.38450    -999.25    -999.25    -999.25    -999.25    -999.25    -999.25
 3950.00000  113.54210    2.49040    2.57070    2.89780  -20.28870  105.17880    -999.25    -999.25    -999.25    -999.25    -999.25    -999.25
 4000.00000  107.18400    2.08330    2.15060    2.14960  -21.19280  108.96280    -999.25    -999.25    -999.25    -999.25    -999.25    -999.25
 4050.00000   96.43670    2.73270    3.15920    3.72660  -37.72670  102.10710    -999.25    -999.25    -999.25    -999.25    -999.25    -999.25
 4100.00000  113.22870    2.52410    2.62410    3.32990  -22.46290  100.01150    -999.25    -999.25    -999.25    -999.25    -999.25    -999.25
 4150.00000  112.50040    2.59240    2.67620    3.14250  -25.76920   99.18140    -999.25    -999.25    -999.25    -999.25    -999.25    -999.25
 4200.00000   91.80430    2.69910    2.80880    2.91830  -21.95610   97.85350    -999.25    -999.25    -999.25    -999.25    -999.25    -999.25
 4250.00000  104.69130    2.19280    2.26480    2.46120  -24.30350  100.16910    -999.25    -999.25    -999.25    -999.25    -999.25    -999.25
 4300.00000   95.48760    1.88260    1.97720    2.16960  -20.71930  103.06540    -999.25    -999.25    -999.25    -999.25    -999.25    -999.25
 4350.00000   96.87180    1.52060    1.56970    1.88850  -21.95140  105.85800    -999.25    -999.25    -999.25    -999.25    -999.25    -999.25
 4400.00000   99.36390    1.30520    1.34950    1.65080  -22.55470  110.77700    -999.25    -999.25    -999.25    -999.25    -999.25    -999.25
 4450.00000   88.50590    1.21310    1.25330    1.53390  -22.75350  111.70520    -999.25    -999.25    -999.25    -999.25    -999.25    -999.25
 4500.00000   98.33400    1.44540    1.49370    1.77380  -20.50460  104.21260    -999.25    -999.25    -999.25    -999.25    -999.25    -999.25
 4550.00000   98.72830    1.23150    1.27150    1.45090  -21.08810  108.20650    -999.25    -999.25    -999.25    -999.25    -999.25    -999.25
 4600.00000   89.79070    1.11950    1.19370    1.40400  -18.39780  106.20690    -999.25    -999.25    -999.25    -999.25    -999.25    -999.25
 4650.00000   94.56900    1.65650    1.72880    1.90330  -18.17140   94.43040    -999.25    -999.25    -999.25    -999.25    -999.25    -999.25
 4700.00000   88.91160    1.38520    1.44560    1.42020  -17.30900  100.16190    0.15190    0.30920   87.48110    2.39560    0.19800    8.90170
 4750.00000  111.82490    0.93420    0.97270    1.15090  -17.94380  110.99670    0.20110    0.41850  104.71560    2.31790    0.21420   10.49780
 4800.00000   94.82300    2.34330    2.39350    2.42000  -18.64530   95.52050    0.10350    0.30670   89.47870    2.47830    0.09670    8.43440
 4850.00000   96.19070    2.47990    2.58640    2.68670  -16.68190   93.99280    0.08760    0.28580   94.40400    2.51020    0.06370    8.37640
 4900.00000   81.95280    1.18430    1.23130    1.44310  -21.73340  138.43500    0.59500    0.53350   69.76610    1.66210    0.09640   17.70800
 4950.00000   82.93060    1.82370    1.89640    1.95510  -24.24480   97.47250    0.17720    0.36770   82.23000    2.35410    0.24230    9.68270
 5000.00000   93.72060    1.31260    1.36340    1.49260  -20.60430  107.14310    0.19970    0.42080   87.60660    2.32360    0.21850   11.12100
 5050.00000   86.81080    1.60000    1.66280    1.84660  -19.81190  100.27970    0.13290    0.33380   78.85940    2.44430    0.24630   10.79380
 5100.00000   81.73720    1.38620    1.44030    1.55890  -21.73810  101.49210    0.15020    0.35270   84.76540    2.40470    0.24760   11.16340
 5150.00000   88.79200    1.26350    1.31950    1.45370  -21.68540  103.63290    0.22160    0.39130   83.12150    2.28720    0.22840   11.95870
 5200.00000   86.10620    1.54290    1.65190    1.46340  -22.00890  107.76910    0.17210    0.43400   86.66880    2.36960    0.20490   11.89980
 5250.00000   85.58930    1.35940    1.41590    1.47700  -25.14160  106.92260    0.12960    0.37530   90.02180    2.43470    0.23770   10.72350
 5300.00000   83.54950    1.78620    1.86850    2.02670  -24.31820   97.80370    0.08170    0.35770   80.09130    2.50390    0.20350    9.20490
 5350.00000   89.61160    1.63240    1.69710    1.88050  -22.68960  100.31880    0.08200    0.37370   87.35520    2.52490    0.24710    9.26290
 5400.00000   85.29440    2.72720    2.84970    3.02090  -19.58930   89.31730    0.06510    0.28430   79.59430    2.53920    0.03720    8.14650
 5450.00000  103.91490    1.76520    1.77040    1.67110  -20.31840   92.35230    0.12000    0.30650  111.18810    2.45110    0.08570    8.47210
 5500.00000   95.12140    1.81700    1.93330    1.90840  -21.49190   90.14810    0.14970    0.29130   92.16740    2.40100    0.04160    8.34700
 5550.00000   85.47370    1.46360    1.52590    1.57260  -21.74270   95.86910    0.14590    0.35750   87.97420    2.39900    0.20640    9.50910
 5600.00000   98.82280    1.26740    1.31780    1.41860  -22.35940  100.66260    0.11980    0.38820   98.74510    2.45230    0.22250   10.44440
 5650.00000  110.98050    1.12870    1.19160    1.23310  -18.37100  105.24530    0.27690    0.42730  108.70700    2.17880    0.16930   11.61550
 5700.00000  111.49910    1.52160    1.58400    1.73370  -19.00320   96.21850    0.10120    0.32930  113.81040    2.48180    0.17500    9.89410
 5750.00000   91.73700    1.36650    1.42310    1.57500  -19.18380   97.22140    0.09500    0.32390   94.79360    2.49020    0.14840   10.10710
 5800.00000   95.04180    1.33620    1.38980    1.51190  -19.07640   97.93270    0.10480    0.34420   96.36380    2.47420    0.14140   10.43050
 5850.00000   99.82950    1.22510    1.27550    1.46780  -16.00660   97.62680    0.11230    0.33050   90.62540    2.46130    0.13960   10.17970
