~Version ---------------------------------------------------
VERS. 2.0 : CWLS log ASCII Standard -VERSION 2.0
WRAP.  NO : ONE LINE PER DEPTH STEP
~Well ------------------------------------------------------
STRT.F                     1200.0 : START DEPTH
STOP.F                     9700.0 : STOP DEPTH
STEP.F                   50.00000 : STEP LENGTH
NULL.                     -999.25 : NULL VALUE
COMP.  HERD PRODUCING COMPANY INC : COMPANY
WELL. CARPENTER GAS UNIT NO. 1 #2 : WELL
FLD .                  FARRAR, SE : FIELD
LOC .                             : LOCATION
CNTY.                   LIMESTONE : COUNTY
STAT.                       TEXAS : STATE
CTRY.    UNITED STATES OF AMERICA : COUNTRY
SRVC.                Schlumberger : SERVICE COMPANY
DATE.                 01-Mar-1988 : LOGDATE
API .              42293308740000 : API NUMBER
UWI .              42293308740000 : UNIQUE WELL ID
SLAT.WGS84          31.4078157413 : SURFACE LATITUDE
SLON.WGS84         -96.2878876316 : SURFACE LONGITUDE
~Curve Information -----------------------------------------
DEPT   .F    0   1   0  0 : 1 MEASURED DEPTH
ILD    .OHMM 07 120 46 00 : INDUCTION DEEP RESISTIVITY
ILM    .OHMM 07 120 44 00 : INDUCTION MEDIUM RESISTIVITY
SFLU   .OHMM 07 220 01 00 : SHALLOW FOCUSED RESISTIVITY (UNAVERAGED)
SPR    .MV   07 010 01 00 : SPONTANEOUS POTENTIAL FROM RESISTIVITY LOG
NPHI_LS.DEC  42 890 01 00 : NEUTRON POROSITY LIMESTONE
GRD    .GAPI 45 310 01 00 : GAMMA RAY FROM DENSITY LOG
DPHI_LS.DEC  45 890 10 00 : DENSITY POROSITY LIMESTONE
DRHO   .G/C3 45 356 01 00 : BULK DENSITY CORRECTION
CALD   .IN   45 280 60 00 : CALIPER FROM DENSITY LOG
~Params ----------------------------------------------------
PD  .                     GL : PERMANENT DATUM
EPD .FT                  423 : ELEVATION PERMANENT DATUM
LMF .                    RKB : LOG MEASURED FROM
DAPD.FT                   18 : FEET ABOVE PERMANENT DATUM
DMF .                    RKB : DRILLING MEASURED FROM
EKB .FT                  441 : KELLY BUSHING
EDF .FT                  440 : DRILLING FLOOR
EGL .FT                  423 : GROUND LEVEL
DATE.               03/01/88 : RUN DATE
RUN .                      1 : RUN NUMBER
DD  .FT                 9721 : DEPTH DRILLER
DL  .FT                 9722 : DEPTH LOGGER
BLI .FT                 9716 : BOTTOM LOG INTERVAL
TLI .FT                 1173 : TOP LOG INTERVAL
CS  .IN                8.625 : CASING SIZE
CBD .FT                 1175 : CASING BOTTOM DRILLER
CBL .FT                 1173 : CASING BOTTOM LOGGER
BS  .IN                7.875 : BIT SIZE
BSD .FT                 9721 : BIT SIZE AT DEPTH
DFT .                    LIG : DRILLING FLUID TYPE
DFD .                    9.6 : DRILLING FLUID DENSITY
DFV .                     50 : DRILLING FLUID VISCOSITY
DFPH.                   10.0 : DRILLING FLUID PH
DFL .                    9.8 : DRILLING FLUID LOSS
MSS .               FLOWLINE : MUD SAMPLE SOURCE
RMS .OHMM               1.47 : RESISTIVITY MUD SAMPLE
MST .DEGF                102 : MUD SAMPLE TEMPERATURE
RMF .OHMM               2.75 : RESISTIVITY MUD FILTRATE SAMPLE
MFST.DEGF                 74 : MUD FILTRATE SAMPLE TEMPERATURE
RMC .OHMM               2.81 : RESISTIVITY MUD CAKE
MCST.DEGF                 74 : MUD CAKE SAMPLE TEMPERATURE
MFSS.                   MEAS : MUD FILTRATE SAMPLE SOURCE
MCSS.                   MEAS : MUD CAKE SAMPLE SOURCE
RMB .OHMM              0.688 : RESISTIVITY MUD AT BHT
TCS .HRS                1100 : TIME CIRCULATED STOPPED
TLAB.HRS                1630 : TIME LOGGER AT BOTTOM
LUN .                   8407 : LOGGING UNIT NUMBER
LUL .               TYLER OH : LOGGING UNIT LOCATION
ENGI.                  RICKS : RECORDING ENGINEER
WITN.                  FEARS : WITNESSED BY
CLNT.                A2DTECH : CLIENT CODE
ORIG.         1" 2" 5" PRINT : ORIGIN OF DATA
UWI .         42293308740000 : UNIQUE WELL ID
DICO. A2D Technologies, Inc. : DIGITIZING COMPANY
~Other -----------------------------------------------------
~ASCII -----------------------------------------------------
 1200.00000    2.51500    2.22050    2.44720  -27.78410    0.36170   78.73220    0.30580    0.02920   10.95120
 1250.00000    2.47560    2.14170    2.44160  -25.90160    0.34560   73.97550    0.30790    0.04690   14.89730
 1300.00000    2.17130    1.80560    2.11920  -25.55080    0.42910   58.95040    0.64470    0.08530   20.94040
 1350.00000    2.42690    2.03720    2.32600  -26.17350    0.43010   65.23380    0.48460    0.13050   18.22570
 1400.00000    1.98770    1.71890    1.95400  -26.46610    0.36990   67.91990    0.34800    0.01270   20.69350
 1450.00000    1.72860    1.56130    1.93870  -27.32460    0.40490   88.54150    0.35660    0.03730   12.94830
 1500.00000    1.95310    1.71610    2.08000  -26.67700    0.36220   84.58400    0.29860    0.02870   19.12120
 1550.00000    1.60150    1.44940    1.83860  -25.79320    0.32920   87.74570    0.26410    0.10630   20.97690
 1600.00000    2.81530    2.44620    2.74370  -32.88180    0.27810   83.07550    0.24760    0.02060   20.47930
 1650.00000    2.29110    2.01310    2.31430  -29.21700    0.32200   85.55790    0.24820    0.10120   21.03270
 1700.00000    2.19450    1.92300    2.24020  -29.31820    0.29170   85.47800    0.19670    0.19850   21.03850
 1750.00000    2.31100    2.04120    2.44150  -29.98630    0.29310   84.84800    0.21620    0.10030   20.86000
 1800.00000    1.72170    1.53460    1.89070  -28.22000    0.33390   87.41920    0.25050    0.19540   20.94230
 1850.00000    1.67980    1.49200    1.74060  -26.18630    0.33980   83.57440    0.23020    0.18400   20.17850
 1900.00000    2.09630    1.82820    2.70220  -29.14020    0.25460   61.57900    0.26240    0.06690   19.19580
 1950.00000    1.44440    1.28940    1.64360  -29.63950    0.36300   74.91440    0.29030    0.05330   20.51450
 2000.00000    1.78380    1.57240    1.90000  -30.21300    0.33960   80.80830    0.29420    0.01100   18.07660
 2050.00000    1.07470    0.98730    1.25960  -28.79800    0.39610   81.18240    0.33100    0.00900   18.28340
 2100.00000    1.27490    1.18960    1.51890  -30.42810    0.35610   81.36800    0.27410    0.10460   16.92690
 2150.00000    1.07060    0.99830    1.29560  -28.19450    0.37520   76.39450    0.30380    0.02510   16.97820
 2200.00000    2.23360    2.06780    2.30850  -34.58640    0.32880   69.53220    0.22670    0.03470   12.67350
 2250.00000    2.16450    2.02070    2.39750  -32.64370    0.32900   64.52000    0.22700    0.03990   11.28090
 2300.00000    4.03310    3.89140    4.55900  -31.84830    0.20170   46.50390    0.18460    0.00360   10.79400
 2350.00000    0.91490    0.87660    1.01750  -26.61270    0.40050   84.37960    0.35850    0.01740   13.50410
 2400.00000    1.54090    1.40960    1.47200  -32.40500    0.26150   68.22460    0.27190    0.02730   14.21680
 2450.00000    1.08490    1.01740    1.22220  -26.40370    0.36280   95.55830    0.33100    0.04030   14.62750
 2500.00000    1.68230    1.65160    1.79130  -30.48290    0.25250   81.84240    0.23150    0.06300   14.29340
 2550.00000    0.91120    0.87090    1.06970  -26.39430    0.36710   88.74820    0.32960    0.02170   14.72540
 2600.00000    1.54690    1.43730    1.60350  -28.53950    0.32990   91.49610    0.21760    0.11110   15.18240
 2650.00000    1.02220    0.97610    1.15760  -27.08470    0.34070   89.31570    0.28190    0.06890   15.34310
 2700.00000    0.92640    0.88510    1.01640  -26.70720    0.34980   93.87410    0.27590    0.07810   15.14320
 2750.00000    1.07270    1.02240    1.19200  -25.82150    0.30130   97.62280    0.23450    0.15680   15.27800
 2800.00000    1.14800    1.07970    1.26550  -26.84730    0.34260   94.95880    0.25960    0.01660   15.12850
 2850.00000    1.21400    1.08260    1.31890  -29.50210    0.34140   80.92870    0.25860    0.01300   13.41850
 2900.00000    1.29920    1.24040    1.52720  -29.58940    0.30820   83.30460    0.24710    0.03050   12.74640
 2950.00000    1.07110    1.00860    1.27540  -28.77980    0.31060   82.81680    0.25040    0.01520   13.04530
 3000.00000    1.38620    1.32600    1.49590  -32.96970    0.33620   84.79420    0.22630    0.05010   12.83460
 3050.00000    1.19630    1.14590    1.34760  -31.86590    0.34490   90.52300    0.23580    0.04030   13.55760
 3100.00000    1.03780    0.99180    1.17620  -33.15610    0.34010   81.01510    0.25810    0.04160   13.98670
 3150.00000    1.09680    1.04560    1.26900  -31.95060    0.36200  100.17020    0.28630    0.03730   14.33530
 3200.00000    0.83390    0.77470    1.08110  -29.98370    0.35050   79.52650    0.30770    0.01380   14.75740
 3250.00000    2.51120    2.43660    2.59550  -51.03480    0.18550   73.52320    0.19570    0.01170   10.71650
 3300.00000    1.68900    1.63870    1.89950  -32.74460    0.25130   92.31950    0.18270    0.04850   12.02930
 3350.00000    2.24570    2.13640    2.47730  -31.69780    0.22460   81.97640    0.17000    0.03250   11.99080
 3400.00000    1.13870    1.10450    1.30760  -28.03290    0.33320   91.25880    0.22850    0.02860   13.41570
 3450.00000    1.55720    1.50490    1.68940  -29.53310    0.25190   80.91590    0.16990    0.04300   12.68080
 3500.00000    1.95330    1.86660    2.10330  -31.08800    0.23360   75.31250    0.17960    0.01040   12.48010
 3550.00000    1.21890    1.15570    1.28170  -29.86800    0.32050   94.67410    0.21930    0.03330   13.41260
 3600.00000    1.64940    1.57620    1.99440  -28.57920    0.26130   83.73840    0.18810    0.01350   13.12980
 3650.00000    1.12680    1.08270    1.37150  -27.84550    0.30440   85.29480    0.18910    0.08270   13.55100
 3700.00000    1.05870    1.01970    1.34690  -28.78680    0.32590   83.29640    0.21260    0.06220   14.43510
 3750.00000    1.11070    1.07570    1.34930  -28.64440    0.31980   84.69180    0.19070    0.05590   14.38970
 3800.00000    0.98280    0.93830    1.22530  -27.58490    0.31570   80.16890    0.21430    0.03770   13.84280
 3850.00000    2.20430    2.10680    2.28590  -37.38810    0.20860   70.63610    0.18190    0.03440   12.52920
 3900.00000    1.19280    1.16570    1.46170  -26.68810    0.26410   93.34880    0.19520    0.00940   13.21310
 3950.00000    1.80880    1.72880    2.13870  -27.38380    0.24640   78.80150    0.15090    0.02630   12.18750
 4000.00000    3.04090    2.90640    3.18810  -35.54130    0.17960   49.98490    0.10720    0.06340   11.28420
 4050.00000    1.74000    1.65020    1.80540  -36.53970    0.28900   97.30390    0.15570    0.01960   12.44660
 4100.00000    1.82030    1.73880    2.18850  -34.42590    0.25380   78.62640    0.11750    0.06380   12.72510
 4150.00000    2.37010    2.31680    2.67810  -32.27230    0.18700   53.45390    0.08610    0.08420   11.85920
 4200.00000    2.47690    2.41440    3.04440  -29.78320    0.16690   53.31330    0.10770    0.01400   11.15860
 4250.00000    3.56930    3.51150    3.55530  -33.56570    0.12900   41.80990    0.11060    0.03740   10.52320
 4300.00000    3.29460    3.14830    3.60920  -34.34680    0.11250   29.69490    0.11050    0.01240   10.59560
 4350.00000    2.86510    2.35770    3.46110  -28.25500    0.12120   40.35840    0.11270    0.01260   11.12670
 4400.00000    4.12090    3.84720    5.66210  -29.76780    0.09540   44.38150    0.09640    0.01460   11.08790
 4450.00000    5.28470    5.15360    5.69970  -38.63810    0.11040   30.39840    0.10980   -0.00050    9.91030
 4500.00000    4.53670    4.30530    6.15960  -50.62790    0.13720   22.39470    0.12550    0.01510    9.45290
 4550.00000    1.29620    1.46130    1.42710  -30.86980    0.28950   88.64980    0.13880    0.04630   11.82130
 4600.00000    1.85930    1.74690    2.45170  -35.65280    0.25260   96.57380    0.14200    0.04840   15.32260
 4650.00000    1.78690    1.69180    2.06460  -30.36820    0.24300  101.67420    0.13110    0.06110   17.27360
 4700.00000    1.00290    0.95850    1.37830  -36.75960    0.33280   94.73720    0.19680    0.03830   16.75990
 4750.00000    1.18590    1.13300    1.53220  -35.39040    0.28620  102.61670    0.14810    0.08160   16.95570
 4800.00000    1.62680    1.56140    1.93040  -36.09660    0.25450   93.04290    0.10500    0.08730   16.86650
