~Version ---------------------------------------------------
VERS. 2.0 : CWLS log ASCII Standard -VERSION 2.0
WRAP. YES : Multiple lines per depth step
~Well ------------------------------------------------------
STRT.FT                  2550.0 : START DEPTH
STOP.FT                 14350.0 : STOP DEPTH
STEP.FT                50.00000 : STEP LENGTH
NULL.                   -999.25 : NULL VALUE
COMP. GENERAL CRUDE OIL COMPANY : COMPANY
WELL.    A G HENKES GAS UNIT #1 : WELL
FLD .                   WILDCAT : FIELD
LOC .                           : LOCATION
CNTY.                    LAVACA : COUNTY
STAT.                     TEXAS : STATE
CTRY.  UNITED STATES OF AMERICA : COUNTRY
SRVC.                   Unknown : SERVICE COMPANY
DATE.               29-Aug-1977 : LOGDATE
API .            42285307220000 : API NUMBER
UWI .            42285307220000 : UNIQUE WELL ID
SLAT.WGS84        29.3839239903 : SURFACE LATITUDE
SLON.WGS84       -96.9359395822 : SURFACE LONGITUDE
~Curve Information -----------------------------------------
DEPT  .FT    : DEPTH
SPED  .MV    : SPONTANEOUS POTENTIAL FROM DIL/SONIC LOG
CALRED.IN    : CALIPER FROM DIL/SONIC LOG
ILDED .OHMM  : INDUCTION LOG DEEP RESISTIVITY FROM DIL/SONIC LOG
ILMED .OHMM  : INDUCTION LOG MEDIUM RESISTIVITY FROM DIL/SONIC LOG
LL8ED .OHMM  : LATEROLOG 8 INCH FROM DIL/SONIC LOG
CILDED.MMHO  : CONDUCTIVITY FROM DIL/SONIC LOG
CALDED.IN    : CALIPER FROM CN/FD LOG
GRDED .GAPI  : GAMMA RAY FROM CN/FD LOG
DRHOED.G/C3  : DENSITY CORRECTION FROM CN/FD LOG
RHOBED.G/C3  : BULK DENSITY FROM CN/FD LOG
NPHIED.V/V   : NEUTRON POROSITY LIMETONE FROM CN/FD LOG
DTED  .US/F  : DELTA TIME FROM DIL/SONIC LOG
DPHIED.V/V   : DENSITY POROSITY [M=2.68, F=1.0] FROM CN/FD LOG
SPWS  .MV    : SPONTANEOUS POTENTIAL [BASELINE 0 MV]
CALWS .IN    : CALIPER [2520 CALRED, 9690.5 CALDED]
CONDWS.MMHO  : CONDUCTIVITY [CILDED]
DCORWS.G/C3  : DENSITY CORRECTION [DRHOED]
DENWS .G/C3  : BULK DENSITY [RHOBED]
DPOWS .V/V   : DENSITY POROSITY [M=2.68, F=1.0] [DPHIED]
DRESWS.OHMM  : DEEP RESISTIVITY [ILDED]
DTWS  .US/F  : DELTA TIME [DTED]
GRWS  .GAPI  : GAMMA RAY [GRDED]
MRESWS.OHMM  : MEDIUM RESISTIVITY [ILMED]
NPOWS .V/V   : NEUTRON POROSITY LIMETONE [NPHIED]
SRESWS.OHMM  : SHALLOW RESISTIVITY [LL8ED]
~Params ----------------------------------------------------
EKB .F                 278.0 : Kelly bushing
EGL .F                 260.0 : Ground level
EDF .F                 277.0 : Drilling floor
EPD .F                 260.0 : Permanent datum
TD  .F               14505.0 : Total depth
DATE.            29-AUG-1977 : Date logged
CLNT.                A2DTECH : Client Code
DAPD.F                    18 : Feet Above Permanent Datum
DD  .F                 14505 : Depth driller
DL  .F                 14401 : Depth logger
BLI .F                 14394 : Bottom log interval
TLI .F                 13663 : Top log interval
CS1 .IN                    7 : Casing size
CBD1.             7" @ 3646' : Casing driller 1
CBL1.F                 13663 : Casing logger 1
BS1 .IN                    6 : Bit size
BSD1.F                 14505 : Depth drilled with bit1
DFT .                CLS-LIG : Type fluid in hole
DFD .                   11.6 : Density
DFV .                     45 : Viscosity
DFPH.                     11 : pH
DFL .                    3.8 : Fluid loss
MSS .              CIRC. PIT : Source of sample
RMS .OHMM              0.865 : Rm
RMF .OHMM               0.57 : Rmf
RMC .OHMM                1.3 : Rmc
MFSS.                   MEAS : Source Rmf.
MCSS.                   CALC : Source Rmc.
TCS .HRS                 330 : Time Circ. stopped
TLAB.HRS                 530 : Time logger at bottom
LUN .                   8005 : Logging unit number
LUL .                   VICT : Logging unit location
ORIG.            2" 5" PRINT : Origin of data
UWI .         42285307220000 : Unique Well ID
DICO. A2D TECHNOLOGIES, INC. : Digitizing Company
SL  .  3700' FWL & 1000' FNL : Surface Location
PD  .                     GL : Permanent Datum
LMF .                     KB : Log Measured From
DMF .                     KB : Drilling Measured From
~Other -----------------------------------------------------
~ASCII -----------------------------------------------------
# ...
 8150.00000 -145.59270   11.98650    0.82040    1.17430    7.89660 1294.74980    -999.25    -999.25    -999.25    -999.25    -999.25   78.22750    -999.25 -113.03360   11.98650 1294.74980    -999.25    -999.25    -999.25    0.82040   78.22750    -999.25    1.17430    -999.25    7.89660
 8200.00000 -152.00640   11.88890    0.77050    1.20720    7.98230 1297.14320    -999.25    -999.25    -999.25    -999.25    -999.25   78.52970    -999.25 -119.20180   11.88890 1297.14320    -999.25    -999.25    -999.25    0.77050   78.52970    -999.25    1.20720    -999.25    7.98230
 8250.00000 -101.64920   12.56970    1.23050    1.36720    7.84160  906.74520    -999.25    -999.25    -999.25    -999.25    -999.25  112.31380    -999.25  -68.59900   12.56970  906.74520    -999.25    -999.25    -999.25    1.23050  112.31380    -999.25    1.36720    -999.25    7.84160
 8300.00000 -135.32990   11.84380    1.03330    1.46520    6.97640 1006.09660    -999.25    -999.25    -999.25    -999.25    -999.25   79.88080    -999.25 -102.03420   11.84380 1006.09660    -999.25    -999.25    -999.25    1.03330   79.88080    -999.25    1.46520    -999.25    6.97640
 8350.00000 -143.07680   11.79240    0.92400    1.33930    7.17060 1121.43930    -999.25    -999.25    -999.25    -999.25    -999.25   80.33120    -999.25 -109.53560   11.79240 1121.43930    -999.25    -999.25    -999.25    0.92400   80.33120    -999.25    1.33930    -999.25    7.17060
 8400.00000  -83.83190   11.97300    2.19780    3.00750    5.71320  464.39630    -999.25    -999.25    -999.25    -999.25    -999.25   83.03300    -999.25  -50.04520   11.97300  464.39630    -999.25    -999.25    -999.25    2.19780   83.03300    -999.25    3.00750    -999.25    5.71320
 8450.00000 -130.83780   11.83810    1.09310    1.65310    7.90760  958.19500    -999.25    -999.25    -999.25    -999.25    -999.25   78.07930    -999.25  -96.80550   11.83810  958.19500    -999.25    -999.25    -999.25    1.09310   78.07930    -999.25    1.65310    -999.25    7.90760
 8500.00000  -70.42790   12.15280    2.28030    2.91710    7.07300  436.53250    -999.25    -999.25    -999.25    -999.25    -999.25   75.82580    -999.25  -36.15010   12.15280  436.53250    -999.25    -999.25    -999.25    2.28030   75.82580    -999.25    2.91710    -999.25    7.07300
 8550.00000  -92.11150   12.09910    1.76020    2.29250    8.00580  643.49400    -999.25    -999.25    -999.25    -999.25    -999.25  103.90490    -999.25  -57.58820   12.09910  643.49400    -999.25    -999.25    -999.25    1.76020  103.90490    -999.25    2.29250    -999.25    8.00580
 8600.00000 -138.82860   11.75380    1.00480    1.49270    9.50950 1014.44120    -999.25    -999.25    -999.25    -999.25    -999.25   78.37840    -999.25 -104.05970   11.75380 1014.44120    -999.25    -999.25    -999.25    1.00480   78.37840    -999.25    1.49270    -999.25    9.50950
 8650.00000 -150.47500   11.79150    0.65150    0.82580    1.84780 1531.48030    -999.25    -999.25    -999.25    -999.25    -999.25   81.33510    -999.25 -115.46060   11.79150 1531.48030    -999.25    -999.25    -999.25    0.65150   81.33510    -999.25    0.82580    -999.25    1.84780
 8700.00000 -147.52620   11.73120    0.80910    1.22260    8.81580 1283.51420    -999.25    -999.25    -999.25    -999.25    -999.25   78.18590    -999.25 -112.26630   11.73120 1283.51420    -999.25    -999.25    -999.25    0.80910   78.18590    -999.25    1.22260    -999.25    8.81580
 8750.00000 -148.42510   11.73110    0.82050    1.25670   10.11700 1243.13600    -999.25    -999.25    -999.25    -999.25    -999.25   79.72850    -999.25 -112.91960   11.73110 1243.13600    -999.25    -999.25    -999.25    0.82050   79.72850    -999.25    1.25670    -999.25   10.11700
 8800.00000 -125.03750   11.77810    1.41830    2.08430    9.24070  732.43040    -999.25    -999.25    -999.25    -999.25    -999.25   75.82490    -999.25  -89.28650   11.77810  732.43040    -999.25    -999.25    -999.25    1.41830   75.82490    -999.25    2.08430    -999.25    9.24070
 8850.00000 -129.23540   11.63710    1.10740    1.63810    8.11110  918.53190    -999.25    -999.25    -999.25    -999.25    -999.25   79.13010    -999.25  -93.23890   11.63710  918.53190    -999.25    -999.25    -999.25    1.10740   79.13010    -999.25    1.63810    -999.25    8.11110
 8900.00000 -103.71940   11.82310    1.58320    2.15730    8.27130  657.69810    -999.25    -999.25    -999.25    -999.25    -999.25   72.67340    -999.25  -67.47730   11.82310  657.69810    -999.25    -999.25    -999.25    1.58320   72.67340    -999.25    2.15730    -999.25    8.27130
 8950.00000 -138.83180   11.77470    1.12540    1.79880    9.56330  869.95510    -999.25    -999.25    -999.25    -999.25    -999.25   77.62840    -999.25 -102.34420   11.77470  869.95510    -999.25    -999.25    -999.25    1.12540   77.62840    -999.25    1.79880    -999.25    9.56330
 9000.00000  -39.27490   13.03000    2.65100    2.70750    4.99770  356.75140    -999.25    -999.25    -999.25    -999.25    -999.25   84.38540    -999.25   -2.54180   13.03000  356.75140    -999.25    -999.25    -999.25    2.65100   84.38540    -999.25    2.70750    -999.25    4.99770
 9050.00000 -123.65370   11.88300    1.21930    1.64940   12.49850  847.03860    -999.25    -999.25    -999.25    -999.25    -999.25   76.82020    -999.25  -86.67500   11.88300  847.03860    -999.25    -999.25    -999.25    1.21930   76.82020    -999.25    1.64940    -999.25   12.49850
 9100.00000 -141.31790   11.79310    1.02680    1.55030   10.60050  986.53700    -999.25    -999.25    -999.25    -999.25    -999.25   75.75760    -999.25 -104.09370   11.79310  986.53700    -999.25    -999.25    -999.25    1.02680   75.75760    -999.25    1.55030    -999.25   10.60050
 9150.00000 -130.83880   11.81560    1.22770    1.67230    7.67780  883.39910    -999.25    -999.25    -999.25    -999.25    -999.25   75.42610    -999.25  -93.36910   11.81560  883.39910    -999.25    -999.25    -999.25    1.22770   75.42610    -999.25    1.67230    -999.25    7.67780
 9200.00000 -108.40840   12.06300    2.12940    2.98850   10.61070  454.40950    -999.25    -999.25    -999.25    -999.25    -999.25   75.82580    -999.25  -70.69320   12.06300  454.40950    -999.25    -999.25    -999.25    2.12940   75.82580    -999.25    2.98850    -999.25   10.61070
 9250.00000  -51.35090   12.43780    4.11600    3.92660    5.00300  238.41590    -999.25    -999.25    -999.25    -999.25    -999.25   78.59510    -999.25  -13.39010   12.43780  238.41590    -999.25    -999.25    -999.25    4.11600   78.59510    -999.25    3.92660    -999.25    5.00300
 9300.00000  -49.24910   12.69270    3.72880    3.77120    5.49300  275.03740    -999.25    -999.25    -999.25    -999.25    -999.25   77.06860    -999.25  -11.04280   12.69270  275.03740    -999.25    -999.25    -999.25    3.72880   77.06860    -999.25    3.77120    -999.25    5.49300
 9350.00000  -66.21610   12.49020    3.93990    4.24010    7.13270  270.55150    -999.25    -999.25    -999.25    -999.25    -999.25   74.06120    -999.25  -27.76430   12.49020  270.55150    -999.25    -999.25    -999.25    3.93990   74.06120    -999.25    4.24010    -999.25    7.13270
 9400.00000  -59.45930   12.43780    5.37080    5.43440    8.46990  196.31620    -999.25    -999.25    -999.25    -999.25    -999.25   73.42390    -999.25  -20.76190   12.43780  196.31620    -999.25    -999.25    -999.25    5.37080   73.42390    -999.25    5.43440    -999.25    8.46990
 9450.00000  -40.09000   12.97750    2.84760    2.85990    3.71270  315.39600    -999.25    -999.25    -999.25    -999.25    -999.25   79.88080    -999.25   -1.17760   12.97750  315.39600    -999.25    -999.25    -999.25    2.84760   79.88080    -999.25    2.85990    -999.25    3.71270
 9500.00000  -42.64250   13.15740    2.00690    1.99990    2.76270  511.21070    -999.25    -999.25    -999.25    -999.25    -999.25   87.23720    -999.25   -3.62300   13.15740  511.21070    -999.25    -999.25    -999.25    2.00690   87.23720    -999.25    1.99990    -999.25    2.76270
