~Version ---------------------------------------------------
VERS. 2.0 : CWLS log ASCII Standard -VERSION 2.0
WRAP.  NO : ONE LINE PER DEPTH STEP
~Well ------------------------------------------------------
STRT.F                             300.0 : START DEPTH
STOP.F                           21950.0 : STOP DEPTH
STEP.F                          50.00000 : STEP LENGTH
NULL.                            -999.25 : NULL VALUE
COMP. PAN AMERICAN PETROLEUM CORPORATION : COMPANY
WELL.                  A. M. FOERSTER #1 : WELL
FLD .                            WILDCAT : FIELD
LOC .                                    : LOCATION
CNTY.                           LA SALLE : COUNTY
STAT.                              TEXAS : STATE
CTRY.           UNITED STATES OF AMERICA : COUNTRY
SRVC.                       Schlumberger : SERVICE COMPANY
DATE.                        20-Aug-1964 : LOGDATE
API .                     42283002040000 : API NUMBER
UWI .                     42283002040000 : UNIQUE WELL ID
SLAT.WGS84                 28.3371650608 : SURFACE LATITUDE
SLON.WGS84                -98.9649233845 : SURFACE LONGITUDE
~Curve Information -----------------------------------------
DEPT .F                 : 
ASN  .OHMM 05 041 16 00 : AMPLIFIED SHORT NORMAL RESISTIVITY
CILD .MMHO 05 110 46 00 : INDUCTION DEEP CONDUCTIVITY
SPR  .MV   05 010 01 00 : SPONTANEOUS POTENTIAL FROM RESISTIVITY
ILD  .OHMM 05 120 46 00 : INDUCTION DEEP RESISTIVITY
DT   .US/F 60 520 31 00 : DELTA-T (INTERVAL TRANSIT TIME)
CALS .IN   60 280 50 00 : CALIPER
GRN1 .GAPI 35 310 01 00 : GAMMA RAY
GRN2 .GAPI 35 310 01 00 : GAMMA RAY
GRN3 .GAPI 35 310 01 00 : GAMMA RAY
NEUT .NAPI 35 330 01 00 : NEUTRON
NEUT1.NAPI 35 330 01 00 : NEUTRON
~Params ----------------------------------------------------
PD  .                     GL : PERMANENT DATUM
EPD .F                   445 : ELEVATION PERMANENT DATUM
LMF .                     KB : LOG MEASURED FROM
DAPD.F                  28.5 : FEET ABOVE PERMANENT DATUM
DMF .                     KB : DRILLING MEASURED FROM
EKB .F                 473.5 : KELLING BUSHING
EDF .F                   471 : DRILLING FLOOR
EGL .F                   445 : GROUND LEVEL
DATE.               08/20/64 : RUN DATE
RUN .                     11 : RUN NUMBER
DD  .F                 21995 : DEPTH DRILLER
DL  .F                 21992 : DEPTH LOGGER
BLI .F                 21991 : BOTTOM LOG INTERVAL
TLI .F                 20005 : TOP LOG INTERVAL
CS  .IN                9.625 : CASING SIZE
CBD .F                 15993 : CASING BOTTOM DRILLER
CBL .F                 15993 : CASING BOTTOM LOGGER
BS  .IN                  8.5 : BIT SIZE
BSD .F                 21995 : BIT SIZE AT DEPTH
DFT .    XP 20 O E SPER CAUS : DRILLING FLUID TYPE
DFD .                   18.4 : DRILLING FLUID DENSITY
DFV .                     54 : DRILLING FLUID VISCOSITY
DFPH.                    8.9 : DRILLING FLUID PH
DFL .                      4 : DRILLING FLUID LOSS
MSS .                MUD PIT : MUD SAMPLE SOURCE
RMS .OHMM               0.15 : RESISTIVITY MUD SAMPLE
MST .F                   120 : MUD SAMPLE TEMPERATURE
RMF .OHMM              0.089 : RESISTIVITY MUD FILTRATE SAMPLE
MFST.F                    75 : MUD FILTRATE SAMPLE TEMPERATURE
RMC .OHMM               0.32 : RESISTIVITY MUD CAKE
MCST.F                    75 : MUD CAKE SAMPLE TEMPERATURE
MFSS.                      M : MUD FILTRATE SAMPLE SOURCE
MCSS.                      M : MUD CAKE SAMPLE SOURCE
RMB .OHMM              0.046 : RESISTIVITY MUD AT BHT
TCS .HRS                  10 : TIME CURCULATED STOPPED
LUN .                   4526 : LOGGING UNIT NUMBER
LUL .                    KEN : LOGGING UNIT LOCATION
ENGI.                  HARSH : RECORDING ENGINEER
WITN.          FREEMAN WALSH : WITNESSED BY
CLNT.                A2DTECH : CLIENT CODE
ORIG.               1" PRINT : ORIGIN OF DATA
UWI .         42283002040000 : UNIQUE WELL ID
DICO. A2D Technologies, Inc. : DIGITIZING COMPANY
~Other -----------------------------------------------------
~ASCII -----------------------------------------------------
# ...
 12450.00000   42.97080   14.46780  -59.86550   61.56310   50.05260   14.53150    -999.25    -999.25    -999.25    -999.25    -999.25
 12500.00000   43.96420   15.84150  -55.75490   54.09590   50.12750   14.99250    -999.25    -999.25    -999.25    -999.25    -999.25
 12550.00000   35.48200   35.40610  -56.72650   24.62750   53.18840   14.93060    -999.25    -999.25    -999.25    -999.25    -999.25
 12600.00000   40.89540   22.48880  -56.16100   51.08480   52.15310   14.93890    -999.25    -999.25    -999.25    -999.25    -999.25
 12650.00000   39.51810   18.91530  -64.94740   47.30470   52.51310   14.91560    -999.25    -999.25    -999.25    -999.25    -999.25
 12700.00000   30.35280   19.78840  -63.87650   42.89740   49.36200   14.84210    -999.25    -999.25    -999.25    -999.25    -999.25
 12750.00000   27.04920   25.78710  -51.64420   33.61250   59.85020   14.85960    -999.25    -999.25    -999.25    -999.25    -999.25
 12800.00000   35.82290   17.90420  -48.39170   47.61190   51.13780   14.85710    -999.25    -999.25    -999.25    -999.25    -999.25
 12850.00000   25.46920   17.08780  -52.16740   47.62500   50.01500   14.85710    -999.25    -999.25    -999.25    -999.25    -999.25
 12900.00000   26.17510   28.18590  -62.68060   34.42620   50.95810   14.85710    -999.25    -999.25    -999.25    -999.25    -999.25
 12950.00000   36.26920   11.64530  -58.09600   65.02300   50.37420   14.83610    -999.25    -999.25    -999.25    -999.25    -999.25
 13000.00000   11.71390  223.98800  -35.87440    4.72690   72.33540   14.40450    -999.25    -999.25    -999.25    -999.25    -999.25
 13050.00000    7.38420  159.67790  -34.45440    4.99240   68.56300   13.93650    -999.25    -999.25    -999.25    -999.25    -999.25
 13100.00000   16.23950   53.67320  -35.42600   15.72280   61.96120   13.57400    -999.25    -999.25    -999.25    -999.25    -999.25
 13150.00000    9.66470   88.90650  -36.99550    9.76100   77.64630   13.63910    -999.25    -999.25    -999.25    -999.25    -999.25
 13200.00000   18.27870   47.07480  -37.36920   21.01340   67.93410   12.64660    -999.25    -999.25    -999.25    -999.25    -999.25
 13250.00000   12.57750   63.33740  -36.09870   16.20640   79.08750   12.90230    -999.25    -999.25    -999.25    -999.25    -999.25
 13300.00000    8.94190  143.52950  -35.42600    7.52590   89.04190   12.95860    -999.25    -999.25    -999.25    -999.25    -999.25
 13350.00000   14.91810   74.21270  -35.94920   13.63660   78.60500   12.77980    -999.25    -999.25    -999.25    -999.25    -999.25
 13400.00000   16.78090   41.67920  -36.97650   21.87900   77.59870   12.61770    -999.25    -999.25    -999.25    -999.25    -999.25
 13450.00000   16.38600   48.65070  -34.90280   23.45990   55.71860   12.55640    -999.25    -999.25    -999.25    -999.25    -999.25
 13500.00000    8.09240  140.62900  -26.75630    7.37700   71.36880   12.99250    -999.25    -999.25    -999.25    -999.25    -999.25
 13550.00000    9.17290   74.34530  -26.38270   16.82810   78.03910   12.91990    -999.25    -999.25    -999.25    -999.25    -999.25
 13600.00000   44.68280   19.93980  -33.53820   50.13500   49.43110   12.87240    -999.25    -999.25    -999.25    -999.25    -999.25
 13650.00000   34.00890   15.66720  -39.61140   60.96390   50.68850   12.95300    -999.25    -999.25    -999.25    -999.25    -999.25
 13700.00000   44.64490   10.04500  -46.33780   84.27700   50.46420   12.96240    -999.25    -999.25    -999.25    -999.25    -999.25
 13750.00000   23.63640   29.01050  -71.00130   36.25190   52.09560   13.50380    -999.25    -999.25    -999.25    -999.25    -999.25
 13800.00000   21.87780   12.77290  -72.94470   47.24290   49.79050   13.12370    -999.25    -999.25    -999.25    -999.25    -999.25
 13850.00000   32.37710    6.67170  -69.43250  108.83010   55.06360   13.28020    -999.25    -999.25    -999.25    -999.25    -999.25
 13900.00000   38.22650   16.34170  -62.92970   69.77150   54.05690   13.46650    -999.25    -999.25    -999.25    -999.25    -999.25
 13950.00000   46.31150   10.77010  -60.61290   93.35590   48.54420   12.88520    -999.25    -999.25    -999.25    -999.25    -999.25
 14000.00000   32.33980   15.59900  -81.97840   39.19560   48.44660   13.39200    -999.25    -999.25    -999.25    -999.25    -999.25
 14050.00000   28.98670   21.03990  -86.62180   39.79070   53.42860   13.89680    -999.25    -999.25    -999.25    -999.25    -999.25
 14100.00000   31.86780   13.19340  -85.94920   87.70550   49.20650   12.94040    -999.25    -999.25    -999.25    -999.25    -999.25
 14150.00000   31.73110    4.19850  -93.64720  100.12430   50.91320   13.60060    -999.25    -999.25    -999.25    -999.25    -999.25
 14200.00000   32.36630   10.79460  -95.80410  153.94930   49.75670   13.28770    -999.25    -999.25    -999.25    -999.25    -999.25
 14250.00000   21.47540   44.02770  -98.20630   24.47860   51.32570   12.95980    -999.25    -999.25    -999.25    -999.25    -999.25
 14300.00000   20.59610   14.14280  -99.55160   53.77510   50.29340   12.87770    -999.25    -999.25    -999.25    -999.25    -999.25
 14350.00000   48.80280    8.24570  -89.23770  116.35620   48.53080   12.87050    -999.25    -999.25    -999.25    -999.25    -999.25
 14400.00000   23.35820   17.99010 -103.88670   51.21730   48.46920   12.94490    -999.25    -999.25    -999.25    -999.25    -999.25
 14450.00000   33.26330   13.41760 -104.40960   58.35460   48.09860   12.93000    -999.25    -999.25    -999.25    -999.25    -999.25
 14500.00000   21.59470   26.74900  -91.33030   16.61700   56.89360   13.01200    -999.25    -999.25    -999.25    -999.25    -999.25
 14550.00000   22.89120   33.65730  -97.53360   28.32710   51.42580   12.89520    -999.25    -999.25    -999.25    -999.25    -999.25
 14600.00000    4.76900  187.40630 -104.33480    6.03460   64.39150   12.86140    -999.25    -999.25    -999.25    -999.25    -999.25
 14650.00000    4.47100  302.89650 -100.19910    5.42720   62.23060   13.18890    -999.25    -999.25    -999.25    -999.25    -999.25
 14700.00000   11.39860  189.15420  -96.60690    7.65990   53.87720   12.87040    -999.25    -999.25    -999.25    -999.25    -999.25
 14750.00000   24.77660   20.34870  -94.91020   64.59420   49.16170   12.93000    -999.25    -999.25    -999.25    -999.25    -999.25
 14800.00000   15.85850    4.28020  -95.54660   45.68430   48.66760   12.90010    -999.25    -999.25    -999.25    -999.25    -999.25
 14850.00000    9.53610   44.89210  -99.10180   26.50860   55.73230   13.74970    -999.25    -999.25    -999.25    -999.25    -999.25
 14900.00000   31.77080    2.93650  -90.86830   79.24230   50.91310   13.27270    -999.25    -999.25    -999.25    -999.25    -999.25
 14950.00000   19.51640   39.85070 -103.96710   25.67050   51.06900   13.82410    -999.25    -999.25    -999.25    -999.25    -999.25
 15000.00000   15.56540   24.38130 -108.98200   32.73810   53.71520   13.36220    -999.25    -999.25    -999.25    -999.25    -999.25
 15050.00000    5.48370  301.61930 -112.79940    4.40220   59.76050   12.70640    -999.25    -999.25    -999.25 4058.64280    -999.25
 15100.00000   11.53270   52.83780  -92.06670   17.33700   52.08080   13.43070    -999.25    -999.25    -999.25 3972.70000    -999.25
 15150.00000   28.23580   14.02990  -99.77510   64.47210   49.10820   12.90010    -999.25    -999.25    -999.25 4120.40820    -999.25
 15200.00000   17.91670   21.79100 -119.66290   35.96240   48.89220   12.89640    -999.25    -999.25    -999.25 4197.08300    -999.25
 15250.00000    8.83180  121.34120 -119.96020   10.75150   59.22160   13.49630    -999.25    -999.25    -999.25 3595.20800    -999.25
 15300.00000   21.40380   -0.04990 -120.05990   36.19080   50.02240   13.57490    -999.25    -999.25    -999.25 3567.34640    -999.25
 15350.00000   16.99160    0.59640 -125.59880  210.68810   55.61500   13.27540    -999.25    -999.25    -999.25 3379.50370    -999.25
 15400.00000   23.36310    2.98510  -99.35610   34.37530   49.39580   12.78890    -999.25    -999.25    -999.25 2882.19410    -999.25
