~Version ---------------------------------------------------
VERS.      2.0 : CWLS log ASCII Standard -VERSION 2.0
WRAP.      YES : Multiple lines per depth step
CREA. 03/30/13 : LAS Creation Date
~Well ------------------------------------------------------
STRT.FT                 1500.0 : START DEPTH
STOP.FT                10200.0 : STOP DEPTH
STEP.FT               50.00000 : STEP LENGTH
NULL.                  -999.25 : NULL VALUE
COMP.     MARATHON OIL COMPANY : COMPANY
WELL.   MARATHON MARSHALL A #7 : WELL
FLD .               BEAR GRASS : FIELD
LOC .                          : LOCATION
CNTY.                     LEON : COUNTY
STAT.                    TEXAS : STATE
CTRY. UNITED STATES OF AMERICA : COUNTRY
SRVC.             Schlumberger : SERVICE COMPANY
DATE.              17-Feb-1998 : LOGDATE
API .           42289312850000 : API NUMBER
UWI .           42289312850000 : UNIQUE WELL ID
SLAT.WGS84       31.3583372232 : SURFACE LATITUDE
SLON.WGS84      -96.2380251185 : SURFACE LONGITUDE
~Curve Information -----------------------------------------
DEPT    .FT    : DEPTH FEET
AHT10ED .OHMM  : 10 INCH RESISTIVITY TWO FOOT RESOLUTION FROM RESISTIVITY LOG
AHT20ED .OHMM  : 20 INCH RESISTIVITY TWO FOOT RESOLUTION FROM RESISTIVITY LOG
AHT30ED .OHMM  : 30 INCH RESISTIVITY TWO FOOT RESOLUTION FROM RESISTIVITY LOG
AHT60ED .OHMM  : 60 INCH RESISTIVITY TWO FOOT RESOLUTION FROM RESISTIVITY LOG
AHT90ED .OHMM  : 90 INCH RESISTIVITY TWO FOOT RESOLUTION FROM RESISTIVITY LOG
CALWS   .IN    : CALIPER [DCALRED+BITS]
CONDWS  .MMHO  : CONDUCTIVITY [1000/DRESWS]
DCALRED .IN    : DIFFERENTIAL CALIPER FROM RESISTIVITY LOG
DCORWS  .G/C3  : DENSITY CORRECTION [HDRAED]
DENWS   .G/C3  : FORMATION BULK DENSITY [CALC FROM DPOWS, M=2.71,F=1.0]
DPHZLSED.V/V   : DENSITY POROSITY LIMESTONE [M=2.71,F=1.0] FROM DENSITY LOG
DPOWS   .V/V   : DENSITY POROSITY LIMESTONE [DPHZLSED]
DRESWS  .OHMM  : DEEP RESISTIVITY [AHT90ED]
DTED    .US/F  : DELTA TIME FROM SONIC LOG
DTWS    .US/F  : COMPRESSIONAL SONIC [DTED]
GRMED   .GAPI  : GAMMA RAY FROM MICROLOG
GRRED   .GAPI  : GAMMA RAY FROM RESISTIVITY LOG
GRWS    .GAPI  : GAMMA RAY [GRRED SPL. TO GRMED @ 4602']
HDRAED  .G/C3  : DENSITY CORRECTION FROM DENSITY LOG
MCALED  .IN    : CALIPER FROM MICROLOG
MRESWS  .OHMM  : MEDIUM RESISTIVITY [AHT30ED]
NPHILSED.V/V   : NEUTRON POROSITY LIMESTONE FROM DENSITY LOG
NPOWS   .V/V   : NEUTRON POROSITY LIMESTONE [NPHILSED]
SPRED   .MV    : SPONTANEOUS POTENTIAL FROM RESISTIVITY LOG
SPWS    .MV    : SPONTANEOUS POTENTIAL [BASELINE 0 MV, SPRED]
SRESWS  .OHMM  : SHALLOW RESISTIVITY [AHT10ED]
TENRED  .LBF   : TENSION FROM RESISTIVITY LOG
~Params ----------------------------------------------------
PD  .                     GL : PERMANENT DATUM
EPD .FT                  472 : ELEVATION PERMANENT DATUM
LMF .                     KB : LOG MEASURED FROM
DAPD.FT                   17 : FEET ABOVE PERMANENT DATUM
DMF .                     KB : DRILLING MEASURED FROM
EKB .FT                  489 : KELLY BUSHING
EDF .FT                  488 : DRILLING FLOOR
EGL .FT                  472 : GROUND LEVEL
DATE.               02/17/98 : RUN DATE
RUN .                      1 : RUN NUMBER
DD  .FT                10250 : DEPTH DRILLER
DL  .FT                10240 : DEPTH LOGGER
BLI .FT                10240 : BOTTOM LOG INTERVAL
TLI .FT                 1610 : TOP LOG INTERVAL
MST .DEGF                110 : MUD SAMPLE TEMPERATURE
MFST.DEGF                109 : MUD FILTRATE SAMPLE TEMPERATURE
MCST.DEGF                109 : MUD CAKE SAMPLE TEMPERATURE
MFSS.                   CALC : MUD FILTRATE SAMPLE SOURCE
MCSS.                   CALC : MUD CAKE SAMPLE SOURCE
CLNT.                A2DTECH : CLIENT CODE
ORIG.         1" 2" 5" PRINT : ORIGIN OF DATA
UWI .         42289312850000 : UNIQUE WELL ID
DICO. A2D Technologies, Inc. : DIGITIZING COMPANY
~Other -----------------------------------------------------
AIT & LDT-CNL & BHC & ML RUN IN COMBO
~ASCII -----------------------------------------------------
# ...
 5400.00000    1.74620    1.81100    1.88220    1.96800    2.10090   13.01850  475.98650    5.14350    0.14850    2.47030    0.14020    0.14020    2.10090   95.80770   95.80770   82.11330   82.04670   82.11330    0.14850   12.81030    1.88220    0.32750    0.32750  -73.00030   -3.04020    1.74620 2872.93800
 5450.00000    1.44850    1.54110    1.59570    1.62890    1.67050   12.97820  598.62320    5.10320    0.14220    2.39450    0.18450    0.18450    1.67050  100.72150  100.72150   78.24690   78.03830   78.24690    0.14220   12.91350    1.59570    0.34840    0.34840  -72.75900   -2.66570    1.44850 2880.17900
 5500.00000    1.99340    2.03200    2.09590    2.13460    2.18340   12.29080  458.00130    4.41580    0.16460    2.43010    0.16370    0.16370    2.18340   95.53100   95.53100   65.28400   65.14550   65.28400    0.16460   12.53560    2.09590    0.29700    0.29700  -74.56300   -4.46970    1.99340 2902.47850
 5550.00000    1.35480    1.50040    1.52470    1.55310    1.60380   13.97240  623.51910    6.09740    0.17670    2.30180    0.23870    0.23870    1.60380   97.76050   97.76050   76.91800   76.83950   76.91800    0.17670   13.61010    1.52470    0.38590    0.38590  -79.51880   -9.42550    1.35480 2884.75020
 5600.00000    1.22640    1.29050    1.34170    1.37580    1.41850   13.05590  704.97000    5.18090    0.17430    2.38730    0.18870    0.18870    1.41850  101.39750  101.39750   74.34920   73.86360   74.34920    0.17430   12.86520    1.34170    0.37280    0.37280  -75.09610   -5.00280    1.22640 2863.06150
 5650.00000    0.92650    1.01170    1.04900    1.06880    1.09660   13.43640  911.90950    5.56140    0.19410    2.11240    0.34950    0.34950    1.09660  104.53800  104.53800   69.33130   69.37960   69.33130    0.19410   13.87340    1.04900    0.45820    0.45820  -74.82300   -4.72970    0.92650 2879.05000
 5700.00000    1.28800    1.35100    1.38120    1.40630    1.43840   13.45460  695.21690    5.57960    0.18770    2.38770    0.18850    0.18850    1.43840  105.96760  105.96760   70.07340   70.10160   70.07340    0.18770   13.40560    1.38120    0.39560    0.39560  -76.04690   -5.95360    1.28800 2894.04370
 5750.00000   23.60480   19.82770   18.83460   18.42440   17.52740    9.52260   57.05350    1.64760    0.01040    2.66620    0.02560    0.02560   17.52740   59.92370   59.92370   17.05720   17.29630   17.05720    0.01040    9.48060   18.83460    0.06930    0.06930  -90.26780  -20.17450   23.60480 3025.65990
 5800.00000    8.60260    7.72700    7.09080    6.78290    6.47170   10.49170  154.51890    2.61670    0.02340    2.66640    0.02550    0.02550    6.47170   66.66120   66.66120   29.59700   29.33490   29.59700    0.02340   10.44320    7.09080    0.14280    0.14280  -79.27770   -9.18440    8.60260 2960.89500
 5850.00000    2.40100    2.54640    2.66040    2.79190    2.88120   12.47210  347.07760    4.59710    0.09900    2.53640    0.10150    0.10150    2.88120   79.29970   79.29970   53.24530   52.81070   53.24530    0.09900   12.49540    2.66040    0.28120    0.28120  -72.64500   -2.55170    2.40100 2928.46000
 5900.00000   10.76090   10.82360   11.92930   12.44030   12.93450    9.86320   77.31260    1.98820    0.00710    2.66180    0.02820    0.02820   12.93450   59.61900   59.61900   24.00090   24.79550   24.00090    0.00710    9.79880   11.92930    0.08020    0.08020  -75.48320   -3.79460   10.76090 2974.83790
 5950.00000    8.99240    8.02390    7.19950    6.73290    6.20580    9.70370  161.13960    1.82870    0.02880    2.65150    0.03420    0.03420    6.20580   60.86950   60.86950   26.07350   26.26700   26.07350    0.02880    9.65320    7.19950    0.11090    0.11090  -80.50670   -7.81570    8.99240 3031.32470
 6000.00000   22.40110   20.78020   18.78250   17.44070   16.57780    9.91320   60.32160    2.03820    0.00800    2.65460    0.03240    0.03240   16.57780   58.16810   58.16810   16.22010   16.32930   16.22010    0.00800    9.84040   18.78250    0.07270    0.07270  -87.46960  -15.08000   22.40110 3033.14480
 6050.00000   20.91510   18.03560   17.65280   17.16810   16.73730    9.97900   59.74680    2.10400    0.00420    2.65020    0.03500    0.03500   16.73730   58.20190   58.20190   18.50600   18.52340   18.50600    0.00420    9.96640   17.65280    0.07050    0.07050  -89.52350  -17.43540   20.91510 3028.72880
 6100.00000    8.79380    7.47450    6.41060    5.49950    4.72600   10.58500  211.59540    2.71000    0.05220    2.64310    0.03910    0.03910    4.72600   62.02370   62.02370   28.39040   28.50600   28.39040    0.05220   10.57290    6.41060    0.10180    0.10180  -80.33360   -8.54690    8.79380 3028.95190
 6150.00000   18.30900   12.96190   11.60110   11.18400   10.78470   10.29570   92.72400    2.42070    0.00400    2.65290    0.03340    0.03340   10.78470   58.73980   58.73980   20.51890   20.13120   20.51890    0.00400   10.27380   11.60110    0.07540    0.07540  -87.47230  -15.98710   18.30900 3021.74850
 6200.00000   13.47160   12.34970   11.01030    9.87530    9.18090   10.84810  108.92180    2.97310    0.01190    2.67900    0.01810    0.01810    9.18090   60.71690   60.71690   20.61500   19.89240   20.61500    0.01190   10.81810   11.01030    0.10470    0.10470  -78.40630   -7.22250   13.47160 3027.56010
 6250.00000    8.52900    9.18960    9.52830    9.92900   10.20550   10.10000   97.98640    2.22500    0.01210    2.67200    0.02220    0.02220   10.20550   62.03610   62.03610   30.80520   30.59500   30.80520    0.01210   10.06090    9.52830    0.11000    0.11000  -74.80050   -3.91820    8.52900 3085.30080
 6300.00000   28.03320   21.04390   18.74490   17.18720   16.40690    9.87950   60.95000    2.00450    0.09380    2.67150    0.02250    0.02250   16.40690   58.24140   58.24140   19.47340   18.88310   19.47340    0.09380    9.74640   18.74490    0.07340    0.07340  -88.30860  -17.72770   28.03320 3134.70580
 6350.00000    8.82010    9.23720    9.49520   10.09390   11.65200   10.33920   85.82220    2.46420   -0.00090    2.67820    0.01860    0.01860   11.65200   74.43730   74.43730   41.53060   41.93070   41.53060   -0.00090   10.30250    9.49520    0.10830    0.10830  -73.73250   -3.45310    8.82010 3143.13820
 6400.00000   13.23210   12.91900   12.61460   12.39970   12.08960    9.48200   82.71570    1.60700   -0.00300    2.65100    0.03450    0.03450   12.08960   60.35650   60.35650   34.95330   34.92060   34.95330   -0.00300    9.41560   12.61460    0.07750    0.07750 -101.73630  -31.75830   13.23210 3145.53100
 6450.00000    3.85490    3.72940    3.59060    3.53560    3.47080   10.26160  288.11800    2.38660    0.00590    2.64830    0.03610    0.03610    3.47080   70.82730   70.82730   55.49460   55.64630   55.49460    0.00590   10.16700    3.59060    0.18030    0.18030  -71.16130   -1.48480    3.85490 3158.64480
 6500.00000   25.99210   22.77480   20.34360   17.77540   12.25980    9.43000   81.56740    1.55500    0.01320    2.67940    0.01790    0.01790   12.25980   56.57120   56.57120   40.46800   29.23300   40.46800    0.01320    9.41880   20.34360    0.05990    0.05990  -85.66170  -16.28660   25.99210 3195.20610
 6550.00000    4.59590    4.12700    3.83210    3.63710    3.57280    9.73220  279.89250    1.85720    0.00380    2.62860    0.04760    0.04760    3.57280   73.27600   73.27600   63.61000   62.91710   63.61000    0.00380    9.66450    3.83210    0.16420    0.16420  -70.19580   -1.25440    4.59590 3123.73360
 6600.00000    8.10200    6.66870    5.86820    5.31300    5.12190   10.36270  195.24000    2.48770    0.16390    2.63580    0.04340    0.04340    5.12190   71.17470   71.17470   53.78240   53.87500   53.78240    0.16390   10.04950    5.86820    0.19540    0.19540  -71.82370   -3.51430    8.10200 3233.01250
 6650.00000    7.65350    7.33240    7.08770    6.91540    6.73090    9.60260  148.56850    1.72760    0.01950    2.63340    0.04480    0.04480    6.73090   69.32170   69.32170   64.22820   63.74360   64.22820    0.01950    9.53790    7.08770    0.14690    0.14690  -70.83560   -3.15830    7.65350 3364.54100
