~Version ---------------------------------------------------
VERS.      2.0 : CWLS log ASCII Standard -VERSION 2.0
WRAP.      YES : Multiple lines per depth step
CREA. 01/04/18 : LAS Creation Date
~Well ------------------------------------------------------
STRT.FT                         3450.0 : START DEPTH
STOP.FT                        13850.0 : STOP DEPTH
STEP.FT                       50.00000 : STEP LENGTH
NULL.                          -999.25 : NULL VALUE
COMP.          TORCH OPERATING COMPANY : COMPANY
WELL.           CAROLYN WARMKE UNIT #1 : WELL
FLD .                          WILDCAT : FIELD
LOC .                                  : LOCATION
CNTY.                          FAYETTE : COUNTY
STAT.                            TEXAS : STATE
CTRY.         UNITED STATES OF AMERICA : COUNTRY
SRVC. HALLIBURTON LOGGING SERVICES INC : SERVICE COMPANY
DATE.                      31-Dec-1991 : LOGDATE
API .                   42149325050000 : API NUMBER
UWI .                   42149325050000 : UNIQUE WELL ID
SLAT.WGS84               30.0718798257 : SURFACE LATITUDE
SLON.WGS84              -96.6577022662 : SURFACE LONGITUDE
~Curve Information -----------------------------------------
DEPT    .FT    : DEPTH FEET
CALRED  .IN    : CALIPER FROM DIL/SDL/DSN LOG
CALWS   .IN    : CALIPER [TOP DCALRD+BIT 13316' CALRED]
CONDWS  .MMHO  : DEEP CONDUCTIVITY [1000/DRESWS]
CORRED  .G/C3  : DENSITY CORRECTION FROM DIL/SDL/DSN LOG
DCALED  .IN    : DIFFERENTIAL CALIPER FROM DENSITY LOG
DENWS   .G/C3  : BULK DENSITY [CALC. FROM DPOLSWS]
DPHILSED.V/V   : DENSITY POROSITY (LS) [M=2.71 F=1.0] FROM DIL/SDL/DSN LOG
DPOLSWS .V/V   : DENSITY POROSITY LIMESTONE [M=2.71 F=1.0] [DPHILSED]
DRESWS  .OHMM  : DEEP RESISTIVITY [ILDED]
DTED    .US/F  : DELTA TIME FROM DIL/LSS LOG
DTWS    .US/F  : DELTA TIME COMPRESSIONAL [DTED]
GRRED   .GAPI  : GAMMA RAY FROM RESISTIVITY LOG
GRWS    .GAPI  : GAMMA RAY [GRRED]
ILDED   .OHMM  : INDUCTION LOG DEEP RESISTIVITY
ILMED   .OHMM  : INDUCTION LOG MEDIUM RESISTIVITY
MRESWS  .OHMM  : MEDIUM RESISTIVITY [ILMED]
NPHILSED.V/V   : NEUTRON POROSITY LIMESTONE FROM DIL/SDL/DSN LOG
NPOLSWS .V/V   : NEUTRON POROSITY LIMESTONE [NPHILSED]
SGUARDED.OHMM  : SHORT GUARD RESISTIVITY
SNED    .OHMM  : 16 INCH SHORT NORMAL RESISTIVITY FROM IEL LOG
SPRED   .MV    : SPONTANEOUS POTENTIAL FROM RESISTIVITY LOG
SPWS    .MV    : SPONTANEOUS POTENTIAL [BASELINE 0 MV] [SPRED]
SRESWS  .OHMM  : SHALLOW RESISTIVITY [TOP SGUARDED 13320' SNED]
TENRED  .LBF   : TENSION FROM RESISTIVITY LOG
~Params ----------------------------------------------------
PD  .                     GL : PERMANENT DATUM
EPD .FT                  387 : ELEVATION PERMANENT DATUM
LMF .                    TKB : LOG MEASURED FROM
DAPD.FT                 22.1 : FEET ABOVE PERMANENT DATUM
DMF .                    TKB : DRILLING MEASURED FROM
EKB .FT                409.1 : KELLY BUSHING
EDF .FT                407.8 : DRILLING FLOOR
EGL .FT                  387 : GROUND LEVEL
DATE.             12/31/1991 : RUN DATE
RUN .                      2 : RUN NUMBER
DD  .FT                13866 : DEPTH DRILLER
DL  .FT                13790 : DEPTH LOGGER
BLI .FT                13788 : BOTTOM LOG INTERVAL
TLI .FT                13316 : TOP LOG INTERVAL
CS  .IN                  6.5 : CASING SIZE
CBD .FT                13316 : CASING BOTTOM DRILLER
CBL .FT                13316 : CASING BOTTOM LOGGER
BS  .IN                 4.75 : BIT SIZE
BSD .FT                13866 : BIT SIZE AT DEPTH
DFT .                    CLS : DRILLING FLUID TYPE
DFD .                   10.6 : DRILLING FLUID DENSITY
DFV .                     45 : DRILLING FLUID VISCOSITY
DFPH.                    9.9 : DRILLING FLUID PH
DFL .                    6.2 : DRILLING FLUID LOSS
MSS .               FLOWLINE : MUD SAMPLE SOURCE
RMS .OHMM               0.86 : RESISTIVITY MUD SAMPLE
MST .DEGF                 75 : MUD SAMPLE TEMPERATURE
RMF .OHMM               0.72 : RESISTIVITY MUD FILTRATE SAMPLE
MFST.DEGF                 75 : MUD FILTRATE SAMPLE TEMPERATURE
RMC .OHMM                1.1 : RESISTIVITY MUD CAKE
MCST.DEGF                 75 : MUD CAKE SAMPLE TEMPERATURE
MFSS.                   MEAS : MUD FILTRATE SAMPLE SOURCE
MCSS.                   MEAS : MUD CAKE SAMPLE SOURCE
RMB .OHMM              0.241 : RESISTIVITY MUD AT BHT
TCS .HRS                1630 : TIME CIRCULATED STOPPED
TLAB.HRS                2324 : TIME LOGGER AT BOTTOM
LUN .                   7678 : LOGGING UNIT NUMBER
LUL .                   VICT : LOGGING UNIT LOCATION
ENGI.         STAPP ROBINSON : RECORDING ENGINEER
WITN.                HOLLIER : WITNESSED BY
CLNT.                A2DTECH : CLIENT CODE
ORIG.               5" PRINT : ORIGIN OF DATA
UWI .         42149325050000 : UNIQUE WELL ID
DICO. A2D Technologies, Inc. : DIGITIZING COMPANY
~Other -----------------------------------------------------
DIL/SDL/DSN PRESENTD FROM TD TO 10600'; DIL/LSS FROM 10600' TO CASING.
ALL POROSITY LOGS RAN ON LIMESTONE MATRIX.
DID NOT RACH TO TD WITH IEL.
LOGS WERE RAN SEPARATELY THEN MURGED TOGETHER.
~ASCII -----------------------------------------------------
# ...
 4900.00000    -999.25    9.02900 1206.27260    -999.25   -0.84600    -999.25    -999.25    -999.25    0.82900  103.17100  103.17100   46.47740   46.47740    0.82900    1.15200    1.15200    -999.25    -999.25    2.22400    -999.25 -111.56400  -54.35740    2.22400 2183.45800
 4950.00000    -999.25    9.03600 1142.85710    -999.25   -0.83900    -999.25    -999.25    -999.25    0.87500  100.80200  100.80200   49.85930   49.85930    0.87500    1.21700    1.21700    -999.25    -999.25    2.69900    -999.25 -113.39500  -56.21840    2.69900 2220.54570
 5000.00000    -999.25    9.07300  773.99380    -999.25   -0.80200    -999.25    -999.25    -999.25    1.29200   96.99600   96.99600   61.41420   61.41420    1.29200    1.86000    1.86000    -999.25    -999.25    3.13600    -999.25  -95.70000  -38.55350    3.13600 2237.25630
 5050.00000    -999.25    9.44600  632.91140    -999.25   -0.42900    -999.25    -999.25    -999.25    1.58000   94.97000   94.97000   57.94900   57.94900    1.58000    1.94100    1.94100    -999.25    -999.25    2.77400    -999.25  -88.19100  -31.07460    2.77400 2254.80660
 5100.00000    -999.25    9.12200  591.01650    -999.25   -0.75300    -999.25    -999.25    -999.25    1.69200   72.50500   72.50500   59.35040   59.35040    1.69200    2.77400    2.77400    -999.25    -999.25    4.99500    -999.25 -114.11700  -57.03060    4.99500 2351.17970
 5150.00000    -999.25    9.12100  536.76870    -999.25   -0.75400    -999.25    -999.25    -999.25    1.86300   96.50100   96.50100   81.95870   81.95870    1.86300    2.05100    2.05100    -999.25    -999.25    3.22700    -999.25  -64.15900   -7.10270    3.22700 2340.03760
 5200.00000    -999.25    9.02300  479.84640    -999.25   -0.85200    -999.25    -999.25    -999.25    2.08400   95.01300   95.01300   64.91990   64.91990    2.08400    3.19800    3.19800    -999.25    -999.25    4.85200    -999.25  -96.88300  -39.85680    4.85200 2360.04130
 5250.00000    -999.25    8.96400  663.57000    -999.25   -0.91100    -999.25    -999.25    -999.25    1.50700   96.95800   96.95800   64.50470   64.50470    1.50700    2.31400    2.31400    -999.25    -999.25    5.17400    -999.25  -92.18800  -35.19180    5.17400 2368.65580
 5300.00000    -999.25    9.03000  745.15650    -999.25   -0.84500    -999.25    -999.25    -999.25    1.34200   94.27400   94.27400   68.86380   68.86380    1.34200    1.88900    1.88900    -999.25    -999.25    3.48600    -999.25  -98.23300  -41.26690    3.48600 2403.27910
 5350.00000    -999.25    9.00500  844.59460    -999.25   -0.87000    -999.25    -999.25    -999.25    1.18400   93.77700   93.77700   60.98730   60.98730    1.18400    1.82100    1.82100    -999.25    -999.25    3.89500    -999.25 -118.27100  -61.33500    3.89500 2413.42990
 5400.00000    -999.25    9.36000  594.17710    -999.25   -0.51500    -999.25    -999.25    -999.25    1.68300   97.15700   97.15700   88.35570   88.35570    1.68300    1.95000    1.95000    -999.25    -999.25    2.77400    -999.25  -75.67800  -18.77200    2.77400 2392.72900
 5450.00000    -999.25    9.04200 1158.74860    -999.25   -0.83300    -999.25    -999.25    -999.25    0.86300   98.89600   98.89600   68.93530   68.93530    0.86300    1.36000    1.36000    -999.25    -999.25    3.78000    -999.25 -112.04000  -55.16410    3.78000 2362.43580
 5500.00000    -999.25    9.90300  599.16120    -999.25    0.02800    -999.25    -999.25    -999.25    1.66900   71.51100   71.51100   83.47520   83.47520    1.66900    2.15100    2.15100    -999.25    -999.25    6.30800    -999.25  -76.01600  -19.17020    6.30800 2441.44560
 5550.00000    -999.25    9.29100  899.28060    -999.25   -0.58400    -999.25    -999.25    -999.25    1.11200   98.74800   98.74800   69.26340   69.26340    1.11200    1.64100    1.64100    -999.25    -999.25    3.72900    -999.25 -108.51600  -51.70020    3.72900 2418.98560
 5600.00000    -999.25    9.38900 1377.41050    -999.25   -0.48600    -999.25    -999.25    -999.25    0.72600   95.06800   95.06800   58.87000   58.87000    0.72600    1.00600    1.00600    -999.25    -999.25    2.28500    -999.25 -123.89300  -67.10730    2.28500 2457.01340
 5650.00000    -999.25    9.87500  599.16120    -999.25    0.00000    -999.25    -999.25    -999.25    1.66900   95.62600   95.62600   78.62420   78.62420    1.66900    2.25800    2.25800    -999.25    -999.25    3.52400    -999.25  -80.34100  -23.58540    3.52400 2481.27120
 5700.00000    -999.25   10.27600  600.24010    -999.25    0.40100    -999.25    -999.25    -999.25    1.66600  101.62700  101.62700   80.20150   80.20150    1.66600    1.76300    1.76300    -999.25    -999.25    2.13700    -999.25  -64.68900   -7.96340    2.13700 2550.67700
 5750.00000    -999.25   10.01900  641.84850    -999.25    0.14400    -999.25    -999.25    -999.25    1.55800   94.57300   94.57300   78.28180   78.28180    1.55800    2.05100    2.05100    -999.25    -999.25    3.22700    -999.25  -83.90100  -27.20550    3.22700 2573.84890
 5800.00000    -999.25    9.16100  769.23080    -999.25   -0.71400    -999.25    -999.25    -999.25    1.30000   94.03300   94.03300   54.79260   54.79260    1.30000    2.10800    2.10800    -999.25    -999.25    2.87300    -999.25 -107.57000  -50.90460    2.87300 2611.78440
 5850.00000    -999.25    9.21700  440.72280    -999.25   -0.65800    -999.25    -999.25    -999.25    2.26900   85.87900   85.87900   85.96040   85.96040    2.26900    3.02500    3.02500    -999.25    -999.25    4.17500    -999.25  -85.68800  -29.05270    4.17500 2578.79150
 5900.00000    -999.25    9.00000  707.21360    -999.25   -0.87500    -999.25    -999.25    -999.25    1.41400   78.68600   78.68600   63.19330   63.19330    1.41400    2.22700    2.22700    -999.25    -999.25    5.82400    -999.25 -104.47700  -47.87170    5.82400 2638.08280
 5950.00000    -999.25    9.17200  736.37700    -999.25   -0.70300    -999.25    -999.25    -999.25    1.35800  106.30200  106.30200   81.83150   81.83150    1.35800    1.42700    1.42700    -999.25    -999.25    1.87300    -999.25  -63.42900   -6.85380    1.87300 2636.48580
 6000.00000    -999.25    8.86300  888.09950    -999.25   -1.01200    -999.25    -999.25    -999.25    1.12600   88.93500   88.93500   55.37500   55.37500    1.12600    1.96800    1.96800    -999.25    -999.25    4.48700    -999.25 -122.31900  -65.77390    4.48700 2585.01710
 6050.00000    -999.25    9.10500 1655.62910    -999.25   -0.77000    -999.25    -999.25    -999.25    0.60400   89.80100   89.80100   40.96900   40.96900    0.60400    1.00400    1.00400    -999.25    -999.25    3.66400    -999.25 -130.52000  -74.00490    3.66400 2576.93850
 6100.00000    -999.25    9.17700  936.32960    -999.25   -0.69800    -999.25    -999.25    -999.25    1.06800   99.34200   99.34200   74.46740   74.46740    1.06800    1.71600    1.71600    -999.25    -999.25    3.07700    -999.25 -110.95000  -54.46500    3.07700 2587.28520
 6150.00000    -999.25    9.41900  884.95580    -999.25   -0.45600    -999.25    -999.25    -999.25    1.13000   91.17300   91.17300   55.01520   55.01520    1.13000    1.64600    1.64600    -999.25    -999.25    4.24700    -999.25 -105.87700  -49.42210    4.24700 2655.18020
 6200.00000    -999.25    9.08200  904.15910    -999.25   -0.79300    -999.25    -999.25    -999.25    1.10600   92.04800   92.04800   64.31020   64.31020    1.10600    1.62000    1.62000    -999.25    -999.25    3.60700    -999.25 -110.02700  -53.60210    3.60700 2652.94020
 6250.00000    -999.25    9.24200  624.21970    -999.25   -0.63300    -999.25    -999.25    -999.25    1.60200   96.16300   96.16300   64.75290   64.75290    1.60200    2.26700    2.26700    -999.25    -999.25    3.67100    -999.25  -91.80400  -35.40920    3.67100 2758.38130
 6300.00000    -999.25    9.30100  885.73960    -999.25   -0.57400    -999.25    -999.25    -999.25    1.12900   92.78300   92.78300   57.63690   57.63690    1.12900    1.83800    1.83800    -999.25    -999.25    3.79900    -999.25 -118.73800  -62.37330    3.79900 2799.24050
