~Version ---------------------------------------------------
VERS.      2.0 : CWLS log ASCII Standard -VERSION 2.0
WRAP.      YES : MULTIPLE LINES PER DEPTH STEP
CREA. 08/31/18 : LAS CREATION DATE
~Well ------------------------------------------------------
STRT.FT                 2300.0 : START DEPTH
STOP.FT                11300.0 : STOP DEPTH
STEP.FT               50.00000 : STEP LENGTH
NULL.                  -999.25 : NULL VALUE
COMP.         HUNT OIL COMPANY : COMPANY
WELL.          PIPHER L. A. #1 : WELL
FLD .                  WILDCAT : FIELD
LOC .                          : LOCATION
CNTY.                 GONZALES : COUNTY
STAT.                    TEXAS : STATE
CTRY. UNITED STATES OF AMERICA : COUNTRY
SRVC.             Schlumberger : SERVICE COMPANY
DATE.              06-May-1999 : LOGDATE
API .           42177320410000 : API NUMBER
UWI .           42177320410000 : UNIQUE WELL ID
SLAT.WGS84       29.2698822473 : SURFACE LATITUDE
SLON.WGS84      -97.7138948507 : SURFACE LONGITUDE
~Curve Information -----------------------------------------
DEPT    .FT    : DEPTH FEET
AHT10ED .OHMM  : 10 INCH RESISTIVITY TWO FOOT RESOLUTION FROM AIT LOG
AHT20ED .OHMM  : 20 INCH RESISTIVITY TWO FOOT RESOLUTION FROM AIT LOG
AHT30ED .OHMM  : 30 INCH RESISTIVITY TWO FOOT RESOLUTION FROM AIT LOG
AHT60ED .OHMM  : 60 INCH RESISTIVITY TWO FOOT RESOLUTION FROM AIT LOG
AHT90ED .OHMM  : 90 INCH RESISTIVITY TWO FOOT RESOLUTION FROM AIT LOG
CALWS   .IN    : CALIPER [DCALRED+BITED]
CONDWS  .MMHO  : CONDUCTIVITY [1000/DRESWS]
DCALRED .IN    : DIFFERENTIAL CALIPER FROM RES. LOG
DCORWS  .G/C3  : DENSITY CORRECTION [HDRAED]
DENWS   .G/C3  : BULK DENSITY [M=2.71 F=1.0] [CALCULATED FROM DPOLSWS]
DPHZLSED.V/V   : DENSITY POROSITY [M=2.71 F=1.0] FROM DENSITY LOG
DPOLSWS .V/V   : DENSITY POROSITY [M=2.71 F=1.0] [DPHZLSED]
DRESWS  .OHMM  : DEEP RESISTIVITY [AHT90ED]
DTLFED  .US/F  : DELTA TIME LONG SPACING FAR DETECTOR FROM SONIC LOG
DTLNED  .US/F  : DELTA TIME LONG SPACING NEAR DETECTOR FROM SONIC LOG
DTWS    .US/F  : DELTA TIME [DTLNED]
GRRED   .GAPI  : GAMMA RAY FROM RESISTIVITY LOG
GRWS    .GAPI  : GAMMA RAY [GRRED]
HDRAED  .G/C3  : DENSITY CORRECTION FROM DENSITY LOG
MRESWS  .OHMM  : MEDIUM RESISTIVITY [AHT30ED]
NPORLSED.V/V   : NEUTRON POROSITY LIMESTONE FROM DENSITY LOG
NPOLSWS .V/V   : NEUTRON POROSITY LIMESTONE [NPORLSED]
PEFWS   .B/E   : PHOTOELECTRIC FACTOR [PEFZED]
PEFZED  .B/E   : PHOTOELECTRIC FACTOR STANDARD RESOLUTION FROM DENSITY LOG
SPRED   .MV    : SPONTANEOUS POTENTIAL FROM RESISTIVITY LOG
SPWS    .MV    : SPONTANEOUS POTENTIAL [BASELINE 0 MV] [SPRED]
SRESWS  .OHMM  : SHALLOW RESISTIVITY [AHT10ED]
TENRED  .LBF   : TENSION FROM RESISTIVITY LOG
~Params ----------------------------------------------------
PD  .                     GL : PERMANENT DATUM
EPD .FT                  349 : ELEVATION PERMANENT DATUM
LMF .                     KB : LOG MEASURED FROM
DAPD.FT                 14.5 : FEET ABOVE PERMANENT DATUM
DMF .                     KB : DRILLING MEASURED FROM
EKB .FT                363.5 : KELLY BUSHING
EDF .FT                362.5 : DRILLING FLOOR
EGL .FT                  349 : GROUND LEVEL
DATE.               05/06/99 : RUN DATE
RUN .                      1 : RUN NUMBER
DD  .FT                11318 : DEPTH DRILLER
DL  .FT                11300 : DEPTH LOGGER
BLI .FT                11292 : BOTTOM LOG INTERVAL
TLI .FT                 2462 : TOP LOG INTERVAL
CS  .IN                9.625 : CASING SIZE
CBD .FT                 2469 : CASING BOTTOM DRILLER
CBL .FT                 2462 : CASING BOTTOM LOGGER
BS  .IN                 8.75 : BIT SIZE
BSD .FT                11318 : BIT SIZE AT DEPTH
DFT .              FRESH MUD : DRILLING FLUID TYPE
DFD .                   10.2 : DRILLING FLUID DENSITY
DFV .                     42 : DRILLING FLUID VISCOSITY
DFPH.                     11 : DRILLING FLUID PH
DFL .                      6 : DRILLING FLUID LOSS
MSS .              CIRC TANK : MUD SAMPLE SOURCE
RMS .OHMM              0.812 : RESISTIVITY MUD SAMPLE
MST .DEGF                 75 : MUD SAMPLE TEMPERATURE
RMF .OHMM               0.51 : RESISTIVITY MUD FILTRATE SAMPLE
MFST.DEGF                 75 : MUD FILTRATE SAMPLE TEMPERATURE
RMC .OHMM              1.218 : RESISTIVITY MUD CAKE
MCST.DEGF                 75 : MUD CAKE SAMPLE TEMPERATURE
MFSS.                     MP : MUD FILTRATE SAMPLE SOURCE
MCSS.                   CALC : MUD CAKE SAMPLE SOURCE
RMB .OHMM               0.28 : RESISTIVITY MUD AT BHT
TCS .HRS                1930 : TIME CIRCULATED STOPPED
TLAB.HRS                 630 : TIME LOGGER AT BOTTOM
LUN .                   2129 : LOGGING UNIT NUMBER
LUL .               VICTORIA : LOGGING UNIT LOCATION
ENGI.    VORIS WILBECK BOWEN : RECORDING ENGINEER
WITN.     SIMON SKILES BLACK : WITNESSED BY
CLNT.                A2DTECH : CLIENT CODE
ORIG.         1" 2" 5" PRINT : ORIGIN OF DATA
UWI .         42177320410000 : UNIQUE WELL ID
DICO. A2D Technologies, Inc. : DIGITIZING COMPANY
~Other -----------------------------------------------------
~ASCII -----------------------------------------------------
# ...
 7300.00000    1.88360    2.03560    1.22590    0.61650    0.53090    9.83990 1883.59390    1.08990   -0.00800    2.31170    0.23290    0.23290    0.53090   72.75580   72.42420   72.42420   20.40850   20.40850   -0.00800    1.22590    0.19070    0.19070    4.47130    4.47130  -98.90550  -96.71660    1.88360 2411.65230
 7350.00000    4.03070  219.83190   11.13370    6.64490    3.27590    9.59420  305.25960    0.84420    0.06570    2.71630   -0.00370   -0.00370    3.27590   51.81160   51.33640   51.33640   30.80650   30.80650    0.06570   11.13370    0.08810    0.08810    3.44560    3.44560  -98.52120  -96.31420    4.03070 2449.00930
 7400.00000    3.81040   10.46090    5.20170    3.24600    3.09150    9.48020  323.46760    0.73020    0.03430    2.87670   -0.09750   -0.09750    3.09150   51.96260   51.53960   51.53960   15.70780   15.70780    0.03430    5.20170    0.00960    0.00960    4.25090    4.25090  -98.10230  -95.87720    3.81040 2419.93920
 7450.00000    2.71800    2.96640    2.16100    1.20120    1.05870    8.68850  944.55460   -0.06150    0.01000    2.39130    0.18640    0.18640    1.05870   62.35980   61.79830   61.79830   27.15690   27.15690    0.01000    2.16100    0.12470    0.12470    5.56580    5.56580 -103.72680 -101.48360    2.71800 2453.62230
 7500.00000    7.96790  101.95830    6.25320    5.19960    3.61430    8.77850  276.67870    0.02850    0.06910    2.70010    0.00580    0.00580    3.61430   52.02690   51.10200   51.10200   21.12870   21.12870    0.06910    6.25320    0.08380    0.08380    2.71180    2.71180 -106.55550 -104.29420    7.96790 2455.61230
 7550.00000   13.72810   37.04020   26.92740   24.90720   19.71930   12.30840   50.71170    3.55840    0.00930    2.71440   -0.00260   -0.00260   19.71930   50.11980   49.82720   49.82720   34.58840   34.58840    0.00930   26.92740    0.03540    0.03540    4.55320    4.55320  -85.69590  -83.41650   13.72810 2478.55860
 7600.00000   12.57810   19.66450   16.55860   10.46020   10.30420   10.19920   97.04780    1.44920    0.04790    2.65920    0.02970    0.02970   10.30420   54.38060   53.80600   53.80600   30.41400   30.41400    0.04790   16.55860    0.03320    0.03320    4.93760    4.93760  -76.90120  -74.60370   12.57810 2497.62770
 7650.00000    2.47350    4.35850    2.97480    2.68940    3.09060   11.56370  323.56180    2.81370    0.04960    2.65610    0.03150    0.03150    3.09060   54.44520   53.50880   53.50880   22.31380   22.31380    0.04960    2.97480    0.10740    0.10740    3.01520    3.01520  -85.24670  -82.93110    2.47350 2507.31370
 7700.00000    3.14590    5.02980    3.65520    3.43000    4.48200   11.18340  223.11470    2.43340    0.00930    2.60590    0.06090    0.06090    4.48200   54.91280   54.13280   54.13280   31.34660   31.34660    0.00930    3.65520    0.10160    0.10160    3.98750    3.98750  -82.20240  -79.86860    3.14590 2500.61820
 7750.00000   17.45010   25.23920   17.30410   14.36610   11.73030    9.66380   85.24930    0.91380    0.00830    2.66430    0.02670    0.02670   11.73030   53.57110   53.24250   53.24250   38.56500   38.56500    0.00830   17.30410    0.05030    0.05030    4.98420    4.98420  -89.00250  -86.65060   17.45010 2498.96880
 7800.00000    6.34570    7.80660    6.49580    4.60260    4.08600    9.25630  244.73810    0.50630    0.06840    2.60360    0.06220    0.06220    4.08600   57.20180   56.82050   56.82050   23.87680   23.87680    0.06840    6.49580    0.07810    0.07810    5.52090    5.52090 -102.14900  -99.77900    6.34570 2500.48050
 7850.00000   15.81880   43.01750   27.66260   21.72950   18.18140    9.94170   55.00130    1.19170    0.00540    2.69500    0.00880    0.00880   18.18140   49.79560   49.51090   49.51090   26.54710   26.54710    0.00540   27.66260    0.01720    0.01720    4.79440    4.79440  -90.35650  -87.96840   15.81880 2528.45310
 7900.00000   17.63560   21.99190   18.80730   16.02410   15.85640    9.55440   63.06600    0.80440    0.00680    2.70730    0.00160    0.00160   15.85640   51.63060   51.56900   51.56900   35.07950   35.07950    0.00680   18.80730    0.02630    0.02630    4.63310    4.63310  -87.83410  -85.42790   17.63560 2559.52220
 7950.00000    6.14060    9.87920    7.39270    3.76090    2.90630    8.75800  344.08010    0.00800    0.02290    2.52700    0.10700    0.10700    2.90630   59.35040   59.05530   59.05530   26.33250   26.33250    0.02290    7.39270    0.09660    0.09660    5.56940    5.56940  -96.29950  -93.87520    6.14060 2539.02290
 8000.00000    2.23820    2.35950    2.04490    1.56320    1.34140    8.19580  745.48980   -0.55420    0.04840    2.46260    0.14470    0.14470    1.34140   60.63250   59.71200   59.71200   33.00730   33.00730    0.04840    2.04490    0.12040    0.12040    5.48940    5.48940 -100.40960  -97.96720    2.23820 2542.87620
 8050.00000  108.89670 1039.18770  122.88860 2033.49280 1053.07530    9.08440    0.94960    0.33440    0.00610    2.71100   -0.00060   -0.00060 1053.07530   48.92500   48.21940   48.21940   47.07230   47.07230    0.00610  122.88860    0.01440    0.01440    4.87470    4.87470  -85.23340  -82.77290  108.89670 2542.87110
 8100.00000   11.81100   16.94320   13.63700   13.01950   13.19880    8.78770   75.76450    0.03770    0.02620    2.66190    0.02810    0.02810   13.19880   53.31010   52.84260   52.84260   29.83460   29.83460    0.02620   13.63700    0.04900    0.04900    4.03400    4.03400 -102.45820  -99.97960   11.81100 2549.78560
 8150.00000   10.00770   10.00020    4.61740    3.48330    2.27110    9.00120  440.31530    0.25120    0.07810    2.51780    0.11240    0.11240    2.27110   59.77660   59.32750   59.32750   12.53270   12.53270    0.07810    4.61740    0.09860    0.09860    3.88930    3.88930 -103.41290 -100.91620   10.00770 2576.90110
 8200.00000    1.15790    0.75440    0.64110    0.52380    0.51680    8.71710 1934.98450   -0.03290    0.00380    2.33260    0.22070    0.22070    0.51680   72.65980   72.15320   72.15320    9.85900    9.85900    0.00380    0.64110    0.19540    0.19540    4.56020    4.56020 -105.09570 -102.58090    1.15790 2504.75000
 8250.00000    1.94140    1.94340    1.28870    0.86020    0.77720    8.35540 1286.67010   -0.39460    0.01290    2.38440    0.19040    0.19040    0.77720   62.79940   62.01150   62.01150   10.80600   10.80600    0.01290    1.28870    0.16050    0.16050    4.76730    4.76730 -107.79890 -105.26590    1.94140 2493.56200
 8300.00000    3.97470    4.39990    4.06490    2.57740    2.46490    8.50250  405.69600   -0.24750    0.03620    2.59780    0.06560    0.06560    2.46490   55.96080   55.53320   55.53320   16.42850   16.42850    0.03620    4.06490    0.09740    0.09740    4.14450    4.14450 -104.29340 -101.74230    3.97470 2596.16260
 8350.00000    1.05600    1.06690    0.89420    0.69040    0.66720    8.69780 1498.80100   -0.05220    0.00510    2.44360    0.15580    0.15580    0.66720   55.09170   53.60250   53.60250   18.14660   18.14660    0.00510    0.89420    0.24620    0.24620    4.41600    4.41600 -102.53010  -99.96090    1.05600 2628.60110
 8400.00000   76.30910  108.06100   72.18470   62.27000   68.98670    9.22200   14.49550    0.47200    0.01540    2.70780    0.00130    0.00130   68.98670   51.45280   51.15910   51.15910   31.25900   31.25900    0.01540   72.18470    0.02700    0.02700    4.87760    4.87760  -64.97680  -62.38950   76.30910 2609.36720
 8450.00000   38.72440   40.26400   41.17120   42.41190   41.91790    8.86960   23.85620    0.11960    0.00090    2.68200    0.01640    0.01640   41.91790   52.56170   52.01070   52.01070   24.71850   24.71850    0.00090   41.17120    0.02280    0.02280    5.16560    5.16560  -44.97150  -42.36610   38.72440 2594.63230
 8500.00000   20.76100   22.40130   20.32850   19.24420   18.86040    9.35740   53.02110    0.60740    0.02850    2.66980    0.02350    0.02350   18.86040   51.64420   52.92970   52.92970   19.29590   19.29590    0.02850   20.32850    0.02520    0.02520    5.12500    5.12500  -59.34960  -56.72610   20.76100 2600.06350
