~Version ---------------------------------------------------
VERS. 2.0 : CWLS log ASCII Standard -VERSION 2.0
WRAP.  NO : ONE LINE PER DEPTH STEP
~Well ------------------------------------------------------
STRT.F                     300.0 : START DEPTH
STOP.F                    5500.0 : STOP DEPTH
STEP.F                  50.00000 : STEP LENGTH
NULL.                    -999.25 : NULL VALUE
COMP. HERCULES EXPLORATION, INC. : COMPANY
WELL.              CAGE RANCH #1 : WELL
FLD .                ROBERT CAGE : FIELD
LOC .                            : LOCATION
CNTY.                   MAVERICK : COUNTY
STAT.                      TEXAS : STATE
CTRY.   UNITED STATES OF AMERICA : COUNTRY
SRVC.                      Welex : SERVICE COMPANY
DATE.                24-Feb-1976 : LOGDATE
API .             42323306640000 : API NUMBER
UWI .             42323306640000 : UNIQUE WELL ID
SLAT.WGS84         28.4837131178 : SURFACE LATITUDE
SLON.WGS84       -100.2088449198 : SURFACE LONGITUDE
~Curve Information -----------------------------------------
DEPT.F                 : 
IL  .OHMM 05 120 00 00 : INDUCTION LOG
ASN .OHMM 05 041 16 00 : AMPLIFIED SHORT NORMAL 16"
SPR .MV   05 010 01 00 : SPONTANEOUS POTENTIAL FROM RES.
CIL .MMHO 05 110 00 00 : CONDUCTIVITY INDUCTION LOG
LT16.OHMM 01 070 16 00 : LATERAL 16'
GRS .GAPI 60 310 01 00 : GAMMA RAY FROM SONIC LOG
DT  .US/F 60 520 00 00 : INTERVAL TRANSIT TIME
CALS.IN   60 280 50 00 : CALIPER FROM SONIC LOG
~Params ----------------------------------------------------
PD  .                     GL : PERMANENT DATUM
EPD .FT               820.51 : ELEVATION PERMANENT DATUM
LMF .                    TKB : LOG MEASURED FROM
DAPD.FT                  9.5 : FEET ABOVE PERMANENT DATUM
DMF .                    TKB : DRILLING MEASURED FROM
EKB .FT               830.01 : KELLY BUSHING
EGL .FT               820.51 : GROUND LEVEL
DATE.             02-24-1976 : RUN DATE
RUN .                      1 : RUN NUMBER
DD  .FT                 5504 : DEPTH DRILLER
DL  .FT                 5518 : DEPTH LOGGER
BLI .FT                 5510 : BOTTOM LOG INTERVAL
TLI .FT                  252 : TOP LOG INTERVAL
CS  .IN                8.625 : CASING SIZE
CBD .FT                  240 : CASING BOTTOM DRILLER
CBL .FT                  252 : CASING BOTTOM LOGGER
BS  .IN                7.875 : BIT SIZE
BSD .FT                 5504 : BIT SIZE AT DEPTH
DFT .         WATER BASE MUD : DRILLING FLUID TYPE
DFD .                    9.7 : DRILLING FLUID DENSITY
DFV .                     38 : DRILLING FLUID VISCOSITY
DFPH.                     10 : DRILLING FLUID PH
DFL .                    5.5 : DRILLING FLUID LOSS
MSS .                   CIRC : MUD SAMPLE SOURCE
RMS .OHMM                1.4 : RESISTIVITY MUD SAMPLE
MST .FT                   75 : MUD SAMPLE TEMPERATURE
RMF .OHMM                1.7 : RESISTIVITY MUD FILTRATE SAMPLE
MFST.FT                   75 : MUD FILTRATE SAMPLE TEMPERATURE
RMC .OHMM               2.04 : RESISTIVITY MUD CAKE
MCST.FT                   75 : MUD CAKE SAMPLE TEMPERATURE
MFSS.                   MEAS : MUD FILTRATE SAMPLE SOURCE
MCSS.                   MEAS : MUD CAKE SAMPLE SOURCE
RMB .OHMM               0.67 : RESISTIVITY MUD AT BHT
TCS .HRS                   6 : TIME CURCULATED STOPPED
LUN .                   9684 : LOGGING UNIT NUMBER
LUL .                  ALICE : LOGGING UNIT LOCATION
ENGI.              NAVARETTE : RECORDING ENGINEER
WITN.                 WEAVER : WITNESSED BY
CLNT.                A2DTECH : CLIENT CODE
ORIG.               5" PRINT : ORIGIN OF DATA
UWI .         42323306640000 : UNIQUE WELL ID
DICO. A2D Technologies, Inc. : DIGITIZING COMPANY
~Other -----------------------------------------------------
~ASCII -----------------------------------------------------
  300.00000    4.19980    6.01450  -28.31320  242.76760    9.52830   77.78940   78.71040    8.81260
  350.00000    5.07560    8.67560  -44.80270  132.30670    7.25410   52.17040   82.23280    8.85050
  400.00000    6.60690    8.48750  -35.95450  154.96250    9.91940   53.37480   83.78200    8.54980
  450.00000    4.61860    5.75080  -35.59310  228.53530    7.92370   59.95180   97.39170    8.41310
  500.00000    5.72770    7.80860  -38.50860  170.13090    8.41580   64.05360   86.51080    8.35130
  550.00000    4.67520    5.73930  -34.63070  223.86810    4.82260   61.30110   91.79910    8.06560
  600.00000    6.63430    8.62280  -39.22020  161.77380    4.93580   51.06820   80.01260    8.53000
  650.00000    6.44480    8.49350  -34.32150  161.93380    7.85480   56.94040   84.38000    8.44690
  700.00000    2.90400    4.39670  -34.64370  346.49760    3.50510   66.81100  135.68930    8.62170
  750.00000    4.37740    4.52310  -33.31470  235.79350    6.04680   65.01470  102.58200    8.87690
  800.00000    3.91210    4.33500  -33.30130  269.28720    3.45820   66.53880   98.26790    8.68440
  850.00000    3.85920    4.53840  -33.16630  271.24860    3.76060   63.91650  100.57460    8.24010
  900.00000   10.16030   15.23080  -33.86470  102.33850    4.64360   47.08240   69.53120    7.79100
  950.00000    3.52600    4.08310  -31.05240  296.36280    4.92530   70.03170  104.18920    8.15500
 1000.00000    3.67180    4.27660  -30.62950  275.28440    4.49310   74.09820  100.57050    8.07400
 1050.00000    6.26720    7.27890  -31.54370  163.09830    4.79760   71.09200   82.23670    7.92150
 1100.00000    3.55040    3.72090  -30.11970  292.34920    3.89520   78.28660  103.01390    8.73500
 1150.00000    3.48570    4.09670  -30.19330  298.41060    4.54020   64.57070   98.52690    8.22820
 1200.00000    2.87660    3.36020  -28.92320  366.62140    3.35220   87.85460  109.96270    8.58890
 1250.00000    3.96510    4.86760  -31.16630  251.57650    3.36320   77.22320   96.46220    8.22210
 1300.00000    3.38820    4.17100  -30.79270  310.65940    4.84400   83.34790  100.41340    8.48380
 1350.00000    4.42410    5.67260  -31.54170  235.60580    5.11670   73.04000   90.66300    8.96210
 1400.00000   11.69350   20.21230  -44.90190   70.20260    5.03270   44.38090   71.43640    8.21980
 1450.00000    6.93770    9.74500  -42.73990  149.47130    4.09140   50.86100   80.73560    8.41450
 1500.00000   19.32850   13.17990  -59.89820   57.94140   11.23310   20.94570   56.17940    7.89330
 1550.00000    5.57330    8.06750  -31.05620  194.44410    6.92440   54.01440   85.16490    7.91860
 1600.00000    4.32790    4.69590  -35.94780  242.60790    7.43840   66.37310   98.42240    7.90350
 1650.00000    5.22410    5.55830  -37.55600  195.80110    5.02400   66.83620   84.36930    7.96790
 1700.00000    1.91070    2.19900  -27.75980  505.21500    2.46910   80.19470  131.61730    8.36920
 1750.00000    2.13690    2.30410  -27.37780  499.22750    2.94380   68.37990  133.62750    9.12120
 1800.00000    4.06370    3.62490  -27.83850  258.70030    5.12140   68.93920   89.18220    7.95180
 1850.00000    2.64860    3.35650  -27.76260  387.11680    5.32270   72.21180  108.19110    8.27990
 1900.00000    5.31860    8.18200  -30.34430  183.91300    4.52380   69.48440   85.06820   10.02570
 1950.00000    5.71650    7.45890  -28.21770  164.50400    4.70460   66.83660   81.54850   10.12030
 2000.00000    3.88850    5.96910  -27.57830  266.36030    1.46680   84.91280   93.83440   10.13610
 2050.00000    4.07790    7.99470  -43.53440  260.05130    3.13680    -999.25    -999.25    -999.25
 2100.00000    5.26460    7.19400  -29.99350  195.60350    5.52820    -999.25    -999.25    -999.25
 2150.00000    5.24600    5.01400  -44.87250  190.57010    4.47670    -999.25    -999.25    -999.25
 2200.00000    4.41650    4.94330  -32.64800  229.45660    4.07900    -999.25    -999.25    -999.25
 2250.00000    2.91550    3.20810  -26.52850  359.60170    3.67270    -999.25    -999.25    -999.25
 2300.00000    3.52590    3.60520  -27.49560  294.82880    3.59780    -999.25    -999.25    -999.25
 2350.00000    4.35490    4.99830  -35.36840  243.07810    3.23710    -999.25    -999.25    -999.25
 2400.00000    3.23110    3.73070  -36.48020  322.91040    3.25420    -999.25    -999.25    -999.25
 2450.00000    4.29750    4.79920  -33.73700  240.51890    4.19680    -999.25    -999.25    -999.25
 2500.00000    3.34180    3.99380  -27.88550  312.27620    3.26010    -999.25    -999.25    -999.25
 2550.00000    3.65480    4.55500  -26.98490  285.83090    4.24050    -999.25    -999.25    -999.25
 2600.00000    3.33240    4.23530  -25.85100  313.47920    3.71680    -999.25    -999.25    -999.25
 2650.00000    4.11990    4.59030  -26.26630  250.91080    3.31750    -999.25    -999.25    -999.25
 2700.00000    3.11710    3.52540  -26.98900  335.70980    3.18560    -999.25    -999.25    -999.25
 2750.00000    3.99060    4.70230  -26.01020  259.30690    4.17830    -999.25    -999.25    -999.25
 2800.00000    3.06510    3.69980  -25.50200  341.46230    3.39420    -999.25    -999.25    -999.25
 2850.00000    2.75170    3.40170  -26.01180  382.12620    2.79080    -999.25    -999.25    -999.25
 2900.00000    2.88420    3.64680  -25.37280  363.64690    2.94870    -999.25    -999.25    -999.25
 2950.00000    2.86400    3.35650  -26.27100  366.49390    3.10940    -999.25    -999.25    -999.25
 3000.00000    2.71720    3.42960  -26.23320  387.15160    3.41190    -999.25    -999.25    -999.25
 3050.00000    2.65200    3.69250  -25.69770  358.17640    2.99180    -999.25    -999.25    -999.25
 3100.00000    2.76130    3.34380  -25.77900  372.41970    2.80300    -999.25    -999.25    -999.25
 3150.00000    2.25160    3.68110  -25.93390  341.29900    2.58940    -999.25    -999.25    -999.25
 3200.00000    2.77380    3.04810  -25.33760  306.06150    2.43230    -999.25    -999.25    -999.25
 3250.00000    3.40860    4.77940  -24.81020  278.95210    3.49580    -999.25    -999.25    -999.25
 3300.00000    6.56540   12.98590  -27.93880  132.08510    5.68060    -999.25    -999.25    -999.25
 3350.00000    7.59370   10.81810  -26.58860  122.74700   10.57910    -999.25    -999.25    -999.25
 3400.00000    6.52340    8.91710  -26.88770  142.77220    7.68300    -999.25    -999.25    -999.25
 3450.00000   11.35080   17.25320  -32.79830   96.72160   11.10190    -999.25    -999.25    -999.25
 3500.00000    9.69340   14.10590  -28.70820  104.77630    9.70940   36.95110   64.85450    7.70100
 3550.00000    8.97050   13.22500  -30.51170   99.51910   14.99880   36.82810   68.42950    7.73510
 3600.00000   12.41000   19.02340  -31.67760   81.94300   17.84460   40.30260   59.11020    7.76810
 3650.00000    4.20610    7.46210  -30.85610  226.57410   13.74230   35.85790   71.38580    7.70470
 3700.00000   17.57170   32.36250  -34.15870   54.48220   11.36970   40.05870   58.64060    7.65890
 3750.00000    9.85590   19.30500  -35.37970   70.43490   14.72840   25.97370   61.04200    7.60260
 3800.00000   17.25140   38.10440  -35.42650   53.19830   49.98360   33.14820   59.29030    7.61640
 3850.00000   18.76230   25.43460  -33.35460   52.62650   34.11860   33.21460   61.89920    7.67170
 3900.00000    9.42230   15.78240  -31.34580  102.53630   31.11330   42.03160   58.20140    7.70900
 3950.00000   18.56100   29.69070  -35.47340   49.32040   26.95570   34.55930   59.70990    7.72480
 4000.00000   21.91800   32.35590  -44.40120   76.65790   35.15400   28.72930   59.46220    7.76790
 4050.00000   25.22760   30.99510  -45.15620   37.11830   26.48470   27.90790   58.97240    7.83100
 4100.00000   17.11910   25.29760  -40.14030   48.71150   26.51060   33.72740   60.23170    7.83700
 4150.00000   14.93590   20.91460  -38.53760   66.50590   16.82390   30.17500   60.76960    7.98810
 4200.00000    8.70770   14.87890  -48.78880  110.45280   13.65830   29.54220   63.96560    7.99970
 4250.00000   10.62810   23.60370  -42.79700   80.99810   14.42070   32.93630   60.69860    7.99920
