~Version ---------------------------------------------------
VERS. 2.0 : CWLS log ASCII Standard -VERSION 2.0
WRAP. YES : MULTIPLE LINES PER DEPTH STEP
~Well ------------------------------------------------------
STRT.FT                 2050.0 : START DEPTH
STOP.FT                15100.0 : STOP DEPTH
STEP.FT               50.00000 : STEP LENGTH
NULL.                  -999.25 : NULL VALUE
COMP. BUTTES RESOURCES COMPANY : COMPANY
WELL.             KING GAIL #1 : WELL
FLD .                  WILDCAT : FIELD
LOC .                          : LOCATION
CNTY.                     LEON : COUNTY
STAT.                    TEXAS : STATE
CTRY. UNITED STATES OF AMERICA : COUNTRY
SRVC.             Schlumberger : SERVICE COMPANY
DATE.              13-Apr-1977 : LOGDATE
API .           42289301060000 : API NUMBER
UWI .           42289301060000 : UNIQUE WELL ID
SLAT.WGS84        31.383896527 : SURFACE LATITUDE
SLON.WGS84      -96.2493859425 : SURFACE LONGITUDE
~Curve Information -----------------------------------------
DEPT    .FT    : DEPTH FEET
CALDED  .IN    : CALIPER FROM DENSITY LOG [AJD TO ILDED]
CALWS   .IN    : CALIPER [CALDED]
CONDWS  .MMHO  : CONDUCTIVITY [1000/DRESWS]
CORRED  .G/C3  : DENSITY CORRECTION FROM DENSITY LOG [AJD TO ILDED]
DCORWS  .G/C3  : DENSITY CORRECTION [CORRED]
DENWS   .G/C3  : BULK DENSITY [M=2.71 F=1.0] [CALCULATED FROM DPOWS]
DPHILSED.V/V   : DENSITY POROSITY [M=2.71 F=1.0] FROM DENSITY LOG [AJD TO ILDED]
DPOWS   .V/V   : DENSITY POROSITY [M=2.71 F=1.0] [DPHILSED]
DRESWS  .OHMM  : DEEP RESISTIVITY [ILDED]
DRHOED  .G/C3  : DENSITY CORRECTION FROM DENSITY LOG [AJD TO ILDED]
DTED    .US/F  : DELTA TIME FROM SONIC LOG [AJD TO RHOBED]
DTWS    .US/F  : DELTA TIME [DTED]
GRDED   .GAPI  : GAMMA RAY FROM DENSITY LOG [AJD TO ILDED]
GRWS    .GAPI  : GAMMA RAY [GRDED]
ILDED   .OHMM  : INDUCTION LOG DEEP RESISTIVITY
ILMED   .OHMM  : INDUCTION LOG MEDIUM RESISTIVITY
LL8ED   .OHMM  : 8 INCH LATEROLOG RESISTIVITY
MCALED  .IN    : CALIPER MICROLOG [AJD TO SPRED]
MRESWS  .OHMM  : MEDIUM RESISTIVITY [ILMED]
NPHILSED.V/V   : NEUTRON POROSITY LIMESTONE FROM DENSITY LOG [AJD TO ILDED]
NPOWS   .V/V   : NEUTRON POROSITY LIMESTONE [NPHILSED]
RHOBED  .G/C3  : BULK DENSITY FROM DENSITY LOG [AJD TO ILDED]
SFLED   .OHMM  : SPHERICALLY FOCUSED LOG RESISTIVITY [AJD TO ILDED]
SPMED   .MV    : SPONTANEOUS POTENTIAL FROM MICROLOGLOG [AJD TO SPRED]
SPRED   .MV    : SPONTANEOUS POTENTIAL FROM RESISTIVITY LOG
SPWS    .MV    : SPONTANEOUS POTENTIAL [BASELINE 0 MV] [SPRED]
SRESWS  .OHMM  : SHALLOW RESISTIVITY [SPL SFLED <14485> LL8ED]
TENDED  .LBF   : TENSION FROM DENSITY LOG
~Params ----------------------------------------------------
PD  .                     GL : PERMANENT DATUM
EPD .FT                  503 : ELEVATION PERMANENT DATUM
LMF .                     KB : LOG MEASURED FROM
DAPD.FT                   18 : FEET ABOVE PERMANENT DATUM
DMF .                     KB : DRILLING MEASURED FROM
EKB .FT                  521 : KELLY BUSHING
EDF .FT                  520 : DRILLING FLOOR
EGL .FT                  503 : GROUND LEVEL
DATE.               04/13/77 : RUN DATE
RUN .                      1 : RUN NUMBER
DD  .FT                15147 : DEPTH DRILLER
DL  .FT                15148 : DEPTH LOGGER
BLI .FT                15147 : BOTTOM LOG INTERVAL
TLI .FT                13098 : TOP LOG INTERVAL
CS  .IN                    7 : CASING SIZE
CBD .FT                13097 : CASING BOTTOM DRILLER
CBL .FT                13098 : CASING BOTTOM LOGGER
BS  .IN                    6 : BIT SIZE
BSD .FT                15147 : BIT SIZE AT DEPTH
DFT .               LOW LIME : DRILLING FLUID TYPE
DFD .                   15.7 : DRILLING FLUID DENSITY
DFV .                     48 : DRILLING FLUID VISCOSITY
DFPH.                   12.5 : DRILLING FLUID PH
DFL .                   10.8 : DRILLING FLUID LOSS
MSS .                    PIT : MUD SAMPLE SOURCE
RMS .OHMM               0.89 : RESISTIVITY MUD SAMPLE
MST .DEGF                 75 : MUD SAMPLE TEMPERATURE
RMF .OHMM               0.67 : RESISTIVITY MUD FILTRATE SAMPLE
MFST.DEGF                 75 : MUD FILTRATE SAMPLE TEMPERATURE
RMC .OHMM               0.34 : RESISTIVITY MUD CAKE
MCST.DEGF                 75 : MUD CAKE SAMPLE TEMPERATURE
MFSS.                      M : MUD FILTRATE SAMPLE SOURCE
MCSS.                      C : MUD CAKE SAMPLE SOURCE
RMB .OHMM               0.21 : RESISTIVITY MUD AT BHT
TCS .HRS                2000 : TIME CIRCULATED STOPPED
TLAB.HRS                 300 : TIME LOGGER AT BOTTOM
LUN .                   7659 : LOGGING UNIT NUMBER
LUL .                 DAYTON : LOGGING UNIT LOCATION
ENGI.          CHENAULT EAST : RECORDING ENGINEER
WITN.                  MILES : WITNESSED BY
CLNT.                A2DTECH : CLIENT CODE
ORIG.            2" 5" PRINT : ORIGIN OF DATA
UWI .         42289301060000 : UNIQUE WELL ID
DICO. A2D Technologies, Inc. : DIGITIZING COMPANY
~Other -----------------------------------------------------
~ASCII -----------------------------------------------------
# ...
 9550.00000   11.57760   11.57760  267.80220    0.03350    -999.25    2.64280    0.03930    0.03930    3.73410    -999.25    -999.25    -999.25   46.85470   46.85470    3.73410    4.02200    -999.25    -999.25    4.02200    0.10170    0.10170    -999.25    4.72420    -999.25  -59.52710  -29.33920    4.72420    -999.25
 9600.00000   12.76380   12.76380  289.19290    0.05580    -999.25    2.43300    0.16200    0.16200    3.45790    -999.25    -999.25    -999.25   87.85660   87.85660    3.45790    3.59330    -999.25    -999.25    3.59330    0.15760    0.15760    -999.25    4.45930    -999.25  -31.50670   -0.50280    4.45930    -999.25
 9650.00000   10.75430   10.75430  157.24750    0.01190    -999.25    2.58670    0.07210    0.07210    6.35940    -999.25    -999.25    -999.25   75.23090   75.23090    6.35940    6.76180    -999.25    -999.25    6.76180    0.08500    0.08500    -999.25    9.28480    -999.25  -38.87450   -6.89590    9.28480    -999.25
 9700.00000   10.17320   10.17320  122.24940    0.01350    -999.25    2.54340    0.09740    0.09740    8.18000    -999.25    -999.25    -999.25   41.77570   41.77570    8.18000    8.53910    -999.25    -999.25    8.53910    0.04720    0.04720    -999.25   15.77480    -999.25  -75.42420  -42.47100   15.77480    -999.25
 9750.00000   10.04120   10.04120  160.53680    0.01810    -999.25    2.54430    0.09690    0.09690    6.22910    -999.25    -999.25    -999.25   45.62690   45.62690    6.22910    6.41280    -999.25    -999.25    6.41280    0.05840    0.05840    -999.25   13.38530    -999.25  -75.02100  -41.09310   13.38530    -999.25
 9800.00000    9.97690    9.97690   73.83510    0.03370    -999.25    2.55710    0.08940    0.08940   13.54370    -999.25    -999.25    -999.25   56.68700   56.68700   13.54370   15.49270    -999.25    -999.25   15.49270    0.06070    0.06070    -999.25   31.54460    -999.25  -43.22590   -8.32340   31.54460    -999.25
 9850.00000   10.05770   10.05770   86.29690    0.02010    -999.25    2.60330    0.06240    0.06240   11.58790    -999.25    -999.25    -999.25   81.03020   81.03020   11.58790   11.85470    -999.25    -999.25   11.85470    0.06120    0.06120    -999.25   23.50720    -999.25  -48.09210  -12.21490   23.50720    -999.25
 9900.00000    9.96770    9.96770  143.74840    0.04240    -999.25    2.13010    0.33910    0.33910    6.95660    -999.25    -999.25    -999.25   57.41700   57.41700    6.95660    8.03300    -999.25    -999.25    8.03300    0.08280    0.08280    -999.25   18.91280    -999.25  -56.40820  -19.55630   18.91280    -999.25
 9950.00000    9.99180    9.99180   84.68620    0.01710    -999.25    2.52860    0.10610    0.10610   11.80830    -999.25    -999.25    -999.25   53.05820   53.05820   11.80830   14.14010    -999.25    -999.25   14.14010    0.04030    0.04030    -999.25   41.68630    -999.25  -93.08000  -55.25350   41.68630    -999.25
 10000.00000   10.06680   10.06680   81.42530    0.01450    -999.25    2.53710    0.10110    0.10110   12.28120    -999.25    -999.25    -999.25   59.12710   59.12710   12.28120   14.46910    -999.25    -999.25   14.46910    0.04120    0.04120    -999.25   51.91700    -999.25  -90.36700  -51.56580   51.91700    -999.25
 10050.00000   10.06170   10.06170   83.57360    0.01570    -999.25    2.55400    0.09120    0.09120   11.96550    -999.25    -999.25    -999.25   37.67940   37.67940   11.96550   12.45960    -999.25    -999.25   12.45960    0.05800    0.05800    -999.25   31.79690    -999.25  -76.82410  -37.04830   31.79690    -999.25
 10100.00000   10.21250   10.21250  212.50370    0.01400    -999.25    2.51750    0.11260    0.11260    4.70580    -999.25    -999.25    -999.25   63.88870   63.88870    4.70580    4.83640    -999.25    -999.25    4.83640    0.05650    0.05650    -999.25   15.26490    -999.25  -74.41930  -33.66880   15.26490    -999.25
 10150.00000    9.98460    9.98460   61.72730    0.01570    -999.25    2.51760    0.11250    0.11250   16.20030    -999.25    -999.25    -999.25   24.05010   24.05010   16.20030   18.34740    -999.25    -999.25   18.34740    0.01330    0.01330    -999.25   68.75940    -999.25  -80.50030  -38.96180   68.75940    -999.25
 10200.00000    9.97830    9.97830   61.83720    0.01210    -999.25    2.55760    0.08910    0.08910   16.17150    -999.25    -999.25    -999.25   37.96980   37.96980   16.17150   26.42180    -999.25    -999.25   26.42180    0.02600    0.02600    -999.25   44.57490    -999.25  -77.84520  -36.57630   44.57490    -999.25
 10250.00000   10.08550   10.08550   41.14020    0.03180    -999.25    2.58020    0.07590    0.07590   24.30710    -999.25    -999.25    -999.25   81.27330   81.27330   24.30710   26.48590    -999.25    -999.25   26.48590    0.03680    0.03680    -999.25   45.03900    -999.25  -63.86800  -22.86880   45.03900    -999.25
 10300.00000   10.03660   10.03660   69.99610    0.01480    -999.25    2.53660    0.10140    0.10140   14.28650    -999.25    -999.25    -999.25   25.92910   25.92910   14.28650   14.58220    -999.25    -999.25   14.58220    0.01210    0.01210    -999.25   41.37800    -999.25 -104.41110  -63.68150   41.37800    -999.25
 10350.00000    9.97110    9.97110   45.63400    0.02090    -999.25    2.55590    0.09010    0.09010   21.91350    -999.25    -999.25    -999.25   27.00170   27.00170   21.91350   22.55780    -999.25    -999.25   22.55780    0.01380    0.01380    -999.25   67.77230    -999.25  -93.24560  -52.78560   67.77230    -999.25
 10400.00000    9.97200    9.97200   66.18620    0.01750    -999.25    2.64310    0.03910    0.03910   15.10890    -999.25    -999.25    -999.25   32.16420   32.16420   15.10890   15.99990    -999.25    -999.25   15.99990    0.04130    0.04130    -999.25   34.18210    -999.25  -80.83510  -40.64470   34.18210    -999.25
 10450.00000    9.97780    9.97780   59.86630    0.00870    -999.25    2.49610    0.12510    0.12510   16.70390    -999.25    -999.25    -999.25   29.65540   29.65540   16.70390   14.54280    -999.25    -999.25   14.54280    0.02730    0.02730    -999.25   39.46800    -999.25 -100.94020  -61.01950   39.46800    -999.25
 10500.00000    9.99430    9.99430   60.44560    0.01780    -999.25    2.54380    0.09720    0.09720   16.54380    -999.25    -999.25    -999.25   24.10510   24.10510   16.54380   17.04090    -999.25    -999.25   17.04090    0.01330    0.01330    -999.25   39.82580    -999.25 -105.99070  -66.33960   39.82580    -999.25
 10550.00000    9.98460    9.98460   71.08630    0.01830    -999.25    2.53270    0.10370    0.10370   14.06740    -999.25    -999.25    -999.25   30.65540   30.65540   14.06740   14.60500    -999.25    -999.25   14.60500    0.03460    0.03460    -999.25   38.60850    -999.25  -85.69530  -46.31380   38.60850    -999.25
 10600.00000   10.02780   10.02780   71.86700    0.01720    -999.25    2.56170    0.08670    0.08670   13.91460    -999.25    -999.25    -999.25   25.75260   25.75260   13.91460   13.37620    -999.25    -999.25   13.37620    0.01830    0.01830    -999.25   38.71110    -999.25  -76.17780  -37.06600   38.71110    -999.25
 10650.00000   10.02090   10.02090   58.99150    0.01840    -999.25    2.54210    0.09820    0.09820   16.95160    -999.25    -999.25    -999.25   23.14520   23.14520   16.95160   18.47420    -999.25    -999.25   18.47420    0.03160    0.03160    -999.25   80.16290    -999.25  -85.43740  -46.59520   80.16290    -999.25
 10700.00000   10.12160   10.12160   57.77540    0.01750    -999.25    2.56690    0.08370    0.08370   17.30840    -999.25    -999.25    -999.25   33.48660   33.48660   17.30840   14.43310    -999.25    -999.25   14.43310    0.02740    0.02740    -999.25   72.14660    -999.25  -77.08960  -38.51700   72.14660    -999.25
 10750.00000   10.12580   10.12580   58.43920    0.02000    -999.25    2.56880    0.08260    0.08260   17.11180    -999.25    -999.25    -999.25   24.94670   24.94670   17.11180   16.04430    -999.25    -999.25   16.04430    0.01700    0.01700    -999.25   61.77750    -999.25  -85.33750  -47.03450   61.77750    -999.25
