~Version ---------------------------------------------------
VERS. 2.0 : CWLS log ASCII Standard -VERSION 2.0
WRAP.  NO : ONE LINE PER DEPTH STEP
~Well ------------------------------------------------------
STRT.F                     3750.0 : START DEPTH
STOP.F                    10100.0 : STOP DEPTH
STEP.F                   50.00000 : STEP LENGTH
NULL.                     -999.25 : NULL VALUE
COMP. MITCHELL ENERGY CORPORATION : COMPANY
WELL.            LARGENT HEIRS #6 : WELL
FLD .               ALABAMA FERRY : FIELD
LOC .                             : LOCATION
CNTY.                        LEON : COUNTY
STAT.                       TEXAS : STATE
CTRY.    UNITED STATES OF AMERICA : COUNTRY
SRVC.                Schlumberger : SERVICE COMPANY
DATE.                 08-Feb-1988 : LOGDATE
API .              42289309510000 : API NUMBER
UWI .              42289309510000 : UNIQUE WELL ID
SLAT.WGS84          31.1906329088 : SURFACE LATITUDE
SLON.WGS84         -95.8235309688 : SURFACE LONGITUDE
~Curve Information -----------------------------------------
DEPT   .F    0   1   0  0 : 1 MEASURED DEPTH
GRR    .GAPI 07 310 01 00 : GAMMA RAY FROM RESISTIVITY LOG
ILD    .OHMM 07 120 46 00 : INDUCTION DEEP RESISTIVITY
ILM    .OHMM 07 120 44 00 : INDUCTION MEDIUM RESISTIVITY
SFLU   .OHMM 07 220 01 00 : SHALLOW FOCUSED RESISTIVITY (UNAVERAGED)
SPR    .MV   07 010 01 00 : SPONTANEOUS POTENTIAL FROM RESISTIVITY LOG
DT     .US/F 60 500 00 00 : DELTA-T (INTERVAL TRANSIT TIME)
CALD   .IN   45 280 60 00 : CALIPER FROM DENSITY LOG
DPHI_LS.DEC  45 890 10 00 : DENSITY POROSITY LIMESTONE
DRHO   .G/C3 45 356 01 00 : BULK DENSITY CORRECTION
~Params ----------------------------------------------------
PD  .                     GL : PERMANENT DATUM
EPD .FT                  273 : ELEVATION PERMANENT DATUM
LMF .                    RKB : LOG MEASURED FROM
DAPD.FT                   22 : FEET ABOVE PERMANENT DATUM
DMF .                    RKB : DRILLING MEASURED FROM
EKB .FT                  295 : KELLY BUSHING
EDF .FT                  294 : DRILLING FLOOR
EGL .FT                  273 : GROUND LEVEL
DATE.               02/08/88 : RUN DATE
RUN .                      1 : RUN NUMBER
DD  .FT                10100 : DEPTH DRILLER
DL  .FT                10114 : DEPTH LOGGER
BLI .FT                10111 : BOTTOM LOG INTERVAL
TLI .FT                 3875 : TOP LOG INTERVAL
CS  .IN                8.625 : CASING SIZE
CBD .FT                 3870 : CASING BOTTOM DRILLER
CBL .FT                 3875 : CASING BOTTOM LOGGER
BS  .IN                7.875 : BIT SIZE
BSD .FT                10100 : BIT SIZE AT DEPTH
DFT .                    LIG : DRILLING FLUID TYPE
DFD .                   10.1 : DRILLING FLUID DENSITY
DFV .                     43 : DRILLING FLUID VISCOSITY
DFPH.                      9 : DRILLING FLUID PH
DFL .                      8 : DRILLING FLUID LOSS
MSS .              CIRC TANK : MUD SAMPLE SOURCE
RMS .OHMM               2.64 : RESISTIVITY MUD SAMPLE
MST .DEGF                 75 : MUD SAMPLE TEMPERATURE
RMF .OHMM                2.4 : RESISTIVITY MUD FILTRATE SAMPLE
MFST.DEGF                 75 : MUD FILTRATE SAMPLE TEMPERATURE
RMC .OHMM               3.17 : RESISTIVITY MUD CAKE
MCST.DEGF                 75 : MUD CAKE SAMPLE TEMPERATURE
MFSS.               MEASURED : MUD FILTRATE SAMPLE SOURCE
MCSS.             CALCULATED : MUD CAKE SAMPLE SOURCE
RMB .OHMM              1.036 : RESISTIVITY MUD AT BHT
TCS .HRS                 500 : TIME CIRCULATED STOPPED
TLAB.HRS                1200 : TIME LOGGER AT BOTTOM
LUN .                   8250 : LOGGING UNIT NUMBER
LUL .                 DAYTON : LOGGING UNIT LOCATION
ENGI.              MANEK BOB : RECORDING ENGINEER
WITN.        EDWARDS BULLARD : WITNESSED BY
CLNT.                A2DTECH : CLIENT CODE
ORIG.         1" 2" 5" PRINT : ORIGIN OF DATA
UWI .         42289309510000 : UNIQUE WELL ID
DICO. A2D Technologies, Inc. : DIGITIZING COMPANY
~Other -----------------------------------------------------
~ASCII -----------------------------------------------------
 3750.00000   37.07410    -999.25    -999.25    -999.25    -999.25    -999.25    -999.25    -999.25    -999.25
 3800.00000   42.37930    -999.25    -999.25    -999.25    -999.25    -999.25    -999.25    -999.25    -999.25
 3850.00000   49.48570    -999.25    -999.25    -999.25    -999.25    -999.25    -999.25    -999.25    -999.25
 3900.00000   58.78010   10.85250   12.15590   14.03340  -50.11380    -999.25    -999.25    -999.25    -999.25
 3950.00000   85.71630    7.22360    7.51530    7.82420  -45.00630    -999.25    -999.25    -999.25    -999.25
 4000.00000   70.94710    9.74090   11.42070   13.73270  -50.32220    -999.25    -999.25    -999.25    -999.25
 4050.00000   72.20870    6.09490    6.80710    9.20050  -55.70720    -999.25    -999.25    -999.25    -999.25
 4100.00000   61.53870    5.08840    7.08530   10.98670  -75.25140    -999.25    -999.25    -999.25    -999.25
 4150.00000   73.34060    4.14990    4.38640    6.09610  -35.80400    -999.25    -999.25    -999.25    -999.25
 4200.00000   95.54350    2.88950    3.00880    3.25330  -22.44040    -999.25    -999.25    -999.25    -999.25
 4250.00000   76.16500    2.73670    2.85130    3.07550  -23.18060    -999.25    -999.25    -999.25    -999.25
 4300.00000   94.78810    3.05260    3.17520    4.03560  -27.08560    -999.25    -999.25    -999.25    -999.25
 4350.00000   82.10000    2.36960    2.46510    2.68890  -22.48400    -999.25    -999.25    -999.25    -999.25
 4400.00000   78.25860    2.37460    2.47000    2.82420  -22.97420    -999.25    -999.25    -999.25    -999.25
 4450.00000   76.53870    2.59740    2.77090    3.68010  -31.20200    -999.25    -999.25    -999.25    -999.25
 4500.00000  103.16500    2.13170    2.22030    2.28510  -21.69210    -999.25    -999.25    -999.25    -999.25
 4550.00000   78.28340    2.05730    2.14210    2.25060  -21.36650    -999.25    -999.25    -999.25    -999.25
 4600.00000   92.50580    2.73640    2.84980    2.93130  -23.51290    -999.25    -999.25    -999.25    -999.25
 4650.00000   86.75650    2.36330    2.45930    2.65050  -23.48600    -999.25    -999.25    -999.25    -999.25
 4700.00000   83.96630    2.50950    2.61070    2.80730  -24.47650    -999.25    -999.25    -999.25    -999.25
 4750.00000   91.81520    2.13750    2.22350    2.29220  -21.97190    -999.25    -999.25    -999.25    -999.25
 4800.00000   89.01810    2.03250    2.11510    2.30030  -21.65560    -999.25    -999.25    -999.25    -999.25
 4850.00000   83.22040    1.90300    1.97940    2.08930  -21.87730    -999.25    -999.25    -999.25    -999.25
 4900.00000   87.44160    1.78600    1.85810    1.96750  -26.32760    -999.25    -999.25    -999.25    -999.25
 4950.00000   94.39100    1.75780    1.82840    2.02190  -21.61620    -999.25    -999.25    -999.25    -999.25
 5000.00000   88.61280    1.99130    2.07700    2.24860  -21.56620    -999.25    -999.25    -999.25    -999.25
 5050.00000   96.05040    2.18180    2.26960    2.41550  -21.61670    -999.25    -999.25    -999.25    -999.25
 5100.00000   93.95250    1.86930    1.94580    1.76040  -21.92480    -999.25    -999.25    -999.25    -999.25
 5150.00000  105.58350    1.90130    1.97770    2.07430  -20.99240    -999.25    -999.25    -999.25    -999.25
 5200.00000   99.37150    2.18460    2.27290    2.30330  -21.12740    -999.25    -999.25    -999.25    -999.25
 5250.00000   94.09530    2.61300    2.71820    2.96280  -23.86800    -999.25    -999.25    -999.25    -999.25
 5300.00000   93.74930    1.94160    2.01980    2.11780  -22.17260    -999.25    -999.25    -999.25    -999.25
 5350.00000  115.33100    1.92070    1.99820    2.18750  -24.59880    -999.25    -999.25    -999.25    -999.25
 5400.00000   90.77740    2.00710    2.08790    2.37090  -24.65080    -999.25    -999.25    -999.25    -999.25
 5450.00000   87.28990    1.89100    1.96690    2.00120  -23.82370    -999.25    -999.25    -999.25    -999.25
 5500.00000  125.31430    1.04550    1.14740    0.85430  -19.90440    -999.25    -999.25    -999.25    -999.25
 5550.00000   86.29310    1.54640    1.60880    1.72370  -20.43900    -999.25    -999.25    -999.25    -999.25
 5600.00000   46.99770    3.60690    3.75180    3.98460  -26.84590    -999.25    -999.25    -999.25    -999.25
 5650.00000   89.53210    1.17180    1.22860    1.35080  -21.89090    -999.25    -999.25    -999.25    -999.25
 5700.00000   85.14390    1.22260    1.27180    1.31210  -20.32140    -999.25    -999.25    -999.25    -999.25
 5750.00000   85.91810    1.39010    1.44610    1.50720  -19.35730    -999.25    -999.25    -999.25    -999.25
 5800.00000   87.93880    1.35040    1.42330    1.48700  -19.67640    -999.25    -999.25    -999.25    -999.25
 5850.00000   85.09390    0.99930    1.04280    1.10720  -20.17650    -999.25   13.91950    -999.25    -999.25
 5900.00000   99.74220    1.23790    1.29060    1.31680  -18.44100    -999.25   13.95810    -999.25    -999.25
 5950.00000   99.72940    0.78690    0.86730    0.96000  -19.22320    -999.25   14.18350    -999.25    -999.25
 6000.00000   85.17990    1.25940    1.31330    1.37840  -17.93990    -999.25   14.85460    -999.25    -999.25
 6050.00000   88.99450    1.15330    1.21270    1.23960  -17.76620    -999.25   13.89630    -999.25    -999.25
 6100.00000   45.50650    3.98400    4.25400    4.56070  -25.97290    -999.25   10.69290    -999.25    -999.25
 6150.00000   32.17330    6.99810    7.29460    7.67400  -28.62050    -999.25   10.04260    -999.25    -999.25
 6200.00000   79.40180    3.66770    3.87270    4.23240  -23.97740    -999.25   10.83510    -999.25    -999.25
 6250.00000   89.12910    3.47110    3.61930    3.69990  -21.03130    -999.25   11.19370    -999.25    -999.25
 6300.00000   66.47360    4.89250    5.18300    5.64130  -20.80080    -999.25   10.81460    -999.25    -999.25
 6350.00000   62.47250    3.32490    3.55220    3.32950  -18.76580    -999.25   10.76150    -999.25    -999.25
 6400.00000   78.18270    3.06860    3.19980    3.37840  -18.14480    -999.25   10.93790    -999.25    -999.25
 6450.00000   73.15210    2.20880    2.30360    2.53670  -17.72800    -999.25   11.19740    -999.25    -999.25
 6500.00000   93.38650    1.37450    1.43550    1.57400  -18.95640    -999.25   13.98520    -999.25    -999.25
 6550.00000   89.85520    2.43330    2.53700    2.72620  -17.94870    -999.25   11.95650    -999.25    -999.25
 6600.00000   77.86710    1.73910    1.81360    2.00250  -19.39830    -999.25   13.38600    -999.25    -999.25
 6650.00000   61.47280    3.72780    3.89500    4.54900  -17.23610    -999.25   10.19230    -999.25    -999.25
 6700.00000   59.46850    3.62780    4.03590    4.16500  -18.63440    -999.25   10.34820    -999.25    -999.25
 6750.00000   87.99580    2.60220    2.71510    3.07400  -23.04430    -999.25   11.43460    -999.25    -999.25
 6800.00000  102.10770    1.73400    1.80820    1.95230  -20.92080    -999.25   13.22850    -999.25    -999.25
 6850.00000   95.05030    1.53110    1.59630    1.78800  -22.62880    -999.25   13.67450    -999.25    -999.25
 6900.00000   88.64090    1.85810    1.93720    2.20280  -21.21460    -999.25   13.62000    -999.25    -999.25
 6950.00000   85.50820    1.97630    2.06490    2.30700  -20.57620   90.60990   13.80280    -999.25    -999.25
 7000.00000   68.94060    2.27760    2.48320    2.64310  -21.70590   81.76450   14.26340    -999.25    -999.25
 7050.00000   78.20510    1.61920    1.68870    1.90280  -18.91780   92.38380   13.18780    -999.25    -999.25
 7100.00000   40.98360    4.47650    4.67790    5.93570  -25.07150   73.92800   10.45900    -999.25    -999.25
 7150.00000   34.87690    4.49100    4.71810    6.81860  -19.25190   65.43050   11.21480    -999.25    -999.25
 7200.00000   34.80330    6.72150    7.18410    7.79970  -28.20710   66.70660   10.01240    0.06500   -0.01120
 7250.00000   37.34820    8.72740    9.19850   10.82010  -30.98370   67.06390    9.93970    0.07640   -0.02030
 7300.00000   23.07050    7.82050    8.15520    9.30690  -38.15620   63.26960    9.56030    0.06460   -0.01520
 7350.00000   27.71310    3.07030    4.79690   11.51770 -115.49970   80.40230    8.57860    0.22020    0.01640
