~Version ---------------------------------------------------
VERS. 2.0 : CWLS log ASCII Standard -VERSION 2.0
WRAP.  NO : ONE LINE PER DEPTH STEP
~Well ------------------------------------------------------
STRT.F                  3700.0 : START DEPTH
STOP.F                  8300.0 : STOP DEPTH
STEP.F                50.00000 : STEP LENGTH
NULL.                  -999.25 : NULL VALUE
COMP.      SAGE ENERGY COMPANY : COMPANY
WELL.             HITCHCOCK #1 : WELL
FLD .             CALDWELL, NE : FIELD
LOC .                          : LOCATION
CNTY.                 BURLESON : COUNTY
STAT.                    TEXAS : STATE
CTRY. UNITED STATES OF AMERICA : COUNTRY
SRVC.            Dresser Atlas : SERVICE COMPANY
DATE.              19-Apr-1984 : LOGDATE
API .           42051325270000 : API NUMBER
UWI .           42051325270000 : UNIQUE WELL ID
SLAT.WGS84       30.5575226526 : SURFACE LATITUDE
SLON.WGS84      -96.5775275659 : SURFACE LONGITUDE
~Curve Information -----------------------------------------
DEPT  .F    0   1   0  0 : 1 MEASURED DEPTH
GRN   .GAPI 35 310 01 00 : GAMMA RAY FROM GRN LOG
NEUT  .NAPI 35 330 01 00 : NEUTRON
GRR   .GAPI 07 310 01 00 : GAMMA RAY FROM RESISTIVITY LOG
RFOC  .OHMM 07 220 06 00 : SHALLOW FOCUSED LOG RESISTIVITY
RILD  .OHMM 07 120 46 00 : RAW DEEP INDUCTION RESISTIVITY
RILM  .OHMM 07 120 44 00 : RAW MEDIUM INDUCTION RESISTIVITY
SPR   .MV   07 010 01 00 : SPONTANEOUS POTENTIAL FROM RESISTIVITY LOG
CALR  .IN   07 280 01 00 : CALIPER FROM RESISTIVITY LOG
CN_SS .DEC  42 890 03 00 : COMPENSATED NEUTRON POROSITY SANDSTONE
CDL_SS.DEC  45 890 12 00 : COMPENSATED DENSITY POROSITY SANDSTONE
CN_LS .DEC  42 890 01 00 : COMPENSATED NEUTRON POROSITY LIMESTONE
CDL_LS.DEC  45 890 10 00 : COMPENSATED DENSITY POROSITY LIMESTONE
~Params ----------------------------------------------------
PD  .                     GL : PERMANENT DATUM
EPD .FT                  310 : ELEVATION PERMANENT DATUM
LMF .                     KB : LOG MEASURED FROM
DAPD.FT                   16 : FEET ABOVE PERMANENT DATUM
DMF .                     KB : DRILLING MEASURED FROM
EKB .FT                  324 : KELLY BUSHING
EDF .FT                  328 : DRILLING FLOOR
EGL .FT                  310 : GROUND LEVEL
DATE.               04/19/84 : RUN DATE
RUN .                      1 : RUN NUMBER
DD  .FT                 8311 : DEPTH DRILLER
DL  .FT                 8328 : DEPTH LOGGER
BLI .FT                 8326 : BOTTOM LOG INTERVAL
TLI .FT                 3668 : TOP LOG INTERVAL
CS  .IN                8.625 : CASING SIZE
CBD .FT                 3660 : CASING BOTTOM DRILLER
CBL .FT                 3668 : CASING BOTTOM LOGGER
BS  .IN                7.875 : BIT SIZE
BSD .FT                 8311 : BIT SIZE AT DEPTH
DFT .              LIGNOSULF : DRILLING FLUID TYPE
DFD .                    9.3 : DRILLING FLUID DENSITY
DFV .                     46 : DRILLING FLUID VISCOSITY
DFPH.                    9.6 : DRILLING FLUID PH
DFL .                      8 : DRILLING FLUID LOSS
MSS .                   TANK : MUD SAMPLE SOURCE
RMS .OHMM               2.55 : RESISTIVITY MUD SAMPLE
MST .DEGF                 75 : MUD SAMPLE TEMPERATURE
RMF .OHMM               2.15 : RESISTIVITY MUD FILTRATE SAMPLE
MFST.DEGF                 75 : MUD FILTRATE SAMPLE TEMPERATURE
RMC .OHMM               3.19 : RESISTIVITY MUD CAKE
MCST.DEGF                 75 : MUD CAKE SAMPLE TEMPERATURE
MFSS.                      M : MUD FILTRATE SAMPLE SOURCE
MCSS.                      C : MUD CAKE SAMPLE SOURCE
RMB .OHMM               1.08 : RESISTIVITY MUD AT BHT
TCS .HRS                   4 : TIME CIRCULATED STOPPED
LUN .                HL 6300 : LOGGING UNIT NUMBER
LUL .                  BRYAN : LOGGING UNIT LOCATION
ENGI.                 THOMAS : RECORDING ENGINEER
WITN.                  BOTTO : WITNESSED BY
CLNT.                A2DTECH : CLIENT CODE
ORIG.            2" 5" PRINT : ORIGIN OF DATA
UWI .         42051325270000 : UNIQUE WELL ID
DICO. A2D Technologies, Inc. : DIGITIZING COMPANY
~Other -----------------------------------------------------
~ASCII -----------------------------------------------------
 3700.00000    -999.25    -999.25   73.82790   10.39540    6.40230    9.57580  -27.60120    9.08260    -999.25    -999.25    -999.25    -999.25
 3750.00000    -999.25    -999.25   54.27610   10.19520    5.30950    8.49650  -42.10890    8.42610    -999.25    -999.25    -999.25    -999.25
 3800.00000    -999.25    -999.25   72.35260    7.61370    4.75230    6.78890  -36.57040    7.87440    -999.25    -999.25    -999.25    -999.25
 3850.00000    -999.25    -999.25  110.73230    3.53050    2.75710    2.99440   -4.44680    8.51700    -999.25    -999.25    -999.25    -999.25
 3900.00000    -999.25    -999.25   79.67050    4.26930    3.44900    3.57740  -20.50150    8.24990    -999.25    -999.25    -999.25    -999.25
 3950.00000    -999.25    -999.25   54.89660    8.63360    4.39140    6.53910  -47.76050    7.74980    -999.25    -999.25    -999.25    -999.25
 4000.00000    -999.25    -999.25   99.66890    4.46060    3.49030    4.11300  -24.54090    7.71690    -999.25    -999.25    -999.25    -999.25
 4050.00000    -999.25    -999.25   78.07400    5.68600    3.01760    4.01010  -39.18150    7.72300    -999.25    -999.25    -999.25    -999.25
 4100.00000    -999.25    -999.25   87.47260    2.36410    2.21240    2.28560  -11.63560    8.68940    -999.25    -999.25    -999.25    -999.25
 4150.00000    -999.25    -999.25   96.00230    2.37060    1.95860    2.04950   -9.74390    9.03240    -999.25    -999.25    -999.25    -999.25
 4200.00000    -999.25    -999.25   92.33290    2.30000    1.94770    2.03760  -10.62520    9.00330    -999.25    -999.25    -999.25    -999.25
 4250.00000    -999.25    -999.25   88.76950    2.63970    2.21550    2.31040  -12.46360    8.56210    -999.25    -999.25    -999.25    -999.25
 4300.00000    -999.25    -999.25   94.75770    2.56840    2.22930    2.33240  -11.49410    8.28060    -999.25    -999.25    -999.25    -999.25
 4350.00000    -999.25    -999.25   93.84250    2.52100    2.25370    2.32910  -11.67620    8.05390    -999.25    -999.25    -999.25    -999.25
 4400.00000    -999.25    -999.25   90.52600    2.40860    2.15390    2.25340  -12.02950    8.99910    -999.25    -999.25    -999.25    -999.25
 4450.00000    -999.25    -999.25   90.71020    2.27300    1.95850    2.01910  -11.28600   10.38770    -999.25    -999.25    -999.25    -999.25
 4500.00000    -999.25    -999.25   99.44510    1.89940    1.46740    1.52370  -10.48620   11.47430    -999.25    -999.25    -999.25    -999.25
 4550.00000    -999.25    -999.25   94.15440    2.05400    1.70640    1.77460  -10.84840   11.30640    -999.25    -999.25    -999.25    -999.25
 4600.00000    -999.25    -999.25   95.38990    1.92360    1.47800    1.50600  -11.83920   11.58200    -999.25    -999.25    -999.25    -999.25
 4650.00000    -999.25    -999.25   97.32670    1.77150    1.38280    1.35980  -11.09660   12.50240    -999.25    -999.25    -999.25    -999.25
 4700.00000    -999.25    -999.25   91.17100    1.64310    1.26370    1.20140  -12.38400   12.28990    -999.25    -999.25    -999.25    -999.25
 4750.00000    -999.25    -999.25  103.29500    1.83470    1.45610    1.50910  -15.31220   11.77170    -999.25    -999.25    -999.25    -999.25
 4800.00000    -999.25    -999.25   97.47860    2.02320    1.70810    1.76480  -14.12760   12.07270    -999.25    -999.25    -999.25    -999.25
 4850.00000    -999.25    -999.25   93.84960    1.53180    1.14800    1.20220  -11.98670   11.25920    -999.25    -999.25    -999.25    -999.25
 4900.00000    -999.25    -999.25   93.64620    1.37430    0.93240    0.88770   -7.64230   10.55670    -999.25    -999.25    -999.25    -999.25
 4950.00000    -999.25    -999.25   62.38380    2.94910    3.08060    2.99620  -14.37220    9.16810    0.23810    0.09140    -999.25    -999.25
 5000.00000    -999.25    -999.25   86.88060    2.14080    1.78280    1.82430  -15.22720    9.83120    0.31930    0.24000    -999.25    -999.25
 5050.00000    -999.25    -999.25   92.46950    1.76590    1.29760    1.33460  -14.78780   10.27470    0.34330    0.13500    -999.25    -999.25
 5100.00000    -999.25    -999.25   89.91480    1.82050    1.39910    1.43290  -12.82360   10.19830    0.34740    0.12880    -999.25    -999.25
 5150.00000    -999.25    -999.25   84.03640    1.75700    1.32940    1.39170  -14.46720   10.84590    0.36470    0.09820    -999.25    -999.25
 5200.00000    -999.25    -999.25   92.20770    1.64600    1.23700    1.30920  -15.13190   10.80280    0.36050    0.11910    -999.25    -999.25
 5250.00000    -999.25    -999.25   83.62390    1.52110    0.99200    1.03720  -12.82240   10.59060    0.39130    0.17220    -999.25    -999.25
 5300.00000    -999.25    -999.25   84.73530    1.61960    1.19340    1.24850  -16.86920   11.28560    0.39840    0.13590    -999.25    -999.25
 5350.00000    -999.25    -999.25   86.71760    1.53710    1.04850    1.09170  -15.21730   12.07230    0.38700    0.16110    -999.25    -999.25
 5400.00000    -999.25    -999.25   89.21950    1.45330    1.00200    0.96130  -14.26310   12.13220    0.43720    0.15100    -999.25    -999.25
 5450.00000    -999.25    -999.25   86.68120    1.87090    1.35830    1.42160  -18.02080   10.89960    0.36290    0.17270    -999.25    -999.25
 5500.00000    -999.25    -999.25   73.06350    2.72810    2.31330    2.42150  -16.37790    8.06980    0.24080    0.08730    -999.25    -999.25
 5550.00000    -999.25    -999.25  101.38410    1.76410    1.15480    1.21860  -13.43260    8.71890    0.34510    0.16070    -999.25    -999.25
 5600.00000    -999.25    -999.25   84.74070    1.75870    1.49040    1.55920  -12.30410    8.98310    0.29720    0.28610    -999.25    -999.25
 5650.00000    -999.25    -999.25   95.09700    1.63170    1.27040    1.31100  -19.11040    9.31220    0.35440    0.19920    -999.25    -999.25
 5700.00000    -999.25    -999.25   91.11020    1.50070    1.11130    1.14360  -13.36100    9.30460    0.37480    0.26500    -999.25    -999.25
 5750.00000    -999.25    -999.25  104.24670    1.58570    1.21600    1.25880  -12.18570    9.72500    0.36810    0.26410    -999.25    -999.25
 5800.00000    -999.25    -999.25   92.62090    1.49340    1.09990    1.15040  -14.04570   11.55760    0.39130    0.23680    -999.25    -999.25
 5850.00000    -999.25    -999.25   99.83880    1.30140    0.90170    0.92800   -9.72950   11.36120    0.42860    0.21950    -999.25    -999.25
 5900.00000    -999.25    -999.25  111.84200    1.72670    1.41470    1.48010  -10.61400   10.69040    -999.25    -999.25    -999.25    -999.25
 5950.00000    -999.25    -999.25   97.57830    1.88450    1.56710    1.66210  -13.81860   11.12710    -999.25    -999.25    -999.25    -999.25
 6000.00000    -999.25    -999.25   92.67200    2.08200    1.66980    1.77840  -12.38740    9.97100    -999.25    -999.25    -999.25    -999.25
 6050.00000    -999.25    -999.25   90.88940    1.99550    1.56340    1.67190  -15.72950   10.12890    -999.25    -999.25    -999.25    -999.25
 6100.00000    -999.25    -999.25   88.53350    1.92910    1.48400    1.55260  -16.63120   10.21640    -999.25    -999.25    -999.25    -999.25
 6150.00000    -999.25    -999.25   89.46400    1.79190    1.35190    1.41480  -15.08510   10.92740    -999.25    -999.25    -999.25    -999.25
 6200.00000    -999.25    -999.25   87.44420    1.86330    1.42560    1.49920  -13.00910    9.92570    -999.25    -999.25    -999.25    -999.25
 6250.00000    -999.25    -999.25   99.86140    1.62440    1.14850    1.21870  -16.70130    9.73100    -999.25    -999.25    -999.25    -999.25
 6300.00000    -999.25    -999.25  102.72960    1.54380    1.02830    1.08500  -20.77090    9.15140    -999.25    -999.25    -999.25    -999.25
 6350.00000    -999.25    -999.25   84.34370    1.79270    1.32180    1.38340  -19.91220    8.71380    -999.25    -999.25    -999.25    -999.25
 6400.00000    -999.25    -999.25   61.34640    2.65590    2.56120    2.80770  -19.14320    7.94890    -999.25    -999.25    -999.25    -999.25
 6450.00000    -999.25    -999.25   44.60490    3.48550    2.88490    3.11390  -22.26490    7.88510    -999.25    -999.25    -999.25    -999.25
