~Version ---------------------------------------------------
VERS. 2.0 : CWLS log ASCII Standard -VERSION 2.0
WRAP.  NO : ONE LINE PER DEPTH STEP
~Well ------------------------------------------------------
STRT.F                  1550.0 : START DEPTH
STOP.F                  9700.0 : STOP DEPTH
STEP.F                50.00000 : STEP LENGTH
NULL.                  -999.25 : NULL VALUE
COMP.     MARATHON OIL COMPANY : COMPANY
WELL.              NEWELL #A-2 : WELL
FLD .               BEAR GRASS : FIELD
LOC .                          : LOCATION
CNTY.                     LEON : COUNTY
STAT.                    TEXAS : STATE
CTRY. UNITED STATES OF AMERICA : COUNTRY
SRVC.                   Reeves : SERVICE COMPANY
DATE.              02-Nov-1999 : LOGDATE
API .           42289313060000 : API NUMBER
UWI .           42289313060000 : UNIQUE WELL ID
SLAT.WGS84       31.3636770246 : SURFACE LATITUDE
SLON.WGS84      -96.2532956557 : SURFACE LONGITUDE
~Curve Information -----------------------------------------
DEPT   .F    0   1   0  0 : 1 MEASURED DEPTH
GRR    .GAPI 06 310 01 00 : GAMMA RAY FROM RESISTIVITY LOG
SPR    .MV   06 010 01 00 : SPONTANEOUS POTENTIAL FROM RESISTIVITY LOG
TENR   .LB   06 635 00 00 : TENSION FROM RESISTIVITY LOG
DCALR  .IN   06 280 01 00 : DIFFERENTIAL CALIPER FROM RESISTIVITY LOG
SFE    .OHMM 06 220 06 00 : SHALLOW FOCUSSED ELECTRIC RESISTIVITY
ILM    .OHMM 06 120 44 00 : INDUCTION MEDIUM RESISTIVITY
ILD    .OHMM 06 120 46 00 : INDUCTION DEEP RESISTIVITY
NPHI_LS.DEC  42 890 01 00 : NEUTRON POROSITY LIMESTONE
DCOR   .G/C3 45 356 01 00 : DENSITY CORRECTION
DPHI_LS.DEC  45 890 10 00 : DENSITY POROSITY LIMESTONE
PE     .B/E  45 358 01 00 : PHOTO ELECTRIC CROSS SECTION
CALXD  .IN   45 280 13 00 : CALIPER FROM X AXIS OF X-Y CALIPER(S) FROM DENSITY LOG
~Params ----------------------------------------------------
PD  .                     GL : PERMANENT DATUM
EPD .FT                  525 : ELEVATION PERMANENT DATUM
LMF .                     KB : LOG MEASURED FROM
DAPD.FT                   17 : FEET ABOVE PERMANENT DATUM
DMF .                     KB : DRILLING MEASURED FROM
EKB .FT                  542 : KELLY BUSHING
EDF .FT                  540 : DRILLING FLOOR
EGL .FT                  525 : GROUND LEVEL
DATE.               11/02/99 : RUN DATE
RUN .                      1 : RUN NUMBER
DD  .FT                 9700 : DEPTH DRILLER
DL  .FT                 9705 : DEPTH LOGGER
BLI .FT                 9704 : BOTTOM LOG INTERVAL
TLI .FT                 1514 : TOP LOG INTERVAL
CS  .IN                8.625 : CASING SIZE
CBD .FT                 1515 : CASING BOTTOM DRILLER
CBL .FT                 1514 : CASING BOTTOM LOGGER
BS  .IN                7.875 : BIT SIZE
BSD .FT                 9700 : BIT SIZE AT DEPTH
DFT .                   DISP : DRILLING FLUID TYPE
DFD .                   10.1 : DRILLING FLUID DENSITY
DFV .                     50 : DRILLING FLUID VISCOSITY
DFPH.                    9.1 : DRILLING FLUID PH
DFL .                     10 : DRILLING FLUID LOSS
MSS .               FLOWLINE : MUD SAMPLE SOURCE
RMS .OHMM               1.22 : RESISTIVITY MUD SAMPLE
MST .DEGF                 80 : MUD SAMPLE TEMPERATURE
RMF .OHMM               0.91 : RESISTIVITY MUD FILTRATE SAMPLE
MFST.DEGF                 80 : MUD FILTRATE SAMPLE TEMPERATURE
RMC .OHMM               1.51 : RESISTIVITY MUD CAKE
MCST.DEGF                 80 : MUD CAKE SAMPLE TEMPERATURE
MFSS.                   MEAS : MUD FILTRATE SAMPLE SOURCE
MCSS.                   MEAS : MUD CAKE SAMPLE SOURCE
RMB .OHMM               0.45 : RESISTIVITY MUD AT BHT
TCS .HRS                   6 : TIME CIRCULATED STOPPED
LUN .                  V1049 : LOGGING UNIT NUMBER
LUL .                   KLCR : LOGGING UNIT LOCATION
ENGI.                 LEESON : RECORDING ENGINEER
WITN.                LAMBERT : WITNESSED BY
CLNT.                A2DTECH : CLIENT CODE
ORIG.         1" 2" 5" PRINT : ORIGIN OF DATA
UWI .         42289313060000 : UNIQUE WELL ID
DICO. A2D Technologies, Inc. : DIGITIZING COMPANY
~Other -----------------------------------------------------
~ASCII -----------------------------------------------------
# ...
 7150.00000   30.51780  -44.96050 2925.31100    -999.25    6.26800    4.46670    4.72680    -999.25    -999.25    -999.25    -999.25    -999.25
 7200.00000   31.64670  -45.12520 2921.09840    -999.25   36.36500   12.75920   11.41260    -999.25    -999.25    -999.25    -999.25    -999.25
 7250.00000   41.73780  -45.95210 2958.57910    -999.25   11.88850    3.18950    3.21940    -999.25    -999.25    -999.25    -999.25    -999.25
 7300.00000   58.55350  -45.55490 2967.66310    -999.25    7.40160    7.29170    7.09230    -999.25    -999.25    -999.25    -999.25    -999.25
 7350.00000   45.87790  -36.65740 2980.08840    -999.25   11.01060    7.17150    6.62920    -999.25    -999.25    -999.25    -999.25    -999.25
 7400.00000   37.72940  -43.83320 3161.11960    -999.25   53.63890   22.52800   20.39490    -999.25    -999.25    -999.25    -999.25    -999.25
 7450.00000   61.08210  -41.25640 3004.80620    -999.25   10.15690    5.36250    5.31350    -999.25    -999.25    -999.25    -999.25    -999.25
 7500.00000   66.68860  -45.68930 3037.50730    -999.25    2.24020    1.78240    1.89340    -999.25    -999.25    -999.25    -999.25    -999.25
 7550.00000   49.15260  -43.38250 2963.70390    -999.25    5.20440    4.52800    4.61530    -999.25    -999.25    -999.25    -999.25    -999.25
 7600.00000   48.48220  -41.11390 3038.65700    -999.25   17.89670    7.36590    7.57430    -999.25    -999.25    -999.25    -999.25    -999.25
 7650.00000   22.51330  -47.02490 3010.94260    -999.25   74.21250   22.86720   21.49780    -999.25    -999.25    -999.25    -999.25    -999.25
 7700.00000   58.32950  -49.93710 3067.09940    4.07520    8.47080    5.37730    5.11900    0.14180    0.03660    0.24580    4.09810   11.93950
 7750.00000   38.15230  -40.38410 2945.69730    2.28470   13.79680   11.86770   11.03190    0.03070    0.02000    0.02420    4.93010   10.12280
 7800.00000   40.33460  -40.30490 3107.48390    2.68880   16.44930   13.73980   13.11390    0.04310    0.01440    0.01470    4.64450   10.57320
 7850.00000   31.70750  -43.55030 3107.90310    1.97460   15.69700   11.82550   12.27110    0.04240    0.00410    0.02750    4.55460    9.87590
 7900.00000   43.17030  -40.88740 3114.36650    3.45040   19.33290   10.36090   10.40330    0.08880    0.04110    0.11910    4.17190   11.22740
 7950.00000   29.01750  -43.34100 3126.51660    2.55810   29.43350   14.88350   15.24210    0.02170    0.01330    0.02040    4.75670   10.43660
 8000.00000   40.88980  -47.18220 3142.20700    3.44160   55.94910   44.59340   55.17010    0.02510    0.05000    0.01900    4.96720   11.32230
 8050.00000   28.56090  -43.21940 3079.78910    2.73220   53.15780   23.01480   23.14520    0.01860    0.07910    0.02860    4.54720   10.57620
 8100.00000   38.36220  -72.35210 3205.45950    2.36550   81.86810   43.71010   48.81300    0.03590    0.00970    0.03710    4.67820   10.25000
 8150.00000   30.26430  -63.66870 3146.71880    3.17940  138.03680   80.41670   99.93170    0.01680    0.01080    0.04000    4.60040   11.02320
 8200.00000   13.20840  -38.19880 3212.34110    3.07870 1999.07650   69.60030   99.12010   -0.00560    0.02240   -0.12420    5.24540   10.92050
 8250.00000   20.55480  -36.94650 3109.95730    2.68290  321.98500   29.00810   26.08560    0.01150    0.01450    0.01700    4.90860   10.57690
 8300.00000   42.17550  -70.17300 3231.95190    3.56490   42.09740   39.75530   42.22740    0.03810    0.05040    0.04440    4.66460   11.37230
 8350.00000   16.31940 -193.24500 3181.30790    2.44160   49.01900   12.30360    9.76710    0.04890    0.10090    0.09450    4.75450   10.34100
 8400.00000   39.88830  -98.49910 3216.70800    2.60230   76.38060   60.67890   82.95730    0.01270    0.03300    0.01400    4.64830   10.48960
 8450.00000   36.82020  -32.08960 3207.44460    2.38120   12.20560    9.12330    9.81790    0.07420    0.02080    0.00750    4.19070   10.25310
 8500.00000   45.51570  -41.92250 3246.05790    2.46130   53.67910   42.00690   51.74210    0.01690    0.02850    0.03400    4.95160   10.29390
 8550.00000   56.65710  -28.97450 3265.71290    1.94530   24.07590   22.59580   24.05460    0.03860    0.01290    0.01740    4.59130    9.83330
 8600.00000   77.42460  -39.00540 3286.18680    4.30910    4.44580    3.21680    3.41050    0.32420    0.19230    0.32900    3.31260   12.11720
 8650.00000   40.31330  -30.60840 3286.99410    2.93950   17.51690    9.20450    6.88540    0.09630    0.04750    0.03050    4.63150   10.71340
 8700.00000   78.00070  -28.50100 3284.43020    4.47370    5.15700    4.52280    4.41930    0.27660    0.08900    0.17400    3.75080   12.51390
 8750.00000   85.57620  -34.29460 3267.55180    5.99750    3.81540    2.95070    3.07420    0.38670    0.13330    0.22220    3.53040   13.78400
 8800.00000   56.90760  -30.30300 3330.79910    1.83370    9.48450   14.12550   13.73520    0.08220    0.03710    0.04870    4.45910    9.84820
 8850.00000   34.81640  -37.68660 3449.26760    1.78970   33.57310    6.15480    6.93550    0.08300    0.07980    0.23780    4.02160    9.71900
 8900.00000   69.89280  -41.52250 3386.09230    5.39120    4.40350    3.07920    3.12760    0.30300    0.13270    0.33900    3.18970   13.22550
 8950.00000   64.71830  -31.47500 3286.83230    2.42230    9.34450   10.49390   11.89420    0.07650    0.02950    0.01350    4.20930   10.29030
 9000.00000   50.37190  -43.98060 3433.60570    3.03130   82.72880   49.61180   63.66210    0.01660    0.02700    0.03660    4.42260   10.84120
 9050.00000   33.12360 -121.50600 3368.71900    2.05460   40.83390   42.92330   56.85210    0.00790    0.01240    0.04930    4.96850    9.91280
 9100.00000   39.33770  -95.67840 3462.54640    2.43870  205.15620  100.23040  153.14370    0.00540    0.10060    0.04760    4.45700   10.31000
 9150.00000   38.84630  -95.99840 3397.38010    1.81950   59.24550   47.48760   55.47530    0.00660    0.01020    0.01700    4.50900    9.66530
 9200.00000   31.22560  -51.61290 3482.40010    1.75280  261.88140  108.42950  127.50160    0.00310    0.02130    0.01090    4.84830    9.62520
 9250.00000   40.21660  -49.80610 3488.22460    2.03450   20.72150    9.25670    8.47840    0.05910    0.02490    0.01380    4.52060    9.91000
 9300.00000   96.27600  -25.87880 3528.10960    1.60420    6.56060    5.39340    6.22160    0.12440    0.03190    0.04970    3.29190    9.50660
 9350.00000   55.76790  -82.58690 3492.58790    0.93210    6.35290    4.50720    4.57620    0.05370    0.03800    0.08550    2.97420    8.77500
 9400.00000  100.01830  -37.08950 3594.10770    1.05420    4.93940    4.42970    4.32680    0.09840    0.03440    0.05830    3.13400    8.90320
 9450.00000  109.66910  -41.91760 3610.99240    1.08170    5.37140    4.06360    4.21840    0.08490    0.04390    0.05880    2.89900    8.91700
 9500.00000   75.09270  -41.78300 3618.34230    0.83910    9.12850    6.02300    5.28920    0.04710    0.03820    0.06350    2.81480    8.70080
 9550.00000   94.65130  -31.04310 3727.94380    0.98850    4.30010    3.43320    3.28760    0.07610    0.04190    0.04580    2.90370    8.85280
 9600.00000   74.24920  -36.53200 3611.67380    0.35290    5.66030    5.64680    5.98840    0.07230    0.02600    0.08410    2.53640    8.24070
 9650.00000  135.48830  -18.91020 3663.78340    0.47500    4.12540    3.88270    3.80040    0.16550    0.03630    0.04180    3.36200    8.30510
 9700.00000    -999.25  -80.69330 3887.86790    -999.25    -999.25    8.58300    9.13230    -999.25    -999.25    -999.25    -999.25    -999.25
