~Version ---------------------------------------------------
VERS.      2.0 : CWLS log ASCII Standard -VERSION 2.0
WRAP.       NO : One line per depth step
CREA. 01/14/16 : LAS Creation Date
~Well ------------------------------------------------------
STRT.FT                 1850.0 : START DEPTH
STOP.FT                10350.0 : STOP DEPTH
STEP.FT               50.00000 : STEP LENGTH
NULL.                  -999.25 : NULL VALUE
COMP.       BRG LONE STAR, LTD : COMPANY
WELL.      ELLISON GAS UNIT #2 : WELL
FLD .               BEAR GRASS : FIELD
LOC .                          : LOCATION
CNTY.                     LEON : COUNTY
STAT.                    TEXAS : STATE
CTRY. UNITED STATES OF AMERICA : COUNTRY
SRVC.              Weatherford : SERVICE COMPANY
DATE.              23-Jun-2010 : LOGDATE
API .           42289318670000 : API NUMBER
UWI .           42289318670000 : UNIQUE WELL ID
SLAT.WGS84       31.3769769316 : SURFACE LATITUDE
SLON.WGS84      -96.1967743319 : SURFACE LONGITUDE
~Curve Information -----------------------------------------
DEPT  .FT    : Depth Curve
CONDWS.MMHO  : CONDUCTIVITY [1000/DRESWS]
DRESWS.OHMM  : DEEP RESISTIVITY [ILDED]
GRRED .GAPI  : GAMMA RAY FROM AIT-RSFE LOG
GRWS  .GAPI  : GAMMA RAY [GRRED]
ILDED .OHMM  : DEEP INDUCTION RESISTIVITY FROM AIT-RSFE LOG
ILMED .OHMM  : MEDIUM INDUCTION RESISTIVITY FROM AIT-RSFE LOG
MRESWS.OHMM  : MEDIUM RESISTIVITY [ILMED]
SFEED .OHMM  : SHALLOW FOCUSED ELECTRIC LOG FROM AIT-RSFE LOG
SPRED .MV    : SPONTANEOUS POTENTIAL FROM AIT-RSFE LOG
SPWS  .MV    : SPONTANEOUS POTENTIAL [BASELINE 0 MV, SPRED]
SRESWS.OHMM  : SHALLOW RESISTIVITY [SFEED]
TENRED.LBF   : TENSION FROM AIT-RSFE LOG
~Params ----------------------------------------------------
PD  .                     GL : PERMANENT DATUM
EPD .FT                  488 : ELEVATION PERMANENT DATUM
LMF .                     KB : LOG MEASURED FROM
DAPD.FT                 14.6 : FEET ABOVE PERMANENT DATUM
DMF .                     KB : DRILLING MEASURED FROM
EKB .FT                502.6 : KELLY BUSHING
EDF .FT                501.6 : DRILLING FLOOR
EGL .FT                  488 : GROUND LEVEL
DATE.               06/23/10 : RUN DATE
RUN .                      1 : RUN NUMBER
DD  .FT                10400 : DEPTH DRILLER
DL  .FT                10398 : DEPTH LOGGER
BLI .FT                10397 : BOTTOM LOG INTERVAL
TLI .FT                 1893 : TOP LOG INTERVAL
CS  .IN                8.625 : CASING SIZE
CBD .FT                 1893 : CASING BOTTOM DRILLER
CBL .FT                 1893 : CASING BOTTOM LOGGER
BS  .IN                7.875 : BIT SIZE
BSD .FT                10400 : BIT SIZE AT DEPTH
DFT .             WATER BASE : DRILLING FLUID TYPE
DFD .                   10.6 : DRILLING FLUID DENSITY
DFV .                     43 : DRILLING FLUID VISCOSITY
DFPH.                      8 : DRILLING FLUID PH
DFL .                   14.1 : DRILLING FLUID LOSS
MSS .                MUD PIT : MUD SAMPLE SOURCE
RMS .OHMM               0.79 : RESISTIVITY MUD SAMPLE
MST .DEGF                 82 : MUD SAMPLE TEMPERATURE
RMF .OHMM               0.59 : RESISTIVITY MUD FILTRATE SAMPLE
MFST.DEGF                 82 : MUD FILTRATE SAMPLE TEMPERATURE
RMC .OHMM               0.98 : RESISTIVITY MUD CAKE
MCST.DEGF                 82 : MUD CAKE SAMPLE TEMPERATURE
MFSS.                   CALC : MUD FILTRATE SAMPLE SOURCE
MCSS.                   CALC : MUD CAKE SAMPLE SOURCE
RMB .OHMM               0.26 : RESISTIVITY MUD AT BHT
TCS .HRS                   6 : TIME CIRCULATED STOPPED
LUN .                  13097 : LOGGING UNIT NUMBER
LUL .                  TYLER : LOGGING UNIT LOCATION
ENGI.                 PORTER : RECORDING ENGINEER
WITN.                  FLYNN : WITNESSED BY
CLNT.                A2DTECH : CLIENT CODE
ORIG.               2" PRINT : ORIGIN OF DATA
UWI .         42289318670000 : UNIQUE WELL ID
DICO. A2D Technologies, Inc. : DIGITIZING COMPANY
~Other -----------------------------------------------------
AIT-RSFE LOG RUN
INDUCTION TOOL FAILED ON BOTTOM
~ASCII -----------------------------------------------------
# ...
 4650.00000    0.50000 2000.00000   80.63380   80.63380 2000.00000 2000.00000 2000.00000    2.13440  -45.16080   -7.34910    2.13440 1825.38020
 4700.00000    4.87420  205.16070   71.72410   71.72410  205.16070 2000.00000 2000.00000    1.91640  -41.00660   -3.38490    1.91640 1841.90750
 4750.00000   15.78130   63.36610   33.89560   33.89560   63.36610 2000.00000 2000.00000    3.78660  -53.99070  -16.55890    3.78660 1837.03110
 4800.00000   14.00920   71.38150   37.78200   37.78200   71.38150 2000.00000 2000.00000    3.41710  -50.66850  -13.42670    3.41710 1884.72330
 4850.00000    0.81770 1222.99260   35.75290   35.75290 1222.99260 2000.00000 2000.00000    3.52560  -43.91250   -6.86060    3.52560 1876.77170
 4900.00000   14.17640   70.53970   47.44190   47.44190   70.53970 2000.00000 2000.00000    2.08480  -43.98630   -7.12430    2.08480 1950.23500
 4950.00000   12.99860   76.93110   50.44110   50.44110   76.93110 2000.00000 2000.00000    3.31030  -41.83150   -5.15950    3.31030 1907.16640
 5000.00000   12.46550   80.22160   27.83360   27.83360   80.22160 2000.00000 2000.00000    3.88790  -66.94310  -30.46100    3.88790 1899.49870
 5050.00000   12.36490   80.87440   23.67950   23.67950   80.87440 2000.00000 2000.00000    5.73270  -60.66650  -24.37440    5.73270 1929.27540
 5100.00000   11.57410   86.40010  100.55830  100.55830   86.40010 2000.00000 2000.00000    3.34740  -38.61510   -2.65730    3.34740 1891.86250
 5150.00000   10.52510   95.01070   98.63180   98.63180   95.01070 2000.00000 2000.00000    2.01430  -39.27360   -4.61620    2.01430 1960.80360
 5200.00000    9.73380  102.73470  102.13110  102.13110  102.73470 2000.00000 2000.00000    1.47000  -39.79050   -6.43350    1.47000 2003.93810
 5250.00000    9.23020  108.33990  103.35330  103.35330  108.33990 2000.00000 2000.00000    1.21730  -36.43770   -4.38110    1.21730 2012.93410
 5300.00000    9.56180  104.58310   99.56270   99.56270  104.58310 2000.00000 2000.00000    2.06210  -34.90180   -3.66290    2.06210 2038.12060
 5350.00000   10.16230   98.40330  121.13350  121.13350   98.40330 2000.00000 2000.00000    1.71260  -34.78460   -3.79690    1.71260 2174.47000
 5400.00000    8.60530  116.20800  103.90380  103.90380  116.20800 2000.00000 2000.00000    2.36540  -34.69770   -3.96120    2.36540 2081.76420
 5450.00000    9.09110  109.99740   94.14210   94.14210  109.99740 2000.00000 2000.00000    4.06630  -33.16550   -2.68020    4.06630 2092.95290
 5500.00000    1.68590  593.14020  107.64010  107.64010  593.14020 2000.00000 2000.00000    2.42530  -36.85200   -6.51130    2.42530 2101.25810
 5550.00000    0.50000 2000.00000   84.54400   84.54400 2000.00000 2000.00000 2000.00000    2.29420  -35.53350   -5.28250    2.29420 2078.60420
 5600.00000    0.50000 2000.00000   83.51800   83.51800 2000.00000 2000.00000 2000.00000    2.68050  -34.96230   -4.80100    2.68050 2043.69410
 5650.00000    6.58180  151.93490   72.88340   72.88340  151.93490 2000.00000 2000.00000    3.03600  -35.03960   -4.96800    3.03600 2162.29250
 5700.00000    8.30710  120.37860   73.17760   73.17760  120.37860 2000.00000 2000.00000    2.95160  -33.86270   -3.88090    2.95160 2162.90090
 5750.00000    6.67750  149.75760   88.33180   88.33180  149.75760 2000.00000 2000.00000    1.81160  -34.28170   -4.38960    1.81160 2185.86600
 5800.00000    6.26470  159.62510   93.49080   93.49080  159.62510 2000.00000 2000.00000    1.85710  -35.02670   -5.22430    1.85710 2167.67210
 5850.00000    5.94260  168.27510   67.88730   67.88730  168.27510 2000.00000 2000.00000    2.84640  -33.78550   -4.07280    2.84640 2179.60990
 5900.00000    7.63920  130.90350   26.61130   26.61130  130.90350 2000.00000 2000.00000   12.89970  -39.13070   -9.50770   12.89970 2209.09080
 5950.00000    6.78460  147.39200   34.35400   34.35400  147.39200 2000.00000 2000.00000    6.27670  -31.70250   -2.16920    6.27670 2219.43550
 6000.00000    7.54570  132.52530   39.08750   39.08750  132.52530 2000.00000 2000.00000    6.53520  -31.35090   -1.91440    6.53520 2260.86840
 6050.00000    0.50000 2000.00000   20.12050   20.12050 2000.00000 2000.00000 2000.00000    9.83870  -38.68250   -9.69070    9.83870 2248.37040
 6100.00000    0.50000 2000.00000   17.87060   17.87060 2000.00000 2000.00000 2000.00000   12.33660  -52.24590  -23.69870   12.33660 2281.16940
 6150.00000    7.85450  127.31580   18.58730   18.58730  127.31580 2000.00000 2000.00000   10.32360  -50.66500  -22.56240   10.32360 2285.34840
 6200.00000    0.67480 1482.01770   12.33440   12.33440 1482.01770 2000.00000 2000.00000   33.82880  -46.48630  -18.82840   33.82880 2315.46290
 6250.00000    8.47060  118.05470   15.92780   15.92780  118.05470 2000.00000 2000.00000   40.73280  -36.72890   -9.51560   40.73280 2318.98580
 6300.00000    6.43070  155.50470   28.21100   28.21100  155.50470 2000.00000 2000.00000   19.94610  -38.23310  -11.46450   19.94610 2352.44800
 6350.00000    0.49920 2003.23020   34.91350   34.91350 2003.23020 2000.00000 2000.00000    9.27150  -30.03270   -3.70870    9.27150 2350.40310
 6400.00000    6.19810  161.34060   25.72210   25.72210  161.34060 2000.00000 2000.00000   18.81050  -30.36730   -4.48800   18.81050 2381.05000
 6450.00000    5.88710  169.86400   23.50490   23.50490  169.86400 2000.00000 2000.00000   13.76540  -39.23040  -13.79570   13.76540 2376.55980
 6500.00000    5.97960  167.23420   47.38690   47.38690  167.23420 2000.00000 2000.00000    6.31290  -27.69570   -2.70560    6.31290 2400.09030
 6550.00000    0.49540 2018.45530   31.46300   31.46300 2018.45530 2000.00000 2000.00000   15.38940  -44.07240  -19.52700   15.38940 2416.48440
 6600.00000    0.49000 2040.61940   45.52530   45.52530 2040.61940 2000.00000 2000.00000   12.05720  -37.08360  -12.98280   12.05720 2432.14430
 6650.00000    5.90200  169.43450   31.93370   31.93370  169.43450 2000.00000 2000.00000   25.78020  -49.71540  -26.05930   25.78020 2479.94290
 6700.00000    7.14890  139.88170   76.23180   76.23180  139.88170 2000.00000 2000.00000    4.02170  -24.82830   -1.61680    4.02170 2512.65140
 6750.00000    4.12690  242.31240   65.74090   65.74090  242.31240 2000.00000 2000.00000    2.40170  -26.52870   -3.76180    2.40170 2476.79690
 6800.00000    0.50300 1987.89530   61.83400   61.83400 1987.89530 2000.00000 2000.00000    2.56690  -25.46410   -3.14190    2.56690 2459.04810
 6850.00000    6.41440  155.90020   77.26650   77.26650  155.90020 2000.00000 2000.00000    2.28430  -24.88790   -3.01030    2.28430 2491.36620
 6900.00000    6.32790  158.02930   35.54920   35.54920  158.02930 2000.00000 2000.00000   12.63510  -26.59910   -5.16620   12.63510 2479.52440
 6950.00000    5.39070  185.50610   48.54330   48.54330  185.50610 2000.00000 2000.00000    5.56710  -22.48090   -1.49260    5.56710 2503.42240
 7000.00000    0.49680 2012.79100   60.31930   60.31930 2012.79100 2000.00000 2000.00000    3.73290  -25.77100   -5.12290    3.73290 2609.38920
 7050.00000    3.48890  286.62260   60.93400   60.93400  286.62260 2000.00000 2000.00000    1.50890  -24.05410   -3.70140    1.50890 2556.85720
 7100.00000    4.57460  218.60040   44.61530   44.61530  218.60040 2000.00000 2000.00000    3.78290  -22.71010   -2.65290    3.78290 2580.43950
 7150.00000    3.97540  251.54900   44.09660   44.09660  251.54900 2000.00000 2000.00000    4.51580  -23.76270   -4.00090    4.51580 2557.61130
 7200.00000    4.93440  202.66070   32.68260   32.68260  202.66070 2000.00000 2000.00000   16.92380  -25.52550   -6.05920   16.92380 2569.96360
 7250.00000    4.80020  208.32260   35.62690   35.62690  208.32260 2000.00000 2000.00000    7.00150  -26.40880   -7.23790    7.00150 2597.75120
 7300.00000    2.87120  348.28530   56.31350   56.31350  348.28530 2000.00000 2000.00000    4.26500  -23.77210   -4.89660    4.26500 2662.36570
 7350.00000    0.50070 1997.19960   46.49040   46.49040 1997.19960 2000.00000 2000.00000    7.33840  -23.34330   -4.76330    7.33840 2655.00120
 7400.00000    4.35280  229.73850   39.56620   39.56620  229.73850 2000.00000 2000.00000   11.30660  -22.77340   -4.48880   11.30660 2650.65260
