~Version ---------------------------------------------------
VERS. 2.0 : CWLS log ASCII Standard -VERSION 2.0
WRAP.  NO : ONE LINE PER DEPTH STEP
~Well ------------------------------------------------------
STRT.F                  1050.0 : START DEPTH
STOP.F                 11950.0 : STOP DEPTH
STEP.F                50.00000 : STEP LENGTH
NULL.                  -999.25 : NULL VALUE
COMP.               ZINK & HIS : COMPANY
WELL.        MARTIN M WALSH #1 : WELL
FLD .                  WILDCAT : FIELD
LOC .                          : LOCATION
CNTY.                   KARNES : COUNTY
STAT.                    TEXAS : STATE
CTRY. UNITED STATES OF AMERICA : COUNTRY
SRVC.             Schlumberger : SERVICE COMPANY
DATE.              11-Nov-1969 : LOGDATE
API .           42255300590000 : API NUMBER
UWI .           42255300590000 : UNIQUE WELL ID
SLAT.WGS84       29.1132485053 : SURFACE LATITUDE
SLON.WGS84      -97.6540741738 : SURFACE LONGITUDE
~Curve Information -----------------------------------------
DEPT.F                 : 
DT  .US/F 60 520 00 00 : 
GR  .GAPI 60 310 01 00 : 
ILD .OHMM 05 120 46 00 : DEEP INDUCTION
SN  .OHMM 05 040 16 00 : SHORT NORMAL  16"
SP  .MV   05 010 01 00 : SPONTANEOUS POTENTIAL
~Params ----------------------------------------------------
EKB .F                 508.0 : KELLY BUSHING
EGL .F                   490 : ELEVATION GROUND LEVEL
EDF .F                   0.0 : DRILLING FLOOR
EPD .F                   490 : ELEVATION PERMANENT DATUM
TD  .F               11950.0 : TOTAL DEPTH
CLNT.                A2DTECH : CLIENT CODE
SL  . 467' FSEL & 3000' FSWL : SURFACE LOCATION
COUN.                 KARNES : COUNTY
PD  .                     GL : PERMANENT DATUM
LMF .                     KB : LOG MEASURED FROM
DMF .                     KB : DRILLING MEASURED FROM
DAPD.F                    18 : FEET ABOVE PERMANENT DATUM
DATE.            11-NOV-1969 : DATE LOGGED
DD  .F                 11950 : DEPTH DRILLER
DL  .F                 11944 : DEPTH LOGGER
BLI .F                 11937 : BOTTOM LOG INTERVAL
TLI .F                  1700 : TOP LOG INTERVAL
CS1 .IN                10.75 : CASING SIZE
CBD1.         10.75" @ 1018' : CASING DRILLER 1
CBL1.F                  1020 : CASING LOGGER 1
BS1 .IN                 8.75 : BIT SIZE
BSD1.F                 11950 : DEPTH DRILLED WITH BIT1
DFT .         UNICAL/CAUSTIC : TYPE FLUID IN HOLE
DFD .                   10.6 : DENSITY
DFV .                     41 : VISCOSITY
DFPH.                    9.5 : PH
DFL .                    6.6 : FLUID LOSS
MSS .                    PIT : SOURCE OF SAMPLE
RMS .OHMM               1.26 : RM
RMF .OHMM                  1 : RMF
MFSS.                   MEAS : SOURCE RMF.
RMC .OHMM                  1 : RMC
MCSS.                   CALC : SOURCE RMC.
RMB .OHMM                0.5 : RM. AT BHT
BHT .F                   240 : BHT.
TCS .HRS                   4 : TIME CIRC. STOPPED
LUN .                   7019 : LOGGING UNIT NUMBER
LUL .                  PLEAS : LOGGING UNIT LOCATION
ORIG.               5" PRINT : ORIGIN OF DATA
UWI .         42255300590000 : UNIQUE WELL ID
DICO.  A2D TECHNOLOGIES INC. : DIGITIZING COMPANY
~Other -----------------------------------------------------
~ASCII -----------------------------------------------------
# ...
 7050.00000   82.76000   65.10100    1.03500    5.48900 -111.33500
 7100.00000   84.02300   53.89400    0.78900    3.12600 -136.09200
 7150.00000   83.85100   55.76200    0.64500    3.69600 -132.03300
 7200.00000  113.60500   93.27500    1.27000    4.14300  -83.34000
 7250.00000   85.08900   71.59300    1.22800    7.64900 -114.69100
 7300.00000   93.40700  153.31900    1.58600    1.98300  -32.66100
 7350.00000   71.63200   80.64600    2.44000    9.88100  -80.12000
 7400.00000   81.42100   55.95700    1.09100    6.19400 -124.10000
 7450.00000   94.77900  142.57100    1.58800    2.17200  -30.25200
 7500.00000   91.67900  123.14000    1.71900    2.27700  -41.40500
 7550.00000   82.59500   79.24200    1.58500    6.83200  -83.95700
 7600.00000   91.63100  153.54000    1.49300    2.05800  -28.99800
 7650.00000   74.86600  103.52300    1.71400    7.42800  -74.13700
 7700.00000   91.74700  158.67000    1.48600    2.02600  -28.48400
 7750.00000   84.42800  139.52100    1.44700    5.46500  -77.78000
 7800.00000   94.15000  148.33500    1.42400    1.82100  -30.97100
 7850.00000   79.56800   94.27600    1.61400    3.16200  -68.16900
 7900.00000   85.21600  150.94700    1.69600    2.23100  -25.33000
 7950.00000    -999.25    -999.25    2.45600    4.25700  -41.14700
 8000.00000    -999.25    -999.25    1.70200    2.32300  -24.40200
 8050.00000    -999.25    -999.25    1.89800    2.57000  -22.75000
 8100.00000    -999.25    -999.25    1.78500    2.33700  -23.53800
 8150.00000    -999.25    -999.25    1.51800    2.05500  -22.16400
 8200.00000    -999.25    -999.25    1.91500    2.52800  -23.02900
 8250.00000    -999.25    -999.25    2.68100    3.65000  -23.43000
 8300.00000    -999.25    -999.25    1.83100    2.47700  -21.47300
 8350.00000    -999.25    -999.25    2.22200    2.97800  -23.13300
 8400.00000    -999.25    -999.25    1.76900    2.41000  -22.62900
 8450.00000    -999.25    -999.25    1.89300    2.53600  -23.28400
 8500.00000    -999.25    -999.25    1.91400    2.58700  -21.97200
 8550.00000    -999.25    -999.25    1.98800    2.75800  -22.11200
 8600.00000    -999.25    -999.25    2.22600    3.00400  -22.07500
 8650.00000    -999.25    -999.25    1.67600    2.26700  -21.63800
 8700.00000    -999.25    -999.25    1.65500    2.25300  -23.67200
 8750.00000    -999.25    -999.25    1.68900    2.16700  -22.37700
 8800.00000    -999.25    -999.25    1.91700    2.52400  -24.81400
 8850.00000    -999.25    -999.25    1.81700    2.35600  -22.62700
 8900.00000    -999.25    -999.25    1.68600    2.10000  -22.26200
 8950.00000    -999.25    -999.25    1.55100    1.99000  -22.23900
 9000.00000    -999.25    -999.25    1.44100    1.92100  -23.56700
 9050.00000    -999.25    -999.25    2.08900    2.57200  -24.34300
 9100.00000    -999.25    -999.25    2.34700    3.07000  -24.25600
 9150.00000    -999.25    -999.25    2.34300    2.87200  -24.23900
 9200.00000    -999.25    -999.25    2.25200    3.01800  -23.70000
 9250.00000    -999.25    -999.25    1.81400    2.39500  -23.27500
 9300.00000    -999.25    -999.25    1.68900    2.36500  -23.63000
 9350.00000    -999.25    -999.25    2.42200    3.44900  -21.44200
 9400.00000    -999.25    -999.25    2.26200    3.27400  -21.24500
 9450.00000    -999.25    -999.25    1.43700    1.90400  -26.35200
 9500.00000    -999.25    -999.25    1.77300    2.26600  -23.80300
 9550.00000    -999.25    -999.25    1.58600    2.11500  -27.79700
 9600.00000    -999.25    -999.25    1.84600    2.39300  -24.27800
 9650.00000    -999.25    -999.25    1.89800    2.45400  -24.25500
 9700.00000    -999.25    -999.25    2.18800    2.77000  -23.31500
 9750.00000    -999.25    -999.25    2.00000    2.61800  -25.24900
 9800.00000    -999.25    -999.25    2.81900    4.14100  -22.55900
 9850.00000    -999.25    -999.25    2.76000    3.34300  -24.01200
 9900.00000    -999.25    -999.25    2.09600    2.80000  -27.31900
 9950.00000    -999.25    -999.25    2.36100    3.16900  -26.38300
 10000.00000    -999.25    -999.25    2.49000    3.26700  -27.01500
 10050.00000    -999.25    -999.25    1.94400    2.50600  -26.66800
 10100.00000    -999.25    -999.25    2.14000    2.74400  -24.68200
 10150.00000    -999.25    -999.25    2.03200    2.44600  -24.94200
 10200.00000    -999.25    -999.25    2.11700    2.87300  -22.87600
 10250.00000    -999.25    -999.25    1.92900    2.52400  -22.39400
 10300.00000    -999.25    -999.25    1.82100    2.48200  -23.33000
 10350.00000    -999.25    -999.25    1.70300    2.29200  -22.44500
 10400.00000    -999.25    -999.25    1.76100    2.41900  -20.58800
 10450.00000    -999.25    -999.25    1.83900    2.33200  -23.24500
 10500.00000    -999.25    -999.25    1.62100    2.16200  -23.91100
 10550.00000    -999.25    -999.25    1.58500    2.03100  -22.11900
 10600.00000    -999.25    -999.25    1.77300    2.17200  -20.75900
 10650.00000    -999.25    -999.25    -999.25    -999.25  -23.41900
 10700.00000    -999.25    -999.25    2.13000    2.79000  -25.43200
 10750.00000    -999.25    -999.25    2.08600    2.75800  -24.76300
 10800.00000    -999.25    -999.25    2.33000    2.93400  -24.83200
 10850.00000    -999.25    -999.25    4.35400    6.20400  -22.77900
 10900.00000    -999.25    -999.25    4.32200    5.71500  -23.26100
 10950.00000    -999.25    -999.25    3.65700    5.37500  -23.05900
 11000.00000    -999.25    -999.25    8.37100   10.45000  -23.82900
 11050.00000   65.00600   48.28600    6.15700   10.64300  -26.38300
 11100.00000   57.29500   39.85800    6.62500   13.87500  -28.03300
 11150.00000   53.68400   27.40100   17.12500   26.50100  -28.19600
 11200.00000   56.65500   35.62300   21.14800   33.27900  -29.28700
 11250.00000   65.09300   35.58800    7.77000   14.01600  -28.20900
 11300.00000   60.49000   31.27600   18.36900   24.01100  -28.67600
 11350.00000   58.44800   18.19900   22.77500   23.44400  -26.79700
 11400.00000   61.00300   17.10900   71.91800   45.97100  -26.38800
 11450.00000   73.94600   24.76200   21.25700   28.30700  -23.33600
 11500.00000   78.93700   39.79900   16.71100   22.54400  -22.43200
 11550.00000   79.09100   40.49100   33.02700   43.68800  -22.06300
 11600.00000   76.84300   44.81500   34.28800   44.44100  -22.01500
 11650.00000   58.34100   20.70500   14.74300   22.74500  -21.54900
 11700.00000   61.01000   30.89600   28.91100   38.09300  -22.82900
 11750.00000   50.22900   12.58300   79.41700   71.29800  -19.30800
 11800.00000   51.94100   15.13400   57.42600   61.14900  -19.46600
 11850.00000   50.98000   15.37900   60.05100   71.00900  -26.45700
 11900.00000   49.32500   11.94900  134.68300  110.30600  -67.29200
 11950.00000   50.00300    4.86400   82.68400    -999.25    -999.25
