~Version ---------------------------------------------------
VERS. 2.0 : CWLS log ASCII Standard -VERSION 2.0
WRAP.  NO : ONE LINE PER DEPTH STEP
~Well ------------------------------------------------------
STRT.FT                           3600.0 : START DEPTH
STOP.FT                           8400.0 : STOP DEPTH
STEP.FT                         50.00000 : STEP LENGTH
NULL.                            -999.25 : NULL VALUE
COMP. SANTA FE-WINDSOR PRODUCING COMPANY : COMPANY
WELL.                        WERNECKE #1 : WELL
FLD .                           GIDDINGS : FIELD
LOC .                                    : LOCATION
CNTY.                                LEE : COUNTY
STAT.                              TEXAS : STATE
CTRY.           UNITED STATES OF AMERICA : COUNTRY
SRVC.                       Schlumberger : SERVICE COMPANY
DATE.                        11-Jun-1982 : LOGDATE
API .                     42287312500000 : API NUMBER
UWI .                     42287312500000 : UNIQUE WELL ID
SLAT.WGS84                 30.1197278777 : SURFACE LATITUDE
SLON.WGS84                -96.9728807092 : SURFACE LONGITUDE
~Curve Information -----------------------------------------
DEPT  .FT    : DEPTH FEET
GRRED .GAPI  : GAMMA RAY FROM RESISTIVITY LOG
SPRED .MV    : SPONTANEOUS POTENTIAL FROM RESISTIVITY LOG
ILDED .OHMM  : INDUCTION LOG DEEP RESISTIVITY
ILMED .OHMM  : INDUCTION LOG MEDIUM RESISTIVITY
SFLUED.OHMM  : SPHERICALLY FOCUSED LOG RESISTIVITY
DCALED.IN    : DIFFERENTIAL CALIPER FROM DENSITY LOG
DRHOED.G/C3  : DENSITY CORRECTION FROM DENSITY LOG
SPWS  .MV    : SPONTANEOUS POTENTIAL [BASELINE 0 MV] [SPRED]
DPHIED.V/V   : DENSITY POROSITY FROM DENSITY LOG
NEUTED.CU    : NEUTRON FROM NEUTRON LOG [DEPTH ADJ TO RES LOG]
CALWS .IN    : CALIPER [DCALED+BIT]
GRNED .GAPI  : GAMMA RAY FROM NEUTRON LOG [DEPTH ADJ TO RES LOG]
DCORWS.G/C3  : DENSITY CORRECTION [DRHOED]
GRWS  .GAPI  : GAMMA RAY [GRRED]
DRESWS.OHMM  : DEEP RESISTIVITY [ILDED]
MRESWS.OHMM  : MEDIUM RESISTIVITY [ILMED]
SRESWS.OHMM  : SHALLOW RESISTIVITY [SFLUED]
CONDWS.MMHO  : CONDUCTIVITY [1000/DRESWS]
NEUTWS.CU    : NEUTRON [NEUTED]
DENWS .G/C3  : BULK DENSITY[CALCULATED FROM DENWS]  CSG-6400(SS_2.65); 6400-TD(LS_2.71)
DPOWS .V/V   : DENSITY POROSITY [M=2.71 F=1] [CALCULATED FROM DENWS]
~Params ----------------------------------------------------
PD  .                     GL : PERMANENT DATUM
EPD .FT                  436 : ELEVATION PERMANENT DATUM
LMF .                    RKB : LOG MEASURED FROM
DAPD.FT                   14 : FEET ABOVE PERMANENT DATUM
DMF .                    RKB : DRILLING MEASURED FROM
EKB .FT                  450 : KELLY BUSHING
EDF .FT                  449 : DRILLING FLOOR
EGL .FT                  436 : GROUND LEVEL
DATE.               06/11/82 : RUN DATE
RUN .                      1 : RUN NUMBER
DD  .FT                 8435 : DEPTH DRILLER
DL  .FT                 8445 : DEPTH LOGGER
BLI .FT                 8439 : BOTTOM LOG INTERVAL
TLI .FT                 3619 : TOP LOG INTERVAL
CS  .IN                9.625 : CASING SIZE
CBD .FT                 3617 : CASING BOTTOM DRILLER
CBL .FT                 3619 : CASING BOTTOM LOGGER
BS  .IN                 8.75 : BIT SIZE
BSD .FT                 8435 : BIT SIZE AT DEPTH
DFT .                    LNS : DRILLING FLUID TYPE
DFD .                    9.6 : DRILLING FLUID DENSITY
DFV .                     43 : DRILLING FLUID VISCOSITY
DFPH.                    9.5 : DRILLING FLUID PH
DFL .                    7.4 : DRILLING FLUID LOSS
MSS .                   TANK : MUD SAMPLE SOURCE
RMS .OHMM                1.6 : RESISTIVITY MUD SAMPLE
MST .DEGF                107 : MUD SAMPLE TEMPERATURE
RMF .OHMM                1.2 : RESISTIVITY MUD FILTRATE SAMPLE
MFST.DEGF                107 : MUD FILTRATE SAMPLE TEMPERATURE
RMC .OHMM                2.4 : RESISTIVITY MUD CAKE
MCST.DEGF                107 : MUD CAKE SAMPLE TEMPERATURE
MFSS.                   MEAS : MUD FILTRATE SAMPLE SOURCE
MCSS.                   CALC : MUD CAKE SAMPLE SOURCE
RMB .OHMM              0.921 : RESISTIVITY MUD AT BHT
TCS .HRS                 230 : TIME CIRCULATED STOPPED
TLAB.HRS                 800 : TIME LOGGER AT BOTTOM
LUN .                   8262 : LOGGING UNIT NUMBER
LUL .                BRENHAM : LOGGING UNIT LOCATION
ENGI.                MARFICE : RECORDING ENGINEER
WITN.                 EBANKS : WITNESSED BY
CLNT.                A2DTECH : CLIENT CODE
ORIG.            2" 5" PRINT : ORIGIN OF DATA
UWI .         42287312500000 : UNIQUE WELL ID
DICO. A2D Technologies, Inc. : DIGITIZING COMPANY
~Other -----------------------------------------------------
~ASCII -----------------------------------------------------
 3600.00000    -999.25    -999.25    -999.25    -999.25    -999.25    -999.25    -999.25    -999.25    -999.25    -999.25    -999.25    -999.25    -999.25    -999.25    -999.25    -999.25    -999.25    -999.25    -999.25    -999.25    -999.25
 3650.00000   62.86120  -23.38650    3.14770    3.42520    8.11850    4.36130    -999.25   -2.72720    -999.25    -999.25   13.11130    -999.25    -999.25   62.86120    3.14770    3.42520    8.11850  317.69230    -999.25    -999.25    -999.25
 3700.00000   40.18490  -55.70310    5.21770    6.56210    8.10920    0.17700    -999.25  -35.18090    -999.25    -999.25    8.92700    -999.25    -999.25   40.18490    5.21770    6.56210    8.10920  191.65530    -999.25    -999.25    -999.25
 3750.00000   36.97370  -63.61600    5.09110    6.69400    9.33750    0.35880    -999.25  -43.23100    -999.25    -999.25    9.10880    -999.25    -999.25   36.97370    5.09110    6.69400    9.33750  196.42120    -999.25    -999.25    -999.25
 3800.00000   35.96720  -69.75330    4.58940    6.46010   10.26900    0.46250    -999.25  -49.50540    -999.25    -999.25    9.21250    -999.25    -999.25   35.96720    4.58940    6.46010   10.26900  217.89340    -999.25    -999.25    -999.25
 3850.00000   66.28890  -69.24340    4.21440    5.91370    9.70180    0.58040    -999.25  -49.13260    -999.25    -999.25    9.33040    -999.25    -999.25   66.28890    4.21440    5.91370    9.70180  237.28170    -999.25    -999.25    -999.25
 3900.00000   54.62720  -50.00110    4.70020    5.75040    7.42670    0.34980    -999.25  -28.58450    -999.25    -999.25    9.09980    -999.25    -999.25   54.62720    4.70020    5.75040    7.42670  212.75690    -999.25    -999.25    -999.25
 3950.00000   47.47930  -67.12810    3.40960    4.76060    6.67600    0.59590    -999.25  -44.06800    -999.25    -999.25    9.34590    -999.25    -999.25   47.47930    3.40960    4.76060    6.67600  293.28950    -999.25    -999.25    -999.25
 4000.00000   26.53640  -80.40870    2.86840    4.15210    9.54000    0.65470    -999.25  -55.70520    -999.25    -999.25    9.40470    -999.25    -999.25   26.53640    2.86840    4.15210    9.54000  348.62640    -999.25    -999.25    -999.25
 4050.00000   43.33920  -67.15020    3.97840    5.82160   13.28930    0.02890    -999.25  -40.80330    -999.25    -999.25    8.77890    -999.25    -999.25   43.33920    3.97840    5.82160   13.28930  251.35730    -999.25    -999.25    -999.25
 4100.00000   61.34670  -62.91760    2.59320    3.56330    4.64190    0.25260    -999.25  -38.56170    -999.25    -999.25    9.00260    -999.25    -999.25   61.34670    2.59320    3.56330    4.64190  385.62390    -999.25    -999.25    -999.25
 4150.00000   95.08070  -22.82540    4.42360    4.49110    4.23800    2.44400    -999.25   -3.53850    -999.25    -999.25   11.19400    -999.25    -999.25   95.08070    4.42360    4.49110    4.23800  226.06020    -999.25    -999.25    -999.25
 4200.00000   43.67060  -69.25620    3.27520    4.36420    8.36310    0.43500    -999.25  -51.88610    -999.25    -999.25    9.18500    -999.25    -999.25   43.67060    3.27520    4.36420    8.36310  305.32490    -999.25    -999.25    -999.25
 4250.00000   60.39220  -46.43380    4.36180    5.04430    6.68420    0.81960    -999.25  -30.98050    -999.25    -999.25    9.56960    -999.25    -999.25   60.39220    4.36180    5.04430    6.68420  229.26310    -999.25    -999.25    -999.25
 4300.00000   36.42590  -22.42860    5.71220    7.67370 1032.56340    2.32280    -999.25   -7.71880    -999.25    -999.25   11.07280    -999.25    -999.25   36.42590    5.71220    7.67370 1032.56340  175.06390    -999.25    -999.25    -999.25
 4350.00000   86.79060  -21.97000    2.83200    3.08420    3.82120    1.65560    -999.25   -6.80130    -999.25    -999.25   10.40560    -999.25    -999.25   86.79060    2.83200    3.08420    3.82120  353.10730    -999.25    -999.25    -999.25
 4400.00000   53.55290  -59.66720    2.58660    3.36630    6.47430    0.04890    -999.25  -45.28590    -999.25    -999.25    8.79890    -999.25    -999.25   53.55290    2.58660    3.36630    6.47430  386.60790    -999.25    -999.25    -999.25
 4450.00000   59.96530  -63.75550    2.16130    2.70330    7.81410    0.29430    -999.25  -50.16150    -999.25    -999.25    9.04430    -999.25    -999.25   59.96530    2.16130    2.70330    7.81410  462.68450    -999.25    -999.25    -999.25
 4500.00000   52.37160  -80.71510    1.76320    2.27010    5.59130    0.12660    -999.25  -67.90840    -999.25    -999.25    8.87660    -999.25    -999.25   52.37160    1.76320    2.27010    5.59130  567.15060    -999.25    -999.25    -999.25
 4550.00000   72.10820  -37.83650    3.11210    3.63110    4.57610    0.01660    -999.25  -25.81710    -999.25    -999.25    8.76660    -999.25    -999.25   72.10820    3.11210    3.63110    4.57610  321.32640    -999.25    -999.25    -999.25
 4600.00000   77.09130  -61.27430    5.10450    6.33300   15.14510   -0.23420    -999.25  -50.04220    -999.25    -999.25    8.51580    -999.25    -999.25   77.09130    5.10450    6.33300   15.14510  195.90560    -999.25    -999.25    -999.25
 4650.00000   69.98570  -36.92970    3.31460    3.77830    8.31100   -0.21610    -999.25  -25.74300    -999.25    -999.25    8.53390    -999.25    -999.25   69.98570    3.31460    3.77830    8.31100  301.69550    -999.25    -999.25    -999.25
 4700.00000   50.15490  -86.23040    1.69730    2.14570    6.50210   -0.17590    -999.25  -74.86760    -999.25    -999.25    8.57410    -999.25    -999.25   50.15490    1.69730    2.14570    6.50210  589.17110    -999.25    -999.25    -999.25
 4750.00000   86.86420  -32.95680    2.75390    3.00580    4.70380   -0.09080    -999.25  -21.41790    -999.25    -999.25    8.65920    -999.25    -999.25   86.86420    2.75390    3.00580    4.70380  363.12140    -999.25    -999.25    -999.25
 4800.00000   57.84280  -80.03790    1.53680    1.97110    6.20930   -0.21320    -999.25  -68.21730    -999.25    -999.25    8.53680    -999.25    -999.25   57.84280    1.53680    1.97110    6.20930  650.70280    -999.25    -999.25    -999.25
 4850.00000   92.22730  -14.47430    2.66990    2.79360    3.14230    0.46720    -999.25   -2.97570    -999.25    -999.25    9.21720    -999.25    -999.25   92.22730    2.66990    2.79360    3.14230  374.54590    -999.25    -999.25    -999.25
 4900.00000   96.09990  -12.12760    2.05540    2.16680    2.40930    0.36620    -999.25   -3.78710    -999.25    -999.25    9.11620    -999.25    -999.25   96.09990    2.05540    2.16680    2.40930  486.52330    -999.25    -999.25    -999.25
 4950.00000   82.02250  -35.67060    2.57510    2.96130    4.39930   -0.12550    -999.25  -26.64420    -999.25    -999.25    8.62450    -999.25    -999.25   82.02250    2.57510    2.96130    4.39930  388.33440    -999.25    -999.25    -999.25
 5000.00000   90.00210  -10.85240    2.51940    2.60190    2.64410    0.58050    -999.25   -2.35660    -999.25    -999.25    9.33050    -999.25    -999.25   90.00210    2.51940    2.60190    2.64410  396.91990    -999.25    -999.25    -999.25
 5050.00000   90.22130   -9.92720    2.29540    2.39620    2.55840    0.82420    -999.25   -1.96190    -999.25    -999.25    9.57420    -999.25    -999.25   90.22130    2.29540    2.39620    2.55840  435.65390    -999.25    -999.25    -999.25
 5100.00000   85.17320   -9.21550    2.37930    2.45290    2.62620    0.89820    -999.25   -1.78080    -999.25    -999.25    9.64820    -999.25    -999.25   85.17320    2.37930    2.45290    2.62620  420.29170    -999.25    -999.25    -999.25
 5150.00000   83.75550   -7.00490    2.08060    2.14690    2.47480    1.69150    -999.25   -0.10080    -999.25    -999.25   10.44150    -999.25    -999.25   83.75550    2.08060    2.14690    2.47480  480.63060    -999.25    -999.25    -999.25
 5200.00000   90.03030   -7.65730    1.50640    1.55360    1.77810    2.87820    -999.25   -1.28370    -999.25    -999.25   11.62820    -999.25    -999.25   90.03030    1.50640    1.55360    1.77810  663.83430    -999.25    -999.25    -999.25
