~Version ---------------------------------------------------
VERS.      2.0 : CWLS log ASCII Standard -VERSION 2.0
WRAP.      YES : Multiple lines per depth step
CREA. 08/18/12 : LAS Creation Date
~Well ------------------------------------------------------
STRT.FT                 2900.0 : START DEPTH
STOP.FT                17850.0 : STOP DEPTH
STEP.FT               50.00000 : STEP LENGTH
NULL.                  -999.25 : NULL VALUE
COMP. AMOCO PRODUCTION COMPANY : COMPANY
WELL.   JIMMY HILL GAS UNIT #1 : WELL
FLD .                  WILDCAT : FIELD
LOC .                          : LOCATION
CNTY.                     LEON : COUNTY
STAT.                    TEXAS : STATE
CTRY. UNITED STATES OF AMERICA : COUNTRY
SRVC.             Schlumberger : SERVICE COMPANY
DATE.              04-Jun-1996 : LOGDATE
API .           42289312310000 : API NUMBER
UWI .           42289312310000 : UNIQUE WELL ID
SLAT.WGS84       31.2538599246 : SURFACE LATITUDE
SLON.WGS84      -96.2196025838 : SURFACE LONGITUDE
~Curve Information -----------------------------------------
DEPT    .FT                                                                                                : DEPTH FEET
AO10ED  .OHMM                                                                                              : ARRAY INDUCTION ONE FOOT RESISTIVITY A10 FROM AIT-PI-DITE-LDT-CNT LOG
AO20ED  .OHMM                                                                                              : ARRAY INDUCTION ONE FOOT RESISTIVITY A20 FROM AIT-PI-DITE-LDT-CNT LOG
AO30ED  .OHMM                                                                                              : ARRAY INDUCTION ONE FOOT RESISTIVITY A30 FROM AIT-PI-DITE-LDT-CNT LOG
AO60ED  .OHMM                                                                                              : ARRAY INDUCTION ONE FOOT RESISTIVITY A60 FROM AIT-PI-DITE-LDT-CNT LOG
AO90ED  .OHMM                                                                                              : ARRAY INDUCTION ONE FOOT RESISTIVITY A90 FROM AIT-PI-DITE-LDT-CNT LOG
CALSED  .IN                                                                                                : CALIPER FROM BCS-CALIPER-GR LOG [ADJ. TO GRRED]
CALWS   .IN                                                                                                : CALIPER [DCALED+BITS]
CONDWS  .MMHO                                                                                              : CONDUCTIVITY [1000/DRESWS]
DCALED  .IN                                                                                                : DIFFERENTIAL CALIPER FROM AIT-PI-DITE-LDT-CNT LOG
DCORWS  .G/C3                                                                                              : DENSITY CORRECTION [DRHED SPL. TO DRHOED @ 10860']
DENWS   .G/C3 :   FORMATION BULK DENSITY [RHOMED, DENWS CALCULATED FROM DPOWS FROM 7004'-10889'] [M:2.71,F : 1.0]
DPHILSED.V/V                                                      :   DENSITY POROSITY LIMESTONE [M:2.71,F : 1.0] FROM AIT-PI-DITE-LDT-CNT LOG
DPOLSED .V/V                                                                                               : DENSITY POROSITY LIMESTONE FROM HOSTILE LDL-CN-GR LOG
DPOWS   .V/V                                                                                               : DENSITY POROSITY [DPHILSED SPL. TO DPOLSED @ 10852']
DRESWS  .OHMM                                                                                              : DEEP RESISTIVITY [AO30ED SPL. TO IDPHED]
DRHED   .G/C3                                                                                              : BULK DENSITY CORRECTION FROM HOSTILE LDL-CN-GR LOG
DRHOED  .G/C3                                                                                              : BULK DENSITY CORRECTION FROM AIT-PI-DITE-LDT-CNT LOG
DTED    .US/F                                                                                              : DELTA T FROM BCS-CALIPER-GR LOG [ADJ. TO GRRED/NPHILSED]
DTLFED  .US/F                                                                                              : DELTA-T LONG SPACING FAR FROM AIT-PI-DITE-LDT-CNT-PI-LSS-GR LOG
DTLNED  .US/F                                                                                              : DELTA-T LONG SPACING NEAR FROM AIT-PI-DITE-LDT-CNT-PI-LSS-GR LOG
DTWS    .US/F                                                                                              : COMPRESSIONAL SONIC [DTED SPL. TO DTLNED @ 10865.5'-15946.5']
GRRED   .GAPI                                                                                              : GAMMA RAY FROM AIT-PI-DITE-LDT-CNT LOG
GRSED   .GAPI                                                                                              : GAMMA RAY FROM BCS-CALIPER-GR-PI-LSS LOG [ADJ. TO GRRED]
GRWS    .GAPI                                                                                              : GAMMA RAY [GRRED]
IDPHED  .OHMM                                                                                              : DEEP INDUCTION PHASOR FROM AIT-PI-DITE-LDT-CNT- PI-LSS-GR LOG
LCALED  .IN                                                                                                : LOWER CALIPER FROM HOSTILE LDL-CN-GR LOG
MRESWS  .OHMM                                                                                              : MEDIUM RESISTIVITY [AO30ED]
NPHILSED.V/V                                                                                               : NEUTRON POROSITY LIMESTONE FROM AIT-PI-DITE-LDT-CNT LOG
NPOWS   .V/V                                                                                               : NEUTRON POROSITY [NPHILSED]
PEFED   .B/E                                                                                               : PHOTOELECTRIC FACTOR FROM AIT-PI-DITE-LDT-CNT LOG
PEFLED  .B/E                                                                                               : HLDT PEF LONG SPACING FROM HOSTILE LDL-CN-GR LOG
PEFSED  .B/E                                                                                               : SHORT SPACED CORRECTED PHOTOELECTRIC FACTOR FROM HOSTILE LDL-CN-GR LOG
PEFWS   .B/E                                                                                               : PHOTOELECTRIC FACTOR [PEFED SPL. TO PEFSED @ 10847.5']
RHOMED  .G/C3                                                                                              : CORRECTED BULK DENSITY FROM HOSTILE LDL-CN-GR LOG
SPRED   .MV                                                                                                : SPONTANEOUS POTENTIAL  FROM AIT-PI-DITE-LDT-CNT LOG
SPWS    .MV                                                                                                : SPONTANEOUS POTENTIAL [BASELINE 0, MV SPRED]
SRESWS  .OHMM                                                                                              : SHALLOW RESISTIVITY [AO10ED]
TENDED  .LBF                                                                                               : DIFFERENTIAL TENSION FROM HOSTILE LDL-CN-GR LOG
TENRED  .LBF                                                                                               : TENSION FROM AIT-PI-DITE-LDT-CNT LOG
TENSED  .LBF                                                                                               : TOTAL TENSION FROM BCS-CALIPER-GR LOG [ADJ. TO GRRED]
~Params ----------------------------------------------------
PD  .                     GL : PERMANENT DATUM
EPD .FT                 3759 : ELEVATION PERMANENT DATUM
LMF .                     KB : LOG MEASURED FROM
DAPD.FT                 37.2 : FEET ABOVE PERMANENT DATUM
DMF .                     KB : DRILLING MEASURED FROM
EKB .FT                 4131 : KELLY BUSHING
EDF .FT                 4121 : DRILLING FLOOR
EGL .FT                 3759 : GROUND LEVEL
DATE.               06/04/96 : RUN DATE
RUN .                      4 : RUN NUMBER
DD  .FT                17800 : DEPTH DRILLER
DL  .FT                17800 : DEPTH LOGGER
BLI .FT                17797 : BOTTOM LOG INTERVAL
TLI .FT                15944 : TOP LOG INTERVAL
CS  .IN                    7 : CASING SIZE
CBD .FT                15950 : CASING BOTTOM DRILLER
CBL .FT                15944 : CASING BOTTOM LOGGER
BS  .IN                5.875 : BIT SIZE
BSD .FT                17800 : BIT SIZE AT DEPTH
DFT .              OIL BASED : DRILLING FLUID TYPE
DFD .                     18 : DRILLING FLUID DENSITY
DFV .                     88 : DRILLING FLUID VISCOSITY
RMC .OHMM      OIL BASED MUD : RESISTIVITY MUD CAKE
MCST.DEGF      OIL BASED MUD : MUD CAKE SAMPLE TEMPERATURE
TCS .HRS                2100 : TIME CIRCULATED STOPPED
TLAB.HRS                1500 : TIME LOGGER AT BOTTOM
LUN .                   2019 : LOGGING UNIT NUMBER
LUL .                  TYLER : LOGGING UNIT LOCATION
ENGI.                 FERRIS : RECORDING ENGINEER
WITN.              MCGINNUSS : WITNESSED BY
CLNT.                A2DTECH : CLIENT CODE
ORIG.               5' PRINT : ORIGIN OF DATA
UWI .         42289312310000 : UNIQUE WELL ID
DICO. A2D Technologies, Inc. : DIGITIZING COMPANY
~Other -----------------------------------------------------
~ASCII -----------------------------------------------------
# ...
 17300.00000    -999.25    -999.25    -999.25    -999.25    -999.25    -999.25    5.90780   20.98670    0.03280   -0.03100    2.68560    -999.25    0.01520    0.01520   47.64920   -0.03100    -999.25   53.02720   79.16000   70.69920   53.02720   28.23070   26.40670   28.23070   47.64920    5.82280    -999.25    0.00930    0.00930    -999.25    -999.25    6.97380    6.97380    2.68560    -999.25    -999.25    -999.25 4756.54100 5072.51170 2681.85910
 17350.00000    -999.25    -999.25    -999.25    -999.25    -999.25    -999.25    5.88390    9.99620    0.00890   -0.02100    2.70500    -999.25    0.00320    0.00320  100.03840   -0.02100    -999.25   51.12370   41.82790   50.98900   51.12370   26.71020   32.68330   26.71020  100.03840    5.81490    -999.25    0.00750    0.00750    -999.25    -999.25    8.23060    8.23060    2.70500    -999.25    -999.25    -999.25 4740.13530 5021.87890 2722.64330
 17400.00000    -999.25    -999.25    -999.25    -999.25    -999.25    -999.25    5.89970    4.98390    0.02470   -0.02380    2.71490    -999.25   -0.00180   -0.00180  200.64450   -0.02380    -999.25   51.48950   21.58770   45.86320   51.48950   18.14060   18.91210   18.14060  200.64450    5.82960    -999.25    0.00460    0.00460    -999.25    -999.25    7.30670    7.30670    2.71490    -999.25    -999.25    -999.25 4795.94340 5058.32910 2733.61230
 17450.00000    -999.25    -999.25    -999.25    -999.25    -999.25    -999.25    5.89120    6.57130    0.01620   -0.02680    2.70460    -999.25    0.00470    0.00470  152.17780   -0.02680    -999.25   51.18080   51.39780   33.14180   51.18080   21.19950   25.11230   21.19950  152.17780    5.83820    -999.25    0.00430    0.00430    -999.25    -999.25    7.63690    7.63690    2.70460    -999.25    -999.25    -999.25 4851.64840 5075.41310 4617.85740
 17500.00000    -999.25    -999.25    -999.25    -999.25    -999.25    -999.25    5.87450    6.93080   -0.00050   -0.01890    2.71530    -999.25   -0.00330   -0.00330  144.28260   -0.01890    -999.25   51.02250   31.70320   32.19560   51.02250   25.84640   26.87350   25.84640  144.28260    5.82360    -999.25    0.00390    0.00390    -999.25    -999.25    7.89990    7.89990    2.71530    -999.25    -999.25    -999.25 4838.98100 5070.30370 4539.58200
 17550.00000    -999.25    -999.25    -999.25    -999.25    -999.25    -999.25    5.87460    5.87900   -0.00040   -0.03220    2.68630    -999.25    0.01580    0.01580  170.09590   -0.03220    -999.25   52.27360   71.89000   18.57310   52.27360   23.40160   25.42280   23.40160  170.09590    5.84200    -999.25    0.00450    0.00450    -999.25    -999.25    7.45980    7.45980    2.68630    -999.25    -999.25    -999.25 4795.84280 5140.58150 4680.43510
 17600.00000    -999.25    -999.25    -999.25    -999.25    -999.25    -999.25    5.90150    3.93300    0.02650   -0.02540    2.71090    -999.25    0.00020    0.00020  254.25730   -0.02540    -999.25   50.08860   99.43630    0.73560   50.08860   16.30420   15.50600   16.30420  254.25730    5.82860    -999.25    0.00070    0.00070    -999.25    -999.25    7.78680    7.78680    2.71090    -999.25    -999.25    -999.25 4747.26900 5112.10350 4608.66160
 17650.00000    -999.25    -999.25    -999.25    -999.25    -999.25    -999.25    5.89100   14.89560    0.01600   -0.02510    2.69380    -999.25    0.01020    0.01020   67.13400   -0.02510    -999.25   53.42490   73.09480   56.13990   53.42490   26.44240   25.13270   26.44240   67.13400    5.83650    -999.25    0.00700    0.00700    -999.25    -999.25    7.58450    7.58450    2.69380    -999.25    -999.25    -999.25 4806.64940 5176.06980 4689.81450
 17700.00000    -999.25    -999.25    -999.25    -999.25    -999.25    -999.25    5.86880   10.92300   -0.00620   -0.02680    2.70360    -999.25    0.00440    0.00440   91.54980   -0.02680    -999.25   51.65530   73.58690   22.52960   51.65530   19.35120   20.35310   19.35120   91.54980    5.80160    -999.25    0.00420    0.00420    -999.25    -999.25    7.86280    7.86280    2.70360    -999.25    -999.25    -999.25 4812.10010 5153.59670 4782.32230
 17750.00000    -999.25    -999.25    -999.25    -999.25    -999.25    -999.25    5.86100   11.49920   -0.01400   -0.02400    2.70500    -999.25    0.00320    0.00320   86.96230   -0.02400    -999.25   50.77330   64.27250   20.76310   50.77330   21.37890   16.34920   21.37890   86.96230    5.79680    -999.25    0.00460    0.00460    -999.25    -999.25    7.93120    7.93120    2.70500    -999.25    -999.25    -999.25 4863.67680 5209.67430 4723.41890
 17800.00000    -999.25    -999.25    -999.25    -999.25    -999.25    -999.25    -999.25    -999.25    -999.25    -999.25    -999.25    -999.25    -999.25    -999.25    -999.25    -999.25    -999.25    -999.25    -999.25    -999.25    -999.25    -999.25    -999.25    -999.25    -999.25    -999.25    -999.25    -999.25    -999.25    -999.25    -999.25    -999.25    -999.25    -999.25    -999.25    -999.25    -999.25 4727.74950 5041.70120 4154.53960
 17850.00000    -999.25    -999.25    -999.25    -999.25    -999.25    -999.25    -999.25    -999.25    -999.25    -999.25    -999.25    -999.25    -999.25    -999.25    -999.25    -999.25    -999.25    -999.25    -999.25    -999.25    -999.25    -999.25    -999.25    -999.25    -999.25    -999.25    -999.25    -999.25    -999.25    -999.25    -999.25    -999.25    -999.25    -999.25    -999.25    -999.25    -999.25    -999.25 3688.77120    -999.25
