~Version ---------------------------------------------------
VERS. 2.0 : CWLS log ASCII Standard -VERSION 2.0
WRAP.  NO : ONE LINE PER DEPTH STEP
~Well ------------------------------------------------------
STRT.F                  2350.0 : START DEPTH
STOP.F                  8250.0 : STOP DEPTH
STEP.F                50.00000 : STEP LENGTH
NULL.                  -999.25 : NULL VALUE
COMP.        IKE LOVELADY INC. : COMPANY
WELL.           RUTH BOWERS #1 : WELL
FLD .                   STRAIT : FIELD
LOC .                          : LOCATION
CNTY.                   DIMMIT : COUNTY
STAT.                    TEXAS : STATE
CTRY. UNITED STATES OF AMERICA : COUNTRY
SRVC.                          : SERVICE COMPANY
DATE.                          : LOGDATE
API .           42127317180000 : API NUMBER
UWI .           42127317180000 : UNIQUE WELL ID
SLAT.WGS84       28.5460115215 : SURFACE LATITUDE
SLON.WGS84      -99.5917438073 : SURFACE LONGITUDE
~Curve Information -----------------------------------------
DEPT.F                 : 
NPHI.DEC  42 890 01 00 : NEUTRON POROSITY LIME
GRD .GAPI 45 310 01 00 : GAMMA RAY FROM DENSITY LOG
CALD.IN   45 280 60 00 : CALIPER FROM DENSITY LOG
CORR.G/C3 45 356 01 00 : DENSITY CORRECTION
RHOB.G/C3 45 350 01 00 : BULK DENSITY
SPR .MV   07 010 01 00 : SPONTANEOUS POTENTIAL FROM RES LOG
CILD.MMHO 07 110 46 00 : CONDUCTIVITY INDUCTION LOG DEEP
ILD .OHMM 07 120 46 00 : INDUCTION LOG DEEP
ALL8.OHMM 07 221 08 00 : AMP LATEROLOG-8 RES.
~Params ----------------------------------------------------
EKB .F                 486.0 : Kelly bushing
EGL .F                 474.0 : Ground level
EDF .F                 485.0 : Drilling floor
EPD .F                 474.0 : Permanent datum
TD  .F                8268.0 : Total depth
CLNT.                A2DTECH : Client Code
SL  .   1980' FEL & 660' FSL : Surface Location
PD  .                     GL : Permanent Datum
LMF .                     KB : Log Measured From
DMF .                     KB : Drilling Measured From
DAPD.F                    12 : Feet Above Permanent Datum
DATE.            07-JUL-1978 : Date Logged [DD-MMM-YYYY]
DD  .F                  8268 : Depth driller
DL  .F                  8260 : Depth logger
BLI .F                  8259 : Bottom log interval
TLI .F                  7950 : Top log interval
CS1 .IN                7.625 : Casing size
CBD1.         7.625" @ 7180' : Casing driller 1
BS1 .IN                  6.5 : Bit size
BSD1.F                  8268 : Depth drilled with bit1
DFT .              LIGNOSULF : Type fluid in hole
DFD .                    9.5 : Density
DFV .                     47 : Viscosity
DFPH.                     10 : pH
DFL .                    5.8 : Fluid loss
MSS .              CIRC TANK : Source of sample
RMS .OHMM               0.64 : Rm
RMF .OHMM               0.53 : Rmf
MFSS.                   MEAS : Source Rmf.
RMC .OHMM                0.5 : Rmc
MCSS.                   CALC : Source Rmc.
RMB .OHMM                0.3 : Rm. at BHT
BHT .F                   172 : BHT.
TCS .HRS                 900 : Time Circ. stopped
TLAB.HRS                1730 : Time logger at bottom
LUN .                   7769 : Logging unit number
LUL .                 LAREDO : Logging unit location
ENGI.          RENFROW/FOGAL : Recorded By
WITN.                GRIFFEN : Witnessed by
ORIG.        2.5" & 1" PRINT : Origin of data
UWI .         42127317180000 : Unique Well ID
DICO. A2D TECHNOLOGIES, INC. : Digitizing Company
~Other -----------------------------------------------------
~ASCII -----------------------------------------------------
 2350.00000    0.47180   40.68940    -999.25    -999.25    -999.25    -999.25    -999.25    -999.25    -999.25
 2400.00000    0.36770   73.21130   12.27960    0.02830    2.22920  -57.61190  122.75450    7.56220    7.71820
 2450.00000    0.40060   83.18470   14.45220    0.12130    2.19790  -37.03980  268.33540    3.32090    2.79510
 2500.00000    0.39170   79.46430   14.12500    0.11610    2.35120  -37.61190  316.36690    3.20900    3.61610
 2550.00000    0.31070   80.35710   12.56250    0.03270    2.35560  -40.00000  241.39240    4.44030    4.32550
 2600.00000    0.28490   98.21430   13.38070    0.00000    2.45540  -39.70150  247.02570    4.32840    4.65280
 2650.00000    0.30270   86.37980   14.52190    0.11750    2.44640  -40.37310  290.41910    3.50740    3.08030
 2700.00000    0.38280   93.30770   14.64090    0.04460    2.40480  -38.80600  427.89400    2.16420    2.32140
 2750.00000    0.39170   89.73210   13.99110    0.03200    2.44940  -38.73140  474.17780    2.05220    2.17260
 2800.00000    0.35670   88.38990   12.78570    0.00300    2.40180  -37.61190  384.73060    2.53730    7.02380
 2850.00000    0.39030   90.62500   13.41070    0.02230    2.40620  -36.71640  497.00640    1.75370    2.06850
 2900.00000    0.33470   80.50570   13.64880    0.05950    2.49700  -36.71640  400.44910    1.71640    1.91960
 2950.00000    0.29820   75.22320   13.21720   -0.00640    2.47470  -36.11940  286.42760    2.87310    2.78280
 3000.00000    0.30000   86.60530   13.11310    0.00000    2.44640  -35.02480  420.65870    1.74130    2.41070
 3050.00000    0.30830   68.30360   12.78560    0.09670    2.46950  -37.46270  300.89970    2.98510    3.28870
 3100.00000    0.27780   64.28570   12.66660    0.06990    2.59180  -37.31340  187.87450    4.35320    4.79660
 3150.00000    0.31160   75.00000   12.91960    0.04890    2.46130  -38.65670  187.74880    4.62690    5.19350
 3200.00000    0.16830   45.53570   13.79760   -0.00150    2.56100  -41.79100  114.27150    8.60690    8.00600
 3250.00000    0.21900   57.58910   14.39780    0.05060    2.51090  -38.38310  145.58380    6.45520    5.93750
 3300.00000    0.18070   47.32140   12.99410    0.02080    2.57440  -38.85570  122.25420    6.44280    7.14270
 3350.00000    0.28840   72.17290   14.18450    0.05210    2.48960  -34.95020  286.30240    3.74370    3.92360
 3400.00000    0.29560   67.40850   14.57140    0.12800    2.50740  -35.82090  248.50150    3.13470    3.89880
 3450.00000    0.17980   42.63130   11.62990    0.03120    2.45980  -62.31340   90.19550   11.09460   22.07600
 3500.00000    0.29380   70.08930   12.54740    0.13090    2.38990  -31.49250  244.26010    4.92540    3.79460
 3550.00000    0.32490   66.29380   13.13790    0.04690    2.44350  -32.31340  286.55200    3.40800    3.47470
 3600.00000    0.29050   66.96430   13.17260    0.11310    2.31250  -30.54730  197.60270    4.42790    3.90870
 3650.00000    0.25130   64.28570   12.14580    0.15280    2.48140  -29.70150  198.10380    4.78850    5.07940
 3700.00000    0.23730   53.86850   12.30930    0.00300    2.56850  -30.37470  216.56690    3.55720    3.91870
 3750.00000    0.30760   74.10710   14.03580    0.03600    2.57590  -31.06510  302.39460    3.02240    3.28370
 3800.00000    0.28300   74.40510   13.99120    0.02530    2.52680  -30.53590  304.39120    2.93530    3.38290
 3850.00000    0.30800   81.69640   13.23210    0.05800    2.55210  -30.47340  350.54920    2.71140    2.95390
 3900.00000    0.30670   75.89210   12.78570    0.03270    2.48360  -29.58580  379.28290    2.31340    3.08040
 3950.00000    0.35780   78.12500   12.62200    0.02830    2.46580  -29.40300  461.82630    2.05220    2.20980
 4000.00000    0.31910   75.44790   13.05360    0.09420    2.43150  -29.85070  340.81550    2.53730    3.09520
 4050.00000    0.32180   82.96150   13.91650    0.02010    2.48560  -29.73020  345.43650    2.31340    2.81990
 4100.00000    0.29980   75.00000   13.24740    0.05060    2.45830  -30.14930  273.20360    3.28360    3.69540
 4150.00000    0.35200   85.71430   13.26190    0.05210    2.49480  -30.00000  367.13960    2.76120    2.83980
 4200.00000    0.21510   67.40920   11.77370    0.01290    2.68600  -27.46270  173.40850    4.22890    5.07510
 4250.00000    0.19560   70.31340   11.22320   -0.01410    2.58850  -27.53720  135.47900    6.94030    7.39520
 4300.00000    0.24500   75.44310   11.53570    0.00150    2.57440  -28.80600  223.05390    4.52740    4.55090
 4350.00000    0.23200   33.25490   10.58330    0.04610    2.41740  -75.00000  195.35930    5.00000   10.02670
 4400.00000    0.34840   86.60710   11.79100    0.05850    2.46430  -29.25370  361.27740    2.58710    2.71440
 4450.00000    0.50240   93.08040   11.79090    0.09380    2.28870  -30.64670  341.67830    2.92300    3.04640
 4500.00000    0.23200   52.76750   11.02490   -0.00100    2.45540  -37.11500  188.61970    5.14930    6.20260
 4550.00000    0.20870   43.89910   10.96520   -0.00450    2.43950  -42.23880  197.97840    5.18660    7.29040
 4600.00000    0.26400   91.96430   11.52220    0.15080    2.47020  -25.67160  342.81440    2.53730    3.41320
 4650.00000    0.36530   94.86610   13.00890    0.02680    2.37650  -26.94030  579.97300    1.45520    1.79640
 4700.00000    0.38040   70.53350   14.21430    0.08780    2.23810  -27.81080  451.34730    2.01490    2.89420
 4750.00000    0.28650   81.24930   11.23810    0.05130    2.50840  -26.44260  261.60180    3.79350    3.94710
 4800.00000    0.26310  104.46430   11.00890    0.00890    2.49400  -25.37310  208.95170    4.02990    5.26950
 4850.00000    0.29420   87.72230   13.60910    0.05800    2.41820  -25.44780  310.00340    2.94780    3.51050
 4900.00000    0.31020   80.80360   13.02380    0.04910    2.41960  -24.02990  330.33870    2.88560    3.25850
 4950.00000    0.26820   85.93660   12.93450    0.19940    2.50150  -25.64680  269.46110    2.87310    3.32590
 5000.00000    0.31200   90.62500   13.55950    0.04810    2.37200  -26.26870  327.34570    2.68660    2.99400
 5050.00000    0.31240   87.27550   14.42240    0.16740    2.35940  -25.82090  304.01660    3.32090    3.41320
 5100.00000    0.35730  107.14280   12.47760    0.05260    2.30800  -26.21890  400.44910    2.46270    2.75450
 5150.00000    0.27200   74.99890   11.35700    0.02750    2.48810  -62.61190  236.15330    3.99250    4.48100
 5200.00000    0.31610   92.85940   13.52980    0.19350    2.44050  -60.29870  315.86830    3.13430    4.06630
 5250.00000    0.24980   81.69640   11.34220   -0.01490    2.51040  -59.92540  253.86730    3.50720    4.04830
 5300.00000    0.22490   80.35710   11.75880    0.00690    2.53190  -59.55220  247.75450    3.75620    4.08860
 5350.00000    0.25410   86.38560   14.98810    0.20860    2.36070  -59.62690  277.88170    3.50750    3.74000
 5400.00000    0.23290   73.21430   11.94240    0.00610    2.49930  -60.00000  250.00000    4.17910    4.05190
 5450.00000    0.23200   79.31500   12.94940    0.01920    2.50070  -59.25370  235.82090    4.21480    4.32140
 5500.00000    0.23020   82.58930   13.35120    0.03300    2.49730  -59.10450  232.83580    4.17910    4.26150
 5550.00000    0.27640   86.60600   14.50200    0.13160    2.48370  -57.46280  236.31900    3.70650    3.91720
 5600.00000    0.35560   87.64910   14.95830    0.14710    2.33480  -57.01490  332.83580    2.83580    3.04390
 5650.00000    0.26440   82.58930   13.84230    0.17430    2.52420  -56.04480  303.97950    3.10950    3.57780
 5700.00000    0.42760   75.00000   14.42260    0.16890    2.14990  -56.16920  383.58210    2.53730    2.70460
 5750.00000    0.20470   79.90710   13.29170    0.01060    2.55190  -54.40300  297.01670    3.35820    3.96710
 5800.00000    0.11560   47.76790   12.01190   -0.01110    2.61280  -54.62690  155.98530    6.86570    7.72460
 5850.00000    0.13660   45.98070   12.26470    0.00250    2.63390  -54.55220  132.63790    6.79080    7.44500
 5900.00000    0.13220   58.03400   11.80360    0.05420    2.58280  -58.85590   93.89090    9.40300    9.46110
 5950.00000    0.13620   39.28280   11.99690   -0.01410    2.59540  -57.58630   99.85100    9.92540   10.36420
