~Version ---------------------------------------------------
VERS. 2.0 : CWLS log ASCII Standard -VERSION 2.0
WRAP.  NO : ONE LINE PER DEPTH STEP
~Well ------------------------------------------------------
STRT.F                  3800.0 : START DEPTH
STOP.F                  9750.0 : STOP DEPTH
STEP.F                50.00000 : STEP LENGTH
NULL.                  -999.25 : NULL VALUE
COMP. GENERAL PRODUCTION CORP. : COMPANY
WELL.    JACKIE BEESON UNIT #1 : WELL
FLD .              NAILS CREEK : FIELD
LOC .                          : LOCATION
CNTY.                      LEE : COUNTY
STAT.                    TEXAS : STATE
CTRY. UNITED STATES OF AMERICA : COUNTRY
SRVC.                    Welex : SERVICE COMPANY
DATE.              05-Jun-1981 : LOGDATE
API .           42287309540000 : API NUMBER
UWI .           42287309540000 : UNIQUE WELL ID
SLAT.WGS84       30.2059951736 : SURFACE LATITUDE
SLON.WGS84      -96.7853557026 : SURFACE LONGITUDE
~Curve Information -----------------------------------------
DEPT   .F    0   1   0  0 : 1 MEASURED DEPTH
SPR    .MV   07 010 01 00 : SPONTANEOUS POTENTIAL FROM RESISTIVITY LOG
ASGUARD.OHMM 07 121 05 00 : AMPLIFIED SHALLOW/SHORT GUARD RESISTIVITY
CIL    .MMHO 07 110 45 00 : INDUCTION CONDUCTIVITY
IL     .OHMM 07 120 45 00 : INDUCTION LOG RESISTIVITY
CALD   .IN   45 280 60 00 : CALIPER FROM DENSITY LOG
CORR   .G/C3 45 356 01 00 : DENSITY CORRECTION
DPHI   .DEC  45 890 10 00 : DENSITY POROSITY
GRD    .GAPI 45 310 01 00 : GAMMA RAY FROM DENSITY LOG
~Params ----------------------------------------------------
PD  .                     GL : PERMANENT DATUM
EPD .FT                  370 : ELEVATION PERMANENT DATUM
LMF .                    TKB : LOG MEASURED FROM
DAPD.FT                   18 : FEET ABOVE PERMANENT DATUM
DMF .                    TKB : DRILLING MEASURED FROM
EKB .FT                  388 : KELLY BUSHING
EDF .FT                  387 : DRILLING FLOOR
EGL .FT                  370 : GROUND LEVEL
DATE.               06/05/81 : RUN DATE
RUN .                      1 : RUN NUMBER
DD  .FT                 9797 : DEPTH DRILLER
DL  .FT                 9794 : DEPTH LOGGER
BLI .FT                 9792 : BOTTOM LOG INTERVAL
TLI .FT                 3800 : TOP LOG INTERVAL
CS  .IN                9.625 : CASING SIZE
CBD .FT                 3803 : CASING BOTTOM DRILLER
CBL .FT                 3800 : CASING BOTTOM LOGGER
BS  .IN                  8.5 : BIT SIZE
BSD .FT                 9797 : BIT SIZE AT DEPTH
DFT .         WATER BASE MUD : DRILLING FLUID TYPE
DFD .                    9.9 : DRILLING FLUID DENSITY
DFV .                     50 : DRILLING FLUID VISCOSITY
DFPH.                    8.5 : DRILLING FLUID PH
DFL .                    5.6 : DRILLING FLUID LOSS
MSS .             CIRCULATED : MUD SAMPLE SOURCE
RMS .OHMM               3.14 : RESISTIVITY MUD SAMPLE
MST .DEGF                 75 : MUD SAMPLE TEMPERATURE
RMF .OHMM               2.52 : RESISTIVITY MUD FILTRATE SAMPLE
MFST.DEGF                 75 : MUD FILTRATE SAMPLE TEMPERATURE
RMC .OHMM               3.76 : RESISTIVITY MUD CAKE
MCST.DEGF                 75 : MUD CAKE SAMPLE TEMPERATURE
MFSS.                   MEAS : MUD FILTRATE SAMPLE SOURCE
MCSS.                   MEAS : MUD CAKE SAMPLE SOURCE
RMB .OHMM               1.01 : RESISTIVITY MUD AT BHT
TCS .HRS                   8 : TIME CIRCULATED STOPPED
LUN .                   1905 : LOGGING UNIT NUMBER
LUL .                  BRYAN : LOGGING UNIT LOCATION
WITN.              MC LENNAN : WITNESSED BY
CLNT.                A2DTECH : CLIENT CODE
ORIG.               1" PRINT : ORIGIN OF DATA
UWI .         42287309540000 : UNIQUE WELL ID
DICO. A2D Technologies, Inc. : DIGITIZING COMPANY
~Other -----------------------------------------------------
~ASCII -----------------------------------------------------
 3800.00000  -57.12380    6.81870  167.87110    5.68270    -999.25    -999.25    -999.25    -999.25
 3850.00000  -54.53280   13.44460  113.15200    9.44560    -999.25    -999.25    -999.25    -999.25
 3900.00000  -53.74820    6.86410  161.46330    6.36810    -999.25    -999.25    -999.25    -999.25
 3950.00000  -54.55080    8.45960  147.48610    6.90420    -999.25    -999.25    -999.25    -999.25
 4000.00000  -44.54200    3.87700  277.75330    3.60620    -999.25    -999.25    -999.25    -999.25
 4050.00000  -60.38590    6.03990  222.14790    4.45680    -999.25    -999.25    -999.25    -999.25
 4100.00000  -69.54790    8.49150  196.79610    4.95580    -999.25    -999.25    -999.25    -999.25
 4150.00000  -49.20950    8.64600  180.46680    7.21840    -999.25    -999.25    -999.25    -999.25
 4200.00000  -59.24530    6.56120  292.84270    3.43720    -999.25    -999.25    -999.25    -999.25
 4250.00000  -60.10480    7.58030  262.25950    3.82840    -999.25    -999.25    -999.25    -999.25
 4300.00000  -85.93620    8.11400  331.79070    3.02480    -999.25    -999.25    -999.25    -999.25
 4350.00000  -46.45980    4.57250   14.42460  191.96250    -999.25    -999.25    -999.25    -999.25
 4400.00000  -48.22350    3.42200  263.91900    3.79380    -999.25    -999.25    -999.25    -999.25
 4450.00000  -96.18210    8.22990  354.15890    2.82360    -999.25    -999.25    -999.25    -999.25
 4500.00000  -97.92520    5.64850  479.99750    2.08340    -999.25    -999.25    -999.25    -999.25
 4550.00000  -89.31450    4.51220  550.76620    1.76560    -999.25    -999.25    -999.25    -999.25
 4600.00000  -68.22770    7.22960  312.09400    3.33390    -999.25    -999.25    -999.25    -999.25
 4650.00000 -100.80230    6.47000  562.56440    1.77760    -999.25    -999.25    -999.25    -999.25
 4700.00000  -61.07710    5.15640  367.32750    2.83990    -999.25    -999.25    -999.25    -999.25
 4750.00000 -100.82320    7.02390  495.60430    2.01770    -999.25    -999.25    -999.25    -999.25
 4800.00000 -108.25850    8.89490  454.76240    2.19900    -999.25    -999.25    -999.25    -999.25
 4850.00000 -103.69690    7.96740  455.88700    2.19280    -999.25    -999.25    -999.25    -999.25
 4900.00000 -102.67180    7.29680  603.37320    1.65730    -999.25    -999.25    -999.25    -999.25
 4950.00000 -106.70330    7.86730  609.54510    1.67580    -999.25    -999.25    -999.25    -999.25
 5000.00000 -105.04990    2.73730 1293.34380    0.70230    -999.25    -999.25    -999.25    -999.25
 5050.00000  -10.95700    7.36950  362.09230    2.76180    -999.25    -999.25    -999.25    -999.25
 5100.00000  -45.92500    5.95590  473.04090    2.12350    -999.25    -999.25    -999.25    -999.25
 5150.00000  -79.79510    7.16460  483.72370    2.06720    -999.25    -999.25    -999.25    -999.25
 5200.00000 -107.41810   10.02920  637.92350    1.56760    -999.25    -999.25    -999.25    -999.25
 5250.00000  -69.38240    7.36960  509.88820    1.96120    -999.25    -999.25    -999.25    -999.25
 5300.00000  -31.73490    3.40570  531.35490    1.88200    -999.25    -999.25    -999.25    -999.25
 5350.00000   -9.93170    3.10820  513.39940    1.94780    -999.25    -999.25    -999.25    -999.25
 5400.00000  -96.54730    7.37120  500.58990    1.99850    -999.25    -999.25    -999.25    -999.25
 5450.00000 -125.58330    3.35510 1139.91310    0.89580    -999.25    -999.25    -999.25    -999.25
 5500.00000  -49.13790    7.12900  576.56600    1.73440    -999.25    -999.25    -999.25    -999.25
 5550.00000  -55.45050    5.60280  521.22550    1.91860    -999.25    -999.25    -999.25    -999.25
 5600.00000  -50.24540    4.95760  521.32640    1.91820    -999.25    -999.25    -999.25    -999.25
 5650.00000 -113.67260    8.67660  607.25930    1.65200    -999.25    -999.25    -999.25    -999.25
 5700.00000  -88.43260    8.14500  494.34200    2.02290    -999.25    -999.25    -999.25    -999.25
 5750.00000  -53.28320    2.86520  572.16420    1.74770    -999.25    -999.25    -999.25    -999.25
 5800.00000  -77.21510    4.96670  601.21800    1.81890    -999.25    -999.25    -999.25    -999.25
 5850.00000  -34.30000    2.29960  513.61230    1.94700    -999.25    -999.25    -999.25    -999.25
 5900.00000 -106.98830   12.50460  490.87900    2.04320    -999.25    -999.25    -999.25    -999.25
 5950.00000  -22.33870    2.30230  499.08460    1.98590    -999.25    -999.25    -999.25    -999.25
 6000.00000  -75.01680    7.42450  514.08010    1.87860    -999.25    -999.25    -999.25    -999.25
 6050.00000  -33.91320    2.50910  540.79320    1.84910    -999.25    -999.25    -999.25    -999.25
 6100.00000  -21.73870    2.35160  547.07670    1.82790    -999.25    -999.25    -999.25    -999.25
 6150.00000  -13.62740    2.38930  498.54230    1.99010    -999.25    -999.25    -999.25    -999.25
 6200.00000  -30.99280    2.12850  548.71780    1.86950    -999.25    -999.25    -999.25    -999.25
 6250.00000  -22.96790    2.53180  453.12630    2.20690    -999.25    -999.25    -999.25    -999.25
 6300.00000  -18.07140    2.11720  542.57470    1.84310    -999.25    -999.25    -999.25    -999.25
 6350.00000  -15.02360    1.94360  584.87300    1.70980    -999.25    -999.25    -999.25    -999.25
 6400.00000  -18.23360    2.09490  525.12090    1.92300    -999.25    -999.25    -999.25    -999.25
 6450.00000  -18.75890    1.91720  568.31570    1.75500    -999.25    -999.25    -999.25    -999.25
 6500.00000  -16.27330    1.85660  585.37080    1.71760    -999.25    -999.25    -999.25    -999.25
 6550.00000  -14.05700    1.82950  625.18990    1.63980    -999.25    -999.25    -999.25    -999.25
 6600.00000  -15.87050    1.95180  568.04880    1.76040    -999.25    -999.25    -999.25    -999.25
 6650.00000  -12.08790    1.76390  628.86850    1.68700    -999.25    -999.25    -999.25    -999.25
 6700.00000   -9.07000    1.76330  651.42790    1.50980    -999.25    -999.25    -999.25    -999.25
 6750.00000   -8.69110    2.07570  619.18120    1.61210    -999.25    -999.25    -999.25    -999.25
 6800.00000   -6.67450    1.55630  706.22270    1.41560   14.39280    0.16030    0.26920   95.32870
 6850.00000  -12.25980    2.30390  484.48340    1.95410   12.09100    0.03870    0.12460   93.35380
 6900.00000  -15.16370    2.00710  549.56740    1.89520   10.64570    0.17550    0.23420   91.17990
 6950.00000  -24.20900    1.62300  684.15610    1.55610   10.10370    0.12510    0.22320   85.99430
 7000.00000   -5.47200    1.27720  875.42190    1.16820   18.28130    0.03060    0.58860   78.34290
 7050.00000  -18.12930    2.75540  409.69360    2.43440   11.82960    0.03840    0.06230   79.67720
 7100.00000  -13.80270    2.36550  470.50250    2.20000   11.12190    0.06590    0.07160   91.12160
 7150.00000  -14.22170    2.29400  501.32020    1.99470   10.46460    0.12890    0.13420   90.25890
 7200.00000  -10.30910    2.04410  552.70540    1.92890   10.28460    0.17220    0.19240   91.82810
 7250.00000  -10.48540    1.60800  783.60960    1.27610   13.77780    0.15370    0.27330   90.00970
 7300.00000  -12.25110    1.83460  595.85700    1.72370   15.38030    0.15020    0.14340   75.36680
 7350.00000   -9.76820    1.57910  734.84220    1.43380   16.38600    0.13590    0.20370   89.19430
 7400.00000   -9.68610    1.41030  805.05440    1.24220   14.74600    0.13950    0.20110   96.90640
 7450.00000  -41.92370    2.62770  491.06800    2.03410   10.88910    0.08020    0.15710   82.15760
 7500.00000  -17.32880    2.08800  515.54190    1.94600    9.67690    0.09980    0.14940  102.29790
 7550.00000  -10.80780    1.80580  590.43970    1.71770   12.71430    0.14100    0.16080  103.49350
 7600.00000   -7.89960    1.78410  588.14750    1.70030   13.70930    0.14180    0.18780  130.32130
 7650.00000  -11.21160    2.15750  523.50590    1.91210    9.78180    0.07810    0.16890  116.52650
 7700.00000   -9.15370    1.68760  565.22610    1.66630   14.95400    0.12810    0.20910  117.11080
 7750.00000  -16.60720    1.77270  569.13460    1.75690   15.92470    0.14480    0.20450  104.70250
