~Version ---------------------------------------------------
VERS. 2.0 : CWLS log ASCII Standard -VERSION 2.0
WRAP.  NO : ONE LINE PER DEPTH STEP
~Well ------------------------------------------------------
STRT.F                       1050.0 : START DEPTH
STOP.F                      10050.0 : STOP DEPTH
STEP.F                     50.00000 : STEP LENGTH
NULL.                       -999.25 : NULL VALUE
COMP.           MARLINE OIL COMPANY : COMPANY
WELL. STUART J W AND BESSIE FIFE #1 : WELL
FLD .                       JOHNSON : FIELD
LOC .                               : LOCATION
CNTY.                        ZAVALA : COUNTY
STAT.                         TEXAS : STATE
CTRY.      UNITED STATES OF AMERICA : COUNTRY
SRVC.                  Schlumberger : SERVICE COMPANY
DATE.                   05-Dec-1979 : LOGDATE
API .                42507312420000 : API NUMBER
UWI .                42507312420000 : UNIQUE WELL ID
SLAT.WGS84            28.7431848519 : SURFACE LATITUDE
SLON.WGS84          -100.0778407048 : SURFACE LONGITUDE
~Curve Information -----------------------------------------
DEPT.F                 : 
CILD.MMHO 07 110 46 00 : INDUCTION DEEP CONDUCTIVITY
ILD .OHMM 07 120 46 00 : INDUCTION DEEP RESISTIVITY
ILM .OHMM 07 120 44 00 : INDUCTION MEDIUM RESISTIVITY
GRR .GAPI 07 310 01 00 : GAMMA RAY FROM RESISTIVITY LOG
LL8 .OHMM 07 220 08 00 : LATEROLOG 8
ASFL.OHMM 07 221 01 00 : AMPLIFIED SPHERICALLY FOCUSED LOG
SPR .MV   07 010 01 00 : SPONTANEOUS POTENTIAL FROM RESISTIVITY LOG
~Params ----------------------------------------------------
PD  .                     GL : PERMANENT DATUM
EPD .F                 628.3 : ELEVATION PERMANENT DATUM
LMF .                     KB : LOG MEASURED FROM
DAPD.F                    14 : FEET ABOVE PERMANENT DATUM
DMF .                     KB : DRILLING MEASURED FROM
EKB .F                 642.3 : KELLING BUSHING
EDF .F                 641.3 : DRILLING FLOOR
EGL .F                 628.3 : GROUND LEVEL
DATE.               12/10/79 : RUN DATE
RUN .                      3 : RUN NUMBER
DD  .F                  9286 : DEPTH DRILLER
DL  .F                  9201 : DEPTH LOGGER
BLI .F                  9195 : BOTTOM LOG INTERVAL
TLI .F                  5620 : TOP LOG INTERVAL
CS  .IN                9.625 : CASING SIZE
CBD .F                  1020 : CASING BOTTOM DRILLER
BS  .IN                 8.75 : BIT SIZE
BSD .F                  9286 : BIT SIZE AT DEPTH
DFT .           GYP VC10 CML : DRILLING FLUID TYPE
DFD .                   12.9 : DRILLING FLUID DENSITY
DFV .                     51 : DRILLING FLUID VISCOSITY
DFPH.                      9 : DRILLING FLUID PH
DFL .                    2.6 : DRILLING FLUID LOSS
MSS .               CIRC PIT : MUD SAMPLE SOURCE
RMS .OHMM               0.46 : RESISTIVITY MUD SAMPLE
MST .F                    75 : MUD SAMPLE TEMPERATURE
RMF .OHMM               0.31 : RESISTIVITY MUD FILTRATE SAMPLE
MFST.F                    75 : MUD FILTRATE SAMPLE TEMPERATURE
RMC .OHMM              0.608 : RESISTIVITY MUD CAKE
MCST.F                    75 : MUD CAKE SAMPLE TEMPERATURE
MFSS.                   MEAS : MUD FILTRATE SAMPLE SOURCE
MCSS.                  CHART : MUD CAKE SAMPLE SOURCE
RMB .OHMM              0.172 : RESISTIVITY MUD AT BHT
TCS .HRS                 700 : TIME CURCULATED STOPPED
TLAB.HRS                1100 : TIME LOGGER AT BOTTOM
LUN .                   8091 : LOGGING UNIT NUMBER
LUL .                    C C : LOGGING UNIT LOCATION
ENGI.        WELLSRE MARKLEY : RECORDING ENGINEER
WITN.                   GRAY : WITNESSED BY
CLNT.                A2DTECH : CLIENT CODE
ORIG.               1" PRINT : ORIGIN OF DATA
UWI .         42507312420000 : UNIQUE WELL ID
DICO. A2D Technologies, Inc. : DIGITIZING COMPANY
~Other -----------------------------------------------------
~ASCII -----------------------------------------------------
 1050.00000  166.33990    5.32550    -999.25    -999.25    -999.25    9.40940  -13.44030
 1100.00000  149.57980    5.40810    -999.25    -999.25    -999.25   14.67930  -16.07060
 1150.00000  194.53780    5.24290    -999.25    -999.25    -999.25    9.38300  -13.73950
 1200.00000  177.09680    5.79210    -999.25    -999.25    -999.25   11.19850  -14.34360
 1250.00000  173.52940    5.10030    -999.25    -999.25    -999.25   11.53540  -15.55560
 1300.00000  256.84110    4.05830    -999.25    -999.25    -999.25    8.86660  -14.82380
 1350.00000  263.60280    4.42120    -999.25    -999.25    -999.25    5.39030  -16.41510
 1400.00000  248.21780    4.37380    -999.25    -999.25    -999.25    8.48430  -15.53540
 1450.00000  325.87620    3.18800    -999.25    -999.25    -999.25    2.99520  -13.88120
 1500.00000  238.23530    4.17060    -999.25    -999.25    -999.25    6.45320  -13.46260
 1550.00000  293.13720    3.43710    -999.25    -999.25    -999.25    2.95670  -13.00360
 1600.00000  242.15690    3.94170    -999.25    -999.25    -999.25    4.15740  -15.78350
 1650.00000  333.92160    3.06430    -999.25    -999.25    -999.25    2.97230  -14.61860
 1700.00000  354.77560    3.06660    -999.25    -999.25    -999.25    3.18560  -14.63910
 1750.00000  310.57810    3.47640    -999.25    -999.25    -999.25    3.62600  -13.21080
 1800.00000  260.76840    4.28660    -999.25    -999.25    -999.25    9.02890  -17.76830
 1850.00000  162.65600    5.56640    -999.25    -999.25    -999.25   24.08320  -49.05730
 1900.00000  229.34500    4.38920    -999.25    -999.25    -999.25   12.90460  -13.88450
 1950.00000  640.68630    1.49930    -999.25    -999.25    -999.25   10.15750  -92.12160
 2000.00000  339.26490    2.95640    -999.25    -999.25    -999.25    3.31160  -19.45400
 2050.00000  441.59660    1.79980    -999.25    -999.25    -999.25    1.75200  -14.97520
 2100.00000  624.04300    1.51260    -999.25    -999.25    -999.25    1.42390  -13.37240
 2150.00000  397.65880    2.78280    -999.25    -999.25    -999.25    3.21000  -14.37930
 2200.00000  376.51460    2.56150    -999.25    -999.25    -999.25    8.85830  -28.02120
 2250.00000  687.57600    1.43250    -999.25    -999.25    -999.25    3.98960  -76.67730
 2300.00000  343.97560    2.79760    -999.25    -999.25    -999.25    2.88590  -28.10560
 2350.00000  428.43140    2.63310    -999.25    -999.25    -999.25    2.57210  -11.32640
 2400.00000  277.84450    3.74900    -999.25    -999.25    -999.25    3.60670  -19.46830
 2450.00000  457.56300    2.28290    -999.25    -999.25    -999.25    2.28410  -12.90860
 2500.00000  359.70470    2.81330    -999.25    -999.25    -999.25    2.76400  -10.32160
 2550.00000  513.88830    1.88230    -999.25    -999.25    -999.25    1.89710  -11.10870
 2600.00000  322.66300    3.09560    -999.25    -999.25    -999.25    3.01620  -18.82570
 2650.00000  589.21570    1.77150    -999.25    -999.25    -999.25    1.75990   -9.90520
 2700.00000  276.74160    3.10750    -999.25    -999.25    -999.25    3.12990   -7.49620
 2750.00000  330.06540    2.97850    -999.25    -999.25    -999.25    2.95480  -11.32470
 2800.00000  257.95820    3.84390    -999.25    -999.25    -999.25    3.98430  -15.12520
 2850.00000  599.01960    1.80210    -999.25    -999.25    -999.25    1.73860  -13.05110
 2900.00000  409.84700    2.39610    -999.25    -999.25    -999.25    2.47500  -11.87760
 2950.00000  386.27450    2.67830    -999.25    -999.25    -999.25    2.88200  -11.54050
 3000.00000  470.99020    1.92530    -999.25    -999.25    -999.25    2.11050  -12.59220
 3050.00000  324.51630    3.18170    -999.25    -999.25    -999.25    3.21410  -11.23340
 3100.00000  416.77560    2.52950    -999.25    -999.25    -999.25    2.54850  -12.20710
 3150.00000  446.07840    2.12170    -999.25    -999.25    -999.25    2.65630  -13.90030
 3200.00000  394.11760    2.70090    -999.25    -999.25    -999.25    2.79330  -12.48030
 3250.00000  434.26790    2.34020    -999.25    -999.25    -999.25    2.60270  -11.72960
 3300.00000  377.35170    2.70720    -999.25    -999.25    -999.25    2.91650  -10.66250
 3350.00000  479.05530    2.11560    -999.25    -999.25    -999.25    2.39450  -13.65660
 3400.00000  467.59280    2.28380    -999.25    -999.25    -999.25    2.46560  -14.20600
 3450.00000  205.88240    4.65960    -999.25    -999.25    -999.25    4.24990  -12.98420
 3500.00000  189.21570    5.86370    -999.25    -999.25    -999.25   14.25570  -22.85310
 3550.00000  120.58820    8.45870    -999.25    -999.25    -999.25   16.44880  -11.63330
 3600.00000  184.04150    6.69330    -999.25    -999.25    -999.25   12.43830  -11.93690
 3650.00000  146.07840    6.81850    -999.25    -999.25    -999.25   14.45110  -13.08620
 3700.00000  255.29590    3.07470    -999.25    -999.25    -999.25    4.03000  -11.11560
 3750.00000    -999.25    -999.25    -999.25    -999.25    -999.25    7.94950  -15.20370
 3800.00000  107.49030    9.30500    -999.25    -999.25    -999.25    7.96920  -17.65580
 3850.00000  173.63810    8.23010    -999.25    -999.25    -999.25    7.23410  -18.45150
 3900.00000   28.69650    6.42260    -999.25    -999.25    -999.25   19.43050  -18.09100
 3950.00000  177.36710    5.86710    -999.25    -999.25    -999.25    5.31720  -18.27380
 4000.00000   83.21880   13.30920    -999.25    -999.25    -999.25   15.79390  -20.05100
 4050.00000   58.59590   17.49140    -999.25    -999.25    -999.25   20.94880  -19.77520
 4100.00000   59.84320   16.60090    -999.25    -999.25    -999.25   13.52350  -18.33170
 4150.00000   38.94910   25.22680    -999.25    -999.25    -999.25   22.30950  -23.94830
 4200.00000   49.99020   21.44620    -999.25    -999.25    -999.25   18.76410  -23.27120
 4250.00000   45.23350   19.83260    -999.25    -999.25    -999.25   17.87030  -25.39660
 4300.00000   59.73780   17.35850    -999.25    -999.25    -999.25   16.11060  -25.99400
 4350.00000   93.38520   10.55340    -999.25    -999.25    -999.25    9.74360  -26.98490
 4400.00000  109.05400    9.39970    -999.25    -999.25    -999.25    8.45600  -28.20890
 4450.00000   98.34630   10.19120    -999.25    -999.25    -999.25    9.49620  -28.57840
 4500.00000   76.21990   13.22150    -999.25    -999.25    -999.25   12.18460  -27.41980
 4550.00000   46.13860   22.71960    -999.25    -999.25    -999.25   22.66130  -24.62230
 4600.00000   36.00050   26.45380    -999.25    -999.25    -999.25   33.50450  -29.16320
 4650.00000   60.40860  492.81860    -999.25    -999.25    -999.25   93.54620  -27.28480
 4700.00000   37.45140   29.35460    -999.25    -999.25    -999.25   42.32780  -26.76310
 4750.00000   44.90920   22.20940    -999.25    -999.25    -999.25   25.56620  -25.03540
 4800.00000   52.76180   19.77320    -999.25    -999.25    -999.25   28.40320  -23.37430
 4850.00000   76.61020   13.26060    -999.25    -999.25    -999.25   15.77950  -23.54000
 4900.00000  135.70040    6.75210    -999.25    -999.25    -999.25    9.12520  -20.32390
 4950.00000   72.79920   13.46840    -999.25    -999.25    -999.25   22.84110  -22.66180
 5000.00000   23.81280   46.73320    -999.25    -999.25    -999.25   62.72360  -24.29130
 5050.00000   19.79590   46.56030    -999.25    -999.25    -999.25   70.45070  -26.77530
 5100.00000    8.82790  107.01520    -999.25    -999.25    -999.25  402.91350  -26.35320
 5150.00000   28.28690   34.28910    -999.25    -999.25    -999.25   47.92320  -32.70630
 5200.00000   21.39630   49.79720    -999.25    -999.25    -999.25   44.66320  -35.75290
 5250.00000   12.74330   78.56830    -999.25    -999.25    -999.25   59.71000  -37.34430
 5300.00000  331.11580    2.21650    -999.25    -999.25    -999.25    2.58830  -29.81980
 5350.00000  457.44160    1.83850    -999.25    -999.25    -999.25    2.09990  -34.26110
 5400.00000  433.05510    2.58180    -999.25    -999.25    -999.25    2.39380  -37.33360
 5450.00000  360.70040    2.72300    -999.25    -999.25    -999.25    2.35650  -36.27670
 5500.00000  180.65660    5.25660    -999.25    -999.25    -999.25    4.54710  -35.55640
