~Version ---------------------------------------------------
VERS. 2.0 : CWLS log ASCII Standard -VERSION 2.0
WRAP.  NO : ONE LINE PER DEPTH STEP
~Well ------------------------------------------------------
STRT.F                  4100.0 : START DEPTH
STOP.F                  9400.0 : STOP DEPTH
STEP.F                50.00000 : STEP LENGTH
NULL.                  -999.25 : NULL VALUE
COMP.                    TIPCO : COMPANY
WELL.                SHUPAK #2 : WELL
FLD .                 GIDDINGS : FIELD
LOC .                          : LOCATION
CNTY.                 BURLESON : COUNTY
STAT.                    TEXAS : STATE
CTRY. UNITED STATES OF AMERICA : COUNTRY
SRVC.             Schlumberger : SERVICE COMPANY
DATE.              11-Oct-1980 : LOGDATE
API .           42051310100000 : API NUMBER
UWI .           42051310100000 : UNIQUE WELL ID
SLAT.WGS84       30.3594599863 : SURFACE LATITUDE
SLON.WGS84      -96.6725119539 : SURFACE LONGITUDE
~Curve Information -----------------------------------------
DEPT   .F                 : 
ILD    .OHMM 07 120 46 00 : INDUCTION DEEP RESISTIVITY
GRR    .GAPI 07 310 01 00 : GAMMA RAY FROM RESISTIVITY LOG
SFLU   .OHMM 07 220 01 00 : SHALLOW FOCUSED RESISTIVITY (UNAVERAGED)
ILM    .OHMM 07 120 44 00 : INDUCTION MEDIUM RESISTIVITY
DCAL   .IN   07 280 01 00 : DIFFERENTIAL CALIPER
DPHI_LS.DEC  45 890 10 00 : DENSITY POROSITY LIMESTONE
SPR    .MV   07 010 01 00 : SPONTANEOUS POTENTIAL FROM RESISTIVITY LOG
DRHO   .G/C3 45 356 01 00 : BULK DENSITY CORRECTION
~Params ----------------------------------------------------
PD  .                     GL : PERMANENT DATUM
EPD .FT                  309 : ELEVATION PERMANENT DATUM
LMF .                     KB : LOG MEASURED FROM
DMF .                     KB : DRILLING MEASURED FROM
EGL .FT                  309 : GROUND LEVEL
DATE.               10/11/80 : RUN DATE
RUN .                      1 : RUN NUMBER
DD  .FT                 9440 : DEPTH DRILLER
DL  .FT                 9434 : DEPTH LOGGER
BLI .FT                 9428 : BOTTOM LOG INTERVAL
TLI .FT                 4084 : TOP LOG INTERVAL
CS  .IN                9.625 : CASING SIZE
CBD .FT                 4088 : CASING BOTTOM DRILLER
CBL .FT                 4084 : CASING BOTTOM LOGGER
BS  .IN                 8.75 : BIT SIZE
BSD .FT                 9440 : BIT SIZE AT DEPTH
DFT .                  BENEX : DRILLING FLUID TYPE
DFD .                    9.6 : DRILLING FLUID DENSITY
DFV .                     38 : DRILLING FLUID VISCOSITY
DFPH.                      8 : DRILLING FLUID PH
DFL .                    6.6 : DRILLING FLUID LOSS
MSS .              CIRC TANK : MUD SAMPLE SOURCE
RMS .OHMM               1.93 : RESISTIVITY MUD SAMPLE
MST .DEGF                 75 : MUD SAMPLE TEMPERATURE
RMF .OHMM               1.45 : RESISTIVITY MUD FILTRATE SAMPLE
MFST.DEGF                 75 : MUD FILTRATE SAMPLE TEMPERATURE
RMC .OHMM                2.9 : RESISTIVITY MUD CAKE
MCST.DEGF                 75 : MUD CAKE SAMPLE TEMPERATURE
MFSS.                      C : MUD FILTRATE SAMPLE SOURCE
MCSS.                      C : MUD CAKE SAMPLE SOURCE
RMB .OHMM               0.74 : RESISTIVITY MUD AT BHT
TCS .HRS                2400 : TIME CIRCULATED STOPPED
TLAB.HRS                 600 : TIME LOGGER AT BOTTOM
CLNT.                A2DTECH : CLIENT CODE
ORIG.            2" 5" PRINT : ORIGIN OF DATA
UWI .         42051310100000 : UNIQUE WELL ID
DICO. A2D Technologies, Inc. : DIGITIZING COMPANY
~Other -----------------------------------------------------
~ASCII -----------------------------------------------------
 4100.00000   12.08010   73.99410   10.20300    9.55010    1.60670    -999.25  -13.06390    -999.25
 4150.00000   16.95900   54.65270   10.05710   11.19580    2.56520    -999.25  -17.77940    -999.25
 4200.00000    8.92520   61.20280    8.81430    8.48130    1.30170    -999.25  -29.50390    -999.25
 4250.00000    6.15410   90.78070    8.21900    5.75850    1.26870    -999.25  -23.51180    -999.25
 4300.00000    5.83950   93.92920    7.26640    5.98960    1.83490    -999.25  -30.94340    -999.25
 4350.00000    5.37700  113.12030    6.54640    5.28170    2.02270    -999.25  -22.97060    -999.25
 4400.00000    5.02390   99.24510    5.22300    5.14010    0.78770    -999.25  -28.84630    -999.25
 4450.00000    6.16600   91.97840    9.99160    6.44510    0.43260    -999.25  -27.66930    -999.25
 4500.00000    6.27030   60.03920    8.89230    6.95470    0.49630    -999.25  -41.34610    -999.25
 4550.00000    5.62290   67.50150    7.84840    6.08220    0.64720    -999.25  -33.68400    -999.25
 4600.00000    1.82240   91.78140    1.91910    1.89430    2.10360    -999.25  -12.30310    -999.25
 4650.00000    4.84390   80.94780    8.39460    5.32780    1.53990    -999.25  -11.64650    -999.25
 4700.00000    2.31070  115.45490    3.26060    2.55360    0.61420    -999.25  -18.80570    -999.25
 4750.00000    2.11840   58.01460    5.80960    2.77250    0.79110    -999.25  -44.99090    -999.25
 4800.00000    2.68330   84.79490    8.54610    3.52710    0.47770    -999.25  -41.30240    -999.25
 4850.00000    1.60640   82.24500    4.24730    2.29150    0.16980    -999.25  -61.24920    -999.25
 4900.00000    1.53510   68.30420    5.02530    2.16030    0.37920    -999.25  -66.30940    -999.25
 4950.00000    1.56360   68.93470    4.34770    2.09010    0.22780    -999.25  -62.29330    -999.25
 5000.00000    2.25700  106.35890    2.42890    2.27370    0.70800    -999.25  -12.31890    -999.25
 5050.00000    1.20610   69.22640    3.86840    1.68240    0.31460    -999.25  -81.35050    -999.25
 5100.00000    2.18020   90.91260    4.44910    2.63510    0.29280    -999.25  -50.46670    -999.25
 5150.00000    2.32730   95.68200    3.24050    2.42220    1.43110    -999.25  -37.09340    -999.25
 5200.00000    2.47320  101.61610    2.72740    2.45310    1.56630    -999.25  -25.64460    -999.25
 5250.00000    2.28330  105.17290    2.57140    2.40360    1.95880    -999.25  -25.94570    -999.25
 5300.00000    2.33650  100.05220    2.35500    2.38950    1.32400    -999.25  -26.42840    -999.25
 5350.00000    2.44070  100.63180    2.80140    2.53930    1.03900    -999.25  -25.75640    -999.25
 5400.00000    2.56340   91.51370    3.00780    2.63100    0.93030    -999.25  -25.11400    -999.25
 5450.00000    1.94520   99.83800    2.00920    1.96540    2.07870    -999.25  -19.94530    -999.25
 5500.00000    1.86860  106.76910    2.09310    1.96550    2.21200    -999.25  -19.46510    -999.25
 5550.00000    2.55900   97.04460    2.05590    2.48900    2.53100    -999.25  -19.53070    -999.25
 5600.00000    1.57410   98.11310    1.77950    1.65950    3.96040    -999.25  -18.14200    -999.25
 5650.00000    1.58360  100.11710    1.81600    1.66390    4.23870    -999.25  -18.25070    -999.25
 5700.00000    1.58060  101.95120    1.79500    1.67950    4.07590    -999.25  -17.29980    -999.25
 5750.00000    1.43330   91.16340    1.62070    1.50800    4.87510    -999.25  -20.24410    -999.25
 5800.00000    1.38000  100.68490    1.56760    1.45240    4.32110    -999.25  -18.89600    -999.25
 5850.00000    1.70870  100.80180    1.85290    1.79900    3.63660    -999.25  -19.60060    -999.25
 5900.00000    1.52770   99.51310    1.75050    1.64350    1.83700    -999.25  -15.36680    -999.25
 5950.00000    1.24520  102.49850    1.40610    1.34240    1.83540    -999.25  -12.39950    -999.25
 6000.00000    0.96970   95.94800    1.20100    1.08040    1.30310    -999.25  -11.13290    -999.25
 6050.00000    1.88000   92.54590    2.05250    1.98590    1.49010    -999.25  -14.35620    -999.25
 6100.00000    1.86240   91.11720    2.15200    1.93950    1.58280    -999.25  -13.77460    -999.25
 6150.00000    1.23610   94.27740    1.46330    1.32170    2.68240    -999.25  -16.12920    -999.25
 6200.00000    1.20650   83.24900    1.49030    1.31560    4.08380    -999.25  -14.88180    -999.25
 6250.00000    1.18380   91.77380    1.29840    1.24670    3.75180    -999.25  -13.16820    -999.25
 6300.00000    1.40290   88.02170    1.75040    1.51660    2.21040    -999.25  -12.30410    -999.25
 6350.00000    1.42300   85.82540    1.76630    1.50410    2.31730    -999.25  -18.26660    -999.25
 6400.00000    1.01070   85.08100    1.21780    1.10040    4.36690    0.22160  -16.87440    0.07160
 6450.00000    1.14920   87.89480    1.37870    1.25150    3.91610    0.23060  -13.91670    0.06080
 6500.00000    1.08050   95.43280    1.32920    1.18850    2.80720    0.21020  -14.58160    0.08410
 6550.00000    3.04450   70.27880    3.67820    3.26600    1.15880    0.09290   -9.88110    0.02210
 6600.00000    1.63310   96.76510    1.84630    1.74200    1.10000    0.18380  -11.85100    0.10000
 6650.00000    1.57710  106.96520    1.48780    1.62030    1.32020    0.18140   -6.43560    0.08750
 6700.00000    1.80050   80.69120    1.86080    1.92130    1.46960    0.10930   -9.99990    0.10000
 6750.00000    1.81190   96.53930    1.84140    1.91810    2.07820    0.09690   -7.59380    -999.25
 6800.00000    1.39170   96.80380    1.52750    1.54810    4.37320    0.15150   -6.61670    0.09870
 6850.00000    1.64800   86.79800    1.67190    1.76110    6.03640    0.15640   -8.79520    0.09400
 6900.00000    1.39240   78.08820    1.41080    1.50530    6.70910    0.18360   -8.75850    0.06140
 6950.00000    1.95110   80.89970    1.91080    2.09280    5.15430    -999.25   -7.91300    -999.25
 7000.00000    1.37870   97.01580    1.35950    1.46370    5.41240    -999.25   -9.46810    -999.25
 7050.00000    1.23660  102.07600    1.35950    1.34650    5.06760    -999.25   -6.74560    -999.25
 7100.00000    1.62790  116.16670    1.74250    1.74240    2.65060    -999.25   -4.65340    -999.25
 7150.00000    1.75650   86.69620    1.89660    1.89150    1.57930    -999.25   -7.57130    -999.25
 7200.00000    1.72760  132.15890    1.61600    1.75850    1.65180    -999.25   -5.46080    -999.25
 7250.00000    1.71430   91.64340    1.91500    1.84120    2.03740    -999.25   -6.65310    -999.25
 7300.00000    1.68850  107.43550    1.85200    1.82640    2.08700    0.10950   -5.85800    -999.25
 7350.00000    1.53510  107.10270    1.69520    1.65230    3.44210    0.18690   -9.49840    -999.25
 7400.00000    1.42790   96.08880    1.67940    1.55520    4.06290    0.16590   -7.89110    -999.25
 7450.00000    1.85260   82.29700    2.23840    1.99300    1.78350    0.04070   -3.62500    -999.25
 7500.00000    4.06020   47.37720    4.53640    4.11100    0.80830    0.05910   -4.61120    0.00240
 7550.00000    8.07780   53.25160    4.74020    6.08220    0.96450    0.06130   -6.07460    0.01620
 7600.00000    4.58850   51.01690    4.61640    4.70210    0.79920    0.06390   -4.50440    0.00430
 7650.00000    1.82470   93.63270    2.21280    1.98110    2.45260    0.10440   -1.88080    -999.25
 7700.00000    2.39910   92.61850    2.54900    2.49370    1.98540    0.10260   -0.32130    0.09880
 7750.00000    2.89650   86.67760    3.16690    3.01920    1.20840    0.08610    2.78990    0.00090
 7800.00000    2.60100   89.21430    3.10920    2.76360    1.91110    0.10220    1.53730    0.05830
 7850.00000    2.44210   94.10030    2.57670    2.58710    1.80820    0.09140    2.86030    0.06120
 7900.00000    2.20840   92.42760    2.70810    2.40360    2.36250    0.05880    2.00700    0.10000
 7950.00000    3.93940   70.54610    4.87260    4.03750    1.55820    -999.25    3.91620    -999.25
 8000.00000    1.60310  100.55830    1.64510    1.70460    5.56870    -999.25    0.49110    -999.25
 8050.00000    1.96270   87.33970    2.24900    2.09790    4.95100    -999.25    1.59830    -999.25
