~Version ---------------------------------------------------
VERS. 2.0 : CWLS log ASCII Standard -VERSION 2.0
WRAP.  NO : ONE LINE PER DEPTH STEP
~Well ------------------------------------------------------
STRT.FT                            300.0 : START DEPTH
STOP.FT                          22000.0 : STOP DEPTH
STEP.FT                         50.00000 : STEP LENGTH
NULL.                            -999.25 : NULL VALUE
COMP. PAN AMERICAN PETROLEUM CORPORATION : COMPANY
WELL.                  A. M. FOERSTER #1 : WELL
FLD .                            WILDCAT : FIELD
LOC .                                    : LOCATION
CNTY.                           LA SALLE : COUNTY
STAT.                              TEXAS : STATE
CTRY.           UNITED STATES OF AMERICA : COUNTRY
SRVC.                       Schlumberger : SERVICE COMPANY
DATE.                        20-Aug-1964 : LOGDATE
API .                     42283002040000 : API NUMBER
UWI .                     42283002040000 : UNIQUE WELL ID
SLAT.WGS84                 28.3371650608 : SURFACE LATITUDE
SLON.WGS84                -98.9649233845 : SURFACE LONGITUDE
~Curve Information -----------------------------------------
DEPT  .FT    : DEPTH
CONDWS.MMHO  : CONDUCTIVITY [CILDED] FROM IEL
ILDED .OHMM  : INDUCTION LOG DEEP RESISTIVITY FROM IEL
ASNED .OHMM  : SHORT NORMAL RESISTIVITY 16 INCH FROM IEL
CILDED.MMHO  : CONDUCTIVITY FROM IEL
DRESWS.OHMM  : DEEP RESISTIVITY [ILDED] FROM IEL [IF ILDED < 1 THEN 1000/CILDED]
DTWS  .US/F  : DELTA TIME FROM SONIC LOG
NEUTWS.CU    : NEUTRON FROM GAMMA RAY NEUTRON LOG
GRNED .GAPI  : GAMMA RAY FROM NEUTRON LOG
NEUTED.NAPI  : NEUTRON  FROM GAMMA RAY NEUTRON LOG
SPED  .MV    : SPONTANEOUS POTENTIAL [MECHANICAL SHIFTS REMOVED]
SPWS  .MV    : SPONTANEOUS POTENTIAL [BASELINE 0 MV]
CALSED.IN    : CALIPER FROM SONIC LOG
DTED  .US/F  : DELTA TIME FROM SONIC LOG
SRESWS.OHMM  : SHALLOW RESISTIVITY [ASNED] FROM IEL
GRWS  .GAPI  : GAMMA RAY [GRNED] FROM GAMMA RAY NEUTRON LOG
CALWS .IN    : CALIPER [CALSED] FROM SONIC LOG
SPSED .MV    : SPONTANEOUS POTENTIAL FROM SONIC LOG [MECHANICAL SHIFTS REMOVED]
~Params ----------------------------------------------------
EKB .F                 473.5 : KELLY BUSHING
EGL .F                   445 : ELEVATION GROUND LEVEL
EDF .F                   471 : ELEVATION DERRICK FLOOR
EPD .F                   445 : ELEVATION PERMANENT DATUM
TD  .F               21995.0 : TOTAL DEPTH
DATE.            20-AUG-1964 : DATE LOGGED
CLNT.                A2DTECH : CLIENT CODE
SL  .   1320' FSL & 660' FWL : SURFACE LOCATION
PD  .                     GL : PERMANENT DATUM
LMF .                     KB : LOG MEASURED FROM
DMF .                     KB : DRILLING MEASURED FROM
DAPD.F                  28.5 : FEET ABOVE PERMANENT DATUM
DD  .F                 21995 : DEPTH DRILLER
DL  .F                 21992 : DEPTH LOGGER
BLI .F                 21991 : BOTTOM LOG INTERVAL
TLI .F                 20005 : TOP LOG INTERVAL
CS1 .IN                9.625 : CASING SIZE
CBD1.        9.625" @ 15993' : CASING DRILLER 1
CBL1.F                 15993 : CASING LOGGER 1
BS1 .IN                  8.5 : BIT SIZE
BSD1.F                 21995 : DEPTH DRILLED WITH BIT1
DFT .              XP-20-O.E : TYPE FLUID IN HOLE
DFD .                   18.4 : DENSITY
DFV .                     54 : VISCOSITY
DFPH.                    8.9 : PH
DFL .                      4 : FLUID LOSS
MSS .                MUD/PIT : SOURCE OF SAMPLE
RMS .OHMM               0.15 : RM
RMF .OHMM              0.089 : RMF
RMC .OHMM               0.32 : RMC
MFSS.                   MEAS : SOURCE RMF.
MCSS.                   MEAS : SOURCE RMC.
RMB .OHMM              0.046 : RM. AT BHT
BHT .F                   404 : BHT.
TCS .HRS                  10 : TIME CIRC. STOPPED
LUN .                   4526 : LOGGING UNIT NUMBER
LUL .                    KEN : LOGGING UNIT LOCATION
ENGI.                  HARSH : RECORDED BY
WITN.          FREEMAN/WALSH : WITNESSED BY
ORIG.          1" & 5" PRINT : ORIGIN OF DATA
UWI .         42283002040000 : UNIQUE WELL ID
DICO. A2D TECHNOLOGIES, INC. : DIGITIZING COMPANY
~Other -----------------------------------------------------
~ASCII -----------------------------------------------------
# ...
 14550.00000   33.51900   30.68200   22.74100   33.51900   30.68200   52.08500    -999.25    -999.25    -999.25  -97.83500  -24.97060   12.90000   52.08500   22.74100    -999.25   12.90000  -79.24300
 14600.00000  387.08900    1.35700    4.74800  387.08900    1.35700   57.09800    -999.25    -999.25    -999.25 -106.73700  -32.81160   13.00500   57.09800    4.74800    -999.25   13.00500  -81.41800
 14650.00000  548.36100    2.28900    4.58100  548.36100    2.28900   56.55000    -999.25    -999.25    -999.25 -102.53400  -27.54760   13.21500   56.55000    4.58100    -999.25   13.21500    -999.25
 14700.00000  115.48300   10.81800   12.84600  115.48300   10.81800   49.96400    -999.25    -999.25    -999.25  -98.53400  -22.48660   12.99200   49.96400   12.84600    -999.25   12.99200    -999.25
 14750.00000   17.09100   57.21800   28.05900   17.09100   57.21800   48.48700    -999.25    -999.25    -999.25  -95.67800  -18.56960   13.01500   48.48700   28.05900    -999.25   13.01500    -999.25
 14800.00000    8.89700   96.32600   15.02200    8.89700   96.32600   49.37900    -999.25    -999.25    -999.25  -96.19400  -18.02470   12.90700   49.37900   15.02200    -999.25   12.90700    -999.25
 14850.00000   63.02400   16.89000    9.53000   63.02400   16.89000   53.28200    -999.25    -999.25    -999.25  -99.32700  -20.09670   13.47000   53.28200    9.53000    -999.25   13.47000 -110.31600
 14900.00000    3.13300  334.65700   33.06300    3.13300  334.65700   48.49100    -999.25    -999.25    -999.25  -91.70300  -11.41170   12.98500   48.49100   33.06300    -999.25   12.98500    -999.25
 14950.00000   36.75400   26.09600   19.24700   36.75400   26.09600   52.08400    -999.25    -999.25    -999.25 -103.98000  -22.62770   13.47300   52.08400   19.24700    -999.25   13.47300    -999.25
 15000.00000   26.64300   38.10300   15.41300   26.64300   38.10300   50.40600    -999.25    -999.25    -999.25 -109.76300  -27.34980   13.62200   50.40600   15.41300    -999.25   13.62200    -999.25
 15050.00000  306.92800    3.87700    5.80900  306.92800    3.87700   55.71100 4076.52100    -999.25 4076.52100 -112.75600  -29.28180   12.80200   55.71100    5.80900    -999.25   12.80200    -999.25
 15100.00000   59.08800   18.33300   11.18800   59.08800   18.33300   52.94500 3975.89500    -999.25 3975.89500  -95.05700  -10.52180   13.24600   52.94500   11.18800    -999.25   13.24600    -999.25
 15150.00000   14.07100   71.20100   26.89000   14.07100   71.20100   48.43900 4109.88820    -999.25 4109.88820 -101.49900  -13.95650   13.08300   48.43900   26.89000    -999.25   13.08300 -116.28200
 15200.00000   27.10700   34.42180   17.99100   27.10700   34.42180   47.73200 4204.12500    -999.25 4204.12500 -121.13300  -30.45910   12.85700   47.73200   17.99100    -999.25   12.85700 -173.25600
 15250.00000   95.98800   15.63310    9.62000   95.98800   15.63310   58.57000 3596.78100    -999.25 3596.78100 -120.23100  -26.42560   13.34100   58.57000    9.62000    -999.25   13.34100 -173.81000
 15300.00000    7.47400  259.06520   20.20800    7.47400  259.06520   53.12300 3543.53200    -999.25 3543.53200 -120.29900  -23.36210   13.37200   53.12300   20.20800    -999.25   13.37200 -169.87600
 15350.00000   13.60300   94.73850   14.31000   13.60300   94.73850   56.95000 3380.66800    -999.25 3380.66800 -120.39900  -23.39200   13.35700   56.95000   14.31000    -999.25   13.35700 -149.11100
 15400.00000    9.84300   35.06690   23.23300    9.84300   35.06690   48.77300 3134.85790    -999.25 3134.85790 -119.89300  -25.61430   12.80400   48.77300   23.23300    -999.25   12.80400 -161.31300
 15450.00000   12.82400   40.70040   14.86900   12.82400   40.70040   48.94700 3210.15410    -999.25 3210.15410 -123.33500  -31.78470   12.69800   48.94700   14.86900    -999.25   12.69800 -170.79600
 15500.00000    8.78300  132.09020   28.45700    8.78300  132.09020   48.59100 3165.04910    -999.25 3165.04910 -111.28900  -22.46710   13.06500   48.59100   28.45700    -999.25   13.06500 -153.72900
 15550.00000   -4.46500  265.61030   31.62700   -4.46500  265.61030   51.84100 2947.67090    -999.25 2947.67090 -103.96300  -17.86940   13.65500   51.84100   31.62700    -999.25   13.65500 -138.73900
 15600.00000   56.11900   30.95680   11.00100   56.11900   30.95680   51.31200 2947.82500    -999.25 2947.82500 -110.54900  -27.18380   13.13800   51.31200   11.00100    -999.25   13.13800 -149.85500
 15650.00000   34.86600   39.82230   17.63800   34.86600   39.82230   51.00100 3500.87330    -999.25 3500.87330  -86.65300   -6.01620   12.81400   51.00100   17.63800    -999.25   12.81400 -119.67700
 15700.00000   14.55200   65.08960   17.58300   14.55200   65.08960   48.22200 2553.39400    -999.25 2553.39400  -94.50900  -16.60050   12.79900   48.22200   17.58300    -999.25   12.79900 -118.97300
 15750.00000   28.73000   37.17290   15.87400   28.73000   37.17290   49.81900 2250.43990    -999.25 2250.43990  -77.16300   -1.79880   12.72100   49.81900   15.87400    -999.25   12.72100  -92.79900
 15800.00000   16.68800   63.54100   18.02200   16.68800   63.54100   48.83800 2113.51200    -999.25 2113.51200  -92.73800  -18.42840   12.67000   48.83800   18.02200    -999.25   12.67000 -112.55200
 15850.00000   10.14800   98.50700   28.15400   10.14800   98.50700   48.92700 1973.71800 1327.44900 1973.71800  -90.92500  -17.67000   12.63700   48.92700   28.15400 1327.44900   12.63700 -102.93000
 15900.00000   23.51100   40.76400   15.87800   23.51100   40.76400   51.47800 1606.34800 1309.61300 1606.34800  -76.43000   -4.22960   12.81500   51.47800   15.87800 1309.61300   12.81500  -74.59800
 15950.00000   32.89400   29.45400   17.50700   32.89400   29.45400   49.82300 1614.64700 1257.84400 1614.64700  -73.20800   -0.27290   12.61700   49.82300   17.50700 1257.84400   12.61700  -61.48200
 16000.00000    -999.25    -999.25    -999.25    -999.25    -999.25    -999.25 1720.35900 1300.84000 1720.35900    -999.25    -999.25   10.32700    -999.25    -999.25 1300.84000   10.32700    -999.25
 16050.00000   30.78500   35.48200   35.83500   30.78500   35.48200   52.97100 2233.99390 1120.86100 2233.99390  -83.51200  -12.01780   10.99100   52.97100   35.83500 1120.86100   10.99100  -69.51000
 16100.00000   62.18400   16.00800   19.79800   62.18400   16.00800   50.84700 2015.19200 1083.21110 2015.19200  -91.50500  -22.88790    9.96700   50.84700   19.79800 1083.21110    9.96700  -74.91700
 16150.00000  128.66800    8.21900   11.16400  128.66800    8.21900   63.23600 1760.07600 1105.31800 1760.07600  -71.41400   -3.91050   10.11700   63.23600   11.16400 1105.31800   10.11700  -68.24700
 16200.00000   32.16200   35.55700   26.28400   32.16200   35.55700   54.34800 1670.20200 1050.80900 1670.20200  -77.68400  -11.29400   10.56600   54.34800   26.28400 1050.80900   10.56600  -58.00600
 16250.00000  116.58400    9.32800   12.04200  116.58400    9.32800   68.64800 1490.03410 1028.00100 1490.03410  -76.37000  -11.09350   10.14300   68.64800   12.04200 1028.00100   10.14300  -51.22500
 16300.00000   46.14000   22.81900   22.70300   46.14000   22.81900   61.00300 2277.24190  969.08300 2277.24190  -69.70000   -5.53710   11.37700   61.00300   22.70300  969.08300   11.37700  -63.47100
 16350.00000   37.74600   27.00200   31.28300   37.74600   27.00200   50.90300 1990.07400  950.60800 1990.07400  -68.25100   -5.20160   12.17800   50.90300   31.28300  950.60800   12.17800  -70.43400
 16400.00000   30.38300   34.44600   31.03600   30.38300   34.44600   54.26000 2280.62400  914.11700 2280.62400  -64.38800   -2.45210   11.67600   54.26000   31.03600  914.11700   11.67600  -57.71200
 16450.00000   41.89600   25.17200   27.99700   41.89600   25.17200   50.70500 2176.05810  863.33300 2176.05810  -65.92400   -5.10170   10.81100   50.70500   27.99700  863.33300   10.81100  -63.74000
 16500.00000  160.27800    6.87100    9.32900  160.27800    6.87100   54.05700 1793.41100  866.22000 1793.41100  -72.08000  -12.37120    9.87000   54.05700    9.32900  866.22000    9.87000  -50.93800
