~Version ---------------------------------------------------
VERS. 2.0 : CWLS log ASCII Standard -VERSION 2.0
WRAP.  NO : ONE LINE PER DEPTH STEP
~Well ------------------------------------------------------
STRT.F                   850.0 : START DEPTH
STOP.F                  8200.0 : STOP DEPTH
STEP.F                50.00000 : STEP LENGTH
NULL.                  -999.25 : NULL VALUE
COMP.    DELHI OIL CORPORATION : COMPANY
WELL.                DRESCH #1 : WELL
FLD .              PEACH CREEK : FIELD
LOC .                          : LOCATION
CNTY.                 GONZALES : COUNTY
STAT.                    TEXAS : STATE
CTRY. UNITED STATES OF AMERICA : COUNTRY
SRVC.             Schlumberger : SERVICE COMPANY
DATE.              08-May-1981 : LOGDATE
API .           42177309080000 : API NUMBER
UWI .           42177309080000 : UNIQUE WELL ID
SLAT.WGS84       29.5750152207 : SURFACE LATITUDE
SLON.WGS84      -97.3299683092 : SURFACE LONGITUDE
~Curve Information -----------------------------------------
DEPT.F                 : 
ILM .OHMM 07 120 44 00 : INDUCTION LOG MEDIUM
CILD.MMHO 07 110 46 00 : CONDUCTIVITY INDUCTION LOG DEEP
SFLU.OHMM 07 220 01 00 : SPHERICALLY FOCUSED LOG UNAVERAGED RESISTIVITY
ILD .OHMM 07 120 46 00 : INDUCTION LOG DEEP
GRR .GAPI 07 310 01 00 : GAMMA RAY FROM RES. LOG.
SPR .MV   07 010 01 00 : SPONTANEOUS POTENTIAL FROM RES.
~Params ----------------------------------------------------
PD  .                     GL : PERMANENT DATUM
EPD .F                   312 : ELEVATION PERMANENT DATUM
LMF .                     KB : LOG MEASURED FROM
DAPD.F                    12 : FEET ABOVE PERMANENT DATUM
DMF .                     KB : DRILLING MEASURED FROM
EKB .F                   324 : KELLING BUSHING
EDF .F                   323 : DRILLING FLOOR
EGL .F                   312 : GROUND LEVEL
DATE.               05-08-81 : RUN DATE
RUN .                      2 : RUN NUMBER
DD  .F                  8250 : DEPTH DRILLER
DL  .F                  8221 : DEPTH LOGGER
BLI .F                  8215 : BOTTOM LOG INTERVAL
TLI .F                  2734 : TOP LOG INTERVAL
CS  .IN                8.625 : CASING SIZE
CBD .F                  2737 : CASING BOTTOM DRILLER
CBL .F                  2734 : CASING BOTTOM LOGGER
BS  .IN                7.875 : BIT SIZE
BSD .F                  8250 : BIT SIZE AT DEPTH
DFT .                  LIGNO : DRILLING FLUID TYPE
DFD .                    9.5 : DRILLING FLUID DENSITY
DFV .                     46 : DRILLING FLUID VISCOSITY
DFPH.                    9.4 : DRILLING FLUID PH
DFL .                      6 : DRILLING FLUID LOSS
MSS .              CIRC TANK : MUD SAMPLE SOURCE
RMS .OHMM               1.85 : RESISTIVITY MUD SAMPLE
MST .F                    75 : MUD SAMPLE TEMPERATURE
RMF .OHMM                2.1 : RESISTIVITY MUD FILTRATE SAMPLE
MFST.F                    75 : MUD FILTRATE SAMPLE TEMPERATURE
RMC .OHMM               2.78 : RESISTIVITY MUD CAKE
MCST.F                    75 : MUD CAKE SAMPLE TEMPERATURE
MFSS.                      M : MUD FILTRATE SAMPLE SOURCE
MCSS.                      C : MUD CAKE SAMPLE SOURCE
RMB .OHMM              0.701 : RESISTIVITY MUD AT BHT
TCS .HRS                1330 : TIME CURCULATED STOPPED
TLAB.HRS                1700 : TIME LOGGER AT BOTTOM
LUN .                   8238 : LOGGING UNIT NUMBER
LUL .                WHARTON : LOGGING UNIT LOCATION
ENGI.              LANGHAMER : RECORDING ENGINEER
WITN.                  AHALT : WITNESSED BY
CLNT.                A2DTECH : CLIENT CODE
ORIG.          1" 2.5" PRINT : ORIGIN OF DATA
UWI .         42177309080000 : UNIQUE WELL ID
DICO. A2D Technologies, Inc. : DIGITIZING COMPANY
~Other -----------------------------------------------------
~ASCII -----------------------------------------------------
  850.00000    -999.25  563.04170    3.87430    1.65890   81.75700  -29.46120
  900.00000    -999.25  570.40560    1.03930    1.75650   87.29410  -29.75720
  950.00000    -999.25  138.76780    2.90610    6.97080   43.77450  -33.61500
 1000.00000    -999.25  166.65610    2.68530    6.39260   84.39040  -33.32670
 1050.00000    -999.25  439.00850    1.08940    2.26640   79.61570  -30.33300
 1100.00000    -999.25  507.46420    1.22630    1.90650   82.25550  -29.78600
 1150.00000    -999.25  360.78940    1.62100    2.71870   66.01390  -32.10950
 1200.00000    -999.25  256.36010    1.68390    3.64390   70.41670  -33.59690
 1250.00000    -999.25  244.61840    1.95110    4.26790   70.11500  -35.46840
 1300.00000    -999.25  596.86890    2.02540    2.07210   76.42930  -30.16080
 1350.00000    -999.25  234.83370    2.02290    4.68450  101.03820  -35.21630
 1400.00000    -999.25  230.78690    2.40700    6.68760   73.37560  -34.85600
 1450.00000    -999.25  250.48920    1.96800    4.07990   76.98950  -36.21950
 1500.00000    -999.25  400.11370    1.25260    2.42170   80.14860  -29.15000
 1550.00000    -999.25  236.59670    1.60180    4.67570   63.83410  -36.39520
 1600.00000    -999.25  342.46580    1.75650    3.79770   69.51510  -31.98550
 1650.00000    -999.25  326.81020    1.64620    3.14530   78.29930  -29.15350
 1700.00000    -999.25  405.08810    1.28710    2.18420   73.10110  -27.47840
 1750.00000    -999.25  341.81340    1.50260    2.72830   81.05350  -26.62550
 1800.00000    -999.25  303.12970    1.85940    3.26990   70.11310  -27.07950
 1850.00000    -999.25   64.57930    3.63010   12.81510   62.66930  -28.59000
 1900.00000    -999.25  166.15610    3.14280    5.93550   76.24020  -24.60610
 1950.00000    -999.25  135.02930    3.14310    7.23880   67.86280  -25.39930
 2000.00000    -999.25   93.17630    5.00950    9.70170   69.67380  -23.62170
 2050.00000    -999.25   91.97650    3.90410    9.59290   50.24560  -24.02590
 2100.00000    -999.25   52.83760    8.34390   14.15900   71.17420  -17.37490
 2150.00000    -999.25  111.57520    5.72410   10.21810   76.16350  -18.55010
 2200.00000    -999.25   27.42200   52.73110   23.17840   56.74500  -14.19340
 2250.00000    -999.25    0.00040   14.67710  127.45320   34.07680   -2.20310
 2300.00000    -999.25    0.00040   11.34070   62.22760   49.67650  -13.84450
 2350.00000    -999.25    3.63430   19.47160   62.34830   53.79560  -22.50440
 2400.00000    -999.25   25.13780   11.21000   23.87920   55.22870   -9.83690
 2450.00000    -999.25   11.08940   48.87480  114.09000   38.28450  -12.55790
 2500.00000    -999.25   28.20420   22.73930   29.63730   44.68520  -12.64680
 2550.00000    -999.25   17.61250   50.19570   39.13890   54.82720   -7.55990
 2600.00000    -999.25   52.65100   10.08810   16.66870   65.49680  -18.94570
 2650.00000    -999.25  196.85650    0.67510    5.16110   80.71840  -16.20870
 2700.00000    -999.25  257.73290    0.73530    4.14840    -999.25  -25.89730
 2750.00000    2.46310    -999.25    2.84570    2.46310   72.64980    0.27630
 2800.00000    2.64720    -999.25    2.99670    2.90210   75.34650   -2.77860
 2850.00000    2.23710    -999.25    2.31900    2.26410   80.97760   -2.17670
 2900.00000    1.93680    -999.25    2.04130    1.97270   84.20960   -2.85210
 2950.00000    1.70700    -999.25    1.75710    1.76660   84.45820   -1.31390
 3000.00000    2.75140    -999.25    4.67280    2.60150   56.71470  -17.34900
 3050.00000    1.67660    -999.25    1.71450    1.70770   81.42700   -4.55120
 3100.00000    1.63670    -999.25    1.71020    1.66740   81.91510   -6.98580
 3150.00000    2.20270    -999.25    2.57510    2.24250   77.92260  -11.13240
 3200.00000    1.73440    -999.25    1.86680    1.76660   86.77930   -8.03430
 3250.00000    0.83720    -999.25    0.98630    0.85280   88.48320  -11.27460
 3300.00000    4.39210    -999.25    3.84520    4.51050   71.67240  -20.39370
 3350.00000    5.57100    -999.25    6.38720    5.03740   53.56970  -34.94740
 3400.00000    5.94410    -999.25    6.80940    5.29740   52.25890  -36.48760
 3450.00000    2.79730    -999.25    4.51070    2.78330   86.32540  -10.07750
 3500.00000    5.88910    -999.25    6.65110    5.52050   68.97400  -35.73070
 3550.00000    3.24050    -999.25    4.56370    3.01080   61.98340  -14.72140
 3600.00000    4.39250    -999.25    4.35400    4.18290   94.31040  -21.14350
 3650.00000    3.37260    -999.25    3.84060    2.96930   98.43740  -27.30310
 3700.00000    2.74890    -999.25    5.17850    2.04110   47.83260  -63.26400
 3750.00000    2.85120    -999.25    3.37070    2.59300   77.05390  -27.61220
 3800.00000    2.48240    -999.25    3.65430    2.03050   62.23210  -36.58920
 3850.00000    1.93950    -999.25    3.40550    1.48300   39.92190  -67.44040
 3900.00000    1.72280    -999.25    3.87240    1.36130   45.40570  -65.55040
 3950.00000    1.94900    -999.25    4.59010    1.58780   48.66990  -59.64500
 4000.00000    1.67990    -999.25    1.66030    1.76660   86.92860   -5.73080
 4050.00000    2.00920    -999.25    4.72070    1.50210   47.75390  -62.09290
 4100.00000    2.19900    -999.25    5.13110    1.64140   44.15870  -51.45390
 4150.00000    2.09910    -999.25    4.26940    1.70940   51.68950  -49.15290
 4200.00000    2.41470    -999.25    6.88580    1.93670   48.80730  -45.72140
 4250.00000    2.37070    -999.25    3.59380    2.12410   63.17880  -27.18420
 4300.00000    2.16210    -999.25    4.00260    1.75430   62.72920  -42.05050
 4350.00000    2.49280    -999.25    3.22930    2.01790   64.51730  -35.77640
 4400.00000    1.93660    -999.25    5.33700    1.51690   44.27650  -66.77290
 4450.00000    2.59940    -999.25    6.20060    2.26170   67.10980  -38.03990
 4500.00000    2.61700    -999.25    6.26080    1.91770   48.50460  -58.85460
 4550.00000    3.28060    -999.25    4.19170    2.99120   82.01520  -22.41090
 4600.00000    2.79730    -999.25    6.26190    2.24350   47.94840  -54.70350
 4650.00000    2.33060    -999.25    5.03770    1.74910   57.76310  -59.36230
 4700.00000   11.19930    -999.25   15.46160    8.97550   35.85160  -49.02090
 4750.00000    2.92150    -999.25    4.13810    2.66520   77.69510  -10.40400
 4800.00000    3.06660    -999.25    3.53210    2.69660   77.13330  -24.25420
 4850.00000    2.55160    -999.25    6.42710    2.04300   55.15560  -59.60260
 4900.00000    3.01080    -999.25    4.12020    2.61090   85.34790  -28.34170
 4950.00000    2.56320    -999.25    6.14690    1.97730   64.69290  -55.07780
 5000.00000    2.08060    -999.25    2.28120    2.10910  115.82200   -2.48970
 5050.00000    2.74170    -999.25    5.61170    2.14290   92.28460  -41.65710
 5100.00000    2.33960    -999.25    2.71950    2.32790   89.83000   -6.90170
 5150.00000    2.66170    -999.25    4.69360    2.21950   90.98540  -35.46760
 5200.00000    1.53920    -999.25    1.71940    1.50710   98.73030   -1.91890
 5250.00000    2.85730    -999.25    3.68720    2.64170   97.72310  -10.86350
 5300.00000    2.33810    -999.25    2.59900    2.26400   98.96350   -3.30850
 5350.00000    2.12310    -999.25    2.13780    2.09810  101.19560   -3.96460
 5400.00000    2.19100    -999.25    2.24350    2.08850   98.51460   -2.09640
 5450.00000    1.86650    -999.25    2.03790    1.76660  100.53580   -1.19670
 5500.00000    1.56620    -999.25    1.94910    1.53300   99.65840   -2.17470
 5550.00000    1.46200    -999.25    1.76960    1.51350   94.73990   -0.08530
 5600.00000    1.42400    -999.25    1.57030    1.41690   94.16970   -0.77680
 5650.00000    1.37590    -999.25    1.54570    1.35770   95.34970   -6.26790
 5700.00000    1.34740    -999.25    1.53950    1.31390   96.97140   -7.69430
 5750.00000    1.55780    -999.25    1.62460    1.53250   98.53170   -2.94860
 5800.00000    0.87150    -999.25    0.97600    0.80940  101.01180   -0.96300
 5850.00000    0.92880    -999.25    0.89220    0.91460   91.12880   -0.12030
 5900.00000    1.00110    -999.25    1.13040    0.96040   86.33000    0.60760
 5950.00000    1.79440    -999.25    1.86710    1.76660   80.95090    0.04560
