~Version ---------------------------------------------------
VERS. 2.0 : CWLS log ASCII Standard -VERSION 2.0
WRAP.  NO : ONE LINE PER DEPTH STEP
~Well ------------------------------------------------------
STRT.F                    2300.0 : START DEPTH
STOP.F                   10750.0 : STOP DEPTH
STEP.F                  50.00000 : STEP LENGTH
NULL.                    -999.25 : NULL VALUE
COMP.  CLAYTON W WILLIAMS JR INC : COMPANY
WELL. WINTERSHALL-PETERS UNIT #1 : WELL
FLD .                   GIDDINGS : FIELD
LOC .                            : LOCATION
CNTY.                     BRAZOS : COUNTY
STAT.                      TEXAS : STATE
CTRY.   UNITED STATES OF AMERICA : COUNTRY
SRVC.                            : SERVICE COMPANY
DATE.                            : LOGDATE
API .             42041315490000 : API NUMBER
UWI .             42041315490000 : UNIQUE WELL ID
SLAT.WGS84         30.6777769181 : SURFACE LATITUDE
SLON.WGS84        -96.2263773944 : SURFACE LONGITUDE
~Curve Information -----------------------------------------
DEPT.F                 : 
TENR.LBS  07 635 01 00 : TENSION FROM RESISTIVITY
SPR .MV   07 010 01 00 : SPONTANEOUS POTENTIAL
DCAL.IN   07 280 30 00 : DIFFERENTIAL CALIPER
IDPH.OHMM 07 120 46 00 : INDUCTION DEEP PHASOR RES
IMPH.OHMM 07 120 44 00 : INDUCTION MEDIUM PHASOR RES.
SFLU.OHMM 07 220 01 00 : SPHERICALLY FOCUSED LOG UNAVERAGED RESISTIVITY
DPHI.DEC  45 890 10 00 : DENSITY POROSITY LIMESTONE
NPHI.DEC  42 890 01 00 : NEUTRON POROSITY LIMESTONE
GRR .GAPI 07 310 01 00 : GAMMA RAY FROM RESISTIVITY
DRHO.G/C3 45 356 01 00 : DENSITY CORRECTION
~Params ----------------------------------------------------
EKB .F                 323.0 : KELLY BUSHING
EGL .F                   299 : ELEVATION GROUND LEVEL
EDF .                    322 : ELEVATION DERRICK FLOOR
EPD .                    299 : ELEVATION PERMANENT DATUM
TD  .F               10745.0 : TOTAL DEPTH
DATE.            16-DEC-1991 : DATE LOGGED
CLNT.                A2DTECH : CLIENT CODE
LMF .                    RKB : LOG MEASURED FROM
DMF .                    RKB : DRILLING MEASURED FROM
DAPD.F                    24 : FEET ABOVE PERMANENT DATUM
DD  .F                 10745 : DEPTH DRILLER
DL  .F                 10732 : DEPTH LOGGER
BLI .F                 10726 : BOTTOM LOG INTERVAL
TLI .F                  2352 : TOP LOG INTERVAL
CBD1.         10.75" @ 2350' : CASING DRILLER 1
CBL1.F                  2352 : CASING LOGGER 1
BS1 .IN                9.875 : BIT SIZE
BSD1.F                 10745 : DEPTH DRILLED WITH BIT1
DFT .       GEL/WATER/POLYAL : TYPE FLUID IN HOLE
DFD .                    9.6 : DENSITY
DFV .                     41 : VISCOSITY
DFPH.                    9.3 : PH
DFL .                      8 : FLUID LOSS
RMS .OHMM               2.67 : RM
RMF .OHMM               2.71 : RMF
RMC .OHMM               4.01 : RMC
TCS .HRS                1400 : TIME CIRC. STOPPED
TLAB.HRS                2130 : TIME LOGGER AT BOTTOM
LUN .                   2017 : LOGGING UNIT NUMBER
LUL .               VICTORIA : LOGGING UNIT LOCATION
ENGI.          WILKE/LOPUCKI : RECORDED BY
WITN.                PRATHER : WITNESSED BY
ORIG.               5" PRINT : ORIGIN OF DATA
UWI .         42041315490000 : UNIQUE WELL ID
DICO. A2D TECHNOLOGIES, INC. : DIGITIZING COMPANY
SL  .    775' FWL & 500' FEL : SURFACE LOCATION
PD  .                     GL : PERMANENT DATUM
CS1 .IN                10.75 : CASING SIZE
MSS .               MEASURED : SOURCE OF SAMPLE
MFSS.                   MEAS : SOURCE RMF.
MCSS.                   CALC : SOURCE RMC.
RMB .OHMM              1.026 : RM. AT BHT
BHT .F                   206 : BHT.
~Other -----------------------------------------------------
~ASCII -----------------------------------------------------
# ...
 8900.00000 3751.25390   -7.73800    0.98300    2.10000    2.08000    2.02300    0.14400    0.27200   83.87300    0.04900
 8950.00000 3572.33690  -10.20200    2.93400    1.99600    2.11500    2.38900    0.11800    0.25900   76.54700    -999.25
 9000.00000 3510.53200   -7.37900    0.99500    2.84600    2.96900    3.03800    0.12800    0.21800   85.94100    0.10000
 9050.00000 3665.15210   -7.47600    1.18800    2.66900    2.80400    3.29200    0.11300    0.20000   82.30100    0.09900
 9100.00000 3671.01290   -9.34200    1.75000    2.77900    3.09500    3.36300    0.09500    0.23600   83.30500    0.10000
 9150.00000 3598.57300   -9.85500    3.25000    2.69500    2.84400    2.90100    0.10000    0.25700   83.93700    0.09500
 9200.00000 3671.01290   -8.44600    1.67100    3.20100    3.47300    3.54900    0.08700    0.19200   79.16700    0.05000
 9250.00000 3583.23290   -8.66600    0.48500    8.70700    8.60600    9.82000    0.04700    0.07400   50.65000   -0.00100
 9300.00000 3751.25390   -8.35900    1.22600    7.80100    8.87100   10.87000    0.04700    0.10100   50.12300   -0.00400
 9350.00000 3776.49710   -9.27600    1.38700    8.82600    9.42500    9.29000    0.05300    0.08100   48.87300   -0.00200
 9400.00000 3775.01610  -10.58400    1.70300   13.25900   16.02600   20.68400    0.03700    0.05000   38.19100   -0.00700
 9450.00000 3776.92900   -9.14700    1.30300    6.70000    6.80100    8.67600    0.08000    0.15500   62.62800   -0.01100
 9500.00000 3747.49510  -16.90700    1.59900   29.82800   25.34100   45.57200    0.28100    0.08700   33.22800    0.01600
 9550.00000 3874.19510  -27.27200   12.37200   27.24600   25.06100   35.10000    0.08000    0.05600   23.75600    0.05600
 9600.00000 3867.73510  -25.07000    2.99900   30.43700  230.99300   52.95100    0.35000    0.04200   25.98500    -999.25
 9650.00000 3843.41990  -15.82700    0.02000   33.45000   34.30000   36.50900    0.05600    0.04800   32.67200   -0.01000
 9700.00000 3852.22290  -13.83100    1.74500    3.71300    3.92300    4.18500    0.08800    0.20800   89.02500    -999.25
 9750.00000 3747.49510  -15.19400    4.58200    1.91200    1.96300    2.19300    0.17100    0.30800   85.88000    0.10000
 9800.00000 3907.81590  -17.95000    2.82600    2.91900    3.38400    4.07000    0.11200    0.24100   88.38100    -999.25
 9850.00000 3844.12890  -20.15400    4.46500    1.75800    1.80700    2.25500    0.22000    0.32100   88.61900    -999.25
 9900.00000 3907.81590  -22.70500    4.02800    1.83800    1.95300    2.32300    0.18600    0.30600   83.87800    -999.25
 9950.00000 3959.61690  -23.57500    4.11200    1.76300    1.81500    2.11400    0.23100    0.32500   87.10000    -999.25
 10000.00000 4016.09690  -25.48100    3.10800    2.76900    2.54700    3.38400    0.17200    0.30800   88.20600    -999.25
 10050.00000 3987.97610  -30.37100    3.27300    1.93600    1.81800    2.44600    0.38500    0.32800   84.45500    -999.25
 10100.00000 3997.48290  -29.31200    3.36600    4.05200    3.44700    4.58900    0.16900    0.34100   92.04200    -999.25
 10150.00000 4148.29690  -29.54000    3.78800    3.95900    3.43400    4.70000    0.20300    0.33900   91.28500    -999.25
 10200.00000 4004.82910  -31.14800    2.90000    2.65000    2.71600    3.35800    0.16900    0.34100   95.10900    -999.25
 10250.00000 3987.97610  -27.95800    0.76500    7.22600    7.62100   11.55500    0.16300    0.25200  122.67400    0.04200
 10300.00000 4151.85600  -32.71000    1.63000    9.04900   13.62700   34.63400    0.06100    0.09500   37.23900    0.02300
 10350.00000 4148.29690  -35.48000    0.74200   69.73400   78.02100   84.96100    0.04100    0.00900   15.92900   -0.00600
 10400.00000 4091.45700  -36.69100    0.86200   33.37900   36.61800   40.29700    0.01500    0.01700   19.83100   -0.00600
 10450.00000 4038.20410  -34.39600    0.94400   22.44600   21.43300   25.65200    0.02200    0.01700   29.35400    0.00300
 10500.00000 4093.76390  -56.56600    3.66800   88.59700  213.76000   87.15800    0.11800    0.01700   19.25200    -999.25
 10550.00000 4108.21580  -44.25300    1.86100   76.85500   93.74600  100.09900    0.06900    0.00700   17.56800    0.01900
 10600.00000 4088.30690  -54.12200    1.61800  140.61400  370.56300  118.55300    0.03800    0.00300   20.05200    0.04700
 10650.00000 4188.37700  -36.08600   -0.08300   53.95600   56.48500   75.89100    0.00800    0.00600   23.13800    0.01600
 10700.00000 4188.37700  -35.00100   -1.14200  107.84400  791.08700  364.37700    0.04300    0.00800   25.06300    0.07900
 10750.00000 3226.45290    -999.25    -999.25    -999.25    -999.25    -999.25    -999.25    -999.25    -999.25    -999.25
