~Version ---------------------------------------------------
VERS. 2.0 : CWLS log ASCII Standard -VERSION 2.0
WRAP.  NO : ONE LINE PER DEPTH STEP
~Well ------------------------------------------------------
STRT.F                       2550.0 : START DEPTH
STOP.F                      16500.0 : STOP DEPTH
STEP.F                     50.00000 : STEP LENGTH
NULL.                       -999.25 : NULL VALUE
COMP.       UNION PACIFIC RESOURCES : COMPANY
WELL. UPR T BAR X LIGHTNING UNIT #1 : WELL
FLD .                       WILDCAT : FIELD
LOC .                               : LOCATION
CNTY.                     ROBERTSON : COUNTY
STAT.                         TEXAS : STATE
CTRY.      UNITED STATES OF AMERICA : COUNTRY
SRVC.                               : SERVICE COMPANY
DATE.                               : LOGDATE
API .                42395304830000 : API NUMBER
UWI .                42395304830000 : UNIQUE WELL ID
SLAT.WGS84            31.1540924699 : SURFACE LATITUDE
SLON.WGS84           -96.3276535393 : SURFACE LONGITUDE
~Curve Information -----------------------------------------
DEPT.F                 : 
DCAL.IN   07 280 30 00 : DIFFERENTIAL CALIPER
AT90.OHMM 07 120 90 00 : 2FT VERT. RES. 90IN D.I.
AT20.OHMM 07 120 20 00 : 2FT VERT. RES. 20IN D.I.
SP  .MV   07 010 01 00 : SPONTANEOUS POTENTIAL
GR  .GAPI 07 310 01 00 : GAMMA RAY - GAPI
ILD .OHMM 07 120 46 00 : DEEP INDUCTION RESISTIVITY
SFL .OHMM 07 220 01 00 : SPHERICAL FOCUSED RESISTIVITY
DT  .US/F 07 520 00 00 : 
AT30.OHMM 06 120 30 00 : 
HDRA.G/C3 45 356 01 00 : 
PEFZ.B/E  45 358 01 00 : 
ILM .OHMM 00 120 44 00 : MEDIUM IND.
DPHI.DEC  45 890 10 00 : 
NPHI.DEC  42 890 01 00 : 
CAL .IN   07 280 01 00 : 
~Params ----------------------------------------------------
EKB .F                399.0 : KELLY BUSHING
EGL .F                  373 : ELEVATION GROUND LEVEL
EDF .F                  398 : ELEVATION DERRICK FLOOR
EPD .F                  373 : ELEVATION PERMANENT DATUM
TD  .F              16500.0 : TOTAL DEPTH
CLNT.               A2DTECH : CLIENT CODE
PD  .                    GL : PERMANENT DATUM
LMF .                   RKB : LOG MEASURED FROM
DMF .                   RKB : DRILLING MEASURED FROM
DAPD.F                 26.9 : FEET ABOVE PERMANENT DATUM
DATE.           26-MAY-1997 : DATE LOGGED
DD  .F                16500 : DEPTH DRILLER
DL  .F                16500 : DEPTH LOGGER
BLI .F                16498 : BOTTOM LOG INTERVAL
TLI .F                15524 : TOP LOG INTERVAL
CS1 .IN               7.625 : CASING SIZE
CBD1.        7.625" @ 15550 : CASING DRILLER 1
CBL1.F                15524 : CASING LOGGER 1
BS1 .IN                6.75 : BIT SIZE
BSD1.F                16500 : DEPTH DRILLED WITH BIT1
DFT .         LOW-LIME DISP : TYPE FLUID IN HOLE
DFD .                  17.7 : DENSITY
DFV .                  46 S : VISCOSITY
DFPH.                  11.3 : PH
DFL .                  18.2 : FLUID LOSS
MSS .              FLOWLINE : SOURCE OF SAMPLE
RMS .OHMM              0.75 : RM
RMF .OHMM              0.56 : RMF
MFSS.                  CALC : SOURCE RMF.
RMC .OHMM              0.94 : RMC
MCSS.                  CALC : SOURCE RMC.
RMB .OHMM               0.4 : RM. AT BHT
BHT .F                  360 : BHT.
TCS .HRS                 17 : TIME CIRC. STOPPED
LUN .               HL 6542 : LOGGING UNIT NUMBER
LUL .                 TYLER : LOGGING UNIT LOCATION
ENGI.                DIDUCH : RECORDED BY
WITN.               CLAWSON : WITNESSED BY
ORIG.              5" PRINT : ORIGIN OF DATA
UWI .        42395304830000 : UNIQUE WELL ID
DICO. A2D TECHNOLOGIES INC. : DIGITIZING COMPANY
SL  .       845' FWL & 1' F : SURFACE LOCATION
~Other -----------------------------------------------------
~ASCII -----------------------------------------------------
# ...
 4850.00000    5.93270    1.24270    1.13590  -66.37010  104.35460    -999.25    -999.25  104.18660    1.25120    0.14670    5.69850    -999.25    0.35000    0.35000    -999.25
 4900.00000    4.92220    3.04860    2.28090  -67.52770   89.13620    -999.25    -999.25   95.92960    2.88560    0.19440    4.32390    -999.25    0.16550    0.26480    -999.25
 4950.00000    1.88450    2.01750    2.82200  -69.37570   57.47650    -999.25    -999.25   84.70450    2.79350    0.02290    4.78130    -999.25    0.08600    0.14840    -999.25
 5000.00000    0.78800    3.05930    3.68340  -74.29420   60.87270    -999.25    -999.25   77.51820    3.55730    0.02440    5.10560    -999.25    0.09690    0.11480    -999.25
 5050.00000    1.61000    2.95670    4.01650  -76.80250   49.29910    -999.25    -999.25   76.68160    3.77740    0.01820    5.03130    -999.25    0.09690    0.10940    -999.25
 5100.00000    3.12690    2.35900    2.70790  -68.33650   79.90650    -999.25    -999.25   93.27580    3.69390    0.07300    4.50000    -999.25    0.09560    0.10860    -999.25
 5150.00000    2.25740    3.14190    2.94600  -72.72730   61.21720    -999.25    -999.25   78.05820    3.26350    0.01820    4.92410    -999.25    0.10260    0.13280    -999.25
 5200.00000    2.50780    2.74210    3.61450  -73.04030   73.26900    -999.25    -999.25   87.75660    3.73660    0.02600    4.99990    -999.25    0.13020    0.14200    -999.25
 5250.00000    7.12070    2.63370    1.21920  -62.81450   92.83520    -999.25    -999.25  115.07860    1.70960    0.08530    6.99590    -999.25    -999.25    -999.25    -999.25
 5300.00000   11.83800    1.28360    0.61240  -60.00070   92.05610    -999.25    -999.25  117.57000    0.83550    0.00560    7.44750    -999.25    -999.25    -999.25    -999.25
 5350.00000   11.79680    0.91200    0.63250  -59.94890   96.26130    -999.25    -999.25  109.31450    0.78270   -0.05230    9.35880    -999.25    -999.25    -999.25    -999.25
 5400.00000    8.66880    1.44440    1.47990  -59.31310  112.35170    -999.25    -999.25  144.31880    1.72000    0.11100    6.59380    -999.25    -999.25    0.33400    -999.25
 5450.00000    7.15180    1.32160    1.28650  -64.06250  113.51240    -999.25    -999.25   91.40110    1.96820    0.17650    3.78110    -999.25    0.27790    0.26330    -999.25
 5500.00000   10.80510    1.29540    0.75130  -59.37600  107.47960    -999.25    -999.25  110.33950    1.18710    0.07900    6.77260    -999.25    -999.25    -999.25    -999.25
 5550.00000   12.02470    2.30650    1.44830  -60.62660  109.69210    -999.25    -999.25  116.01540    1.70160    0.00610    8.63840    -999.25    -999.25    -999.25    -999.25
 5600.00000    7.15440    2.00000    1.83840  -63.74960  100.33720    -999.25    -999.25  100.90420    1.60930    0.12810    4.79600    -999.25    0.35000    0.29220    -999.25
 5650.00000    5.08780    1.41740    1.38720  -65.31250  116.88990    -999.25    -999.25  102.07840    1.57790    0.15760    5.34250    -999.25    0.34960    -999.25    -999.25
 5700.00000    2.91540    2.62200    1.44570  -62.18750  113.87470    -999.25    -999.25  107.06890    2.06200    0.14690    4.85540    -999.25    0.35000    0.34990    -999.25
 5750.00000    1.57890    3.95070    4.29340  -64.29750  101.56320    -999.25    -999.25   90.96960    4.44020    0.14990    4.68730    -999.25    0.34290    0.34610    -999.25
 5800.00000   11.92580    1.20490    0.27320  -54.44470   52.53310    -999.25    -999.25  196.54260    0.34060   -0.07430    9.90620    -999.25    -999.25    -999.25    -999.25
 5850.00000   11.84440    0.63250    0.34250  -53.50870   67.72670    -999.25    -999.25  197.32090    0.42370   -0.06490   10.03260    -999.25    -999.25    -999.25    -999.25
 5900.00000    8.51390    1.59580    0.87090  -61.62400   80.60490    -999.25    -999.25  128.47350    1.23100   -0.00060    8.21880    -999.25    0.34960    -999.25    -999.25
 5950.00000    1.05880   15.71560   18.42880  -82.37630   29.23630    -999.25    -999.25   57.48010   18.67150    0.01980    5.67290    -999.25    0.07110    0.07030    -999.25
 6000.00000    1.57380    5.55850    5.42760  -75.83530   44.54470    -999.25    -999.25   64.45660    5.93920    0.01740    5.06250    -999.25    0.04380    0.14140    -999.25
 6050.00000    1.68220    5.40260    6.12370  -71.69520   42.72060    -999.25    -999.25   65.79650    6.20080    0.02960    5.50000    -999.25    0.07490    0.15390    -999.25
 6100.00000    3.25000    7.82360    6.05810  -78.22710   47.48950    -999.25    -999.25   61.36470    9.57810    0.18120    6.14510    -999.25    0.18030    0.10700    -999.25
 6150.00000    2.16720   11.70650   12.09580  -97.64960   36.79590    -999.25    -999.25   60.34340   18.38430    0.12430    6.02350    -999.25    0.11640    0.14840    -999.25
 6200.00000    2.41480   14.15830   15.96600  -94.47870   34.57760    -999.25    -999.25   57.62790   13.36490    0.14680    6.18770    -999.25    0.13110    0.08590    -999.25
 6250.00000    1.42450   17.65800   14.79650  -92.25560   33.75640    -999.25    -999.25   56.66620   17.42030    0.10750    6.96880    -999.25    0.09380    0.08030    -999.25
 6300.00000    1.51690   22.59980   27.03160  -97.20600   34.39550    -999.25    -999.25   54.01860   26.32030    0.03980    5.25030    -999.25    0.03370    0.04140    -999.25
 6350.00000    2.04140    8.20480    9.80370  -83.41300   44.39250    -999.25    -999.25   60.87240   10.07070    0.03860    5.18740    -999.25    0.03140    0.08600    -999.25
 6400.00000    2.11980    3.82030    3.77340  -83.25510   43.45800    -999.25    -999.25   61.34000    7.13140    0.03230    5.93750    -999.25    0.13900    0.12270    -999.25
 6450.00000    1.74920   13.44840   20.43440  -75.55730   49.37790    -999.25    -999.25   58.60740   20.95610    0.03390    5.31250    -999.25    0.03600    0.04450    -999.25
 6500.00000    2.65800    7.11660   15.91760  -85.49580   37.98680    -999.25    -999.25   58.84760    9.85700    0.05380    6.56260    -999.25    0.07660    0.08460    -999.25
 6550.00000    1.83360   14.75730   16.30200  -94.43960   49.53230    -999.25    -999.25   56.32190   25.26610    0.08810    4.71870    -999.25    0.09840    0.09360    -999.25
 6600.00000    1.09890    7.50840    9.12410  -86.53890   60.09320    -999.25    -999.25   60.56070    9.64580    0.06830    7.50010    -999.25    0.09380    0.09310    -999.25
 6650.00000    1.42260   11.29430   12.77720  -78.53830   59.61780    -999.25    -999.25   58.02920   21.24430    0.01380    5.18750    -999.25    0.02670    0.07190    -999.25
 6700.00000    2.32200   43.41840   25.64430  -78.23130   54.20560    -999.25    -999.25   56.38610   40.92410    0.04580    5.81250    -999.25    0.03450    0.05390    -999.25
 6750.00000    1.47220    2.44340    4.66320  -60.33180   48.01400    -999.25    -999.25   64.29960    6.56130    0.03860    5.25010    -999.25    0.04910    0.09630    -999.25
 6800.00000   10.75330    1.19940    1.12970  -57.83610  100.70020    -999.25    -999.25   89.06500    1.11750    0.10750    5.96800    -999.25    0.34980    0.34940    -999.25
 6850.00000    0.81090   27.45180   37.97990  -66.74420   47.93060    -999.25    -999.25   54.60160   48.47610    0.00090    5.53120    -999.25    0.01970    0.01900    -999.25
 6900.00000    0.58400   43.76150   50.45530  -85.89440   47.15820    -999.25    -999.25   54.76170   48.56110    0.00250    5.53120    -999.25    0.03950    0.04140    -999.25
 6950.00000    2.34840    2.90080    3.22510  -54.25710   66.96210    -999.25    -999.25   67.10280    2.94780    0.12790    5.25040    -999.25    0.19280    0.21800    -999.25
 7000.00000   11.57590    0.81810    0.44820  -44.29180   81.63670    -999.25    -999.25   93.66100    0.61130   -0.04610    9.53140    -999.25    0.35000    -999.25    -999.25
 7050.00000    3.54560    2.29110    3.49950  -47.31980   56.07550    -999.25    -999.25   83.30240    2.73370    0.01980    7.53890    -999.25    0.26300    0.19380    -999.25
 7100.00000    1.64850    5.62060    9.93780  -55.21000   56.89660    -999.25    -999.25   66.02680    7.20120    0.01040    5.40620    -999.25    0.06020    0.09440    -999.25
