~Version ---------------------------------------------------
VERS. 2.0 : CWLS log ASCII Standard -VERSION 2.0
WRAP.  NO : ONE LINE PER DEPTH STEP
~Well ------------------------------------------------------
STRT.F                      1050.0 : START DEPTH
STOP.F                     12900.0 : STOP DEPTH
STEP.F                    50.00000 : STEP LENGTH
NULL.                      -999.25 : NULL VALUE
COMP.         MARATHON OIL COMPANY : COMPANY
WELL.                    WILLIS #1 : WELL
FLD . BOB HEND (COTTON VALLEYLIME) : FIELD
LOC .                              : LOCATION
CNTY.                    LIMESTONE : COUNTY
STAT.                        TEXAS : STATE
CTRY.     UNITED STATES OF AMERICA : COUNTRY
SRVC.                              : SERVICE COMPANY
DATE.                              : LOGDATE
API .               42293312300000 : API NUMBER
UWI .               42293312300000 : UNIQUE WELL ID
SLAT.WGS84           31.3874962389 : SURFACE LATITUDE
SLON.WGS84           -96.295097431 : SURFACE LONGITUDE
~Curve Information -----------------------------------------
DEPT.F                 : 
SPR .MV   06 010 01 00 : SPONTANEOUS POTENTIAL
AH20.OHMM 06 120 20 00 : 10-IN. RESISTIVITY, 1-FT RESOLUTION
AH30.OHMM 06 120 30 00 : 30-IN. RESISTIVITY, 2-FT RESOLUTION
AH90.OHMM 06 120 90 00 : 90-IN. RESISTIVITY, 2-FT RESOLUTION
DCAL.IN   06 280 30 00 : DIFFERENTIAL CALIPER
GRR .GAPI 06 310 01 00 : GAMMA RAY FROM RESISTIVITY
DTLN.US/F 60 523 00 00 : ACOUSTIC TRANSIT TIME, LONG SPACED, NEAR ARRAY
PEF .B/E  45 358 01 00 : PHOTOELECTRIC FACTOR
NPHI.DEC  42 890 01 00 : NEUTRON POROSITY LIMESTONE
DPHZ.DEC  45 890 10 00 : DENSITY POROSITY LIMESTONE
DT4P.US/F 60 532 00 00 : COMPRESSIONAL-WAVE INTERVAL TRANSIT TIME ACOUSTIC SLOWNESS, P&S MODE
IMPH.OHMM 07 120 44 00 : INDUCTION MEDIUM PHASOR RES.
IDPH.OHMM 07 120 46 00 : INDUCTION DEEP PHASOR RES
SFL .OHMM 07 220 01 00 : SPHERICALLY FOCUSED LOG UNAVERAGED RESISTIVITY
~Params ----------------------------------------------------
EKB .F                 407.0 : KELLY BUSHING
EGL .F                   376 : ELEVATION GROUND LEVEL
EDF .F                   405 : ELEVATION DERRICK FLOOR
EPD .F                   376 : ELEVATION PERMANENT DATUM
TD  .F               12902.0 : TOTAL DEPTH
DATE.            05-DEC-1997 : DATE LOGGED
CLNT.                A2DTECH : CLIENT CODE
PD  .                     GL : PERMANENT DATUM
LMF .                     KB : LOG MEASURED FROM
DMF .                     KB : DRILLING MEASURED FROM
DAPD.F                    31 : FEET ABOVE PERMANENT DATUM
DD  .F                 12900 : DEPTH DRILLER
DL  .F                 12902 : DEPTH LOGGER
BLI .F                 12986 : BOTTOM LOG INTERVAL
TLI .F                  8600 : TOP LOG INTERVAL
CS1 .IN                9.625 : CASING SIZE
CBD1.         9.625" @ 9480' : CASING DRILLER 1
CBL1.F                  9480 : CASING LOGGER 1
BS1 .IN                12.25 : BIT SIZE
BSD1.F                 12900 : DEPTH DRILLED WITH BIT1
DFT .           LIGNOSULFATE : TYPE FLUID IN HOLE
DFD .                   11.4 : DENSITY
DFV .                     36 : VISCOSITY
DFPH.                     10 : PH
DFL .                    120 : FLUID LOSS
MSS .       CIRCULATION TANK : SOURCE OF SAMPLE
RMS .OHMM               2.76 : RM
RMF .OHMM               2.29 : RMF
RMC .OHMM              3.588 : RMC
MFSS.                   CALC : SOURCE RMF.
MCSS.                   CALC : SOURCE RMC.
RMB .OHMM              0.835 : RM. AT BHT
BHT .F                   260 : BHT.
TCS .HRS                1530 : TIME CIRC. STOPPED
TLAB.HRS                 300 : TIME LOGGER AT BOTTOM
LUN .                   8400 : LOGGING UNIT NUMBER
LUL .                  TYLER : LOGGING UNIT LOCATION
ENGI.        SKRBICH GARDNER : RECORDED BY
WITN.                EW BANK : WITNESSED BY
ORIG.               5" PRINT : ORIGIN OF DATA
UWI .         42293312300000 : UNIQUE WELL ID
DICO. A2D TECHNOLOGIES, INC. : DIGITIZING COMPANY
~Other -----------------------------------------------------
~ASCII -----------------------------------------------------
# ...
 5950.00000   -9.69930   10.98300    6.07700    4.97400    0.89050   41.26940   81.64430    4.86980    0.05450    0.00850    -999.25    -999.25    -999.25    -999.25
 6000.00000  -24.63850   14.34920   12.75620   11.11790    0.73820   30.46670   73.45860    4.99310    0.03300    0.01330    -999.25    -999.25    -999.25    -999.25
 6050.00000   -5.42160   17.24860   11.21490   11.02490    0.70100   65.77340   64.22180    4.83870    0.17160    0.01900    -999.25    -999.25    -999.25    -999.25
 6100.00000   -1.75880    2.77480    2.46900    1.87130    0.33790   95.57480   81.72530    3.39910    0.19760    0.09460    -999.25    -999.25    -999.25    -999.25
 6150.00000  -17.01220   17.42940   19.15240   15.95020    0.61970   39.55420   56.07110    4.71500    0.02360    0.02100    -999.25    -999.25    -999.25    -999.25
 6200.00000   -6.34150   26.22330   16.62870   15.72820    1.22210   72.25610   56.99610    4.80780    0.01440    0.02080    -999.25    -999.25    -999.25    -999.25
 6250.00000   -9.08540   12.58480   10.76980    9.68670    1.07530   54.25810   63.81320    4.44010    0.03580    0.01750    -999.25    -999.25    -999.25    -999.25
 6300.00000   -4.00080    5.69760    6.01370    4.68040    0.52100   77.74390   35.87600    4.43710    0.17060    0.03250    -999.25    -999.25    -999.25    -999.25
 6350.00000   -2.31780    3.60470    3.53220    2.94340    1.04460   54.58660  -13.32420    4.35850    0.22000    0.11070    -999.25    -999.25    -999.25    -999.25
 6400.00000   -2.07320    2.45680    2.15150    2.26290    1.50740   83.68900   31.99370    4.03990    0.31100    0.06870    -999.25    -999.25    -999.25    -999.25
 6450.00000   -1.76830    6.82270    5.75050    3.27510    0.35560   51.21440   22.15700    4.37690    0.07860    0.03390    -999.25    -999.25    -999.25    -999.25
 6500.00000   -1.52190    4.14490    6.21360    6.68030    0.64620   48.96630    6.26940    4.65320    0.13210    0.01950    -999.25    -999.25    -999.25    -999.25
 6550.00000   -2.67240    2.70730    2.64000    2.46360    1.07860   71.77950   67.94340    4.40690    0.15140   -0.00580    -999.25    -999.25    -999.25    -999.25
 6600.00000   -2.68820    1.84730    1.63870    1.22340    2.73430   77.53460   88.77860    3.85560    -999.25    0.21350    -999.25    -999.25    -999.25    -999.25
 6650.00000   -3.30270    9.07490    3.18920    2.41260    0.49050   61.41150   98.72890    4.68580    0.35000    0.10920    -999.25    -999.25    -999.25    -999.25
 6700.00000   -1.27790    2.46360    2.47010    3.35190    0.57700   57.48250   64.73000    4.65520    0.13430    0.00110    -999.25    -999.25    -999.25    -999.25
 6750.00000   -1.76830    1.56130    1.91100    1.43220    3.93320   69.70610  106.38350    3.36410    0.21200    0.18240    -999.25    -999.25    -999.25    -999.25
 6800.00000   -4.55600   10.21580   10.65430   12.00390    1.16600   46.20340   61.05850    4.65470    0.02640    0.00490    -999.25    -999.25    -999.25    -999.25
 6850.00000   -2.68720    6.74110    7.49490    7.12090    0.61410   51.73090   21.02050    4.00920    0.07070    0.00980    -999.25    -999.25    -999.25    -999.25
 6900.00000   -7.87340   33.46500   24.83870   23.27710    0.86060   46.20040   20.78100    4.70670    0.03330    0.01640    -999.25    -999.25    -999.25    -999.25
 6950.00000   -0.23960   11.07710    9.03330    4.90330    0.30670   63.94010   41.45270    4.68600    0.08680    0.05090    -999.25    -999.25    -999.25    -999.25
 7000.00000   -3.17620    5.23470    8.39980    2.67520    0.05710   51.46440   85.75960    4.86990    0.14220    0.00950    -999.25    -999.25    -999.25    -999.25
 7050.00000    1.40250   27.88920   17.30650    9.67100    1.01290   79.73540   60.13780    4.43960    0.01950    0.01510    -999.25    -999.25    -999.25    -999.25
 7100.00000   -5.73670    2.45070    2.95710    1.81180    0.95250   63.94010  -59.61710    4.07070    0.16890    0.16510    -999.25    -999.25    -999.25    -999.25
 7150.00000   -0.84310    4.00150    3.68560    2.80860    1.15840   53.67650   56.33000    4.53190    0.16210    0.11010    -999.25    -999.25    -999.25    -999.25
 7200.00000   -4.20730   10.89910    4.91620    3.72760    1.44390   75.69490   65.34460    3.91600    0.16140    0.02230    -999.25    -999.25    -999.25    -999.25
 7250.00000   -0.54880   21.26110   52.20340   29.19930    0.62580   60.94850   58.29770    4.28620    0.02550   -0.14310    -999.25    -999.25    -999.25    -999.25
 7300.00000   -1.76740   11.68960    9.58110    7.91800    0.49210   45.04250   61.51340    4.65380    0.06690    0.00410    -999.25    -999.25    -999.25    -999.25
 7350.00000  -10.29690  102.12710   53.90070   23.12360    0.55250   47.58070   53.71090    4.68560    0.04160    0.00720    -999.25    -999.25    -999.25    -999.25
 7400.00000   -4.13010    1.71770    3.31530    3.88970    1.08140   76.14530  121.54900    4.71580    0.31550    0.00140    -999.25    -999.25    -999.25    -999.25
 7450.00000   -3.30310   76.58150   78.30210   33.16450   -0.00010   32.14680   55.54360    4.79970    0.02330    0.01000    -999.25    -999.25    -999.25    -999.25
 7500.00000   -1.91770   55.19040   29.39890   11.83240    1.29030   34.67740   55.45610    4.86900    0.01630   -0.00460    -999.25    -999.25    -999.25    -999.25
 7550.00000   -5.12570    3.17430    2.68890   10.19860    1.75160   60.71430   76.52370    4.28570    0.06240    0.17200    -999.25    -999.25    -999.25    -999.25
 7600.00000   -5.42310   21.93260   22.60970   14.25730    1.35170   63.47930   61.95420    4.66320    0.09360    0.00890    -999.25    -999.25    -999.25    -999.25
 7650.00000   -2.52410   40.15010   31.69850   15.92300    1.21680   56.56680   45.74430    4.90050    0.02970   -0.00210    -999.25    -999.25    -999.25    -999.25
 7700.00000   -8.23920   20.54110   13.44030   19.93820    1.25920   67.62980   57.83670    4.34630    0.13300    0.02450    -999.25    -999.25    -999.25    -999.25
 7750.00000  -13.65850  158.23310   18.08730   15.28730    1.41250   68.55550   53.85910    5.03440    0.00410   -0.01810    -999.25    -999.25    -999.25    -999.25
 7800.00000  -38.05230    8.07400   13.18320   54.80460    0.91120   66.93770   64.42570    5.08410    0.02330    0.01230    -999.25    -999.25    -999.25    -999.25
 7850.00000  -10.23790    9.98430   10.54270    9.78840    1.22970   61.63590   58.14500    4.62300    0.01580    0.02560    -999.25    -999.25    -999.25    -999.25
 7900.00000   -5.17750    4.05740    4.86480    8.34890    1.44390   78.22580   30.44010    4.86940    0.07340    0.02930    -999.25    -999.25    -999.25    -999.25
 7950.00000  -13.19570   31.38140   31.73460   30.78510    1.41240   51.96230   54.31850    4.71580    0.03480    0.11820    -999.25    -999.25    -999.25    -999.25
 8000.00000  -26.04610  221.62690  225.67900   91.64340    1.68970   42.97230   49.71960    4.96200    0.01330   -0.00290    -999.25    -999.25    -999.25    -999.25
 8050.00000  -75.02360   45.56470   30.67240   28.92690    0.00100   20.16450   51.25130    4.80800    0.11300    0.16900    -999.25    -999.25    -999.25    -999.25
 8100.00000 -112.93490   10.90890    6.20790    6.34860    0.00000   19.63340   57.22820    4.80800    0.15410    0.25960    -999.25    -999.25    -999.25    -999.25
 8150.00000  -36.81870    7.05810    6.85490    5.62650    0.00100   39.29280   50.33690    4.10140    0.11390    0.28030    -999.25    -999.25    -999.25    -999.25
 8200.00000  -37.34580   65.30270   21.56870   39.73340   -0.09170   32.60670   50.33690    4.62410    0.09720    0.35050    -999.25    -999.25    -999.25    -999.25
 8250.00000  -10.60970   12.49390   18.36850   59.53360   -0.00100   40.66820   56.61030    4.43970    0.14530    0.35080    -999.25    -999.25    -999.25    -999.25
 8300.00000   -8.55300    4.97660    3.57770    2.26310    0.03120   72.38440   81.57940    3.73270    0.20730    0.35200    -999.25    -999.25    -999.25    -999.25
 8350.00000   -3.60820    3.71020    3.21760    2.46520    0.00000   75.23650   84.47300    4.00920    -999.25    -999.25    -999.25    -999.25    -999.25    -999.25
