~Version ---------------------------------------------------
VERS. 2.0 : CWLS log ASCII Standard -VERSION 2.0
WRAP. YES : Multiple lines per depth step
~Well ------------------------------------------------------
STRT.FT                  300.0 : START DEPTH
STOP.FT                10000.0 : STOP DEPTH
STEP.FT               50.00000 : STEP LENGTH
NULL.                  -999.25 : NULL VALUE
COMP.     TEXAS OIL & GAS CORP : COMPANY
WELL.     SILVER LAKE RANCH #1 : WELL
FLD .                  WILDCAT : FIELD
LOC .                          : LOCATION
CNTY.                   DIMMIT : COUNTY
STAT.                    TEXAS : STATE
CTRY. UNITED STATES OF AMERICA : COUNTRY
SRVC.                  Unknown : SERVICE COMPANY
DATE.              08-Nov-1979 : LOGDATE
API .           42127318560000 : API NUMBER
UWI .           42127318560000 : UNIQUE WELL ID
SLAT.WGS84       28.3952279901 : SURFACE LATITUDE
SLON.WGS84      -99.4517773834 : SURFACE LONGITUDE
~Curve Information -----------------------------------------
DEPT  .FT    : DEPTH
CALDED.IN    : CALIPER FROM DENSITY LOG (ADJ TO RES.)
CALWS .IN    : CALIPER (CALDED)
CONDWS.MMHO  : CONDUCTIVITY (1000/DRESws)
DCORWS.G/C3  : DENSITY CORRECTION (DRHOED)
DENWS .G/C3  : BULK DENSITY  (RHOBED LS)
DPHIED.V/V   : DENSITY POROSITY  (ADJ TO RES.)
DPOWS .V/V   : DENSITY POROSITY (M=2.71 F=1 DPHIED)
DRESWS.OHMM  : DEEP RESISTIVITY (RLLDED)
DRHOED.G/C3  : DENSITY CORRECTION (ADJ TO RES.)
DTED  .US/F  : DELTA TIME
DTWS  .US/F  : DELTA TIME  (DTED)
GRWS  .GAPI  : GAMMA RAY (GRRED) CASED TOP-1519
GRRED .GAPI  : GAMMA RAY FROM RESISTIVITY LOG
MRESWS.OHMM  : MEDIUM RESISTIVITY (RILMED)
NPHIED.V/V   : NEUTRON POROSITY (ADJ TO RES.)
NPOWS .V/V   : NEUTRON POROSITY LIMESTONE (NPHIED)
RHOBED.G/C3  : BULK DENSITY (ADJ TO RES.)
RILDED.OHMM  : DEEP INDUCTION RESISTIVITY
RILMED.OHMM  : MEDIUM INDUCTION RESISTIVITY
RLL8ED.OHMM  : LATEROLOG-8 RESISTIVITY
SPWS  .MV    : SPONTANEOUS POTENTIAL BASELINE 0 MV (SPRED)
SPRED .MV    : SPONTANEOUS POTENTIAL FROM RESISTIVITY
SRESWS.OHMM  : SHALLOW RESISTIVITY (RLL8ED)
~Params ----------------------------------------------------
EKB .F                  460.5 : KELLY BUSHING
EGL .F                    0.0 : GROUND LEVEL
EDF .F                    0.0 : DRILLING FLOOR
EPD .F                    0.0 : PERMANENT DATUM
TD  .F                10015.0 : TOTAL DEPTH
DATE.             09-NOV-1979 : DATE LOGGED
CLNT.                 A2DTECH : CLIENT CODE
SL  . 21900' FWL & 11800' FSL : SURFACE LOCATION
PD  .                      GL : PERMANENT DATUM
LMF .                      KB : LOG MEASURED FROM
DMF .                      KB : DRILLING MEASURED FROM
DAPD.F                     15 : FEET ABOVE PERMANENT DATUM
DD  .F                  10015 : DEPTH DRILLER
DL  .F                   9992 : DEPTH LOGGER
BLI .F                   9986 : BOTTOM LOG INTERVAL
TLI .F                   1519 : TOP LOG INTERVAL
CS1 .IN                 8.625 : CASING SIZE
CBD1.          8.625" @ 1520' : CASING DRILLER 1
CBL1.F                   1519 : CASING LOGGER 1
BS1 .IN                 7.875 : BIT SIZE
BSD1.F                  10015 : DEPTH DRILLED WITH BIT1
DFT .  LIGNITE-LIGNOSULFONATE : TYPE FLUID IN HOLE
DFD .                    10.8 : DENSITY
DFV .                      53 : VISCOSITY
DFPH.                      11 : PH
DFL .                     3.6 : FLUID LOSS
MSS .              CIRC. TANK : SOURCE OF SAMPLE
RMS .OHMM                0.92 : RM
RMF .OHMM                0.68 : RMF
RMC .OHMM                 1.0 : RMC
MFSS.                    MEAS : SOURCE RMF.
MCSS.                    CALC : SOURCE RMC.
RMB .OHMM                0.31 : RM. AT BHT
BHT .F                    220 : BHT.
TCS .HRS                  300 : TIME CIRC. STOPPED
TLAB.                     900 : TIME LOGGER AT BOTTOM
LUN .                    8132 : LOGGING UNIT NUMBER
LUL .                  LAREDO : LOGGING UNIT LOCATION
ENGI.                   FOGAL : RECORDED BY
WITN.                  FISHER : WITNESSED BY
ORIG.                5" PRINT : ORIGIN OF DATA
UWI .          42127318560000 : UNIQUE WELL ID
DICO.  A2D TECHNOLOGIES, INC. : DIGITIZING COMPANY
~Other -----------------------------------------------------
~ASCII -----------------------------------------------------
# ...
 1850.00000    -999.25    -999.25   27.70240    -999.25    -999.25    -999.25    -999.25   36.09800    -999.25   96.48500   96.48500   44.98300   44.98300   16.13500    -999.25    -999.25    -999.25   36.09800   16.13500   19.98900   20.56020   16.23000   19.98900
 1900.00000    -999.25    -999.25   31.23240    -999.25    -999.25    -999.25    -999.25   32.01800    -999.25   92.92800   92.92800   37.59800   37.59800   14.99800    -999.25    -999.25    -999.25   32.01800   14.99800   18.62900   22.26390   16.60900   18.62900
 1950.00000    -999.25    -999.25   64.87190    -999.25    -999.25    -999.25    -999.25   15.41500    -999.25   90.63100   90.63100   81.45200   81.45200   13.07700    -999.25    -999.25    -999.25   15.41500   13.07700   13.31800   -8.74040  -15.72000   13.31800
 2000.00000    -999.25    -999.25   57.08410    -999.25    -999.25    -999.25    -999.25   17.51800    -999.25   93.19400   93.19400   84.17100   84.17100   15.48500    -999.25    -999.25    -999.25   17.51800   15.48500   13.90500   -2.30060   -9.80400   13.90500
 2050.00000    -999.25    -999.25  200.68230    -999.25    -999.25    -999.25    -999.25    4.98300    -999.25  100.74200  100.74200  106.15500  106.15500    4.70000    -999.25    -999.25    -999.25    4.98300    4.70000    5.10200   -8.94100  -16.62500    5.10200
 2100.00000    -999.25    -999.25  164.74460    -999.25    -999.25    -999.25    -999.25    6.07000    -999.25   99.30300   99.30300  120.98600  120.98600    5.93400    -999.25    -999.25    -999.25    6.07000    5.93400    6.72800  -11.37050  -19.23500    6.72800
 2150.00000    -999.25    -999.25  209.99580    -999.25    -999.25    -999.25    -999.25    4.76200    -999.25  101.61400  101.61400  103.07300  103.07300    4.44900    -999.25    -999.25    -999.25    4.76200    4.44900    4.49000  -12.46290  -20.50800    4.49000
 2200.00000    -999.25    -999.25  196.00160    -999.25    -999.25    -999.25    -999.25    5.10200    -999.25   98.51900   98.51900  110.75400  110.75400    4.57300    -999.25    -999.25    -999.25    5.10200    4.57300    4.44500  -16.07140  -24.29700    4.44500
 2250.00000    -999.25    -999.25  150.35330    -999.25    -999.25    -999.25    -999.25    6.65100    -999.25   90.70400   90.70400   91.65100   91.65100    6.29600    -999.25    -999.25    -999.25    6.65100    6.29600    6.59000  -16.45280  -24.85900    6.59000
 2300.00000    -999.25    -999.25  149.20920    -999.25    -999.25    -999.25    -999.25    6.70200    -999.25   93.29700   93.29700   83.30500   83.30500    6.41200    -999.25    -999.25    -999.25    6.70200    6.41200    6.16200  -17.41630  -26.00300    6.16200
 2350.00000    -999.25    -999.25   95.72130    -999.25    -999.25    -999.25    -999.25   10.44700    -999.25   92.65800   92.65800   65.23500   65.23500    8.93000    -999.25    -999.25    -999.25   10.44700    8.93000    7.98400   -8.07080  -16.83800    7.98400
 2400.00000    -999.25    -999.25  326.90420    -999.25    -999.25    -999.25    -999.25    3.05900    -999.25   94.12400   94.12400  106.07100  106.07100    2.91000    -999.25    -999.25    -999.25    3.05900    2.91000    3.39700  -12.64020  -21.58800    3.39700
 2450.00000    -999.25    -999.25  155.01470    -999.25    -999.25    -999.25    -999.25    6.45100    -999.25   90.53800   90.53800   81.91000   81.91000    6.56000    -999.25    -999.25    -999.25    6.45100    6.56000    6.41200  -28.69420  -38.26500    6.41200
 2500.00000    -999.25    -999.25  154.53560    -999.25    -999.25    -999.25    -999.25    6.47100    -999.25   89.70800   89.70800  105.98700  105.98700    6.59000    -999.25    -999.25    -999.25    6.47100    6.59000    6.71200  -20.51200  -30.97700    6.71200
 2550.00000    -999.25    -999.25  170.09700    -999.25    -999.25    -999.25    -999.25    5.87900    -999.25   89.79100   89.79100   76.14600   76.14600    6.50000    -999.25    -999.25    -999.25    5.87900    6.50000    6.83500  -31.12380  -42.48300    6.83500
 2600.00000    -999.25    -999.25  177.24210    -999.25    -999.25    -999.25    -999.25    5.64200    -999.25   92.62900   92.62900   96.00600   96.00600    5.54000    -999.25    -999.25    -999.25    5.64200    5.54000    5.39000  -20.06460  -32.31800    5.39000
 2650.00000    -999.25    -999.25  287.93550    -999.25    -999.25    -999.25    -999.25    3.47300    -999.25  101.19500  101.19500  105.26800  105.26800    3.38400    -999.25    -999.25    -999.25    3.47300    3.38400    3.92300  -13.45450  -26.60200    3.92300
 2700.00000    -999.25    -999.25  158.83100    -999.25    -999.25    -999.25    -999.25    6.29600    -999.25   87.08400   87.08400   85.49800   85.49800    6.18800    -999.25    -999.25    -999.25    6.29600    6.18800    6.23800  -24.72630  -38.76800    6.23800
 2750.00000    -999.25    -999.25  183.85730    -999.25    -999.25    -999.25    -999.25    5.43900    -999.25   88.83000   88.83000   80.72600   80.72600    6.18200    -999.25    -999.25    -999.25    5.43900    6.18200    6.07000  -26.59910  -41.53500    6.07000
 2800.00000    -999.25    -999.25  173.43050    -999.25    -999.25    -999.25    -999.25    5.76600    -999.25   78.31700   78.31700   97.31300   97.31300    6.00700    -999.25    -999.25    -999.25    5.76600    6.00700    6.34500  -14.54090  -30.37100    6.34500
 2850.00000    -999.25    -999.25  177.90430    -999.25    -999.25    -999.25    -999.25    5.62100    -999.25   82.61800   82.61800   81.13500   81.13500    5.88100    -999.25    -999.25    -999.25    5.62100    5.88100    5.95200  -21.42970  -38.15400    5.95200
 2900.00000    -999.25    -999.25  226.91170    -999.25    -999.25    -999.25    -999.25    4.40700    -999.25   91.27700   91.27700   99.53300   99.53300    4.32900    -999.25    -999.25    -999.25    4.40700    4.32900    4.18100  -12.46750  -30.08600    4.18100
 2950.00000    -999.25    -999.25  177.61990    -999.25    -999.25    -999.25    -999.25    5.63000    -999.25   88.27100   88.27100   98.75500   98.75500    5.57200    -999.25    -999.25    -999.25    5.63000    5.57200    5.29200  -11.06430  -29.57700    5.29200
 3000.00000    -999.25    -999.25  212.76600    -999.25    -999.25    -999.25    -999.25    4.70000    -999.25   90.13900   90.13900    -999.25    -999.25    5.29300    -999.25    -999.25    -999.25    4.70000    5.29300    5.71500  -21.51870  -40.55600    5.71500
 3050.00000    -999.25    -999.25  273.59780    -999.25    -999.25    -999.25    -999.25    3.65500    -999.25   89.04400   89.04400   63.28400   63.28400    4.71300    -999.25    -999.25    -999.25    3.65500    4.71300    6.12500  -33.32970  -52.66500    6.12500
 3100.00000    -999.25    -999.25  230.73370    -999.25    -999.25    -999.25    -999.25    4.33400    -999.25   86.25500   86.25500   77.72500   77.72500    5.19700    -999.25    -999.25    -999.25    4.33400    5.19700    5.88900  -29.43860  -49.07200    5.88900
 3150.00000    -999.25    -999.25   91.12450    -999.25    -999.25    -999.25    -999.25   10.97400    -999.25   66.84400   66.84400   63.23800   63.23800   17.63700    -999.25    -999.25    -999.25   10.97400   17.63700   38.71000  -24.85760  -44.78900   38.71000
 3200.00000    -999.25    -999.25  237.41690    -999.25    -999.25    -999.25    -999.25    4.21200    -999.25   87.55000   87.55000   76.68800   76.68800    4.83000    -999.25    -999.25    -999.25    4.21200    4.83000    5.72600  -27.07750  -47.30700    5.72600
 3250.00000    -999.25    -999.25  224.97190    -999.25    -999.25    -999.25    -999.25    4.44500    -999.25   86.15500   86.15500   88.90800   88.90800    5.64200    -999.25    -999.25    -999.25    4.44500    5.64200    6.71200  -25.19230  -45.71800    6.71200
 3300.00000    -999.25    -999.25  252.01610    -999.25    -999.25    -999.25    -999.25    3.96800    -999.25   93.05900   93.05900  120.86300  120.86300    4.15700    -999.25    -999.25    -999.25    3.96800    4.15700    3.67200   -7.58360  -28.39200    3.67200
 3350.00000    -999.25    -999.25  212.76600    -999.25    -999.25    -999.25    -999.25    4.70000    -999.25   85.21700   85.21700   69.14800   69.14800    5.43900    -999.25    -999.25    -999.25    4.70000    5.43900    5.93500  -24.76500  -45.85600    5.93500
