~Version ---------------------------------------------------
VERS. 2.0 : CWLS log ASCII Standard -VERSION 2.0
WRAP.  NO : ONE LINE PER DEPTH STEP
~Well ------------------------------------------------------
STRT.F                   3900.0 : START DEPTH
STOP.F                  13650.0 : STOP DEPTH
STEP.F                 50.00000 : STEP LENGTH
NULL.                   -999.25 : NULL VALUE
COMP.  CLAYTON W. WILLIAMS, JR. : COMPANY
WELL. W. M. HUTCHINGS ESTATE #1 : WELL
FLD .       CLAY NORTHEAST DEEP : FIELD
LOC .                           : LOCATION
CNTY.                WASHINGTON : COUNTY
STAT.                     TEXAS : STATE
CTRY.  UNITED STATES OF AMERICA : COUNTRY
SRVC.              Schlumberger : SERVICE COMPANY
DATE.               11-May-1984 : LOGDATE
API .            42477305490000 : API NUMBER
UWI .            42477305490000 : UNIQUE WELL ID
SLAT.WGS84            30.343847 : SURFACE LATITUDE
SLON.WGS84           -96.350056 : SURFACE LONGITUDE
~Curve Information -----------------------------------------
DEPT.F                 : 
NPHI.DEC  42 890 03 00 : NEUTRON POROSITY SANDSTONE.
DRHO.G/C3 45 356 01 00 : DENSITY CORRECTION
SPR .MV   07 010 01 00 : SPONTANEOUS POTENTIAL
GRR .GAPI 07 310 01 00 : GAMMA RAY FROM RESISTIVITY
ILD .OHMM 07 120 46 00 : DEEP INDUCTION RESISTIVITY
SFLA.OHMM 07 220 01 00 : SPHERICALLY FOCUSED LOG UNAVERAGED RESISTIVITY
CALD.IN   45 280 60 00 : CALIPER
RHOB.G/C3 45 350 01 00 : BULK DENSITY
~Params ----------------------------------------------------
EKB .F                 307.0 : KELLY BUSHING
EGL .F                   285 : ELEVATION GROUND LEVEL
EDF .F                   306 : ELEVATION DERRICK FLOOR
EPD .F                   285 : ELEVATION PERMANENT DATUM
TD  .F               13670.0 : TOTAL DEPTH
CLNT.                A2DTECH : CLIENT CODE
SL  .  4180' FWL & 2490' FSL : SURFACE LOCATION
PD  .                     GL : PERMANENT DATUM
LMF .                     KB : LOG MEASURED FROM
DMF .                     KB : DRILLING MEASURED FROM
DAPD.F                    22 : FEET ABOVE PERMANENT DATUM
DATE.            11-MAY-1984 : DATE LOGGED [DD-MMM-YYYY]
DD  .F                 13670 : DEPTH DRILLER
DL  .F                 13662 : DEPTH LOGGER
BLI .F                 13657 : BOTTOM LOG INTERVAL
TLI .F                 11700 : TOP LOG INTERVAL
CS1 .IN                  5.5 : CASING SIZE
CBL1.F                 12764 : CASING LOGGER 1
BS1 .IN                 4.75 : BIT SIZE
BSD1.F                 13670 : DEPTH DRILLED WITH BIT1
DFT .                    LSN : TYPE FLUID IN HOLE
DFD .                   10.1 : DENSITY
DFV .                     36 : VISCOSITY
DFPH.                   10.5 : PH
MSS .                   TANK : SOURCE OF SAMPLE
RMS .OHMM               0.92 : RM
RMF .OHMM               0.69 : RMF
MFSS.                   CALC : SOURCE RMF.
RMB .OHMM              0.294 : RM. AT BHT
BHT .F                   315 : BHT.
TCS .HRS                2100 : TIME CIRC. STOPPED
TLAB.HRS                 715 : TIME LOGGER AT BOTTOM
LUL .                   BREN : LOGGING UNIT LOCATION
ORIG.          1" & 5" PRINT : ORIGIN OF DATA
DICO. A2D TECHNOLOGIES, INC. : DIGITIZING COMPANY
CBD1.          5.5" @ 12800' : CASING DRILLER 1
DFL .                   10.8 : FLUID LOSS
RMC .OHMM               1.38 : RMC
MCSS.                   CALC : SOURCE RMC.
UWI .         42477305490000 : UNIQUE WELL ID
~Other -----------------------------------------------------
~ASCII -----------------------------------------------------
# ...
 7900.00000    -999.25    -999.25  -63.50420   67.38840    2.21230    5.93600    -999.25    -999.25
 7950.00000    -999.25    -999.25  -86.47060   53.22790    2.37920    7.90430    -999.25    -999.25
 8000.00000    -999.25    -999.25  -84.62770   56.60440    2.74040    9.51560    -999.25    -999.25
 8050.00000    -999.25    -999.25  -31.58960   61.62310    2.51860    3.38420    -999.25    -999.25
 8100.00000    -999.25    -999.25  -65.88230   68.28240    3.21880    9.65920    -999.25    -999.25
 8150.00000    -999.25    -999.25  -57.64680   65.20520    2.21730    4.58050    -999.25    -999.25
 8200.00000    -999.25    -999.25 -105.88230   55.55970    2.32190    8.25410    -999.25    -999.25
 8250.00000    -999.25    -999.25  -55.68460   59.21640    2.88490    5.99870    -999.25    -999.25
 8300.00000    -999.25    -999.25   -7.90510   71.19400    3.29850    3.56050    -999.25    -999.25
 8350.00000    -999.25    -999.25   -8.52890   57.68680    3.92620    3.90280    -999.25    -999.25
 8400.00000    -999.25    -999.25   -1.17650   67.61080    4.21520    4.57400    -999.25    -999.25
 8450.00000    -999.25    -999.25   -1.32350   64.58960    4.54420    5.59790    -999.25    -999.25
 8500.00000    -999.25    -999.25    3.82350   78.95380    3.82660    3.64420    -999.25    -999.25
 8550.00000    -999.25    -999.25    3.97060   75.89550    4.17040    4.49170    -999.25    -999.25
 8600.00000    -999.25    -999.25    2.45100   64.32890    4.03590    4.34480    -999.25    -999.25
 8650.00000    -999.25    -999.25    2.94120   79.47760    3.97600    4.17020    -999.25    -999.25
 8700.00000    -999.25    -999.25    5.29410   72.16410    3.10910    3.29150    -999.25    -999.25
 8750.00000    -999.25    -999.25    3.03170   77.16140    3.56500    3.37620    -999.25    -999.25
 8800.00000    -999.25    -999.25    3.33330   68.80720    3.72200    3.96710    -999.25    -999.25
 8850.00000    -999.25    -999.25   -7.14930   62.72450    3.93870    4.36080    -999.25    -999.25
 8900.00000    -999.25    -999.25   -6.67180   65.89450    3.28850    3.30340    -999.25    -999.25
 8950.00000    -999.25    -999.25   -8.35590   64.86920    2.95210    3.06130    -999.25    -999.25
 9000.00000    -999.25    -999.25   -9.63800   75.67140    3.23370    3.29640    -999.25    -999.25
 9050.00000    -999.25    -999.25   -7.81110   66.34390    2.57850    2.67070    -999.25    -999.25
 9100.00000    -999.25    -999.25   -7.81110   79.85080    2.24210    2.33280    -999.25    -999.25
 9150.00000    -999.25    -999.25   -7.77360   79.92540    2.11760    2.07320    -999.25    -999.25
 9200.00000    -999.25    -999.25   -6.38680   72.87320    2.92970    3.02540    -999.25    -999.25
 9250.00000    -999.25    -999.25   -5.74960   71.78990    2.82270    2.66820    -999.25    -999.25
 9300.00000    -999.25    -999.25   -5.36210   70.96980    2.25210    2.34080    -999.25    -999.25
 9350.00000    -999.25    -999.25   -4.51270   61.79100    3.14650    3.11360    -999.25    -999.25
 9400.00000    -999.25    -999.25   -4.51270   60.29850    3.34300    2.84850    -999.25    -999.25
 9450.00000    -999.25    -999.25   -4.36280   69.85080    2.49890    2.36220    -999.25    -999.25
 9500.00000    -999.25    -999.25   -4.21290   65.97020    2.20750    2.61760    -999.25    -999.25
 9550.00000    -999.25    -999.25   -6.61180   70.39150    2.18520    2.33840    -999.25    -999.25
 9600.00000    -999.25    -999.25   -8.03590   66.00730    2.92810    2.98120    -999.25    -999.25
 9650.00000    -999.25    -999.25   -8.57320   57.81670    1.98260    2.94230    -999.25    -999.25
 9700.00000    -999.25    -999.25   -8.16080   63.13430    2.24310    2.21070    -999.25    -999.25
 9750.00000    -999.25    -999.25   -7.51120   70.02070    2.25760    2.34630    -999.25    -999.25
 9800.00000    -999.25    -999.25   -6.44510   67.79670    2.07030    2.33480    -999.25    -999.25
 9850.00000    -999.25    -999.25   -6.37280   63.35730    2.00190    2.40980    -999.25    -999.25
 9900.00000    -999.25    -999.25   -6.30060   60.67160    2.38780    2.67100    -999.25    -999.25
 9950.00000    -999.25    -999.25   -5.79480   67.96640    1.99710    2.11910    -999.25    -999.25
 10000.00000    -999.25    -999.25   -6.15610   58.99250    2.48640    3.03900    -999.25    -999.25
 10050.00000    -999.25    -999.25   -6.15580   69.36570    3.65650    4.09450    -999.25    -999.25
 10100.00000    -999.25    -999.25   -6.01310   61.19400    4.09530    4.93510    -999.25    -999.25
 10150.00000    -999.25    -999.25   -8.20310   64.32860    2.07430    2.17750    -999.25    -999.25
 10200.00000    -999.25    -999.25   -8.46820   69.21670    2.59040    2.17720    -999.25    -999.25
 10250.00000    -999.25    -999.25   -7.67340   63.58210    1.96820    1.95740    -999.25    -999.25
 10300.00000    -999.25    -999.25   -8.26090   52.61160    2.68060    2.32880    -999.25    -999.25
 10350.00000    -999.25    -999.25   -4.77510   57.68730    1.89090    1.92080    -999.25    -999.25
 10400.00000    -999.25    -999.25   -3.53820   60.22390    1.98800    1.93120    -999.25    -999.25
 10450.00000    -999.25    -999.25   -3.42580   64.53430    1.89840    1.85200    -999.25    -999.25
 10500.00000    -999.25    -999.25   -3.61320   51.11970    1.88340    1.76080    -999.25    -999.25
 10550.00000    -999.25    -999.25   -6.83660   41.94070    1.78620    1.68910    -999.25    -999.25
 10600.00000    -999.25    -999.25   -1.81410   50.67210    1.89840    1.96210    -999.25    -999.25
 10650.00000    -999.25    -999.25   -4.28820   71.86570    2.10010    2.18540    -999.25    -999.25
 10700.00000    -999.25    -999.25   -3.36330   60.15030    2.12260    2.02790    -999.25    -999.25
 10750.00000    -999.25    -999.25   -1.25190   69.60830    1.88090    1.86300    -999.25    -999.25
 10800.00000    -999.25    -999.25   -1.54010   58.20900    1.68910    1.67710    -999.25    -999.25
 10850.00000    -999.25    -999.25   -2.05150   74.77610    1.72650    2.01540    -999.25    -999.25
 10900.00000    -999.25    -999.25   -1.81410   70.97010    2.09260    2.02190    -999.25    -999.25
 10950.00000    -999.25    -999.25   -0.52720   95.87690    2.25460    2.18230    -999.25    -999.25
 11000.00000    -999.25    -999.25   -0.31480   87.23860    1.86850    2.18140    -999.25    -999.25
 11050.00000    -999.25    -999.25   -0.16490   74.24900    2.18980    2.17640    -999.25    -999.25
 11100.00000    -999.25    -999.25   -0.66480   71.64180    2.15250    2.11160    -999.25    -999.25
 11150.00000    -999.25    -999.25   -0.23990   58.88060    2.59340    3.02500    -999.25    -999.25
 11200.00000    -999.25    -999.25   -1.51430   66.11940    1.95810    2.12140    -999.25    -999.25
 11250.00000    -999.25    -999.25   -0.07730   70.40980    2.63830    3.20380    -999.25    -999.25
 11300.00000    -999.25    -999.25   -2.41380   47.61190    4.48430    4.51740    -999.25    -999.25
 11350.00000    -999.25    -999.25   -2.52620   49.36570    4.64130    4.95520    -999.25    -999.25
 11400.00000    -999.25    -999.25   -0.77290   45.81140    5.39610    6.02990    -999.25    -999.25
 11450.00000    -999.25    -999.25   -0.51940   51.24060    4.97760    5.75120    -999.25    -999.25
 11500.00000    -999.25    -999.25    1.23190   69.70150    3.19880    3.83880    -999.25    -999.25
 11550.00000    -999.25    -999.25   -1.60610   46.62320    6.28550    6.93070    -999.25    -999.25
 11600.00000    -999.25    -999.25    0.14490   50.26130    5.36640    5.51570    -999.25    -999.25
 11650.00000    -999.25    -999.25   -1.54590   51.36270    5.66280    6.25070    -999.25    -999.25
 11700.00000    0.16090    -999.25   -3.62320   52.09120    6.84670    7.20980    8.84830    2.22150
 11750.00000    0.15410    -999.25   -2.31880   55.18720    6.50230    6.65910    8.84840    2.21930
 11800.00000    0.29720    -999.25   -0.28990   82.16420    2.13750    2.70250    8.78780    1.90670
 11850.00000    0.36760    -999.25   -0.21740   70.33600    2.35430    2.96810    4.71220    2.30220
