~Version ---------------------------------------------------
VERS. 2.0 : CWLS log ASCII Standard -VERSION 2.0
WRAP.  NO : ONE LINE PER DEPTH STEP
~Well ------------------------------------------------------
STRT.F                  3950.0 : START DEPTH
STOP.F                  8850.0 : STOP DEPTH
STEP.F                50.00000 : STEP LENGTH
NULL.                  -999.25 : NULL VALUE
COMP.       CHAMPLIN PETROLEUM : COMPANY
WELL.           COTTON W.G. #1 : WELL
FLD .                 GIDDINGS : FIELD
LOC .                          : LOCATION
CNTY.                 BURLESON : COUNTY
STAT.                    TEXAS : STATE
CTRY. UNITED STATES OF AMERICA : COUNTRY
SRVC.             Schlumberger : SERVICE COMPANY
DATE.              18-Sep-1981 : LOGDATE
API .           42051318310000 : API NUMBER
UWI .           42051318310000 : UNIQUE WELL ID
SLAT.WGS84       30.5059248525 : SURFACE LATITUDE
SLON.WGS84      -96.5864780299 : SURFACE LONGITUDE
~Curve Information -----------------------------------------
DEPT   .F    0   1   0  0 : 1 MEASURED DEPTH
NPHI_SS.DEC  42 890 03 00 : NEUTRON POROSITY SANDSTONE
GRR    .GAPI 07 310 01 00 : GAMMA RAY FROM RESISTIVITY LOG
DPHI_SS.DEC  45 890 12 00 : DENSITY POROSITY SANDSTONE
SPR    .MV   07 010 01 00 : SPONTANEOUS POTENTIAL FROM RESISTIVITY LOG
SFLU   .OHMM 07 220 01 00 : SHALLOW FOCUSED RESISTIVITY (UNAVERAGED)
DRHO   .G/C3 45 356 01 00 : BULK DENSITY CORRECTION
DCAL   .IN   07 280 01 00 : DIFFERENTIAL CALIPER
ILD    .OHMM 07 120 46 00 : INDUCTION DEEP RESISTIVITY
ILM    .OHMM 07 120 44 00 : INDUCTION MEDIUM RESISTIVITY
NPHI_LS.DEC  42 890 01 00 : NEUTRON POROSITY LIMESTONE
DPHI_LS.DEC  45 890 10 00 : DENSITY POROSITY LIMESTONE
RHOB   .G/C3 45 350 01 00 : BULK DENSITY
~Params ----------------------------------------------------
PD  .                     GL : PERMANENT DATUM
EPD .FT                  348 : ELEVATION PERMANENT DATUM
LMF .                    RKB : LOG MEASURED FROM
DAPD.FT                   18 : FEET ABOVE PERMANENT DATUM
DMF .                    RKB : DRILLING MEASURED FROM
EKB .FT                  366 : KELLY BUSHING
EDF .FT                  365 : DRILLING FLOOR
EGL .FT                  348 : GROUND LEVEL
DATE.               09/18/81 : RUN DATE
RUN .                      1 : RUN NUMBER
DD  .FT                 8880 : DEPTH DRILLER
DL  .FT                 8862 : DEPTH LOGGER
BLI .FT                 8856 : BOTTOM LOG INTERVAL
TLI .FT                 3960 : TOP LOG INTERVAL
CS  .IN                9.675 : CASING SIZE
CBD .FT                 3960 : CASING BOTTOM DRILLER
CBL .FT                 3960 : CASING BOTTOM LOGGER
BS  .IN                 8.75 : BIT SIZE
BSD .FT                 8880 : BIT SIZE AT DEPTH
DFT .                 BEN EX : DRILLING FLUID TYPE
DFD .                    9.1 : DRILLING FLUID DENSITY
DFV .                     40 : DRILLING FLUID VISCOSITY
DFPH.                    9.5 : DRILLING FLUID PH
DFL .                    9.2 : DRILLING FLUID LOSS
MSS .               FLOWLINE : MUD SAMPLE SOURCE
RMS .OHMM               2.28 : RESISTIVITY MUD SAMPLE
MST .DEGF                102 : MUD SAMPLE TEMPERATURE
RMF .OHMM               2.48 : RESISTIVITY MUD FILTRATE SAMPLE
MFST.DEGF                 75 : MUD FILTRATE SAMPLE TEMPERATURE
RMC .OHMM               3.42 : RESISTIVITY MUD CAKE
MCST.DEGF                102 : MUD CAKE SAMPLE TEMPERATURE
MFSS.                PRESSED : MUD FILTRATE SAMPLE SOURCE
MCSS.             CALCULATED : MUD CAKE SAMPLE SOURCE
RMB .OHMM              1.166 : RESISTIVITY MUD AT BHT
TCS .HRS                2000 : TIME CIRCULATED STOPPED
TLAB.HRS                 200 : TIME LOGGER AT BOTTOM
LUN .                   8176 : LOGGING UNIT NUMBER
LUL .                BRENHAM : LOGGING UNIT LOCATION
ENGI.                MARANUK : RECORDING ENGINEER
WITN.                CAMERON : WITNESSED BY
CLNT.                A2DTECH : CLIENT CODE
ORIG.            2" 5" PRINT : ORIGIN OF DATA
UWI .         42051318310000 : UNIQUE WELL ID
DICO. A2D Technologies, Inc. : DIGITIZING COMPANY
~Other -----------------------------------------------------
~ASCII -----------------------------------------------------
# ...
 6750.00000    0.29800   80.50850    0.07350   -2.12780    1.79590    0.07070    1.14850    1.61260    1.73100    -999.25    -999.25    -999.25
 6800.00000    0.45420   78.88370    0.27910   -1.42670    1.63300    -999.25    0.96390    1.31540    1.40400    0.30740    0.13360    -999.25
 6850.00000    -999.25   69.76310    -999.25   -6.32950    1.81690    -999.25    0.75550    1.60450    1.66280    0.27940    0.11770    -999.25
 6900.00000    -999.25   47.44990    -999.25   -3.68520    3.99170    0.01170   -0.01880    3.58780    4.10570    0.16550    0.08550    -999.25
 6950.00000    -999.25   36.93120    -999.25   -4.00600    4.49410    0.01150   -0.00820    3.65780    3.82730    0.14010    0.08030    -999.25
 7000.00000    -999.25   42.59370    -999.25   -4.96560    4.29250    0.01280    0.08400    3.58150    3.77640    0.14050    0.07980    -999.25
 7050.00000    -999.25   41.22300    -999.25   -6.82750    6.42920    0.01730    0.09760    5.30620    5.79500    0.09900    0.06360    -999.25
 7100.00000    -999.25   70.02160    -999.25   -1.38020    3.10390    0.02670    0.01010    3.01340    3.10230    0.17080    0.08560    -999.25
 7150.00000    -999.25   78.08310    -999.25   -0.49870    3.42750    0.02270    0.05480    2.82490    3.08760    0.18110    0.09310    -999.25
 7200.00000    -999.25   62.63840    -999.25   -3.34610    3.41980    0.00730    0.31550    2.95250    3.10550    0.16410    0.10680    -999.25
 7250.00000    -999.25   78.31480    -999.25   -0.39980    2.63930    0.10080    0.27910    2.03720    2.16940    0.26470    0.06990    -999.25
 7300.00000    -999.25   60.19370    -999.25    0.31830    3.36230    0.00490    0.26140    3.00480    3.21800    0.21410    0.08960    -999.25
 7350.00000    -999.25   81.12080    -999.25   -1.22230    2.72650    0.09850    0.39150    2.04910    2.21660    0.25450    0.11570    -999.25
 7400.00000    -999.25   82.45530    -999.25   -4.69190    2.12100    -999.25    0.96500    1.83310    1.94440    0.26490    0.11070    -999.25
 7450.00000    -999.25   79.16010    -999.25   -3.80950    2.27460    -999.25    0.77320    1.81290    1.99250    0.27190    0.12470    -999.25
 7500.00000    -999.25   76.83130    -999.25   -2.68210    2.26600    0.09950    0.46180    2.04590    2.24300    0.27700    0.09640    -999.25
 7550.00000    -999.25   76.85300    -999.25   -3.04750    2.35810    -999.25    0.96840    1.79770    1.94630    0.29440    0.10690    -999.25
 7600.00000    -999.25   84.24280    -999.25   -3.76270    2.19700    -999.25    0.97150    1.80100    1.91230    0.27150    0.10170    -999.25
 7650.00000    -999.25   79.01030    -999.25   -2.59370    2.20550    -999.25    0.94330    1.80610    1.94100    0.26290    0.08560    -999.25
 7700.00000    -999.25   81.02940    -999.25   -3.74520    2.05560    -999.25    1.38400    1.69640    1.81790    0.28000    0.10340    -999.25
 7750.00000    -999.25   83.06420    -999.25   -3.24950    2.05650    -999.25    1.51170    1.64280    1.77350    0.28380    0.11090    -999.25
 7800.00000    -999.25   81.83330    -999.25   -9.44330    2.05750    -999.25    1.63280    1.66450    1.78080    0.26120    0.11160    -999.25
 7850.00000    -999.25   81.55610    -999.25   -6.46680    2.33000    -999.25    1.33650    1.86290    2.01350    0.24670    0.08950    -999.25
 7900.00000    -999.25   76.49750    -999.25   -6.62390    2.41560    -999.25    0.63930    1.94450    2.03920    0.26010    0.08970    -999.25
 7950.00000    -999.25   82.41500    -999.25   -6.78950    2.91000    0.02780    0.25960    2.24840    2.57430    0.22660    0.07660    -999.25
 8000.00000    -999.25   75.12520    -999.25   -9.25250    2.51990    0.02910    0.49930    2.04250    2.20930    0.25600    0.11650    2.56770
 8050.00000    -999.25   58.11960    -999.25   -9.07990    3.05520    0.01940    0.63810    2.39780    2.66200    0.18530    0.22260    2.37760
 8100.00000    -999.25   29.21940    -999.25  -36.08580   61.47520    0.06480    0.33440   61.32980   64.42570    0.11490    0.22140    2.32080
 8150.00000    -999.25   32.04370    -999.25  -31.86420   30.70050    0.10300    0.43890   23.89390   25.81330    0.09820    0.22650    2.27810
 8200.00000    -999.25   81.41430    -999.25  -15.41760    1.49610    -999.25    6.42000    1.15170    1.21020    0.36280    0.19870    2.31340
 8250.00000    -999.25   83.43020    -999.25  -18.13340    2.16180    0.05760    8.07550    1.91010    1.63730    0.39840    0.28750    2.17260
 8300.00000    -999.25   84.50590    -999.25  -23.36700    2.88710    0.10080    3.50180    2.54820    2.17460    0.37160    0.22540    2.26250
 8350.00000    -999.25   83.10480    -999.25  -16.24120    3.33540    -999.25    7.08570    2.77100    2.78600    0.32460    0.18180    2.39130
 8400.00000    -999.25   89.96980    -999.25   -9.95390    5.82880    0.07960    1.63610    4.20210    4.50610    0.33030    0.14800    2.46630
 8450.00000    -999.25   68.93050    -999.25  -19.75500    3.77010    0.09980    9.34730    2.67820    2.75500    0.30600    0.17560    2.38170
 8500.00000    -999.25   32.07450    -999.25  -14.60390   23.05850    0.01470    2.78480   11.80910   17.61220    0.10750   -0.00040    2.69540
 8550.00000    -999.25   15.80370    -999.25  -27.67200  115.52030    0.01750    2.14320   62.07210   81.91150    0.01130    0.02710    2.65370
 8600.00000    -999.25   16.06470    -999.25  -40.14850   44.14960    0.04320    1.99340   60.67870   67.44700    0.00300    0.00850    2.69450
 8650.00000    -999.25   20.19910    -999.25  -26.71730   56.59960    0.03940    1.44410   68.18640   59.37010    0.00900    0.00190    2.69190
 8700.00000    -999.25   12.40720    -999.25  -41.15490  197.41040    0.02190    0.92720  177.96560  188.72650    0.00330    0.01870    2.69120
 8750.00000    -999.25   20.61100    -999.25  -16.97240   66.37580    0.02760    0.11900   55.40090   65.41490    0.01180   -0.00440    2.71220
 8800.00000    -999.25   61.44260    -999.25  -14.37910   27.70550    0.09810    0.11060   13.62390   17.27980    0.06890    0.00010    2.68020
 8850.00000    -999.25   59.99670    -999.25 -157.86120   17.28210    0.09710   -0.56140    6.94260    3.90200    0.09790    0.05040    2.57270
