~Version ---------------------------------------------------
VERS. 2.0 : CWLS log ASCII Standard -VERSION 2.0
WRAP. YES : MULTIPLE LINES PER DEPTH STEP
~Well ------------------------------------------------------
STRT.FT                   1650.0 : START DEPTH
STOP.FT                   8150.0 : STOP DEPTH
STEP.FT                 50.00000 : STEP LENGTH
NULL.                    -999.25 : NULL VALUE
COMP. CHAMPLIN PETROLEUM COMPANY : COMPANY
WELL. STEDMAN RANCH BETTY ANN #1 : WELL
FLD .                    WILDCAT : FIELD
LOC .                            : LOCATION
CNTY.                     DIMMIT : COUNTY
STAT.                      TEXAS : STATE
CTRY.   UNITED STATES OF AMERICA : COUNTRY
SRVC.               Schlumberger : SERVICE COMPANY
DATE.                02-May-1978 : LOGDATE
API .             42127316900000 : API NUMBER
UWI .             42127316900000 : UNIQUE WELL ID
SLAT.WGS84         28.2409522221 : SURFACE LATITUDE
SLON.WGS84        -99.9298835912 : SURFACE LONGITUDE
~Curve Information -----------------------------------------
DEPT  .FT    : DEPTH FEET
SPWS  .MV    : SPONTANEOUS POTENTIAL [BASELINE 0 MV] [SPRED.  REVERSED IN SHALLOW SECTION]
CALWS .IN    : CALIPER [CALDED]
DCORWS.G/C3  : DENSITY CORRECTION [CORRED]
GRWS  .GAPI  : GAMMA RAY [GRDED]
SRESWS.OHMM  : SHALLOW RESISTIVITY [LL8ED]
MRESWS.OHMM  : MEDIUM RESISTIVITY [ILMED]
SPRED .MV    : SPONTANEOUS POTENTIAL FROM RESISTIVITY LOG
DTED  .US/F  : DELTA TIME FROM SONIC LOG
LL8ED .OHMM  : 8 INCH LATEROLOG RESISTIVITY
ILDED .OHMM  : INDUCTION LOG DEEP RESISTIVITY
ILMED .OHMM  : INDUCTION LOG MEDIUM RESISTIVITY
NPHIED.V/V   : NEUTRON POROSITY SANDSTONE AND LIMESTONE FROM DENSITY LOG [MATRIX CHANGE AT 5822 TO LIMESTONE] [DEPTH SHIFTED TO RES.]
CALDED.IN    : CALIPER FROM DENSITY LOG [DEPTH SHIFTED TO RES.]
CORRED.G/C3  : DENSITY CORRECTION FROM DENSITY LOG [DEPTH SHIFTED TO RES.]
DRESWS.OHMM  : DEEP RESISTIVITY [ILDED]
GRDED .GAPI  : GAMMA RAY FROM DENSITY LOG [DEPTH SHIFTED TO RES.]
RHOBED.G/C3  : BULK DENSITY FROM DENSITY LOG [DEPTH SHIFTED TO RES.]
CONDWS.MMHO  : CONDUCTIVITY [1000/DRESws]
NPOWS .V/V   : NEUTRON POROSITY SANDSTONE AND LIMESTONE [NPHIED.  MATRIX CHANGE TO LIMESTONE AT 5822]
DENWS .G/C3  : BULK DENSITY [M=2.68 F=1.0 TO 5838 FEET, THEN 2.71, 1 TO TD] [RHOBED]
DPOWS .V/V   : DENSITY POROSITY [M=2.68 F=1.0 TO 5838 FEET, THEN 2.71, 1 TO TD] [CALCULATED FROM DENws]
DTWS  .US/F  : DELTA TIME [DTED]
~Params ----------------------------------------------------
PD  .                     GL : PERMANENT DATUM
EPD .FT                  821 : ELEVATION PERMANENT DATUM
LMF .                     KB : LOG MEASURED FROM
DAPD.FT                  9.7 : FEET ABOVE PERMANENT DATUM
DMF .                     KB : DRILLING MEASURED FROM
EKB .FT                830.7 : KELLY BUSHING
EDF .FT                829.7 : DRILLING FLOOR
EGL .FT                821.0 : GROUND LEVEL
DATE.               05/02/78 : RUN DATE
RUN .                      1 : RUN NUMBER
DD  .FT                 8186 : DEPTH DRILLER
DL  .FT                 8167 : DEPTH LOGGER
BLI .FT                 8166 : BOTTOM LOG INTERVAL
TLI .FT                 1612 : TOP LOG INTERVAL
CS  .IN                8.625 : CASING SIZE
CBD .FT                 1610 : CASING BOTTOM DRILLER
CBL .FT                 1612 : CASING BOTTOM LOGGER
BS  .IN                7.875 : BIT SIZE
BSD .FT                 8186 : BIT SIZE AT DEPTH
DFT .   SPER GEL  SALT WATER : DRILLING FLUID TYPE
DFD .                    9.5 : DRILLING FLUID DENSITY
DFV .                     45 : DRILLING FLUID VISCOSITY
DFPH.                    8.5 : DRILLING FLUID PH
MSS .               FLOWLINE : MUD SAMPLE SOURCE
RMS .OHMM              0.456 : RESISTIVITY MUD SAMPLE
MST .FT                   86 : MUD SAMPLE TEMPERATURE
RMF .OHMM                378 : RESISTIVITY MUD FILTRATE SAMPLE
MFST.FT                   86 : MUD FILTRATE SAMPLE TEMPERATURE
RMC .OHMM               0.41 : RESISTIVITY MUD CAKE
MCST.FT                   86 : MUD CAKE SAMPLE TEMPERATURE
MFSS.                      M : MUD FILTRATE SAMPLE SOURCE
MCSS.                      C : MUD CAKE SAMPLE SOURCE
RMB .OHMM               0.24 : RESISTIVITY MUD AT BHT
TCS .HRS                 100 : TIME CURCULATED STOPPED
TLAB.HRS                 700 : TIME LOGGER AT BOTTOM
LUN .                   7769 : LOGGING UNIT NUMBER
LUL .                 LAREDO : LOGGING UNIT LOCATION
ENGI.                  FOGAL : RECORDING ENGINEER
WITN.                 PONDER : WITNESSED BY
CLNT.                A2DTECH : CLIENT CODE
ORIG.               5" PRINT : ORIGIN OF DATA
UWI .         42127316900000 : UNIQUE WELL ID
DICO. A2D Technologies, Inc. : DIGITIZING COMPANY
~Other -----------------------------------------------------
~ASCII -----------------------------------------------------
# ...
 4850.00000   -2.96030   14.20440    0.13730   95.07890    4.12850    3.58800  -24.68080   89.02200    4.12850    3.92300    3.58800    0.30210   14.20440    0.13730    3.92300   95.07890    2.18520  254.90700    0.30210    2.18520    0.29450   89.02200
 4900.00000   -2.77090   10.07740    0.17060   88.85790    5.03420    4.34270  -24.61700   82.89650    5.03420    4.49840    4.34270    0.27070   10.07740    0.17060    4.49840   88.85790    2.37710  222.30130    0.27070    2.37710    0.18030   82.89650
 4950.00000   -1.48470   13.08900    0.16500   98.90260    4.47130    3.82970  -23.45630   87.64390    4.47130    4.10920    3.82970    0.28630   13.08900    0.16500    4.10920   98.90260    2.19850  243.35640    0.28630    2.19850    0.28660   87.64390
 5000.00000   -1.30900   12.51790    0.21520  107.42750    4.46050    3.98690  -23.40610   87.23940    4.46050    4.13560    3.98690    0.31660   12.51790    0.21520    4.13560  107.42750    2.19710  241.80290    0.31660    2.19710    0.28740   87.23940
 5050.00000   -2.57810   12.65670    0.21720  104.69810    4.23240    3.93350  -24.80080   89.20190    4.23240    4.08030    3.93350    0.29770   12.65670    0.21720    4.08030  104.69810    2.20690  245.08000    0.29770    2.20690    0.28160   89.20190
 5100.00000   -3.61520   12.75800    0.21070  119.25000    4.15180    3.78090  -25.96340   91.32080    4.15180    4.00320    3.78090    0.29700   12.75800    0.21070    4.00320  119.25000    2.17370  249.80020    0.29700    2.17370    0.30140   91.32080
 5150.00000   -2.92460    9.20440    0.01360   82.38290    6.33900    4.98590  -25.39840   77.89420    6.33900    5.45610    4.98590    0.21230    9.20440    0.01360    5.45610   82.38290    2.52750  183.28110    0.21230    2.52750    0.09080   77.89420
 5200.00000   -4.15800    8.97520    0.05030   82.58930    5.30660    4.81780  -26.75730   80.32630    5.30660    4.99750    4.81780    0.23930    8.97520    0.05030    4.99750   82.58930    2.50990  200.10010    0.23930    2.50990    0.10120   80.32630
 5250.00000   -1.71740    9.81000    0.04270   97.84100    5.71260    5.04220  -24.44230   78.57010    5.71260    5.15340    5.04220    0.22410    9.81000    0.04270    5.15340   97.84100    2.46290  194.04660    0.22410    2.46290    0.12920   78.57010
 5300.00000   -1.61010   12.00530    0.17400  101.30700    4.57800    4.28380  -42.73620   83.83110    4.57800    4.03940    4.28380    0.28170   12.00530    0.17400    4.03940  101.30700    2.29760  247.56150    0.28170    2.29760    0.22760   83.83110
 5350.00000   -1.58660   11.30950    0.13550  100.48610    5.57640    4.95070  -42.33070   81.45130    5.57640    4.73110    4.95070    0.22660   11.30950    0.13550    4.73110  100.48610    2.35200  211.36730    0.22660    2.35200    0.19520   81.45130
 5400.00000   -1.36340   13.45040    0.18310   96.37070    4.10230    3.67610  -41.79430   86.91470    4.10230    3.97410    3.67610    0.30700   13.45040    0.18310    3.97410   96.37070    2.23190  251.62930    0.30700    2.23190    0.26670   86.91470
 5450.00000   -1.29530   10.87100    0.15110   91.29900    5.10270    4.67420  -41.72620   80.43910    5.10270    4.45850    4.67420    0.23860   10.87100    0.15110    4.45850   91.29900    2.39970  224.29070    0.23860    2.39970    0.16680   80.43910
 5500.00000   -1.70060   13.17260    0.18310   95.26060    4.08480    3.80080  -42.13150   87.32610    4.08480    3.86610    3.80080    0.29260   13.17260    0.18310    3.86610   95.26060    2.17870  258.65860    0.29260    2.17870    0.29840   87.32610
 5550.00000   -0.42470   12.25990    0.12400   93.98350    4.97860    4.27270  -40.85560   82.21270    4.97860    4.14780    4.27270    0.24630   12.25990    0.12400    4.14780   93.98350    2.24480  241.09170    0.24630    2.24480    0.25900   82.21270
 5600.00000   -0.84300   11.00990    0.18010   96.25150    4.62020    4.16370  -41.27390   84.23460    4.62020    3.98740    4.16370    0.27420   11.00990    0.18010    3.98740   96.25150    2.30170  250.79000    0.27420    2.30170    0.22520   84.23460
 5650.00000   -1.28280   12.35910    0.19280   95.70660    4.47640    4.08170  -41.71370   85.46110    4.47640    3.82830    4.08170    0.26520   12.35910    0.19280    3.82830   95.70660    2.23200  261.21260    0.26520    2.23200    0.26670   85.46110
 5700.00000   -0.90740   10.73210    0.11190   84.05360    7.52880    6.19110  -57.48670   79.14020    7.52880    5.72570    6.19110    0.23470   10.73210    0.11190    5.72570   84.05360    2.43640  174.65110    0.23470    2.43640    0.14500   79.14020
 5750.00000   -0.87920    9.85950    0.09280   89.73330    5.25520    4.46080  -57.40530   81.81210    5.25520    4.22440    4.46080    0.26150    9.85950    0.09280    4.22440   89.73330    2.44630  236.72000    0.26150    2.44630    0.13910   81.81210
 5800.00000   -0.58480   12.49800    0.13320   87.74050    3.47630    3.22430  -57.05770   88.80720    3.47630    3.02200    3.22430    0.31090   12.49800    0.13320    3.02200   87.74050    2.34710  330.90670    0.31090    2.34710    0.19820   88.80720
 5850.00000   -0.37200    8.84190    0.00850   55.87720   11.91050    9.99540  -56.79170   70.67460   11.91050    9.32800    9.99540    0.12030    8.84190    0.00850    9.32800   55.87720    2.59850  107.20410    0.12030    2.59850    0.06520   70.67460
 5900.00000   -2.38240    8.67340    0.02440   48.81060   12.46960    9.53700  -58.74890   70.41480   12.46960    8.68780    9.53700    0.12700    8.67340    0.02440    8.68780   48.81060    2.59650  115.10390    0.12700    2.59650    0.06640   70.41480
 5950.00000   -3.22260    8.51490    0.02800   35.33800   19.27940   16.26520  -59.53590   66.10860   19.27940   15.48420   16.26520    0.09270    8.51490    0.02800   15.48420   35.33800    2.60230   64.58200    0.09270    2.60230    0.06300   66.10860
 6000.00000   -5.21530    8.64060    0.02240   30.59880   31.09820   25.62050  -61.47540   59.23100   31.09820   23.91770   25.62050    0.05910    8.64060    0.02240   23.91770   30.59880    2.66120   41.81000    0.05910    2.66120    0.02850   59.23100
 6050.00000   -1.20590    8.71370    0.00800   47.54800   17.83320   11.74400  -57.46630   67.76770   17.83320   10.25980   11.74400    0.09130    8.71370    0.00800   10.25980   47.54800    2.61990   97.46780    0.09130    2.61990    0.05270   67.76770
 6100.00000   -0.52710    8.78650    0.00120   54.60320   20.46400   12.03340  -56.85880   66.23900   20.46400   10.23580   12.03340    0.09140    8.78650    0.00120   10.23580   54.60320    2.61440   97.69630    0.09140    2.61440    0.05590   66.23900
 6150.00000   -0.43120    8.81250    0.01990   53.60910   14.04890   12.54830  -56.83410   70.67180   14.04890   11.64620   12.54830    0.13240    8.81250    0.01990   11.64620   53.60910    2.58260   85.86490    0.13240    2.58260    0.07450   70.67180
 6200.00000   -2.16860    8.66670    0.00190   51.87080   17.90180   13.91840  -58.64280   65.71250   17.90180   13.24540   13.91840    0.09910    8.66670    0.00190   13.24540   51.87080    2.62850   75.49790    0.09910    2.62850    0.04770   65.71250
 6250.00000   -1.30750    8.45610    0.00850   29.44470   80.65060   31.20740  -57.85290   55.01010   80.65060   22.12350   31.20740    0.03820    8.45610    0.00850   22.12350   29.44470    2.64860   45.20080    0.03820    2.64860    0.03590   55.01010
 6300.00000   -2.02540    8.33600    0.00750   26.37670   69.96080   26.83060  -58.64810   56.79920   69.96080   23.05600   26.83060    0.03400    8.33600    0.00750   23.05600   26.37670    2.63630   43.37270    0.03400    2.63630    0.04310   56.79920
 6350.00000   -0.74590    8.46400    0.01210   49.65120   58.23360   19.00150  -57.45530   59.18490   58.23360   16.39230   19.00150    0.04470    8.46400    0.01210   16.39230   49.65120    2.62690   61.00430    0.04470    2.62690    0.04860   59.18490
 6400.00000   -4.99470    8.29270   -0.00460   27.02460  114.81380   78.82200  -61.79090   58.88880  114.81380   59.96030   78.82200    0.04650    8.29270   -0.00460   59.96030   27.02460    2.62050   16.67770    0.04650    2.62050    0.05230   58.88880
