~Version ---------------------------------------------------
VERS. 2.0 : CWLS log ASCII Standard -VERSION 2.0
WRAP. YES : MULTIPLE LINES PER DEPTH STEP
~Well ------------------------------------------------------
STRT.FT                 1150.0 : START DEPTH
STOP.FT                 8650.0 : STOP DEPTH
STEP.FT               50.00000 : STEP LENGTH
NULL.                  -999.25 : NULL VALUE
COMP. FLAG-REDFERN OIL COMPANY : COMPANY
WELL.          WILCO SUPPLY #1 : WELL
FLD .                 GIDDINGS : FIELD
LOC .                          : LOCATION
CNTY.                      LEE : COUNTY
STAT.                    TEXAS : STATE
CTRY. UNITED STATES OF AMERICA : COUNTRY
SRVC.             Schlumberger : SERVICE COMPANY
DATE.              22-Jun-1982 : LOGDATE
API .           42287312020000 : API NUMBER
UWI .           42287312020000 : UNIQUE WELL ID
SLAT.WGS84           30.100566 : SURFACE LATITUDE
SLON.WGS84          -96.965706 : SURFACE LONGITUDE
~Curve Information -----------------------------------------
DEPT    .FT    : DEPTH FEET
CALWS   .IN    : CALIPER [DCALED+BITED]
CONDWS  .MMHO  : CONDUCTIVITY [1000/DRESWS]
DCALED  .IN    : DIFFERENTIAL CALIPER FROM DENSITY LOG
DCORWS  .G/C3  : DENSITY CORRECTION [DRHOED]
DENWS   .G/C3  : BULK DENSITY [M=2.71 F=1.0] [CALCULATED FROM DPOWS]
DPHILSED.V/V   : DENSITY POROSITY [M=2.71 F=1.0] FROM DENSITY LOG
DPHISSED.V/V   : DENSITY POROSITY [M=2.65 F=1.0] FROM DENSITY LOG
DPOLSWS .V/V   : DENSITY POROSITY [M=2.71 F=1.0] [1121 DPOLSCAL 7198 DPHILSED]
DRESWS  .OHMM  : DEEP RESISTIVITY [ILDED]
DRHOED  .G/C3  : DENSITY CORRECTION FROM DENSITY LOG
GRRED   .GAPI  : GAMMA RAY FROM RESISTIVITY LOG
GRWS    .GAPI  : GAMMA RAY [GRRED]
ILDED   .OHMM  : INDUCTION LOG DEEP RESISTIVITY
ILMED   .OHMM  : INDUCTION LOG MEDIUM RESISTIVITY
MRESWS  .OHMM  : MEDIUM RESISTIVITY [ILMED]
NPHILSED.V/V   : NEUTRON POROSITY LIMESTONE FROM DENSITY LOG
NPHISSED.V/V   : NEUTRON POROSITY SANDSTONE FROM DENSITY LOG
NPOLSWS .V/V   : NEUTRON POROSITY LIMESTONE [1121 NPOLSCAL 7198 NPHILSED] [NPHISSED WAS CONVERTED TO NPOLSCAL USING POWERLOG MODULE]
SFLUED  .OHMM  : SPHERICALLY FOCUSED LOG RESISTIVITY
SPRED   .MV    : SPONTANEOUS POTENTIAL FROM RESISTIVITY LOG [SHIFTS ARE REMOVED]
SPWS    .MV    : SPONTANEOUS POTENTIAL [BASELINE 0 MV] [SPRED][POSITIVE VALUES, PL. USE W/ RESERVATIONS]
SRESWS  .OHMM  : SHALLOW RESISTIVITY [SFLUED]
~Params ----------------------------------------------------
PD  .                     GL : PERMANENT DATUM
EPD .FT                  478 : ELEVATION PERMANENT DATUM
LMF .                     KB : LOG MEASURED FROM
DAPD.FT                   17 : FEET ABOVE PERMANENT DATUM
DMF .                     KB : DRILLING MEASURED FROM
EKB .FT                  495 : KELLY BUSHING
EDF .FT                  494 : DRILLING FLOOR
EGL .FT                  478 : GROUND LEVEL
DATE.               06/22/82 : RUN DATE
RUN .                      2 : RUN NUMBER
DD  .FT                 8700 : DEPTH DRILLER
DL  .FT                 8700 : DEPTH LOGGER
BLI .FT                 8694 : BOTTOM LOG INTERVAL
TLI .FT                 7748 : TOP LOG INTERVAL
CS  .IN                    7 : CASING SIZE
CBD .FT                 7749 : CASING BOTTOM DRILLER
CBL .FT                 7748 : CASING BOTTOM LOGGER
BS  .IN                6.125 : BIT SIZE
BSD .FT                 8700 : BIT SIZE AT DEPTH
DFT .         LIGNOSULFONATE : DRILLING FLUID TYPE
DFD .                    9.9 : DRILLING FLUID DENSITY
DFV .                     41 : DRILLING FLUID VISCOSITY
DFPH.                     11 : DRILLING FLUID PH
DFL .                    5.2 : DRILLING FLUID LOSS
MSS .                   TANK : MUD SAMPLE SOURCE
RMS .OHMM               1.05 : RESISTIVITY MUD SAMPLE
MST .DEGF                107 : MUD SAMPLE TEMPERATURE
RMF .OHMM               0.77 : RESISTIVITY MUD FILTRATE SAMPLE
MFST.DEGF                107 : MUD FILTRATE SAMPLE TEMPERATURE
RMC .OHMM               1.54 : RESISTIVITY MUD CAKE
MCST.DEGF                107 : MUD CAKE SAMPLE TEMPERATURE
MFSS.                   MEAS : MUD FILTRATE SAMPLE SOURCE
MCSS.                   CALC : MUD CAKE SAMPLE SOURCE
RMB .OHMM              0.598 : RESISTIVITY MUD AT BHT
TCS .HRS                 700 : TIME CIRCULATED STOPPED
TLAB.HRS                1130 : TIME LOGGER AT BOTTOM
LUN .                   8096 : LOGGING UNIT NUMBER
LUL .                BRENHAM : LOGGING UNIT LOCATION
ENGI.                   HALL : RECORDING ENGINEER
WITN.                 PARKER : WITNESSED BY
CLNT.                A2DTECH : CLIENT CODE
ORIG.            2" 5" PRINT : ORIGIN OF DATA
UWI .         42287312020000 : UNIQUE WELL ID
DICO. A2D Technologies, Inc. : DIGITIZING COMPANY
~Other -----------------------------------------------------
~ASCII -----------------------------------------------------
# ...
 7550.00000    9.44520  450.83630    0.69520    0.01970    2.55440    0.09100    -999.25    0.09100    2.21810    0.01970   91.28130   91.28130    2.21810    2.25480    2.25480    0.21810    -999.25    0.21810    2.60400  -56.00770   -4.25130    2.60400
 7600.00000   10.08660  397.51950    1.33660    0.02490    2.56690    0.08370    -999.25    0.08370    2.51560    0.02490   92.89780   92.89780    2.51560    2.60240    2.60240    0.20040    -999.25    0.20040    2.62570  -56.57150   -5.59700    2.62570
 7650.00000    9.57820  519.23780    0.82820    0.07030    2.58810    0.07130    -999.25    0.07130    1.92590    0.07030   99.97350   99.97350    1.92590    1.96720    1.96720    0.24110    -999.25    0.24110    2.30530  -64.90330  -14.71070    2.30530
 7700.00000    8.92520  213.21960    0.17520    0.02000    2.63540    0.04360    -999.25    0.04360    4.69000    0.02000   29.16630   29.16630    4.69000    4.31280    4.31280    0.06630    -999.25    0.06630    4.51860  -74.16130  -24.75070    4.51860
 7750.00000    6.98370    -999.25    0.85870    0.02020    2.64040    0.04070    -999.25    0.04070    -999.25    0.02020   30.44490   30.44490    -999.25    -999.25    -999.25    0.08200    -999.25    0.08200    9.27310    -999.25    -999.25    9.27310
 7800.00000    7.78060  101.10920    1.65560    0.01980    2.66470    0.02650    -999.25    0.02650    9.89030    0.01980   28.22320   28.22320    9.89030   10.22840   10.22840    0.07350    -999.25    0.07350   12.85270  -59.12560  -11.27880   12.85270
 7850.00000    7.74970   84.94730    1.62470    0.00710    2.63510    0.04380    -999.25    0.04380   11.77200    0.00710   20.76460   20.76460   11.77200   12.68880   12.68880    0.06430    -999.25    0.06430   16.71880  -68.12400  -21.05910   16.71880
 7900.00000    7.40420  182.76860    1.27920    0.04050    2.57230    0.08050    -999.25    0.08050    5.47140    0.04050   39.62400   39.62400    5.47140    7.34810    7.34810    0.08470    -999.25    0.08470   15.33950  -62.32580  -16.04280   15.33950
 7950.00000    7.44710  103.57970    1.32210    0.02110    2.63970    0.04110    -999.25    0.04110    9.65440    0.02110   19.85830   19.85830    9.65440   10.64160   10.64160    0.07000    -999.25    0.07000   19.48710  -66.99340  -21.49230   19.48710
 8000.00000    7.33680  105.57880    1.21180    0.01360    2.64910    0.03560    -999.25    0.03560    9.47160    0.01360   28.88580   28.88580    9.47160   10.50600   10.50600    0.08750    -999.25    0.08750   11.23010  -56.57820  -11.85900   11.23010
 8050.00000    7.48540  128.81290    1.36040    0.01780    2.64190    0.03980    -999.25    0.03980    7.76320    0.01780   27.76960   27.76960    7.76320    8.69500    8.69500    0.08940    -999.25    0.08940   10.47150  -54.47150  -10.53420   10.47150
 8100.00000    7.40920  129.62770    1.28420    0.02350    2.65440    0.03250    -999.25    0.03250    7.71440    0.02350   25.98110   25.98110    7.71440    7.69660    7.69660    0.07470    -999.25    0.07470   12.00910  -56.17750  -13.02210   12.00910
 8150.00000    7.27760  135.86030    1.15260    0.01300    2.63970    0.04110    -999.25    0.04110    7.36050    0.01300   27.51190   27.51190    7.36050    7.01210    7.01210    0.08850    -999.25    0.08850    9.10390  -56.26680  -13.89330    9.10390
 8200.00000    7.13810  173.55990    1.01310    0.01990    2.62950    0.04710    -999.25    0.04710    5.76170    0.01990   47.27010   47.27010    5.76170    5.97850    5.97850    0.09600    -999.25    0.09600   10.64470  -55.71950  -14.12790   10.64470
 8250.00000    8.24980  106.65420    2.12480    0.09880    2.21670    0.28850    -999.25    0.28850    9.37610    0.09880   42.60800   42.60800    9.37610    9.41730    9.41730    0.08680    -999.25    0.08680    9.50270  -66.79530  -25.98560    9.50270
 8300.00000    9.15250   52.41530    3.02750    0.09720    -999.25    -999.25    -999.25    -999.25   19.07840    0.09720   17.96910   17.96910   19.07840   19.09840   19.09840    0.07440    -999.25    0.07440   26.71910  -72.73540  -32.70760   26.71910
 8350.00000    9.93110   61.53660    3.80610    0.05420    -999.25    -999.25    -999.25    -999.25   16.25050    0.05420   25.10550   25.10550   16.25050   14.53960   14.53960    0.08120    -999.25    0.08120   13.93660  -77.82350  -38.57760   13.93660
 8400.00000    8.79890   50.09470    2.67390    0.09820    2.03080    0.39720    -999.25    0.39720   19.96220    0.09820   39.94030   39.94030   19.96220   27.76030   27.76030    0.07770    -999.25    0.07770   44.45660  -70.16840  -31.70440   44.45660
 8450.00000    6.84820   93.88880    0.72320    0.01980    2.49010    0.12860    -999.25    0.12860   10.65090    0.01980  102.18830  102.18830   10.65090   10.27360   10.27360    0.24380    -999.25    0.24380   20.97870  -43.09420   -5.41210   20.97870
 8500.00000    9.51220  365.16340    3.38720    0.09940    2.58110    0.07540    -999.25    0.07540    2.73850    0.09940  108.94380  108.94380    2.73850    2.31690    2.31690    0.33440    -999.25    0.33440    4.20960  -51.59620  -14.66330    4.20960
 8550.00000    7.06220  199.37400    0.93720    0.02280    2.67340    0.02140    -999.25    0.02140    5.01570    0.02280   51.37600   51.37600    5.01570    4.59060    4.59060    0.14140    -999.25    0.14140    6.03360  -40.20370   -3.99220    6.03360
 8600.00000    6.72850   38.58680    0.60350    0.00850    2.66490    0.02640    -999.25    0.02640   25.91560    0.00850   12.21520   12.21520   25.91560   30.91950   30.91950    0.02880    -999.25    0.02880   50.60210  -48.59580  -13.10570   50.60210
 8650.00000    6.51770   52.07030    0.39270    0.04280    2.68500    0.01460    -999.25    0.01460   19.20480    0.04280   48.33750   48.33750   19.20480   19.46100   19.46100    0.05180    -999.25    0.05180   26.14080  -43.62680   -8.49020   26.14080
