~Version ---------------------------------------------------
VERS. 2.0 : CWLS log ASCII Standard -VERSION 2.0
WRAP. YES : MULTIPLE LINES PER DEPTH STEP
~Well ------------------------------------------------------
STRT.FT                   1000.0 : START DEPTH
STOP.FT                  11500.0 : STOP DEPTH
STEP.FT                 50.00000 : STEP LENGTH
NULL.                    -999.25 : NULL VALUE
COMP. KAISER-FRANCIS OIL COMPANY : COMPANY
WELL.            D.C. MCMANUS #1 : WELL
FLD .              AUSTIN PIERCE : FIELD
LOC .                            : LOCATION
CNTY.                   GONZALES : COUNTY
STAT.                      TEXAS : STATE
CTRY.   UNITED STATES OF AMERICA : COUNTRY
SRVC.               Schlumberger : SERVICE COMPANY
DATE.                01-Dec-1996 : LOGDATE
API .             42177320060000 : API NUMBER
UWI .             42177320060000 : UNIQUE WELL ID
SLAT.WGS84          29.374572664 : SURFACE LATITUDE
SLON.WGS84        -97.3289574079 : SURFACE LONGITUDE
~Curve Information -----------------------------------------
DEPT    .FT    : DEPTH FEET
AO10ED  .OHMM  : 10 INCH ARRAY RESISTIVITY ONE FOOT RESOLUTION
AO20ED  .OHMM  : 20 INCH ARRAY RESISTIVITY ONE FOOT RESOLUTION
AO30ED  .OHMM  : 30 INCH ARRAY RESISTIVITY ONE FOOT RESOLUTION
AO60ED  .OHMM  : 60 INCH ARRAY RESISTIVITY ONE FOOT RESOLUTION
AO90ED  .OHMM  : 90 INCH ARRAY RESISTIVITY ONE FOOT RESOLUTION
CALWS   .IN    : CALIPER [DCALED+BITED]
CONDWS  .MMHO  : CONDUCTIVITY [1000/DRESWS]
DCALRED .IN    : DIFFERENTIAL CALIPER FROM RESISTIVITY LOG
DCORWS  .G/C3  : DENSITY CORRECTION [HDRAED]
DENWS   .G/C3  : BULK DENSITY [M=2.71 F=1.0] [CALCULATED FROM DPOWS]
DPHZLSED.V/V   : DENSITY POROSITY [M=2.71 F=1.0] FROM DENSITY LOG
DPOWS   .V/V   : DENSITY POROSITY [M=2.71 F=1.0] [DPHZLSED]
DRESWS  .OHMM  : DEEP RESISTIVITY [AO90ED]
DTED    .US/F  : DELTA TIME FROM SONIC LOG
DTWS    .US/F  : DELTA TIME [DTED]
GRRED   .GAPI  : GAMMA RAY FROM RESISTIVITY LOG
GRWS    .GAPI  : GAMMA RAY [GRRED, CSG ABOVE 1070F]
HDRAED  .G/C3  : DENSITY CORRECTION FROM DENSITY LOG
MRESWS  .OHMM  : MEDIUM RESISTIVITY [AO30ED]
NPHILSED.V/V   : NEUTRON POROSITY LIMESTONE FROM DENSITY LOG
NPOWS   .V/V   : NEUTRON POROSITY LIMESTONE [NPHILSED]
SPRED   .MV    : SPONTANEOUS POTENTIAL FROM RESISTIVITY LOG
SPWS    .MV    : SPONTANEOUS POTENTIAL [BASELINE 0 MV] [SPRED]
SRESWS  .OHMM  : SHALLOW RESISTIVITY [AO10ED]
TENRED  .LBF   : TENSION FROM RESISTIVITY LOG
~Params ----------------------------------------------------
PD  .                     GL : PERMANENT DATUM
EPD .FT               257.26 : ELEVATION PERMANENT DATUM
LMF .                     KB : LOG MEASURED FROM
DAPD.FT                 16.3 : FEET ABOVE PERMANENT DATUM
DMF .                     KB : DRILLING MEASURED FROM
EKB .FT               275.58 : KELLY BUSHING
EDF .FT                  275 : DRILLING FLOOR
EGL .FT               257.26 : GROUND LEVEL
DATE.               12/01/96 : RUN DATE
RUN .                      1 : RUN NUMBER
DD  .FT                11530 : DEPTH DRILLER
DL  .FT                11500 : DEPTH LOGGER
BLI .FT                11500 : BOTTOM LOG INTERVAL
TLI .FT                 1070 : TOP LOG INTERVAL
CS  .IN                9.625 : CASING SIZE
CBD .FT                 1061 : CASING BOTTOM DRILLER
CBL .FT                 1070 : CASING BOTTOM LOGGER
BS  .IN                 8.75 : BIT SIZE
BSD .FT                11530 : BIT SIZE AT DEPTH
DFT .                 LOLIME : DRILLING FLUID TYPE
DFD .                   10.1 : DRILLING FLUID DENSITY
DFV .                     47 : DRILLING FLUID VISCOSITY
DFPH.                    9.5 : DRILLING FLUID PH
MSS .                MUD PIT : MUD SAMPLE SOURCE
RMS .OHMM               4.36 : RESISTIVITY MUD SAMPLE
MST .FT                   75 : MUD SAMPLE TEMPERATURE
RMF .OHMM                3.7 : RESISTIVITY MUD FILTRATE SAMPLE
MFST.FT                   75 : MUD FILTRATE SAMPLE TEMPERATURE
RMC .OHMM                6.5 : RESISTIVITY MUD CAKE
MCST.FT                   75 : MUD CAKE SAMPLE TEMPERATURE
MFSS.              MUD PRESS : MUD FILTRATE SAMPLE SOURCE
MCSS.                   CALC : MUD CAKE SAMPLE SOURCE
RMB .OHMM              1.515 : RESISTIVITY MUD AT BHT
TCS .HRS                 430 : TIME CURCULATED STOPPED
TLAB.HRS                 900 : TIME LOGGER AT BOTTOM
LUN .                   3075 : LOGGING UNIT NUMBER
LUL .               VICTORIA : LOGGING UNIT LOCATION
ENGI.                  NAHRI : RECORDING ENGINEER
WITN.                   RUSS : WITNESSED BY
CLNT.                A2DTECH : CLIENT CODE
ORIG.               5" PRINT : ORIGIN OF DATA
UWI .         42177320060000 : UNIQUE WELL ID
DICO. A2D Technologies, Inc. : DIGITIZING COMPANY
~Other -----------------------------------------------------
~ASCII -----------------------------------------------------
# ...
 3800.00000    2.24090    2.36010    2.27050    1.59260    1.58210    -999.25  632.07130    -999.25    -999.25    -999.25    -999.25    -999.25    1.58210    -999.25    -999.25   97.62870   97.62870    -999.25    2.27050    -999.25    -999.25  -67.25870  -20.10510    2.24090 1753.17470
 3850.00000    1.80430    1.78300    1.75790    1.67430    1.65130    -999.25  605.58350    -999.25    -999.25    -999.25    -999.25    -999.25    1.65130    -999.25    -999.25   96.81290   96.81290    -999.25    1.75790    -999.25    -999.25  -55.39390   -8.12100    1.80430 1776.92600
 3900.00000    1.11930    1.18380    1.20690    1.21540    1.25670    -999.25  795.73490    -999.25    -999.25    -999.25    -999.25    -999.25    1.25670    -999.25    -999.25  115.97570  115.97570    -999.25    1.20690    -999.25    -999.25  -48.00820   -0.61590    1.11930 1764.33560
 3950.00000    1.39490    1.47580    1.49370    1.49720    1.51730    -999.25  659.06540    -999.25    -999.25    -999.25    -999.25    -999.25    1.51730    -999.25    -999.25  125.20430  125.20430    -999.25    1.49370    -999.25    -999.25  -51.64190   -3.23740    1.39490 1766.58250
 4000.00000    4.83250    2.57280    2.05350    1.47090    1.37730    -999.25  726.05820    -999.25    -999.25    -999.25    -999.25    -999.25    1.37730    -999.25    -999.25   78.01380   78.01380    -999.25    2.05350    -999.25    -999.25 -116.16170  -66.38020    4.83250 1771.13600
 4050.00000    6.31980    2.63860    1.76430    1.22560    1.07780    -999.25  927.81590    -999.25    -999.25    -999.25    -999.25    -999.25    1.07780    -999.25    -999.25   49.85480   49.85480    -999.25    1.76430    -999.25    -999.25 -137.76150  -86.60310    6.31980 1794.00260
 4100.00000    1.78890    1.35970    1.30720    1.21960    1.11640    -999.25  895.73630    -999.25    -999.25    -999.25    -999.25    -999.25    1.11640    -999.25    -999.25   98.68310   98.68310    -999.25    1.30720    -999.25    -999.25  -66.77240  -14.23700    1.78890 1796.34300
 4150.00000    3.57950    2.67610    1.71740    1.03880    0.94750    -999.25 1055.40890    -999.25    -999.25    -999.25    -999.25    -999.25    0.94750    -999.25    -999.25   67.54760   67.54760    -999.25    1.71740    -999.25    -999.25 -114.44470  -60.53240    3.57950 1758.50370
 4200.00000    3.83970    1.63400    1.30480    0.91350    0.86120    -999.25 1161.17050    -999.25    -999.25    -999.25    -999.25    -999.25    0.86120    -999.25    -999.25   61.22230   61.22230    -999.25    1.30480    -999.25    -999.25 -132.68910  -77.39990    3.83970 1787.35450
 4250.00000    2.91290    2.28960    1.72370    1.38270    1.32190    -999.25  756.48690    -999.25    -999.25    -999.25    -999.25    -999.25    1.32190    -999.25    -999.25   99.17400   99.17400    -999.25    1.72370    -999.25    -999.25  -85.57840  -28.91220    2.91290 1800.37770
 4300.00000    4.75750    3.72360    2.95620    2.11790    2.00250    -999.25  499.37580    -999.25    -999.25    -999.25    -999.25    -999.25    2.00250    -999.25    -999.25  114.37530  114.37530    -999.25    2.95620    -999.25    -999.25  -96.21190  -39.55910    4.75750 1853.80250
 4350.00000    4.79860    3.23130    2.27540    1.53100    1.31330    -999.25  761.44060    -999.25    -999.25    -999.25    -999.25    -999.25    1.31330    -999.25    -999.25   93.62480   93.62480    -999.25    2.27540    -999.25    -999.25 -114.23550  -59.04300    4.79860 1831.24450
 4400.00000    5.40830    2.62090    1.87900    1.19320    1.05390    -999.25  948.85660    -999.25    -999.25    -999.25    -999.25    -999.25    1.05390    -999.25    -999.25   66.79520   66.79520    -999.25    1.87900    -999.25    -999.25 -136.10650  -82.37440    5.40830 1844.05550
 4450.00000    4.17810    3.34700    2.61060    1.96760    1.78780    -999.25  559.34670    -999.25    -999.25    -999.25    -999.25    -999.25    1.78780    -999.25    -999.25  107.96680  107.96680    -999.25    2.61060    -999.25    -999.25  -86.66710  -34.39540    4.17810 1842.48430
 4500.00000   10.95430    3.77330    2.27570    1.38180    1.30790    -999.25  764.58450    -999.25    -999.25    -999.25    -999.25    -999.25    1.30790    -999.25    -999.25   98.81260   98.81260    -999.25    2.27570    -999.25    -999.25 -119.40240  -68.59100   10.95430 1802.42090
 4550.00000   26.50300    4.92630    2.23960    1.30180    1.12570    -999.25  888.33610    -999.25    -999.25    -999.25    -999.25    -999.25    1.12570    -999.25    -999.25   48.66230   48.66230    -999.25    2.23960    -999.25    -999.25 -137.78400  -88.43300   26.50300 1842.14670
 4600.00000    4.12120    3.33900    2.73150    2.10830    1.85970    -999.25  537.72110    -999.25    -999.25    -999.25    -999.25    -999.25    1.85970    -999.25    -999.25   96.79500   96.79500    -999.25    2.73150    -999.25    -999.25  -83.51680  -35.62620    4.12120 1789.02690
 4650.00000    3.55130    2.31790    2.10260    1.88590    1.73630    -999.25  575.93730    -999.25    -999.25    -999.25    -999.25    -999.25    1.73630    -999.25    -999.25   91.31720   91.31720    -999.25    2.10260    -999.25    -999.25  -81.94090  -35.51060    3.55130 1831.71000
 4700.00000    5.48930    3.64490    2.37170    1.53300    1.33490    -999.25  749.11980    -999.25    -999.25    -999.25    -999.25    -999.25    1.33490    -999.25    -999.25   77.91550   77.91550    -999.25    2.37170    -999.25    -999.25 -103.01370  -58.04380    5.48930 1862.62630
 4750.00000    1.89240    1.99740    2.06610    2.09320    2.12890    -999.25  469.72610    -999.25    -999.25    -999.25    -999.25    -999.25    2.12890    -999.25    -999.25  121.52610  121.52610    -999.25    2.06610    -999.25    -999.25  -48.41770   -5.10220    1.89240 1934.98330
 4800.00000    1.35200    1.49250    1.50970    1.53640    1.55800    -999.25  641.84850    -999.25    -999.25    -999.25    -999.25    -999.25    1.55800    -999.25    -999.25  116.81940  116.81940    -999.25    1.50970    -999.25    -999.25  -42.66850   -1.21770    1.35200 1927.99910
 4850.00000    1.26780    1.36660    1.38560    1.39350    1.40300    -999.25  712.75840    -999.25    -999.25    -999.25    -999.25    -999.25    1.40300    -999.25    -999.25  123.09460  123.09460    -999.25    1.38560    -999.25    -999.25  -40.80240   -1.21630    1.26780 1944.35240
 4900.00000    1.10540    1.20360    1.21130    1.24400    1.25880    -999.25  794.40730    -999.25    -999.25    -999.25    -999.25    -999.25    1.25880    -999.25    -999.25  123.93290  123.93290    -999.25    1.21130    -999.25    -999.25  -38.84690   -1.12550    1.10540 1943.14750
 4950.00000    1.16050    1.23630    1.24240    1.26760    1.27700    -999.25  783.08540    -999.25    -999.25    -999.25    -999.25    -999.25    1.27700    -999.25    -999.25  105.53250  105.53250    -999.25    1.24240    -999.25    -999.25  -37.88830   -2.03150    1.16050 1932.32630
 5000.00000    1.10970    1.21180    1.21850    1.26290    1.27590    -999.25  783.76050    -999.25    -999.25    -999.25    -999.25    -999.25    1.27590    -999.25    -999.25   96.41370   96.41370    -999.25    1.21850    -999.25    -999.25  -35.59370   -1.60160    1.10970 1896.57070
 5050.00000    1.01500    1.10860    1.16140    1.19130    1.20220    -999.25  831.80830    -999.25    -999.25    -999.25    -999.25    -999.25    1.20220    -999.25    -999.25  114.41320  114.41320    -999.25    1.16140    -999.25    -999.25  -34.22720   -2.09980    1.01500 1940.61710
 5100.00000    1.00010    0.99920    1.00420    1.01000    1.01710    -999.25  983.18750    -999.25    -999.25    -999.25    -999.25    -999.25    1.01710    -999.25    -999.25  105.15970  105.15970    -999.25    1.00420    -999.25    -999.25  -32.29080   -1.72800    1.00010 1999.85240
 5150.00000   10.02000    4.07590    2.07520    1.20550    1.04480    -999.25  957.12090    -999.25    -999.25    -999.25    -999.25    -999.25    1.04480    -999.25    -999.25   72.66380   72.66380    -999.25    2.07520    -999.25    -999.25 -125.18370  -93.75780   10.02000 1951.60450
