~Version ---------------------------------------------------
VERS. 2.0 : CWLS log ASCII Standard -VERSION 2.0
WRAP.  NO : ONE LINE PER DEPTH STEP
~Well ------------------------------------------------------
STRT.F                        1950.0 : START DEPTH
STOP.F                       10600.0 : STOP DEPTH
STEP.F                      50.00000 : STEP LENGTH
NULL.                        -999.25 : NULL VALUE
COMP. QUINTANA PETROLEUM CORPORATION : COMPANY
WELL.                      STOREY #1 : WELL
FLD .                  WHITE KITCHEN : FIELD
LOC .                                : LOCATION
CNTY.                       LA SALLE : COUNTY
STAT.                          TEXAS : STATE
CTRY.       UNITED STATES OF AMERICA : COUNTRY
SRVC.                   Schlumberger : SERVICE COMPANY
DATE.                    11-Nov-1991 : LOGDATE
API .                 42283314670000 : API NUMBER
UWI .                 42283314670000 : UNIQUE WELL ID
SLAT.WGS84             28.3526641266 : SURFACE LATITUDE
SLON.WGS84            -98.9860139829 : SURFACE LONGITUDE
~Curve Information -----------------------------------------
DEPT.F                 : 
SPR .MV   07 010 01 00 : SPONTANEOUS POTENTIAL FROM RES.
GRR .GAPI 07 310 01 00 : GAMMA RAY FROM RES. LOG.
CILD.MMHO 07 110 46 00 : CONDUCTIVITY INDUCTION LOG DEEP
ASFL.OHMM 07 221 06 00 : AMPLIFIED SHALLOW FOCUSED LOG RESISTIVITY
ILD .OHMM 07 120 46 00 : INDUCTION LOG DEEP
CALD.IN   45 280 60 00 : CALIPER FDC LOG
DRHO.G/C3 45 356 01 00 : DENSITY CORRECTION
PEF .B/E  45 358 01 00 : PHOTOELECTRIC FACTOR
DPHI.DEC  45 890 10 00 : DENSITY POROSITY LIMESTONE
NPHI.DEC  42 890 01 00 : NEUTRON POROSITY LIMESTONE
~Params ----------------------------------------------------
PD  .                     GL : PERMANENT DATUM
EPD .F                 448.4 : ELEVATION PERMANENT DATUM
LMF .                     KB : LOG MEASURED FROM
DAPD.F                  17.0 : FEET ABOVE PERMANENT DATUM
DMF .                     KB : DRILLING MEASURED FROM
EKB .F                 465.4 : KELLING BUSHING
EDF .F                 464.4 : DRILLING FLOOR
EGL .F                 448.4 : GROUND LEVEL
DATE.             11-11-1991 : RUN DATE
RUN .                      1 : RUN NUMBER
DD  .F                 10625 : DEPTH DRILLER
DL  .F                 10606 : DEPTH LOGGER
BLI .F                 10600 : BOTTOM LOG INTERVAL
TLI .F                  2024 : TOP LOG INTERVAL
CS  .IN                9.625 : CASING SIZE
CBD .F                  2025 : CASING BOTTOM DRILLER
CBL .F                  2024 : CASING BOTTOM LOGGER
BS  .IN                 8.75 : BIT SIZE
BSD .F                 10625 : BIT SIZE AT DEPTH
DFT .                  LIGNO : DRILLING FLUID TYPE
MSS .               FLOWLINE : MUD SAMPLE SOURCE
RMS .OHMM               1.53 : RESISTIVITY MUD SAMPLE
MST .F                    96 : MUD SAMPLE TEMPERATURE
RMF .OHMM               1.48 : RESISTIVITY MUD FILTRATE SAMPLE
MFST.F                    77 : MUD FILTRATE SAMPLE TEMPERATURE
RMC .OHMM                2.3 : RESISTIVITY MUD CAKE
MCST.F                    96 : MUD CAKE SAMPLE TEMPERATURE
MFSS.                   MEAS : MUD FILTRATE SAMPLE SOURCE
MCSS.                   CALC : MUD CAKE SAMPLE SOURCE
RMB .OHMM              0.676 : RESISTIVITY MUD AT BHT
TCS .HRS                 900 : TIME CURCULATED STOPPED
TLAB.HRS                1915 : TIME LOGGER AT BOTTOM
LUN .                   2024 : LOGGING UNIT NUMBER
LUL .                 LAREDO : LOGGING UNIT LOCATION
ENGI.                  WELLS : RECORDING ENGINEER
WITN.           WARREN EVANS : WITNESSED BY
CLNT.                A2DTECH : CLIENT CODE
ORIG.               1" PRINT : ORIGIN OF DATA
UWI .         42283314670000 : UNIQUE WELL ID
DICO. A2D Technologies, Inc. : DIGITIZING COMPANY
~Other -----------------------------------------------------
~ASCII -----------------------------------------------------
 1950.00000    -999.25   37.47080    -999.25    -999.25    -999.25    -999.25    -999.25    -999.25    -999.25    0.38390
 2000.00000    -999.25   45.64730    -999.25    -999.25    -999.25    -999.25    -999.25    -999.25    -999.25    0.44340
 2050.00000   -4.96640   48.00910  285.78580    2.30630    3.24990   12.72550    0.08890    3.61260    0.37450    0.43550
 2100.00000   -6.91530   55.10910   86.30470   11.11110   12.39240   11.61490    0.00190    2.87190    0.28530    0.30030
 2150.00000    2.57490   63.05440  327.12710    2.23020    3.10310   12.90270    0.04890    4.25330    0.30570    0.43280
 2200.00000  -12.75220   42.42480   75.24780   13.72140   14.31430    9.91630   -0.00350    3.72450    0.32370    0.31350
 2250.00000  -13.66930   47.38530   94.24810   10.93590   11.48860   10.20860   -0.00120    2.85090    0.27880    0.29160
 2300.00000  -13.47330   49.44560  127.90230    7.48130    7.46820   12.61510    0.01270    3.19560    0.29690    0.35200
 2350.00000  -18.57290   53.74240   97.09710   10.92690   10.35040   10.80020    0.01300    3.77460    0.28200    0.31410
 2400.00000  -18.81050   38.25610   90.34370   11.58840   13.10120   10.52370   -0.00120    3.11050    0.30880    0.32850
 2450.00000  -13.46770   46.57260  169.05800    7.14210    6.03600   11.18410    0.05450    3.15140    0.24660    0.31260
 2500.00000  -19.96880   52.36080   65.38890   13.81430   15.83970   10.16680    0.04200    3.47560    0.26800    0.31500
 2550.00000  -23.77520   46.34580   84.08410    9.50950   11.36140   13.65900    0.04180    3.63100    0.29230    0.40150
 2600.00000  -13.48700   59.19150  142.14210    9.74980    7.48980   10.94330    0.01080    3.26430    0.09480    0.21650
 2650.00000  -15.38310   57.91330  277.47750    3.03370    3.50350   12.12490    0.04560    3.47080    0.20040    0.32800
 2700.00000  -23.58530   52.67660   67.71460   14.03400   15.53990   10.04480    0.01610    3.31260    0.22520    0.33390
 2750.00000  -19.16330   71.97580  104.77140    9.88990   10.51050   10.21560    0.04680    3.10000    0.23330    0.27720
 2800.00000  -25.06050   37.98660   62.00080   15.99600   17.10760    9.78020    0.01860    2.81860    0.26470    0.27450
 2850.00000  -16.87500   73.94150  118.11810    7.43540    8.93780    9.97640    0.04050    4.23350    0.11560    0.29270
 2900.00000   -9.58070   67.46470  302.30230    3.53550    3.10310   10.42550    0.04910    2.78620    0.26640    0.35600
 2950.00000  -16.08870   66.30540  137.13710    7.61260    6.65870   10.02790    0.00820    2.93190    0.17850    0.29300
 3000.00000  -13.64710   72.29220  190.23260    5.15330    4.94380    9.58690   -0.00790    2.89700    0.23400    0.29260
 3050.00000  -10.42340   68.75720  174.17420    6.47650    5.80580    9.92730    0.00280    5.11410    0.08410    0.36550
 3100.00000   -8.12290   75.42760  457.24070    3.51510    2.58880    9.87500    0.04660    3.01610    0.19520    0.38710
 3150.00000  -12.35890   70.16130  194.52790    8.32430    6.35130    9.52060    0.04060    3.23900    0.25560    0.35170
 3200.00000  -16.93270   34.45320   38.49590   27.23310   31.71100    8.67890    0.00920    2.63310    0.20590    0.26390
 3250.00000  -16.11390   55.34270  138.13810    9.76980    9.63820    9.24580    0.05260    3.00650    0.19850    0.26900
 3300.00000  -18.40730   60.03020  130.13010    9.02900    7.54760    9.03630    0.02840    2.84040    0.19410    0.32410
 3350.00000  -16.03830   49.74800   43.37670   24.22420   21.02100    8.66130   -0.00650    2.65070    0.26160    0.29370
 3400.00000  -11.75400   39.50000   38.03800   26.22620   28.97090    8.57050   -0.00320    2.57960    0.29630    0.29090
 3450.00000  -16.45830   47.22780   34.03400   25.28530   32.57010    8.67140   -0.00720    2.53810    0.27620    0.27810
 3500.00000  -14.42830   32.27250   41.98110   24.95720   27.24990    8.88750    0.00830    2.55920    0.29580    0.28480
 3550.00000  -23.04430   55.64520   54.45440   21.82180   21.42140    9.09890    0.03710    3.21990    0.17990    0.28050
 3600.00000  -17.34450   51.94640   50.08020   21.91960   20.44410    9.86090    0.00440    3.10710    0.22100    0.26460
 3650.00000  -11.84040   24.38800   34.03400   24.28430   34.27870    8.90830    0.00600    2.77180    0.25950    0.24220
 3700.00000  -13.51070   30.24190   32.58700   25.42540   32.06880    9.40500    0.01400    2.95090    0.29950    0.27450
 3750.00000  -15.62500   37.65120   45.11490   21.55490   23.69040    8.79700   -0.01170    2.46650    0.24720    0.27920
 3800.00000  -24.25400   37.05090   55.62050   20.22020   20.22020    8.67140    0.00600    3.01450    0.22780    0.25200
 3850.00000   -9.48590   68.49800  328.32830    2.43680    2.52920   10.60840    0.06190    2.59160    0.19610    0.32480
 3900.00000  -30.83720   48.22140  137.08850    8.52880    7.18010    8.74750    0.00610    2.89220    0.23480    0.27870
 3950.00000   -8.93140   81.04840  450.45040    2.50250    2.28730    9.94150    0.02040    3.16570    0.20110    0.31780
 4000.00000  -44.21370   45.81650  115.72990   12.79280    8.51870    8.72810    0.00020    2.77180    0.23430    0.25980
 4050.00000  -27.37900   66.68350  121.32130    7.37940    8.50850    9.44770   -0.00440    3.51730    0.16140    0.24660
 4100.00000  -32.45640   51.74700  154.21480   10.05920    6.64910    8.73180    0.00220    3.37240    0.21720    0.30780
 4150.00000  -20.18140   55.59480  172.17220    7.83580    5.90590    9.00780    0.01570    3.69080    0.20210    0.28720
 4200.00000  -32.89240   61.58330  166.26730    6.14620    6.06230    8.81440    0.00690    3.32430    0.18590    0.27030
 4250.00000  -14.97980   74.54640  338.33830    3.30330    3.13420    8.88750    0.04180    3.17700    0.18440    0.28860
 4300.00000   -9.68960   80.16920  276.94360    3.40340    3.21320    9.63220    0.09850    3.51920    0.25200    0.32410
 4350.00000  -22.11690   74.49600  203.80380    5.22520    5.11080    9.15780   -0.01040    3.44720    0.10000    0.27600
 4400.00000  -18.72430   70.34520  271.84020    4.94040    3.72540    9.30320    0.00220    2.81180    0.16570    0.28080
 4450.00000   -3.48790   78.47780  542.54250    2.26760    2.21080   10.52630    0.01830    3.12780    0.19160    0.27570
 4500.00000   -6.36180   77.87300  392.75660    2.14210    2.38040   11.06910    0.06770    3.27600    0.20510    0.36490
 4550.00000  -61.72880   61.31550  257.81340    9.61360    3.86990    8.63110    0.00190    2.96090    0.21030    0.27040
 4600.00000  -29.03230   67.83230  200.70070    6.70670    4.97830    9.41860   -0.00020    2.98430    0.15590    0.27000
 4650.00000   -5.30240   90.27220  314.98170    3.25360    3.31330   10.90800    0.08860    3.44750    0.13740    0.32330
 4700.00000   -5.97090   86.76320  379.04070    2.20050    2.34230   10.38260    0.06010    3.74140    0.31200    0.35190
 4750.00000   -6.36090   88.07960  275.87590    3.85590    3.71370   10.46540    0.01690    3.01200    0.08330    0.25680
 4800.00000  -25.86690   78.78020  261.52810    4.88490    3.83400    9.12000    0.00500    3.49570    0.16320    0.30320
 4850.00000   -4.29440   88.84650  350.35030    2.84280    2.88830    9.78300    0.09720    3.68270    0.15060    0.31630
 4900.00000   -4.09270   84.88030  358.43880    2.93740    2.94020    9.93800    0.09700    3.45750    0.20360    0.29270
 4950.00000   -4.12150   90.57460  323.07310    2.90290    3.20680    9.82060    0.08760    3.35230    0.18650    0.31350
 5000.00000   -4.72710   96.32060  271.71370    3.93080    3.61020    9.61430    0.02740    2.96870    0.11830    0.27060
 5050.00000   -0.53700   84.22380  342.91430    3.10710    2.93720   10.38390    0.09740    3.43000    0.17330    0.28800
 5100.00000  -36.52700   77.74090  240.45150    7.55570    4.26650    8.74350    0.01060    3.18820    0.16440    0.24370
 5150.00000   -4.29440   89.36490  235.83580    4.82480    4.27930    9.24510    0.01030    2.93030    0.07340    0.24330
 5200.00000   -1.06700   91.57250  276.54790    4.18420    3.55590    9.52060    0.01720    3.16940    0.12250    0.26880
