~Version ---------------------------------------------------
VERS.      2.0 : CWLS log ASCII Standard -VERSION 2.0
WRAP.      YES : Multiple lines per depth step
CREA. 06/26/18 : LAS Creation Date
~Well ------------------------------------------------------
STRT.FT                 1950.0 : START DEPTH
STOP.FT                10950.0 : STOP DEPTH
STEP.FT               50.00000 : STEP LENGTH
NULL.                  -999.25 : NULL VALUE
COMP.            DIRNETT, INC. : COMPANY
WELL.     ESCHENBURG POLLOK #1 : WELL
FLD .                  FASHING : FIELD
LOC .                          : LOCATION
CNTY.                 ATASCOSA : COUNTY
STAT.                    TEXAS : STATE
CTRY. UNITED STATES OF AMERICA : COUNTRY
SRVC.             Schlumberger : SERVICE COMPANY
DATE.              23-Aug-1996 : LOGDATE
API .           42013340590000 : API NUMBER
UWI .           42013340590000 : UNIQUE WELL ID
SLAT.WGS84       28.7834983741 : SURFACE LATITUDE
SLON.WGS84      -98.2167863068 : SURFACE LONGITUDE
~Curve Information -----------------------------------------
DEPT    .FT    : DEPTH FEET
CALWS   .IN    : CALIPER [DCALED+BIT]
CONDWS  .MMHO  : DEEP CONDUCTIVITY [1000/DRESWS]
DCALED  .IN    : DIFFERENTIAL CALIPER FROM PHI/LDT/CNL LOG
DCORWS  .G/C3  : DENSITY CORRECTION [DRHOED]
DENWS   .G/C3  : BULK DENSITY [CALC. TOP DPHISSED 9493.5' DPHILSED]
DPHILSED.V/V   : DENSITY POROSITY (LS) [M=2.71 F=1.0] FROM PHI/LDT/CNL LOG
DPHISSED.V/V   : DENSITY POROSITY (SS) [M=2.65 F=1.0] FROM PHI/LDT/CNL LOG
DPOLSWS .V/V   : DENSITY POROSITY LIMESTONE [M=2.71 F=1.0] [CALC. FROM DENWS]
DRESWS  .OHMM  : DEEP RESISTIVITY [IDPHED]
DRHOED  .G/C3  : DENSITY CORRECTION FROM DENSITY LOG
GRRED   .GAPI  : GAMMA RAY FROM RESISTIVITY LOG
GRWS    .GAPI  : GAMMA RAY [GRRED]
IDPHED  .OHMM  : INDUCTION DEEP PHASE RESISTIVITY
IMPHED  .OHMM  : INDUCTION MEDIUM PHASE RESISTIVITY
MRESWS  .OHMM  : MEDIUM RESISTIVITY [IMPHED]
NPHILSED.V/V   : NEUTRON POROSITY LIMESTONE FROM PHI/LDT/CNL LOG
NPHISSED.V/V   : NEUTRON POROSITY SANDSTONE FROM PHI/LDT/CNL LOG
NPOLSWS .V/V   : NEUTRON POROSITY LIMESTONE [TOP CONVERSE NPHISSED TO LIME FROM POWER LOG 9494' NPHILSED]
SFLUED  .OHMM  : SPHERICALLY FOCUSED LOG RESISTIVITY
SPRED   .MV    : SPONTANEOUS POTENTIAL FROM PHI/LDT/CNL LOG
SPWS    .MV    : SPONTANEOUS POTENTIAL [BASELINE 0 MV] [SPRED]
SRESWS  .OHMM  : SHALLOW RESISTIVITY [SFLUED]
~Params ----------------------------------------------------
PD  .                     GL : PERMANENT DATUM
EPD .FT                411.5 : ELEVATION PERMANENT DATUM
LMF .                     KB : LOG MEASURED FROM
DAPD.FT                 19.5 : FEET ABOVE PERMANENT DATUM
DMF .                     KB : DRILLING MEASURED FROM
EKB .FT                  431 : KELLY BUSHING
EDF .FT                  430 : DRILLING FLOOR
EGL .FT                411.5 : GROUND LEVEL
DATE.               08/23/96 : RUN DATE
RUN .                      1 : RUN NUMBER
DD  .FT                11000 : DEPTH DRILLER
DL  .FT                10988 : DEPTH LOGGER
BLI .FT                10970 : BOTTOM LOG INTERVAL
TLI .FT                 2006 : TOP LOG INTERVAL
CS  .IN                8.625 : CASING SIZE
CBD .FT                 2016 : CASING BOTTOM DRILLER
CBL .FT                 2008 : CASING BOTTOM LOGGER
BS  .IN                7.875 : BIT SIZE
BSD .FT                11000 : BIT SIZE AT DEPTH
DFT .                    LIG : DRILLING FLUID TYPE
DFD .                   10.2 : DRILLING FLUID DENSITY
DFV .                     48 : DRILLING FLUID VISCOSITY
DFPH.                   11.3 : DRILLING FLUID PH
DFL .                    5.8 : DRILLING FLUID LOSS
MSS .               MUD TANK : MUD SAMPLE SOURCE
RMS .OHMM               1.83 : RESISTIVITY MUD SAMPLE
MST .FT                   75 : MUD SAMPLE TEMPERATURE
RMF .OHMM               1.48 : RESISTIVITY MUD FILTRATE SAMPLE
MFST.FT                   75 : MUD FILTRATE SAMPLE TEMPERATURE
RMC .OHMM               2.45 : RESISTIVITY MUD CAKE
MCST.FT                   75 : MUD CAKE SAMPLE TEMPERATURE
MFSS.                   MEAS : MUD FILTRATE SAMPLE SOURCE
MCSS.                   CALC : MUD CAKE SAMPLE SOURCE
RMB .OHMM              0.473 : RESISTIVITY MUD AT BHT
TCS .HRS                1200 : TIME CURCULATED STOPPED
TLAB.HRS                2000 : TIME LOGGER AT BOTTOM
LUN .                   2017 : LOGGING UNIT NUMBER
LUL .               VICTORIA : LOGGING UNIT LOCATION
ENGI.            JOHN GAMBLE : RECORDING ENGINEER
WITN.  J FISHER J JOHNSON JR : WITNESSED BY
CLNT.                A2DTECH : CLIENT CODE
ORIG.               5" PRINT : ORIGIN OF DATA
UWI .         42013340590000 : UNIQUE WELL ID
DICO. A2D Technologies, Inc. : DIGITIZING COMPANY
~Other -----------------------------------------------------
REMOVED ALL RESISTIVITY FROM 3804' - 3814' DUE TO INVALID DATA.
~ASCII -----------------------------------------------------
# ...
 5150.00000    7.84510  428.46740   -0.02990    0.07600    2.40700    -999.25    0.14730    0.17720    2.33390    0.07600  110.64540  110.64540    2.33390    2.28260    2.28260    -999.25    0.31660    0.27270    2.22440   -7.81660  -15.39280    2.22440
 5200.00000    7.90490  302.07830    0.02990    0.04100    2.45130    -999.25    0.12040    0.15130    3.31040    0.04100  113.79460  113.79460    3.31040    3.38100    3.38100    -999.25    0.29690    0.25290    3.98140   -6.44100  -14.06000    3.98140
 5250.00000    7.96500  291.74080    0.09000    0.00720    2.45170    -999.25    0.12020    0.15110    3.42770    0.00720  122.90240  122.90240    3.42770    3.33470    3.33470    -999.25    0.30220    0.25820    3.20080  -11.31110  -18.97280    3.20080
 5300.00000    8.29740  346.35630    0.42240    0.05450    2.43520    -999.25    0.13020    0.16070    2.88720    0.05450  105.64120  105.64120    2.88720    2.86740    2.86740    -999.25    0.29950    0.25550    3.20680  -10.19110  -17.89560    3.20680
 5350.00000    9.04250  612.25740    1.16750    0.10000    2.48550    -999.25    0.09970    0.13130    1.63330    0.10000  104.57270  104.57270    1.63330    1.66740    1.66740    -999.25    0.38300    0.33980    1.97230   -3.83660  -11.58380    1.97230
 5400.00000    8.55840  583.49870    0.68340    0.10000    2.36060    -999.25    0.17540    0.20430    1.71380    0.10000  108.39580  108.39580    1.71380    1.72560    1.72560    -999.25    0.35870    0.31520    2.04860   -1.46840   -9.25840    2.04860
 5450.00000    7.99480  419.72720    0.11980    0.10000    2.46170    -999.25    0.11410    0.14520    2.38250    0.10000  103.89800  103.89800    2.38250    2.35000    2.35000    -999.25    0.30850    0.26460    2.69570   -6.44680  -14.27950    2.69570
 5500.00000    7.57560  492.85360   -0.29940    0.01320    2.20680    -999.25    0.26860    0.29430    2.02900    0.01320   63.41720   63.41720    2.02900    2.82850    2.82850    -999.25    0.27710    0.23310    6.89050  -70.31920  -78.19470    6.89050
 5550.00000    7.66540  411.09970   -0.20960    0.05510    2.33730    -999.25    0.18950    0.21790    2.43250    0.05510   99.62520   99.62520    2.43250    2.88730    2.88730    -999.25    0.29150    0.24750    4.63610  -24.75670  -32.67490    4.63610
 5600.00000    8.08440  330.84100    0.20940   -0.00030    2.40100    -999.25    0.15090    0.18070    3.02260   -0.00030  100.52620  100.52620    3.02260    3.02960    3.02960    -999.25    0.29600    0.25200    3.38100  -12.96620  -20.92720    3.38100
 5650.00000    7.87470  388.33440   -0.00030    0.02960    2.36830    -999.25    0.17070    0.19980    2.57510    0.02960  115.74150  115.74150    2.57510    3.01150    3.01150    -999.25    0.32650    0.28260    2.41560  -11.23390  -19.23760    2.41560
 5700.00000    7.57560  514.32390   -0.29940    0.02170    2.20980    -999.25    0.26680    0.29250    1.94430    0.02170   74.13730   74.13730    1.94430    2.36640    2.36640    -999.25    0.30170    0.25770    5.69620  -65.14040  -73.18690    5.69620
 5750.00000    7.81500  355.98590   -0.06000    0.05360    2.43670    -999.25    0.12930    0.15990    2.80910    0.05360  122.44430  122.44430    2.80910    2.79650    2.79650    -999.25    0.32560    0.28170    2.98960   -3.74770  -11.83700    2.98960
 5800.00000    8.83280  655.69470    0.95780    0.10000    2.21420    -999.25    0.26410    0.28990    1.52510    0.10000  118.04360  118.04360    1.52510    1.61120    1.61120    -999.25    0.39910    0.35620    1.57830   -1.13920   -9.27120    1.57830
 5850.00000    7.84500  341.62340   -0.03000    0.02660    2.45790    -999.25    0.11640    0.14740    2.92720    0.02660  120.31480  120.31480    2.92720    3.00060    3.00060    -999.25    0.30380    0.25980    3.09240  -16.17110  -24.34590    3.09240
 5900.00000    7.81500  707.11360   -0.06000    0.01260    1.74600    -999.25    0.54790    0.56380    1.41420    0.01260  100.07510  100.07510    1.41420    1.44360    1.44360    -999.25    0.36140    0.31790    1.72900    0.33930   -7.87820    1.72900
 5950.00000    7.60550  491.49710   -0.26950    0.01020    2.21130    -999.25    0.26590    0.29170    2.03460    0.01020   48.80060   48.80060    2.03460    2.65910    2.65910    -999.25    0.26590    0.22190    6.27500  -72.31490  -80.57520    6.27500
 6000.00000    7.87490  355.98590   -0.00010    0.06710    2.39950    -999.25    0.15180    0.18160    2.80910    0.06710  128.18590  128.18590    2.80910    2.78970    2.78970    -999.25    0.29950    0.25550    2.63860   -2.16420  -10.46720    2.63860
 6050.00000    7.63570  287.76150   -0.23930    0.01880    2.33880    -999.25    0.18860    0.21710    3.47510    0.01880   73.31330   73.31330    3.47510    4.89780    4.89780    -999.25    0.25560    0.21170    9.93170  -58.31610  -66.66190    9.93170
 6100.00000    8.41350  630.35800    0.53850    0.09320    2.40550    -999.25    0.14820    0.17810    1.58640    0.09320  122.40230  122.40230    1.58640    1.63340    1.63340    -999.25    0.35170    0.30810    1.92590    1.77900   -6.60950    1.92590
 6150.00000    8.41440  805.60700    0.53940    0.09250    2.30250    -999.25    0.21060    0.23830    1.24130    0.09250  118.80370  118.80370    1.24130    1.25830    1.25830    -999.25    0.37520    0.33190    1.60010    2.86960   -5.56170    1.60010
 6200.00000    8.41370  796.30510    0.53870    0.00420    1.66590    -999.25    0.59640    0.61060    1.25580    0.00420   99.28880   99.28880    1.25580    1.22430    1.22430    -999.25    0.43500    0.39290    1.22960    0.35130   -8.12270    1.22960
 6250.00000    7.96480  624.88280    0.08980    0.07310    2.25140    -999.25    0.24160    0.26820    1.60030    0.07310  103.22340  103.22340    1.60030    1.56670    1.56670    -999.25    0.31620    0.27230    1.56180    2.30390   -6.21290    1.56180
 6300.00000    8.17440 1012.45320    0.29940    0.08650    2.22080    -999.25    0.26010    0.28610    0.98770    0.08650  117.61530  117.61530    0.98770    0.99190    0.99190    -999.25    0.41610    0.37360    0.96290    4.93060   -3.62890    0.96290
 6350.00000    7.60540  468.47180   -0.26960   -0.00130    2.24690    -999.25    0.24430    0.27080    2.13460   -0.00130   44.30360   44.30360    2.13460    2.98950    2.98950    -999.25    0.26280    0.21880    7.86470  -61.93540  -70.53770    7.86470
 6400.00000    9.40180  709.97520    1.52680    0.05210    2.37130    -999.25    0.16890    0.19810    1.40850    0.05210  113.25620  113.25620    1.40850    1.24550    1.24550    -999.25    0.34350    0.29980    1.38670    4.33140   -4.31360    1.38670
 6450.00000   10.95920  736.81110    3.08420    0.09700    2.36110    -999.25    0.17510    0.20400    1.35720    0.09700  109.52020  109.52020    1.35720    1.35710    1.35710    -999.25    0.34260    0.29890    1.57830    4.52370   -4.12690    1.57830
 6500.00000   11.10370  898.39190    3.22870    0.08500    2.30810    -999.25    0.20720    0.23500    1.11310    0.08500   92.80390   92.80390    1.11310    1.10260    1.10260    -999.25    0.38200    0.33880    1.16000    3.13420   -5.51640    1.16000
 6550.00000   11.22310  832.77810    3.34810    0.09900    2.26670    -999.25    0.23230    0.25920    1.20080    0.09900  102.39770  102.39770    1.20080    1.22480    1.22480    -999.25    0.38950    0.34640    1.32330    3.55220   -5.09840    1.32330
 6600.00000   11.07400  678.38000    3.19900    0.09400    2.39690    -999.25    0.15340    0.18310    1.47410    0.09400  104.05540  104.05540    1.47410    1.50310    1.50310    -999.25    0.36430    0.32080    1.68340    5.11850   -3.53210    1.68340
 6650.00000    9.99760  391.98780    2.12260   -0.00180    2.42720    -999.25    0.13500    0.16540    2.55110   -0.00180   95.57570   95.57570    2.55110    2.53570    2.53570    -999.25    0.24380    0.19990    3.35400  -13.37970  -22.03030    3.35400
 6700.00000    9.99730  581.80130    2.12230    0.05660    2.48570    -999.25    0.09960    0.13120    1.71880    0.05660  117.16460  117.16460    1.71880    1.81000    1.81000    -999.25    0.30540    0.26140    1.89460    2.53530   -6.11530    1.89460
