~Version ---------------------------------------------------
VERS.      2.0 : CWLS log ASCII Standard -VERSION 2.0
WRAP.      YES : Multiple lines per depth step
CREA. 10/06/20 : LAS Creation Date
~Well ------------------------------------------------------
STRT.FT                 3150.0 : START DEPTH
STOP.FT                18400.0 : STOP DEPTH
STEP.FT               50.00000 : STEP LENGTH
NULL.                  -999.25 : NULL VALUE
COMP. AMOCO PRODUCTION COMPANY : COMPANY
WELL.       MARTIN GAS UNIT #1 : WELL
FLD .                  WILDCAT : FIELD
LOC .                          : LOCATION
CNTY.                     LEON : COUNTY
STAT.                    TEXAS : STATE
CTRY. UNITED STATES OF AMERICA : COUNTRY
SRVC.             Schlumberger : SERVICE COMPANY
DATE.              06-Oct-1998 : LOGDATE
API .           42289312900000 : API NUMBER
UWI .           42289312900000 : UNIQUE WELL ID
SLAT.WGS84       31.2448401024 : SURFACE LATITUDE
SLON.WGS84      -96.2384028977 : SURFACE LONGITUDE
~Curve Information -----------------------------------------
DEPT    .FT    : DEPTH FEET
AT20ED  .OHMM  : 20 INCH ARRAY RESISTIVITY TWO FOOT RESOLUTION FROM AIT LOG
AT30ED  .OHMM  : 30 INCH ARRAY RESISTIVITY TWO FOOT RESOLUTION FROM AIT LOG
AT60ED  .OHMM  : 60 INCH ARRAY RESISTIVITY TWO FOOT RESOLUTION FROM AIT LOG
AT90ED  .OHMM  : 90 INCH ARRAY RESISTIVITY TWO FOOT RESOLUTION FROM AIT LOG
BITSED  .IN    : BIT SIZE FROM RUN HEADERS
CALDED  .IN    : CALIPER FROM DENSITY LOG [DSH. TO GRRED]
CALWS   .IN    : CALIPER [TOP CALDED 14108' (DCALDED+BITSED) TD]
CONDWS  .MMHO  : DEEP CONDUCTIVITY [1000/DRESWS]
DCALDED .IN    : DIFFERENTIAL CALIPER FROM DENSITY LOG [DSH. TO GRRED]
DCORWS  .G/C3  : DENSITY CORRECTION [TOP DRHOED 16650' DRHED TD]
DENWS   .G/C3  : BULK DENSITY [CALC. FROM DPOLSWS]
DPHILSED.V/V   : DENSITY POROSITY (LS) [M=2.71 F=1.00] [DSH. TO GRRED]
DPOLSED .V/V   : DENSITY POROSITY (LS) [M=2.71 F=1.00] [DSH. TO GRRED]
DPOLSWS .V/V   : DENSITY POROSITY (LS) [M=2.71 F=1.00] [TOP DPHILSED 16650' DPOLSED TD]
DRESWS  .OHMM  : DEEP RESISTIVITY [TOP AT90ED 14100' ILDED 16650' IDPHED TD]
DRHED   .G/C3  : DENSITY CORRECTION FROM DENSITY LOG [DSH. TO GRRED]
DRHOED  .G/C3  : DENSITY CORRECTION FROM DENSITY LOG [DSH. TO GRRED]
DTCOED  .US/F  : DELTA TIME COMPRESSIONAL FROM SONIC LOG
DTLFED  .US/F  : DELTA TIME LONG SPACING FAR DETECTOR FROM SONIC LOG
DTLNED  .US/F  : DELTA TIME LONG SPACING NEAR DETECTOR FROM SONIC LOG
DTSMED  .US/F  : DELTA TIME SHEAR WAVE FROM SONIC LOG
DTSWS   .US/F  : DELTA TIME SHEAR [DTSMED]
DTWS    .US/F  : DELTA TIME COMPRESSIONAL [TOP DTCOED 16650' DTLNED TD]
GRDED   .GAPI  : GAMMA RAY FROM DENSITY LOG [DSH. TO GRRED]
GRRED   .GAPI  : GAMMA RAY FROM RESISTIVITY LOG
GRWS    .GAPI  : GAMMA RAY [GRRED][RESCALED GRWS IN CSG )14030-14106' & 16606-16645') FROM 0/90-0/150]
IDPHED  .OHMM  : DEEP INDUCTION PHASE RESISTIVITY
ILDED   .OHMM  : DEEP INDUCTION RESISTIVITY
ILMED   .OHMM  : MEDIUM INDUCTION RESISTIVITY
IMPHED  .OHMM  : MEDIUM INDUCTION PHASE RESISTIVITY
MRESWS  .OHMM  : MEDIUM RESISTIVITY [TOP AT30ED 14100' ILMED 16650' IMPHED TD]
NPHILSED.V/V   : NEUTRON POROSITY (LS) [DSH. TO GRRED]
NPOLSWS .V/V   : NEUTRON POROSITY (LS) [NPHILSED]
PEFED   .B/E   : PHOTOELECTRIC FACTOR FROM DENSITY LOG [DSH. TO GRRED]
PEFWS   .B/E   : PHOTOELECTRIC FACTOR [PEFED]
SFLUED  .OHMM  : SPHERICALLY FOCUSED UNAVERAGED RESISTIVITY
SPWS    .MV    : SPONTANEOUS POTENTIAL [BASELINE 0 MV] [SPRED]
SPRED   .MV    : SPONTANEOUS POTENTIAL FROM RESISTIVITY LOG
SRESWS  .OHMM  : SHALLOW RESISTIVITY [TOP AT20ED 14100' SFLUED TD]
TENDED  .LBF   : TENSION FROM DENSITY LOG [DSH. TO GRRED]
TENRED  .LBF   : TENSION FROM RESISTIVITY LOG
~Params ----------------------------------------------------
PD  .                     GL : PERMANENT DATUM
EPD .FT                389.3 : ELEVATION PERMANENT DATUM
LMF .                     KB : LOG MEASURED FROM
DAPD.FT                 33.7 : MEASUREMENT ABOVE PERMANENT DATUM
DMF .                     KB : DRILLING MEASURED FROM
EKB .FT                  423 : KELLY BUSHING
EDF .FT                  422 : DRILLING FLOOR
EGL .FT                389.3 : GROUND LEVEL
DATE.               10/06/98 : RUN DATE
RUN .                      3 : RUN NUMBER
DD  .FT                18400 : DEPTH DRILLER
DL  .FT                18391 : DEPTH LOGGER
BLI .FT                18381 : BOTTOM LOG INTERVAL
TLI .FT                16646 : TOP LOG INTERVAL
CS  .IN                7.625 : CASING SIZE
CBD .FT                16650 : CASING BOTTOM DRILLER
CBL .FT                16646 : CASING BOTTOM LOGGER
BS  .IN                 6.25 : BIT SIZE
BSD .FT                18400 : BIT SIZE AT DEPTH
DFT .             VERSADRILL : DRILLING FLUID TYPE
DFD .                   17.9 : DRILLING FLUID DENSITY
DFV .                     45 : DRILLING FLUID VISCOSITY
MSS .                MUD PIT : MUD SAMPLE SOURCE
MFSS.                   CALC : MUD FILTRATE SAMPLE SOURCE
MCSS.                   CALC : MUD CAKE SAMPLE SOURCE
TCS .HRS                 830 : TIME CIRCULATED STOPPED
TLAB.HRS                2357 : TIME LOGGER AT BOTTOM
LUN .                   2142 : LOGGING UNIT NUMBER
LUL .                  TYLER : LOGGING UNIT LOCATION
ENGI.                SKRBICH : RECORDING ENGINEER
WITN.       WALKER WYSZYNSKI : WITNESSED BY
CLNT.                A2DTECH : CLIENT CODE
ORIG.         1" 2" 5" PRINT : ORIGIN OF DATA
UWI .         42289312900000 : UNIQUE WELL ID
DICO. A2D Technologies, Inc. : DIGITIZING COMPANY
~Other -----------------------------------------------------
1) RESISTIVITY INVALID 14360-14404', 15400-15475 NULLED (REPEAT LOG N/A). PATCHED FROM REPEAT LOG 15950-15980' & 16590-16645'.
2) GRRED PATCHED FROM REPEAT LOG 15400-15500 & 16550-16606'.
3) SONIC NOT LOGGED 14100-16650' AND ERRATIC ON SOME AREAS ABOVE 6300' WITH SOME GAPS AND SPIKES HENCE PATCHED SOME SMALL AREAS.
4) LDL/CNL STICKING TOOL ENTIRE RUN2 - NULLED PEF INVALID @ 15410-15625' & 15730-15410', PATCHED DENSITY@16025-16040', PATCHED NEUTRON@14295-14320' & PATCHED GRDED@VARIOUS DEPTHS BASED ON GRRED. ANY DOUBTS, PLEASE REFER TO ORIGINAL CURVES IN STANDARD LAS. STICKING TOOL MAY SLIGHTLY AFFECT LOG QUALITY ON OTHER AREAS, PLEASE USE WITH CAUTIONS.
~ASCII -----------------------------------------------------
# ...
 12150.00000   14.03780   15.31370   16.46340   16.48640   10.62500   10.92080   10.92080   60.65610    -999.25    0.01210    2.64300    0.03920    -999.25    0.03920   16.48640    -999.25    0.01210   56.41450    -999.25    -999.25   97.96050   97.96050   56.41450   54.87080   47.89280   47.89280    -999.25    -999.25    -999.25    -999.25   15.31370    0.02980    0.02980    3.12980    3.12980    -999.25  -19.84410    0.31180   14.03780 4631.86960 5013.02440
 12200.00000   30.71800   66.57480  207.94320  203.99170   10.62500   10.96390   10.96390    4.90220    -999.25   -0.00540    2.59820    0.06540    -999.25    0.06540  203.99170    -999.25   -0.00540   56.15200    -999.25    -999.25   94.24630   94.24630   56.15200   24.04290   21.00410   21.00410    -999.25    -999.25    -999.25    -999.25   66.57480   -0.00150   -0.00150    2.74710    2.74710    -999.25  -23.75950   -3.16950   30.71800 4643.65870 5039.41940
 12250.00000    6.65420   11.05700   14.19540   16.31120   10.62500   12.69390   12.69390   61.30760    -999.25   -0.01510    1.94190    0.44920    -999.25    0.44920   16.31120    -999.25   -0.01510   71.38490    -999.25    -999.25  125.59950  125.59950   71.38490   60.95900   62.13590   62.13590    -999.25    -999.25    -999.25    -999.25   11.05700    0.24450    0.24450    9.96540    9.96540    -999.25  -14.55690    6.46720    6.65420 4703.24020 5032.43360
 12300.00000   30.58120   47.20510   86.60480   76.49750   10.62500   10.85560   10.85560   13.07230    -999.25    0.01730    2.44730    0.15360    -999.25    0.15360   76.49750    -999.25    0.01730   55.40210    -999.25    -999.25   93.08530   93.08530   55.40210   43.54250   45.26280   45.26280    -999.25    -999.25    -999.25    -999.25   47.20510    0.08520    0.08520    3.87400    3.87400    -999.25  -32.94400  -11.48580   30.58120 4716.80320 5017.93900
 12350.00000   30.43850   41.69130   44.92690   52.59650   10.62500   10.79050   10.79050   19.01270    -999.25    0.00380    2.66280    0.02760    -999.25    0.02760   52.59650    -999.25    0.00380   54.89990    -999.25    -999.25   89.74020   89.74020   54.89990   39.84370   37.11760   37.11760    -999.25    -999.25    -999.25    -999.25   41.69130    0.01870    0.01870    3.91370    3.91370    -999.25  -23.87490   -1.98260   30.43850 4697.64450 5149.64940
 12400.00000   16.88470   17.41420   21.03420   19.97380   10.62500   11.10890   11.10890   50.06560    -999.25    0.01290    2.69080    0.01120    -999.25    0.01120   19.97380    -999.25    0.01290   59.53620    -999.25    -999.25   99.55160   99.55160   59.53620   77.08740   77.23730   77.23730    -999.25    -999.25    -999.25    -999.25   17.41420    0.06890    0.06890    3.35500    3.35500    -999.25  -12.93390    9.39250   16.88470 4690.90970 5114.95460
 12450.00000   15.62350   20.72750   23.22000   22.50190   10.62500   11.87060   11.87060   44.44070    -999.25    0.03790    2.68400    0.01520    -999.25    0.01520   22.50190    -999.25    0.03790   57.88530    -999.25    -999.25   99.43140   99.43140   57.88530   76.22350   64.67950   64.67950    -999.25    -999.25    -999.25    -999.25   20.72750    0.09980    0.09980    4.08850    4.08850    -999.25  -11.99650   10.76400   15.62350 4752.05220 5085.02880
 12500.00000   12.76130   23.60340   38.99910   35.74910   10.62500   10.90050   10.90050   27.97270    -999.25    0.00970    2.49370    0.12650    -999.25    0.12650   35.74910    -999.25    0.00970   59.49180    -999.25    -999.25  101.62230  101.62230   59.49180   30.38950   29.66860   29.66860    -999.25    -999.25    -999.25    -999.25   23.60340    0.01360    0.01360    3.43540    3.43540    -999.25  -29.13830   -5.94370   12.76130 4748.10500 5159.21530
 12550.00000   18.12570   20.13120   21.86540   21.44690   10.62500   11.42820   11.42820   46.62680    -999.25    0.02250    2.64070    0.04050    -999.25    0.04050   21.44690    -999.25    0.02250   59.58650    -999.25    -999.25   97.48020   97.48020   59.58650   76.15750   76.36530   76.36530    -999.25    -999.25    -999.25    -999.25   20.13120    0.03620    0.03620    3.49730    3.49730    -999.25   -8.05470   15.57400   18.12570 4834.18900 5192.77880
 12600.00000   14.61460   14.24260   12.76330   13.67890   10.62500   11.66910   11.66910   73.10530    -999.25    0.01690    2.68790    0.01290    -999.25    0.01290   13.67890    -999.25    0.01690   58.46210    -999.25    -999.25   99.80110   99.80110   58.46210   72.30400   69.81080   69.81080    -999.25    -999.25    -999.25    -999.25   14.24260    0.04930    0.04930    3.53370    3.53370    -999.25   -6.20920   17.85360   14.61460 4816.57810 5109.60060
 12650.00000   10.30440   13.99380   18.82870   18.03830   10.62500   11.59470   11.59470   55.43760    -999.25    0.05890    2.52740    0.10680    -999.25    0.10680   18.03830    -999.25    0.05890   76.36970    -999.25    -999.25  116.23200  116.23200   76.36970   79.65970   72.31810   72.31810    -999.25    -999.25    -999.25    -999.25   13.99380    0.09210    0.09210    3.28560    3.28560    -999.25  -10.91920   13.57770   10.30440 4865.11040 5208.03660
 12700.00000   17.41660   26.00300   28.27460   41.82400   10.62500   10.64930   10.64930   23.90970    -999.25    0.01190    2.64350    0.03890    -999.25    0.03890   41.82400    -999.25    0.01190   55.43190    -999.25    -999.25   90.32610   90.32610   55.43190   30.23990   28.41050   28.41050    -999.25    -999.25    -999.25    -999.25   26.00300   -0.00470   -0.00470    2.55050    2.55050    -999.25  -17.27140    7.45030   17.41660 4860.49950 5194.41990
 12750.00000   20.48640   23.63050   25.85070   26.99920   10.62500   11.80130   11.80130   37.03810    -999.25    0.00400    2.69730    0.00740    -999.25    0.00740   26.99920    -999.25    0.00400   57.76940    -999.25    -999.25   96.30160   96.30160   57.76940   80.25150   71.85340   71.85340    -999.25    -999.25    -999.25    -999.25   23.63050    0.07460    0.07460    3.63520    3.63520    -999.25  -11.99010   12.41840   20.48640 4833.35470 5203.99120
 12800.00000   61.91280   71.16920  206.36450  344.20850   10.62500   11.01660   11.01660    2.90520    -999.25    0.01000    2.56210    0.08650    -999.25    0.08650  344.20850    -999.25    0.01000   58.36850    -999.25    -999.25   92.17450   92.17450   58.36850   15.77030   14.36320   14.36320    -999.25    -999.25    -999.25    -999.25   71.16920    0.00550    0.00550    2.29960    2.29960    -999.25  -50.12040  -26.02510   61.91280 4877.13960 5180.23000
 12850.00000   21.96870   35.89880   37.82960   47.37160   10.62500   10.60600   10.60600   21.10970    -999.25    0.00500    2.62710    0.04850    -999.25    0.04850   47.37160    -999.25    0.00500   55.89460    -999.25    -999.25   87.71310   87.71310   55.89460   24.34840   26.13640   26.13640    -999.25    -999.25    -999.25    -999.25   35.89880   -0.00430   -0.00430    2.49380    2.49380    -999.25  -26.10450   -2.32250   21.96870 4912.69380 5223.03760
 12900.00000   28.26890   25.35330   26.63280   26.14050   10.62500   11.43690   11.43690   38.25480    -999.25    0.01740    2.70130    0.00510    -999.25    0.00510   26.14050    -999.25    0.01740   57.19110    -999.25    -999.25   94.86960   94.86960   57.19110   59.87010   54.89720   54.89720    -999.25    -999.25    -999.25    -999.25   25.35330    0.03280    0.03280    3.36510    3.36510    -999.25   -6.60480   16.86400   28.26890 4920.03610 5244.96240
 12950.00000   33.27830   37.75530   53.45650   56.80870   10.62500   10.88570   10.88570   17.60290    -999.25    0.01270    2.65250    0.03360    -999.25    0.03360   56.80870    -999.25    0.01270   58.26640    -999.25    -999.25   90.87390   90.87390   58.26640   69.90550   62.99360   62.99360    -999.25    -999.25    -999.25    -999.25   37.75530    0.02730    0.02730    3.19740    3.19740    -999.25  -27.08060   -5.43010   33.27830 4961.10940 5268.88960
 13000.00000   14.04690   16.99930   24.87240   23.11680   10.62500   11.29080   11.29080   43.25860    -999.25    0.01770    2.53400    0.10290    -999.25    0.10290   23.11680    -999.25    0.01770   60.53220    -999.25    -999.25  103.64510  103.64510   60.53220   15.15130   13.27500   13.27500    -999.25    -999.25    -999.25    -999.25   16.99930    0.03360    0.03360    2.53260    2.53260    -999.25  -37.83050  -18.12920   14.04690 4980.32130 5298.32520
