~Version ---------------------------------------------------
VERS. 2.0 : CWLS log ASCII Standard -VERSION 2.0
WRAP.  NO : ONE LINE PER DEPTH STEP
~Well ------------------------------------------------------
STRT.F                     300.0 : START DEPTH
STOP.F                   16600.0 : STOP DEPTH
STEP.F                  50.00000 : STEP LENGTH
NULL.                    -999.25 : NULL VALUE
COMP. CHAMPLIN PETROLEUM COMPANY : COMPANY
WELL.                   MIXON #1 : WELL
FLD .                    WILDCAT : FIELD
LOC .                            : LOCATION
CNTY.                    DE WITT : COUNTY
STAT.                      TEXAS : STATE
CTRY.   UNITED STATES OF AMERICA : COUNTRY
SRVC.               Schlumberger : SERVICE COMPANY
DATE.                04-Jan-1980 : LOGDATE
API .             42123310090000 : API NUMBER
UWI .             42123310090000 : UNIQUE WELL ID
SLAT.WGS84         28.9499646475 : SURFACE LATITUDE
SLON.WGS84        -97.6437950223 : SURFACE LONGITUDE
~Curve Information -----------------------------------------
DEPT.F                 : 
CALD.IN   45 280 60 00 : CALIPER FROM DENSITY LOG
CORR.G/C3 45 356 01 00 : CORRELATION LOG
RHOB.G/C3 45 350 01 00 : BULK DENSITY
GRD .GAPI 45 310 01 00 : GAMMA RAY FROM DENSITY LOG
NPHI.DEC  42 890 01 00 : NEUTRON POROSITY
DPHI.DEC  45 890 10 00 : DENSITY POROSITY
DT  .US/F 60 520 00 00 : DELTA-T (INTERVAL TRANSIT TIME)
SPR .MV   07 010 01 00 : SPONTANEOUS POTENTIAL FROM RESISTIVITY
ILD .OHMM 07 120 46 00 : INDUCTION DEEP RESISTIVITY
ILM .OHMM 07 120 44 00 : INDUCTION MEDIUM RESISTIVITY
SFL .OHMM 07 220 01 00 : SPHERICALLY FOCUSSED LOG
GRR .GAPI 07 310 01 00 : GAMMA RAY FROM RESISTIVITY
CALR.IN   07 280 01 00 : CALIPER FROM RESISTIVITY LOG
~Params ----------------------------------------------------
EKB .FT                  450 : KELLY BUSHING
EDF .FT                  449 : DRILLING FLOOR
EGL .FT                  423 : GROUND LEVEL
DATE.               01-04-80 : RUN DATE
DD  .FT                 1646 : DEPTH DRILLER
DL  .FT                 1609 : DEPTH LOGGER
BLI .FT                 1602 : BOTTOM LOG INTERVAL
BSD .FT                 1646 : BIT SIZE AT DEPTH
CLNT.                A2DTECH : CLIENT CODE
ORIG.            2" 5" PRINT : ORIGIN OF DATA
UWI .         42123310090000 : UNIQUE WELL ID
DICO. A2D Technologies, Inc. : DIGITIZING COMPANY
~Other -----------------------------------------------------
~ASCII -----------------------------------------------------
# ...
 5500.00000    -999.25    -999.25    -999.25    -999.25    -999.25    -999.25   94.25050  -42.02370    1.01280    0.98060    1.18630   72.20570   14.21010
 5550.00000    -999.25    -999.25    -999.25    -999.25    -999.25    -999.25   93.09240  -46.64520    1.69590    1.75580    1.85730   71.98210   14.05370
 5600.00000    -999.25    -999.25    -999.25    -999.25    -999.25    -999.25  111.26000  -41.72710    0.92620    0.94110    1.27940   67.95830   14.36670
 5650.00000    -999.25    -999.25    -999.25    -999.25    -999.25    -999.25  105.70080  -44.11330    1.44790    1.45920    1.81650   77.94390   13.82550
 5700.00000    -999.25    -999.25    -999.25    -999.25    -999.25    -999.25   98.13690  -45.84220    1.81660    1.86750    1.95910   66.65580   13.58960
 5750.00000    -999.25    -999.25    -999.25    -999.25    -999.25    -999.25   92.19220  -66.21470    2.09870    2.32540    3.49000   71.14350   12.23950
 5800.00000    -999.25    -999.25    -999.25    -999.25    -999.25    -999.25  103.00250  -42.02490    1.37990    1.32650    1.46790   69.97020   13.15950
 5850.00000    -999.25    -999.25    -999.25    -999.25    -999.25    -999.25  105.55430  -39.93750    0.99900    0.94760    1.04810   67.18750   12.84860
 5900.00000    -999.25    -999.25    -999.25    -999.25    -999.25    -999.25  125.22470  -40.83310    0.91350    0.92190    1.24470   67.75730   12.65820
 5950.00000    -999.25    -999.25    -999.25    -999.25    -999.25    -999.25   99.46050  -43.21910    1.39900    1.38140    1.61620   62.71690   13.45770
 6000.00000    -999.25    -999.25    -999.25    -999.25    -999.25    -999.25  106.85730  -39.04500    1.17010    1.10940    1.19440   72.98980   13.59170
 6050.00000    -999.25    -999.25    -999.25    -999.25    -999.25    -999.25  145.79460  -40.24010    0.61740    0.62380    0.84120   78.79460   12.50360
 6100.00000    -999.25    -999.25    -999.25    -999.25    -999.25    -999.25  128.52850  -41.72880    1.09990    1.01480    1.11770   80.23990   12.19080
 6150.00000    -999.25    -999.25    -999.25    -999.25    -999.25    -999.25  101.50150  -41.13020    1.19440    1.24750    1.66120   76.79490   13.09060
 6200.00000    -999.25    -999.25    -999.25    -999.25    -999.25    -999.25  109.00900  -40.17660    1.05540    1.00790    1.24070   67.28760   13.65130
 6250.00000    -999.25    -999.25    -999.25    -999.25    -999.25    -999.25   91.14110  -71.61210    2.05990    2.89560    6.21690   56.86590   11.89270
 6300.00000    -999.25    -999.25    -999.25    -999.25    -999.25    -999.25  127.62490  -37.20430    0.69400    0.69610    0.97000   74.21760   12.69770
 6350.00000    -999.25    -999.25    -999.25    -999.25    -999.25    -999.25   99.12770  -38.74810    1.63860    1.68820    2.00000   79.96480   13.22460
 6400.00000    -999.25    -999.25    -999.25    -999.25    -999.25    -999.25   95.60200  -41.42980    1.69590    1.77390    1.81140   67.61480   12.91250
 6450.00000    -999.25    -999.25    -999.25    -999.25    -999.25    -999.25   95.94900  -48.88520    1.84170    1.92740    2.11310   72.98800   12.98670
 6500.00000    -999.25    -999.25    -999.25    -999.25    -999.25    -999.25   89.03900 -115.64640    1.74090    2.74110    7.18190   52.15760   11.94650
 6550.00000    -999.25    -999.25    -999.25    -999.25    -999.25    -999.25   88.68140 -148.43040    0.97850    1.68420    5.84910   48.28220   11.83570
 6600.00000    -999.25    -999.25    -999.25    -999.25    -999.25    -999.25   84.35980 -133.52720    0.64790    0.67050    2.71440   39.56600   11.50760
 6650.00000    -999.25    -999.25    -999.25    -999.25    -999.25    -999.25   84.84090 -157.07610    0.69400    1.00590    4.15880   37.19160   11.97000
 6700.00000    -999.25    -999.25    -999.25    -999.25    -999.25    -999.25   91.02560 -136.81070    0.72320    0.87060    1.89970   47.76900   11.88070
 6750.00000    -999.25    -999.25    -999.25    -999.25    -999.25    -999.25   88.01170 -128.12720    1.43800    2.27890    6.71570   55.17560   11.77600
 6800.00000    -999.25    -999.25    -999.25    -999.25    -999.25    -999.25   84.53880 -118.30210    2.19260    3.79020    7.04620   72.17510   11.95520
 6850.00000    -999.25    -999.25    -999.25    -999.25    -999.25    -999.25   85.14330 -144.84120    1.49870    2.49150    7.75680   45.82510   11.80610
 6900.00000    -999.25    -999.25    -999.25    -999.25    -999.25    -999.25   87.25380 -105.38470    1.73120    2.68790    3.95910   83.15660   11.98510
 6950.00000    -999.25    -999.25    -999.25    -999.25    -999.25    -999.25   83.46930 -108.99890    2.12760    3.12650    5.25130   77.34890   12.05970
 7000.00000    -999.25    -999.25    -999.25    -999.25    -999.25    -999.25   85.14330  -89.73500    2.35870    3.39520    5.61850   79.97710   12.05960
 7050.00000    -999.25    -999.25    -999.25    -999.25    -999.25    -999.25   94.04100 -131.14760    1.20270    1.60520    4.54170   75.11180   12.31340
 7100.00000    -999.25    -999.25    -999.25    -999.25    -999.25    -999.25   84.17010 -121.60950    1.86720    2.82020    4.76520   59.10930   11.94040
 7150.00000    -999.25    -999.25    -999.25    -999.25    -999.25    -999.25   91.41570  -36.42080    1.86070    1.89300    2.10570   79.56650   13.56720
 7200.00000    -999.25    -999.25    -999.25    -999.25    -999.25    -999.25   92.46940  -60.50670    1.89310    2.08410    2.02070   81.51890   13.00060
 7250.00000    -999.25    -999.25    -999.25    -999.25    -999.25    -999.25   74.38230  -54.84920    2.65110    3.02070    6.90290   73.10150   13.17900
 7300.00000    -999.25    -999.25    -999.25    -999.25    -999.25    -999.25   85.24150  -44.11330    2.20220    2.11310    2.60480   80.47690   13.61190
 7350.00000    -999.25    -999.25    -999.25    -999.25    -999.25    -999.25   82.60480  -45.49470    2.31070    2.45810    2.96770   75.33530   13.76130
 7400.00000    -999.25    -999.25    -999.25    -999.25    -999.25    -999.25  109.03540  -40.83460    1.35180    1.41840    1.33860   83.83010   13.50750
 7450.00000    -999.25    -999.25    -999.25    -999.25    -999.25    -999.25   84.93980 -131.44560    1.81670    3.08370    7.32490   50.00000   12.16950
 7500.00000    -999.25    -999.25    -999.25    -999.25    -999.25    -999.25   90.81320  -43.81520    2.23270    2.08430    2.13480   83.03930   13.68500
 7550.00000    -999.25    -999.25    -999.25    -999.25    -999.25    -999.25   84.93930 -102.23550    2.72510    4.23040    6.80900   59.88740   12.19920
 7600.00000    -999.25    -999.25    -999.25    -999.25    -999.25    -999.25   80.42110 -133.23400    2.44100    4.40860   12.03530   45.31610   12.06550
 7650.00000    -999.25    -999.25    -999.25    -999.25    -999.25    -999.25   86.44580  -90.31080    2.17200    3.12650    2.96590   83.03750   12.92730
 7700.00000    -999.25    -999.25    -999.25    -999.25    -999.25    -999.25   81.17430  -50.43150    2.72490    2.89870    4.18250   63.61610   13.12040
 7750.00000    -999.25    -999.25    -999.25    -999.25    -999.25    -999.25   92.29600  -41.43070    2.01400    2.04170    2.35190   75.95420   14.14560
 7800.00000    -999.25    -999.25    -999.25    -999.25    -999.25    -999.25   90.35960  -40.28840    2.32660    2.26600    2.22450   75.22520   14.30910
 7850.00000    -999.25    -999.25    -999.25    -999.25    -999.25    -999.25   85.99360  -42.62130    2.50910    2.50930    2.58700   77.00700   14.11080
 7900.00000    -999.25    -999.25    -999.25    -999.25    -999.25    -999.25  102.40960  -42.62300    2.14230    1.95930    1.89970   88.23490   13.92300
 7950.00000    -999.25    -999.25    -999.25    -999.25    -999.25    -999.25   85.09040  -44.96950    2.40790    2.50930    2.92720   82.16330   14.16060
 8000.00000    -999.25    -999.25    -999.25    -999.25    -999.25    -999.25   77.86140  -42.80160    2.65130    2.82010    2.96770   70.31610   14.21970
 8050.00000    -999.25    -999.25    -999.25    -999.25    -999.25    -999.25   88.70480  -40.23950    2.29480    2.31050    2.67740   72.09950   14.63600
