~Version ---------------------------------------------------
VERS. 2.0 : CWLS log ASCII Standard -VERSION 2.0
WRAP. YES : Multiple lines per depth step
~Well ------------------------------------------------------
STRT.FT                   3900.0 : START DEPTH
STOP.FT                   8000.0 : STOP DEPTH
STEP.FT                 50.00000 : STEP LENGTH
NULL.                    -999.25 : NULL VALUE
COMP. CHAMPLIN PETROLEUM COMPANY : COMPANY
WELL.             C. D. HENRY #1 : WELL
FLD .                   GIDDINGS : FIELD
LOC .                            : LOCATION
CNTY.                   BURLESON : COUNTY
STAT.                      TEXAS : STATE
CTRY.   UNITED STATES OF AMERICA : COUNTRY
SRVC.               Schlumberger : SERVICE COMPANY
DATE.                23-Jun-1980 : LOGDATE
API .             42051307640000 : API NUMBER
UWI .             42051307640000 : UNIQUE WELL ID
SLAT.WGS84         30.4843160848 : SURFACE LATITUDE
SLON.WGS84         -96.682642194 : SURFACE LONGITUDE
~Curve Information -----------------------------------------
DEPT    .FT    : DEPTH FEET
CALDED  .IN    : CALIPER FROM CNFD LOG [ADJ. TO SFLUED]
CALWS   .IN    : CALIPER [CALDED]
CONDWS  .MMHO  : CONDUCTIVITY [1000/DRESWS]
DCORWS  .G/C3  : DENSITY CORRECTION [DRHOED]
DENWS   .G/C3  : FORMATION BULK DENSITY [RHOBED]
DPHILSED.V/V   : DENSITY POROSITY LIMESTONE [M=2.71, F=1.0] FROM CNFD LOG [ADJ. TO SFLUED]
DPHISSED.V/V   : DENSITY POROSITY SANDSTONE [M=2.65, F=1.0] FROM CNFD LOG [ADJ. TO SFLUED]
DPOWS   .V/V   : DENSITY POROSITY LIMESTONE [DPHISSED CONVERTED TO LIMESTONE (M=2.71, F=1.0),SPL. TO DPHILSED @ 6000']
DRESWS  .OHMM  : DEEP RESISTIVITY [ILDED]
DRHOED  .G/C3  : BULK DENSITY CORRECTION FROM CNFD LOG [ADJ. TO SFLUED]
DTED    .US/F  : DELTA-T (INTERVAL TRANSIT TIME) FROM DIL-SFL-SONIC LOG
DTWS    .US/F  : COMPRESSIONAL SONIC [DTED]
GRDED   .GAPI  : GAMMA RAY FROM CNFD LOG [ADJ. TO SFLUED]
GRRED   .GAPI  : GAMMA RAY FROM DIL-SFL-SONIC LOG
GRWS    .GAPI  : GAMMA RAY [GRDED]
ILDED   .OHMM  : DEEP INDUCTION RESISTIVITY FROM DIL-SFL-SONIC LOG
ILMED   .OHMM  : MEDIUM INDUCTION RESISTIVITY FROM DIL-SFL-SONIC LOG
MRESWS  .OHMM  : MEDIUM RESISTIVITY [ILMED]
NPHILSED.V/V   : NEUTRON POROSITY LIMESTONE FROM CNFD LOG [ADJ. TO SFLUED]
NPHISSED.V/V   : NEUTRON POROSITY SANDSTONE FROM CNFD LOG [ADJ. TO SFLUED]
NPOWS   .V/V   : NEUTRON POROSITY LIMESTONE [NPHISSED MATRIX CONVERTED TO LIMESTONE, SPL. TO NPHILSED @ 6000']
RHOBED  .G/C3  : BULK DENSITY FROM CNFD LOG [ADJ. TO SFLUED]
SFLUED  .OHMM  : SHALLOW FOCUSED RESISTIVITY (UNAVERAGED) FROM DIL-SFL-SONIC LOG
SPHILSED.V/V   : SONIC POROSITY LIMESTONE [DTM=56.0,DTF=189.0] FROM SONIC LOG [ADJ. TO SFLUED]
SPHISSED.V/V   : SONIC POROSITY SANDSTONE [DTM=56.0,DTF=189.0] FROM SONIC LOG [ADJ. TO SFLUED]
SPOWS   .V/V   : SONIC POROSITY [SPHISSED SPL. TO SPHILSED @ 6000']
SPRED   .MV    : SPONTANEOUS POTENTIAL FROM DIL-SFL-SONIC LOG
SPWS    .MV    : SPONTANEOUS POTENTIAL [BASELINE 0 MV, SPRED]
SRESWS  .OHMM  : SHALLOW RESISTIVITY [SFLUED]
~Params ----------------------------------------------------
PD  .                     GL : PERMANENT DATUM
EPD .FT                  335 : ELEVATION PERMANENT DATUM
LMF .                     KB : LOG MEASURED FROM
DAPD.FT                   19 : FEET ABOVE PERMANENT DATUM
DMF .                     KB : DRILLING MEASURED FROM
EKB .FT                  354 : KELLY BUSHING
EDF .FT                  353 : DRILLING FLOOR
EGL .FT                  335 : GROUND LEVEL
DATE.               06/23/80 : RUN DATE
RUN .                      1 : RUN NUMBER
DD  .FT                 8040 : DEPTH DRILLER
DL  .FT                 8024 : DEPTH LOGGER
BLI .FT                 8018 : BOTTOM LOG INTERVAL
TLI .FT                 3907 : TOP LOG INTERVAL
CS  .IN                9.625 : CASING SIZE
CBD .FT                 3864 : CASING BOTTOM DRILLER
CBL .FT                 3907 : CASING BOTTOM LOGGER
BS  .IN                 8.75 : BIT SIZE
BSD .FT                 8040 : BIT SIZE AT DEPTH
DFT .       CAC 12 INHIBITED : DRILLING FLUID TYPE
DFD .                    9.8 : DRILLING FLUID DENSITY
DFV .                     42 : DRILLING FLUID VISCOSITY
DFPH.                      9 : DRILLING FLUID PH
DFL .                    8.9 : DRILLING FLUID LOSS
MSS .                   TANK : MUD SAMPLE SOURCE
RMS .OHMM               0.72 : RESISTIVITY MUD SAMPLE
MST .DEGF                 97 : MUD SAMPLE TEMPERATURE
RMF .OHMM               0.54 : RESISTIVITY MUD FILTRATE SAMPLE
MFST.DEGF                 97 : MUD FILTRATE SAMPLE TEMPERATURE
RMC .OHMM               1.08 : RESISTIVITY MUD CAKE
MCST.DEGF                 97 : MUD CAKE SAMPLE TEMPERATURE
MFSS.                      M : MUD FILTRATE SAMPLE SOURCE
MCSS.                      C : MUD CAKE SAMPLE SOURCE
RMB .OHMM               0.35 : RESISTIVITY MUD AT BHT
TCS .HRS                2230 : TIME CIRCULATED STOPPED
TLAB.HRS                 200 : TIME LOGGER AT BOTTOM
LUN .                   8101 : LOGGING UNIT NUMBER
LUL .                BRENHAM : LOGGING UNIT LOCATION
ENGI.        GILLILAND WYATT : RECORDING ENGINEER
WITN.                CAMERON : WITNESSED BY
CLNT.                A2DTECH : CLIENT CODE
ORIG.          1" 2.5" PRINT : ORIGIN OF DATA
UWI .         42051307640000 : UNIQUE WELL ID
DICO. A2D Technologies, Inc. : DIGITIZING COMPANY
~Other -----------------------------------------------------
GAMMA RAY DIED COMING UPHOLE COULDN'T REACH DRILLERS TD.
~ASCII -----------------------------------------------------
# ...
 5150.00000   10.55790   10.55790  580.34940    0.21850    2.57430    -999.25    0.03910    0.07280    1.72310    0.21850   91.25400   91.25400   83.72850    -999.25   83.72850    1.72310    1.96480    1.96480    -999.25    0.22170    0.17800    2.57430    2.01720    -999.25    0.26570    0.26570   -6.53140   -3.31890    2.01720
 5200.00000   11.68720   11.68720  793.08430    0.14690    2.46340    -999.25    0.10710    0.13840    1.26090    0.14690  100.25640  100.25640   95.80950    -999.25   95.80950    1.26090    1.31290    1.31290    -999.25    0.33100    0.28720    2.46340    1.50650    -999.25    0.34450    0.34450   -6.12550   -3.11110    1.50650
 5250.00000   13.93920   13.93920 1107.78770    0.19260    2.44700    -999.25    0.12050    0.15140    0.90270    0.19260  110.52300  110.52300  101.60350    -999.25  101.60350    0.90270    0.93500    0.93500    -999.25    0.38110    0.33790    2.44700    1.04110    -999.25    0.41020    0.41020   -5.53200   -2.71570    1.04110
 5300.00000   14.19200   14.19200 1000.40020    0.20170    2.43130    -999.25    0.13340    0.16380    0.99960    0.20170  109.91550  109.91550  104.10420    -999.25  104.10420    0.99960    1.06850    1.06850    -999.25    0.36350    0.32000    2.43130    1.13760    -999.25    0.40480    0.40480   -5.83980   -3.13060    1.13760
 5350.00000   13.68230   13.68230  851.06380    0.19640    2.25710    -999.25    0.23600    0.26280    1.17500    0.19640  105.96760  105.96760   97.27330    -999.25   97.27330    1.17500    1.26590    1.26590    -999.25    0.41430    0.37170    2.25710    1.39080    -999.25    0.37620    0.37620   -5.76450   -3.13040    1.39080
 5400.00000    9.45520    9.45520  500.40030    0.13650    2.55580    -999.25    0.06030    0.09330    1.99840    0.13650   91.25960   91.25960   91.80130    -999.25   91.80130    1.99840    2.14510    2.14510    -999.25    0.28970    0.24570    2.55580    2.26900    -999.25    0.28210    0.28210   -6.83990   -4.28090    2.26900
 5450.00000   11.83220   11.83220  823.18080    0.14610    2.23970    -999.25    0.24880    0.27520    1.21480    0.14610   97.31240   97.31240   97.56730    -999.25   97.56730    1.21480    1.27900    1.27900    -999.25    0.36120    0.31770    2.23970    1.34590    -999.25    0.31610    0.31610   -9.21780   -6.73390    1.34590
 5500.00000   11.91110   11.91110  987.06940    0.13910    2.31320    -999.25    0.20120    0.22920    1.01310    0.13910  102.66180  102.66180  114.59080    -999.25  114.59080    1.01310    1.05900    1.05900    -999.25    0.33390    0.29010    2.31320    1.16560    -999.25    0.34660    0.34660   -8.36750   -5.95870    1.16560
 5550.00000    9.94860    9.94860  660.32750    0.04730    2.48680    -999.25    0.09960    0.13120    1.51440    0.04730   92.06050   92.06050   97.70310    -999.25   97.70310    1.51440    1.57680    1.57680    -999.25    0.32180    0.27790    2.48680    1.64330    -999.25    0.27450    0.27450   -7.31290   -4.97920    1.64330
 5600.00000   12.12430   12.12430  770.29730    0.18600    2.42370    -999.25    0.13600    0.16630    1.29820    0.18600   82.39800   82.39800  109.91710    -999.25  109.91710    1.29820    1.38370    1.38370    -999.25    0.33090    0.28710    2.42370    1.58260    -999.25    0.20310    0.20310   -8.77450   -6.51590    1.58260
 5650.00000   15.22530   15.22530  850.26780    0.16390    2.35750    -999.25    0.17600    0.20490    1.17610    0.16390   99.67970   99.67970   91.22620    -999.25   91.22620    1.17610    1.21640    1.21640    -999.25    0.40550    0.36280    2.35750    1.27320    -999.25    0.33360    0.33360   -7.72930   -5.54580    1.27320
 5700.00000   15.05940   15.05940  850.41250    0.10520    2.30250    -999.25    0.21030    0.23800    1.17590    0.10520  100.03020  100.03020  101.02950    -999.25  101.02950    1.17590    1.19910    1.19910    -999.25    0.37820    0.33490    2.30250    1.33260    -999.25    0.33240    0.33240   -7.10490   -4.99650    1.33260
 5750.00000   13.83220   13.83220  786.47270    0.12140    2.36630    -999.25    0.16800    0.19720    1.27150    0.12140   96.90740   96.90740   96.69650    -999.25   96.69650    1.27150    1.33830    1.33830    -999.25    0.36610    0.32270    2.36630    1.40770    -999.25    0.32580    0.32580   -8.58890   -6.55560    1.40770
 5800.00000   13.50500   13.50500  841.46750    0.09680    2.33380    -999.25    0.18660    0.21510    1.18840    0.09680  102.46150  102.46150  106.92770    -999.25  106.92770    1.18840    1.20770    1.20770    -999.25    0.37000    0.32660    2.33380    1.24960    -999.25    0.35260    0.35260   -7.09240   -5.13420    1.24960
 5850.00000   10.64630   10.64630  535.07410    0.19290    2.41890    -999.25    0.13820    0.16840    1.86890    0.19290   89.69720   89.69720  100.76420    -999.25  100.76420    1.86890    1.91720    1.91720    -999.25    0.31160    0.26770    2.41890    1.98610    -999.25    0.25580    0.25580   -6.99590   -5.11280    1.98610
 5900.00000   11.86510   11.86510  654.53590    0.18780    2.50000    -999.25    0.08590    0.11800    1.52780    0.18780   95.31280   95.31280  136.60880    -999.25  136.60880    1.52780    1.57700    1.57700    -999.25    0.30250    0.25850    2.50000    1.68890    -999.25    0.29980    0.29980   -7.39550   -5.58750    1.68890
 5950.00000   11.37880   11.37880  590.14460    0.11620    2.47160    -999.25    0.10910    0.14040    1.69450    0.11620   91.08240   91.08240  100.43510    -999.25  100.43510    1.69450    1.83140    1.83140    -999.25    0.28970    0.24570    2.47160    1.94050    -999.25    0.27570    0.27570   -6.49540   -4.76250    1.94050
 6000.00000   12.49550   12.49550  691.03720    0.19420    2.46770    0.11800    0.10820    0.13950    1.44710    0.19420   96.98050   96.98050  105.55580    -999.25  105.55580    1.44710    1.48470    1.48470    0.29050    0.29570    0.25170    2.46770    1.55710    0.31280    0.30760    0.30760   -6.43250   -4.77470    1.55710
 6050.00000   11.61680   11.61680  645.03640    0.21600    2.50760    0.11510    -999.25    0.11510    1.55030    0.21600   94.78350   94.78350  105.57610    -999.25  105.57610    1.55030    1.67370    1.67370    0.25500    -999.25    0.25500    2.50760    1.78420    0.29370    -999.25    0.29370   -6.57540   -4.99270    1.78420
 6100.00000   10.22840   10.22840  604.19310    0.19840    2.48650    0.12950    -999.25    0.12950    1.65510    0.19840   93.81340   93.81340   96.97120    -999.25   96.97120    1.65510    1.73370    1.73370    0.23450    -999.25    0.23450    2.48650    1.88380    0.28740    -999.25    0.28740   -6.03920   -4.53160    1.88380
 6150.00000   12.57130   12.57130  662.64660    0.16930    2.44240    0.15570    -999.25    0.15570    1.50910    0.16930   97.45540   97.45540   94.62510    -999.25   94.62510    1.50910    1.55940    1.55940    0.26760    -999.25    0.26760    2.44240    1.60750    0.31690    -999.25    0.31690   -7.58420   -6.15170    1.60750
 6200.00000   12.61680   12.61680 1187.08450    0.23110    2.42120    0.16480    -999.25    0.16480    0.84240    0.23110  101.55630  101.55630  145.91570    -999.25  145.91570    0.84240    0.89760    0.89760    0.30030    -999.25    0.30030    2.42120    1.16010    0.36530    -999.25    0.36530   -8.00300   -6.64560    1.16010
 6250.00000   13.53530   13.53530  812.61170    0.22860    2.38350    0.19290    -999.25    0.19290    1.23060    0.22860  102.01700  102.01700   97.58010    -999.25   97.58010    1.23060    1.26930    1.26930    0.26620    -999.25    0.26620    2.38350    1.35850    0.33740    -999.25    0.33740   -7.64500   -6.36270    1.35850
 6300.00000   11.06700   11.06700  675.49310    0.16890    2.52690    0.10470    -999.25    0.10470    1.48040    0.16890   95.07880   95.07880   96.94800    -999.25   96.94800    1.48040    1.52630    1.52630    0.18030    -999.25    0.18030    2.52690    1.77420    0.29170    -999.25    0.29170   -6.25500   -5.04780    1.77420
 6350.00000    9.28440    9.28440  270.35060    0.03000    2.59870    0.06290    -999.25    0.06290    3.69890    0.03000   73.83030   73.83030   50.00980    4.57740   50.00980    3.69890    3.46410    3.46410    0.11520    -999.25    0.11520    2.59870    4.31020    0.14070    -999.25    0.14070   -7.75090   -6.61880    4.31020
