~Version ---------------------------------------------------
VERS. 2.0 : CWLS log ASCII Standard -VERSION 2.0
WRAP. YES : MULTIPLE LINES PER DEPTH STEP
~Well ------------------------------------------------------
STRT.FT                      300.0 : START DEPTH
STOP.FT                     7950.0 : STOP DEPTH
STEP.FT                   50.00000 : STEP LENGTH
NULL.                      -999.25 : NULL VALUE
COMP. AMOCO PRODUCTION COMPANY USA : COMPANY
WELL.              JOHN JARROTT #1 : WELL
FLD .                     WHEELOCK : FIELD
LOC .                              : LOCATION
CNTY.                    ROBERTSON : COUNTY
STAT.                        TEXAS : STATE
CTRY.     UNITED STATES OF AMERICA : COUNTRY
SRVC.                 Schlumberger : SERVICE COMPANY
DATE.                  12-Jan-1984 : LOGDATE
API .               42395302890000 : API NUMBER
UWI .               42395302890000 : UNIQUE WELL ID
SLAT.WGS84           30.9033199456 : SURFACE LATITUDE
SLON.WGS84          -96.3760313841 : SURFACE LONGITUDE
~Curve Information -----------------------------------------
DEPT    .FT    : DEPTH FEET
CALDED  .IN    : CALIPER FROM DENSITY LOG [DEP ADJ TO GRRED]
CALRED  .IN    : CALIPER FROM RESISTIVITY LOG
CALSED  .IN    : CALIPER FROM SONIC LOG [DEP ADJ TO GRRED]
CALWS   .IN    : CALIPER [97 CALDED 7738.5 CALSED]
CONDWS  .MMHO  : CONDUCTIVITY [1000/DRESWS]
DCORWS  .G/C3  : DENSITY CORRECTION [DRHOED]
DENWS   .G/C3  : BULK DENSITY [M=2.71 F=1.0] [RHOBED]
DPHILSED.V/V   : DENSITY POROSITY [M=2.71 F=1.0] FROM DENSITY LOG [DEP ADJ TO GRRED]
DPOWS   .V/V   : DENSITY POROSITY [M=2.71 F=1.0] [CAL FR DENWS]
DRESWS  .OHMM  : DEEP RESISTIVITY [ILDED]
DRHOED  .G/C3  : DENSITY CORRECTION FROM DENSITY LOG [DEP ADJ TO GRRED]
DTED    .US/F  : DELTA TIME FROM SONIC LOG [DEP ADJ TO GRRED]
DTWS    .US/F  : DELTA TIME [DTED]
GRDED   .GAPI  : GAMMA RAY FROM DENSITY LOG [DEP ADJ TO GRRED]
GRRED   .GAPI  : GAMMA RAY FROM RESISTIVITY LOG
GRSED   .GAPI  : GAMMA RAY FROM SONIC LOG [DEP ADJ TO GRRED]
GRWS    .GAPI  : GAMMA RAY [GRDED]
ILDED   .OHMM  : INDUCTION LOG DEEP RESISTIVITY
ILMED   .OHMM  : INDUCTION LOG MEDIUM RESISTIVITY
MRESWS  .OHMM  : MEDIUM RESISTIVITY [ILMED]
NPHILSED.V/V   : NEUTRON POROSITY LIMESTONE FROM DENSITY LOG [DEP ADJ TO GRRED]
NPOWS   .V/V   : NEUTRON POROSITY LIMESTONE [NPHILSED]
PEFED   .B/E   : PHOTOELECTRIC FACTOR FROM DENSITY LOG [DEP ADJ TO GRRED]
PEFWS   .B/E   : PHOTOELECTRIC FACTOR [PEFED]
RHOBED  .G/C3  : BULK DENSITY FROM DENSITY LOG  [DEP ADJ TO GRRED]
SFLUED  .OHMM  : SPHERICALLY FOCUSED LOG RESISTIVITY
SPHILSED.V/V   : SONIC POROSITY FROM SONIC LOG [DEP ADJ TO GRRED] [M=47.6 F=189]
SPOWS   .V/V   : SONIC POROSITY [CAL FR DTWS] [M=47.6 F=189]
SPRED   .MV    : SPONTANEOUS POTENTIAL FROM RESISTIVITY LOG [SHIFT IS REMOVED]
SPWS    .MV    : SPONTANEOUS POTENTIAL [BASELINE 0 MV] [SPRED]
SRESWS  .OHMM  : SHALLOW RESISTIVITY [SFLUED]
TENDED  .LBF   : TENSION FROM DENSITY LOG [DEP ADJ TO GRRED]
~Params ----------------------------------------------------
PD  .                     GL : PERMANENT DATUM
EPD .FT                404.8 : ELEVATION PERMANENT DATUM
LMF .                     KB : LOG MEASURED FROM
DAPD.FT                 16.6 : FEET ABOVE PERMANENT DATUM
DMF .                     KB : DRILLING MEASURED FROM
EKB .FT                421.4 : KELLY BUSHING
EDF .FT                420.4 : DRILLING FLOOR
EGL .FT                404.8 : GROUND LEVEL
DATE.               01/12/84 : RUN DATE
RUN .                      1 : RUN NUMBER
DD  .FT                 7050 : DEPTH DRILLER
DL  .FT                 7964 : DEPTH LOGGER
BLI .FT                 7958 : BOTTOM LOG INTERVAL
TLI .FT                 3102 : TOP LOG INTERVAL
CS  .IN                9.625 : CASING SIZE
CBD .FT                 3100 : CASING BOTTOM DRILLER
CBL .FT                 3102 : CASING BOTTOM LOGGER
BS  .IN                 8.75 : BIT SIZE
BSD .FT                 7050 : BIT SIZE AT DEPTH
DFT .                    LPH : DRILLING FLUID TYPE
DFD .                    9.6 : DRILLING FLUID DENSITY
DFV .                     38 : DRILLING FLUID VISCOSITY
DFPH.                    9.4 : DRILLING FLUID PH
DFL .                    8.6 : DRILLING FLUID LOSS
MSS .                   TANK : MUD SAMPLE SOURCE
RMS .OHMM               6.45 : RESISTIVITY MUD SAMPLE
MST .DEGF                 74 : MUD SAMPLE TEMPERATURE
RMF .OHMM               5.91 : RESISTIVITY MUD FILTRATE SAMPLE
MFST.DEGF                 74 : MUD FILTRATE SAMPLE TEMPERATURE
RMC .OHMM               7.02 : RESISTIVITY MUD CAKE
MCST.DEGF                 74 : MUD CAKE SAMPLE TEMPERATURE
MFSS.                   MEAS : MUD FILTRATE SAMPLE SOURCE
RMB .OHMM              2.625 : RESISTIVITY MUD AT BHT
TCS .HRS                1000 : TIME CIRCULATED STOPPED
TLAB.HRS                1800 : TIME LOGGER AT BOTTOM
LUN .                   8143 : LOGGING UNIT NUMBER
LUL .                  CARTH : LOGGING UNIT LOCATION
ENGI.             GRANT HIGH : RECORDING ENGINEER
WITN.       ARTIGAS NORVILLE : WITNESSED BY
CLNT.                A2DTECH : CLIENT CODE
ORIG.            2" 5" PRINT : ORIGIN OF DATA
UWI .         42395302890000 : UNIQUE WELL ID
DICO. A2D Technologies, Inc. : DIGITIZING COMPANY
~Other -----------------------------------------------------
~ASCII -----------------------------------------------------
# ...
 4700.00000   10.05800    9.79530    9.67780   10.05800  859.62350    0.01090    2.28610    0.24630    0.24790    1.16330    0.01090  114.76930  114.76930   79.24430   77.24030   81.98190   79.24430    1.16330    1.13040    1.13040    0.34370    0.34370    2.96640    2.96640    2.28610    1.00770    -999.25    0.47500  -33.35960   -6.92360    1.00770 2547.38380
 4750.00000    9.09190    8.99230    9.23000    9.09190  868.58340    0.02950    2.28800    0.24520    0.24680    1.15130    0.02950  115.15070  115.15070   90.58050   85.17990   82.51370   90.58050    1.15130    1.11880    1.11880    0.36060    0.36060    2.94970    2.94970    2.28800    1.00820    -999.25    0.47770  -30.56590   -4.46170    1.00820 2577.47750
 4800.00000    8.96470    9.24270    9.23820    8.96470  939.49650    0.01870    2.23090    0.28020    0.28020    1.06440    0.01870  116.70430  116.70430   86.71320   83.45380   87.46990   86.71320    1.06440    0.99690    0.99690    0.35390    0.35390    2.82990    2.82990    2.23090    0.91890    -999.25    0.48870  -31.58390   -5.81150    0.91890 2569.19240
 4850.00000    9.50410    9.43220    9.63150    9.50410  552.45570    0.07810    2.40290    0.17790    0.17960    1.81010    0.07810  103.94430  103.94430   80.98890   72.52700   76.16320   80.98890    1.81010    1.70690    1.70690    0.30950    0.30950    3.97300    3.97300    2.40290    1.61560    -999.25    0.39850  -33.60080   -8.16010    1.61560 2571.01950
 4900.00000    9.77200    9.53990    9.55010    9.77200  613.94890    0.09440    2.38020    0.19040    0.19290    1.62880    0.09440  109.28900  109.28900   71.89650   69.21590   69.32260   71.89650    1.62880    1.57510    1.57510    0.31490    0.31490    4.11840    4.11840    2.38020    1.53580    -999.25    0.43630  -32.79900   -7.69010    1.53580 2600.35640
 4950.00000    9.51840    9.40470    9.45430    9.51840  552.48620    0.09480    2.38360    0.18920    0.19090    1.81000    0.09480  106.02520  106.02520   71.63390   69.68270   71.67860   71.63390    1.81000    1.75890    1.75890    0.32160    0.32160    4.60900    4.60900    2.38360    1.60390    -999.25    0.41320  -31.49170   -6.71460    1.60390 2654.20900
 5000.00000    9.13960    8.93100    8.94380    9.13960  331.49910   -0.00180    2.50020    0.12060    0.12270    3.01660   -0.00180   90.80520   90.80520   59.32340   56.76470   64.27510   59.32340    3.01660    2.93170    2.93170    0.22920    0.22920    4.25650    4.25650    2.50020    2.64490    -999.25    0.30560  -29.67330   -5.22790    2.64490 2678.02250
 5050.00000    9.48510    9.00350    9.13950    9.48510  755.62950    0.02930    2.25640    0.26330    0.26530    1.32340    0.02930  101.38760  101.38760   84.07420   85.71960   85.55590   84.07420    1.32340    1.29910    1.29910    0.28640    0.28640    2.42920    2.42920    2.25640    1.01430    -999.25    0.38040  -28.25410   -4.14050    1.01430 2673.79790
 5100.00000    9.02790    8.95470    8.99670    9.02790  554.69270    0.04930    2.36120    0.20070    0.20400    1.80280    0.04930   96.33410   96.33410   74.30510   74.54620   76.83650   74.30510    1.80280    1.75000    1.75000    0.26890    0.26890    2.85720    2.85720    2.36120    1.36100    -999.25    0.34470  -26.57340   -2.63900    1.36100 2660.14160
 5150.00000    9.16170    8.81040    8.83060    9.16170  774.89340    0.05730    2.28990    0.24350    0.24570    1.29050    0.05730  101.34560  101.34560   74.71840   78.57740   72.65190   74.71840    1.29050    1.22050    1.22050    0.31340    0.31340    2.47560    2.47560    2.28990    0.99730    -999.25    0.38010  -25.34310   -1.43490    0.99730 2660.56840
 5200.00000    9.47910    8.91920    9.08360    9.47910  433.72660    0.01120    2.39970    0.17930    0.18150    2.30560    0.01120   91.51580   91.51580   73.07680   73.85490   71.00060   73.07680    2.30560    2.24070    2.24070    0.26050    0.26050    3.08890    3.08890    2.39970    1.87260    -999.25    0.31060  -32.89190   -9.42120    1.87260 2725.28420
 5250.00000    9.69110    9.22490    9.28960    9.69110  505.38230    0.06720    2.43180    0.16020    0.16270    1.97870    0.06720   91.44880   91.44880   71.86870   76.10590   76.30710   71.86870    1.97870    1.92240    1.92240    0.28880    0.28880    3.44090    3.44090    2.43180    1.63210    -999.25    0.31010  -27.61720   -4.58400    1.63210 2758.84380
 5300.00000   10.05140    8.72650    8.99430   10.05140  668.62800    0.03240    2.27760    0.25170    0.25290    1.49560    0.03240   99.68730   99.68730   92.26170   95.28050   97.49210   92.26170    1.49560    1.45330    1.45330    0.31550    0.31550    3.03340    3.03340    2.27760    1.20320    -999.25    0.36840  -25.13870   -2.54310    1.20320 2705.61820
 5350.00000   10.58110    9.67350    9.73550   10.58110  848.82440    0.05760    2.22650    0.28110    0.28270    1.17810    0.05760  105.05950  105.05950   75.10160   86.15770   78.37460   75.10160    1.17810    1.13920    1.13920    0.36100    0.36100    2.66240    2.66240    2.22650    0.95130    -999.25    0.40640  -30.99160   -8.83350    0.95130 2764.63670
 5400.00000   10.35080    9.50410    9.63840   10.35080  843.02810    0.03530    2.27050    0.25570    0.25700    1.18620    0.03530  105.94710  105.94710   85.25520   85.73160   90.07390   85.25520    1.18620    1.12200    1.12200    0.34220    0.34220    2.75380    2.75380    2.27050    0.97770    -999.25    0.41260  -28.91720   -7.19660    0.97770 2764.95310
 5450.00000    9.45640    9.36440    9.43910    9.45640  967.02440    0.05390    2.28290    0.24890    0.24980    1.03410    0.05390  109.14550  109.14550   81.61270   77.90780   85.19270   81.61270    1.03410    1.08860    1.08860    0.34190    0.34190    3.44180    3.44180    2.28290    0.90450    -999.25    0.43530  -25.85570   -4.57260    0.90450 2760.77540
 5500.00000    8.71950    8.84380    8.94450    8.71950  948.49670    0.06480    2.29690    0.24100    0.24160    1.05430    0.06480  107.93650  107.93650   90.24340   94.64000   90.42220   90.24340    1.05430    1.10540    1.10540    0.32810    0.32810    2.89590    2.89590    2.29690    0.90010    -999.25    0.42670  -24.83060   -3.98500    0.90010 2777.67680
 5550.00000    9.84140    9.82890   10.83020    9.84140  997.20780   -0.04130    1.85770    0.46210    0.49840    1.00280   -0.04130  115.63840  115.63840   75.99070   84.64320   78.01420   75.99070    1.00280    1.03480    1.03480    0.41290    0.41290    1.95980    1.95980    1.85770    0.86170    -999.25    0.48120  -30.34290   -9.93480    0.86170 2781.82710
 5600.00000    9.33700    9.12390    8.96460    9.33700 1107.91050   -0.00420    2.28310    0.24750    0.24960    0.90260   -0.00420  109.02960  109.02960  101.29050   94.37500  100.33370  101.29050    0.90260    0.98330    0.98330    0.34380    0.34380    2.52640    2.52640    2.28310    0.78280    -999.25    0.43440  -22.75770   -2.78710    0.78280 2810.92970
 5650.00000    9.63770    9.53370    9.62480    9.63770 1002.30530    0.03060    2.31120    0.23090    0.23320    0.99770    0.03060  109.41630  109.41630   91.48520   87.97950   89.02710   91.48520    0.99770    1.03700    1.03700    0.34830    0.34830    3.09140    3.09140    2.31120    0.89910    -999.25    0.43720  -24.58240   -5.04930    0.89910 2851.58300
 5700.00000    9.86350    9.44470    9.30950    9.86350  797.95720    0.01660    2.44570    0.15310    0.15460    1.25320    0.01660  100.82940  100.82940   96.51150   91.28620   89.83910   96.51150    1.25320    1.29520    1.29520    0.29910    0.29910    2.78680    2.78680    2.44570    1.15460    -999.25    0.37640  -21.60700   -2.51140    1.15460 2848.61620
 5750.00000    9.74790    9.43050    9.48490    9.74790  773.33540    0.04380    2.41740    0.16700    0.17110    1.29310    0.04380  100.87100  100.87100  101.98880   88.56690   92.00390  101.98880    1.29310    1.37400    1.37400    0.26870    0.26870    3.29940    3.29940    2.41740    1.16560    -999.25    0.37670  -20.86390   -2.20580    1.16560 2862.24800
