~Version ---------------------------------------------------
VERS. 2.0 : CWLS log ASCII Standard -VERSION 2.0
WRAP.  NO : ONE LINE PER DEPTH STEP
~Well ------------------------------------------------------
STRT.F                   300.0 : START DEPTH
STOP.F                 18600.0 : STOP DEPTH
STEP.F                50.00000 : STEP LENGTH
NULL.                  -999.25 : NULL VALUE
COMP.        SHELL OIL COMPANY : COMPANY
WELL. PAWELEK BEN A ET AL A #1 : WELL
FLD .    PERSON AREA (WILDCAT) : FIELD
LOC .                          : LOCATION
CNTY.                   KARNES : COUNTY
STAT.                    TEXAS : STATE
CTRY. UNITED STATES OF AMERICA : COUNTRY
SRVC.             Schlumberger : SERVICE COMPANY
DATE.              22-May-1978 : LOGDATE
API .           42255305980000 : API NUMBER
UWI .           42255305980000 : UNIQUE WELL ID
SLAT.WGS84       29.0241796548 : SURFACE LATITUDE
SLON.WGS84      -97.8796797249 : SURFACE LONGITUDE
~Curve Information -----------------------------------------
DEPT   .F    0   1   0  0 : 1 MEASURED DEPTH
ILD    .OHMM 07 120 46 00 : INDUCTION DEEP RESISTIVITY
ILM    .OHMM 07 120 44 00 : INDUCTION MEDIUM RESISTIVITY
SPR    .MV   07 010 01 00 : SPONTANEOUS POTENTIAL FROM RESISTIVITY LOG
SFL    .OHMM 07 220 01 00 : SPHERICALLY FOCUSED LOG
GRR    .GAPI 07 310 01 00 : GAMMA RAY FROM RESISTIVITY LOG
DPHI_SS.DEC  45 890 12 00 : DENSITY POROSITY SANDSTONE
NPHI_SS.DEC  42 890 03 00 : NEUTRON POROSITY SANDSTONE
NPHI_LS.DEC  42 890 01 00 : NEUTRON POROSITY LIMESTONE
DPHI_LS.DEC  45 890 10 00 : DENSITY POROSITY LIMESTONE
GRD    .GAPI 45 310 01 00 : GAMMA RAY FROM DENSITY LOG
RHOB   .G/C3 45 350 01 00 : BULK DENSITY
DRHO   .G/C3 45 356 01 00 : BULK DENSITY CORRECTION
CALD   .IN   45 280 60 00 : CALIPER FROM DENSITY LOG
TEND   .LB   45 635 00 00 : TENSION FROM DENSITY LOG
PROX   .OHMM 21 270 04 00 : PROXIMITY RESISTIVITY (MPT)
MCAL   .IN   15 280 01 00 : MLT (MICROLOG) CALIPER
GRS    .GAPI 60 310 01 00 : GAMMA RAY FROM SONIC LOG
DT     .US/F 60 500 00 00 : DELTA-T (INTERVAL TRANSIT TIME)
CALS   .IN   60 280 50 00 : CALIPER FROM SONIC LOG
~Params ----------------------------------------------------
PD  .                     GL : PERMANENT DATUM
EPD .FT                  335 : ELEVATION PERMANENT DATUM
LMF .                     KB : LOG MEASURED FROM
DAPD.FT                   28 : FEET ABOVE PERMANENT DATUM
DMF .                     KB : DRILLING MEASURED FROM
EKB .FT                  363 : KELLY BUSHING
EDF .FT                  362 : DRILLING FLOOR
EGL .FT                  335 : GROUND LEVEL
DATE.               05/22/78 : RUN DATE
RUN .                      4 : RUN NUMBER
DD  .FT                18626 : DEPTH DRILLER
DL  .FT                18642 : DEPTH LOGGER
BLI .FT                18637 : BOTTOM LOG INTERVAL
TLI .FT                17550 : TOP LOG INTERVAL
CS  .IN                    7 : CASING SIZE
CBD .FT                17544 : CASING BOTTOM DRILLER
CBL .FT                17550 : CASING BOTTOM LOGGER
BS  .IN                    6 : BIT SIZE
BSD .FT                18626 : BIT SIZE AT DEPTH
DFT .               INVERMUL : DRILLING FLUID TYPE
DFD .                   17.6 : DRILLING FLUID DENSITY
DFV .                     70 : DRILLING FLUID VISCOSITY
DFL .                      2 : DRILLING FLUID LOSS
LUN .                   7799 : LOGGING UNIT NUMBER
LUL .                  PLEAS : LOGGING UNIT LOCATION
ENGI.             TURBEVILLE : RECORDING ENGINEER
WITN.                JARRELL : WITNESSED BY
CLNT.                A2DTECH : CLIENT CODE
ORIG.            2" 5" PRINT : ORIGIN OF DATA
UWI .         42255305980000 : UNIQUE WELL ID
DICO. A2D Technologies, Inc. : DIGITIZING COMPANY
~Other -----------------------------------------------------
~ASCII -----------------------------------------------------
# ...
 11400.00000   13.73360   24.70420  -79.76570   24.95010    -999.25    -999.25    -999.25    0.07390    0.03730   35.10910    2.68240    0.00580   12.49550 9712.16890    7.10930    9.69540   46.05290   51.15630   10.38630
 11450.00000    7.29990   11.80280  -81.08640   23.15520    -999.25    -999.25    -999.25    0.10220    0.06800   19.00600    2.57100    0.02120   12.51960 9607.61820    4.48600    9.62580   23.41080   52.43550   10.41970
 11500.00000   14.80140   34.47600  -81.80250   46.51970    -999.25    -999.25    -999.25    0.06060    0.02880   29.88040    2.67660    0.01120   12.58600 9569.26370    3.03030    9.39650   32.31880   50.23690   10.44010
 11550.00000   15.51020   29.61960  -80.20140   30.39830    -999.25    -999.25    -999.25    0.03680    0.01500   34.96230    2.70930    0.04290   12.34370 9539.38870   49.32470    9.37690   39.03760   50.85290   10.38530
 11600.00000   10.36040   19.12550 -117.07330   39.69060    -999.25    -999.25    -999.25    0.05680    0.04050   21.19800    2.66060    0.00940   12.23430 9543.86130   15.34630    9.36830   33.05890   51.75700   10.37010
 11650.00000    4.82700    7.62910 -124.20660   24.09000    -999.25    -999.25    -999.25    0.10340    0.09540   25.33310    2.60970    0.00760   12.15970 9502.66500    2.34720    9.01910   23.99410   54.84780   10.32940
 11700.00000    7.35510   12.79990 -140.88140   36.10680    -999.25    -999.25    -999.25    0.05470   -0.00490   23.10130    2.71200    0.00220   12.11590 9484.05570   68.25370    9.22890   32.03800   51.38720   10.32510
 11750.00000    4.12420    7.22260 -138.72750   18.10640    -999.25    -999.25    -999.25    0.06540    0.05510   22.76720    2.60620    0.00610   12.28170 9766.92380    6.23390    9.06630   33.42140   53.24670   10.40300
 11800.00000    5.80850   10.15620 -139.49400   23.34410    -999.25    -999.25    -999.25    0.03270    0.02930   24.67200    2.65140    0.01180   12.45230 9708.91110    3.34140    8.98830   37.15620   52.82290   10.38960
 11850.00000    8.46240   11.01250  -96.75650   16.08360    -999.25    -999.25    -999.25    0.02120    0.00980   27.03850    2.68270    0.00600   12.45780 9701.13670   16.77530    9.55860   33.65040   51.55080   10.43800
 11900.00000    3.98360    6.11830 -113.49150   25.14360    -999.25    -999.25    -999.25    0.16470    0.04160   22.99460    2.66500    0.01930   12.52580 9666.30180   10.47190    9.28020   22.42130   49.78980   10.45560
 11950.00000   23.95870   38.86860  -79.95550   79.37890    -999.25    -999.25    -999.25    0.02120    0.02210   25.64910    2.69070    0.02810   13.79050 9669.33400    1.53050    9.94120   16.81470   50.19430   10.92010
 12000.00000   16.73800   31.86870  -77.60010   32.45720    -999.25    -999.25    -999.25    0.02180    0.01810   28.14440    2.68360    0.01400   12.82030 9636.02050   10.78900    9.80810   29.17660   52.50370   10.54340
 12050.00000   16.79990   31.01350 -102.01570   36.86600    -999.25    -999.25    -999.25    0.02860    0.04830   21.73750    2.64230    0.02400   13.38710 9609.56250   38.79760    9.21000   24.95440   49.90260   10.53650
 12100.00000    3.50890    5.08410 -124.43880   12.40690    -999.25    -999.25    -999.25    0.07050    0.07800   21.15000    2.57900    0.03100   13.48740 9587.13670   15.91030    9.01410   22.59910   54.09410   10.58390
 12150.00000    8.28380   15.66680 -112.37780   14.93800    -999.25    -999.25    -999.25    0.02790    0.02520   19.20650    2.67100    0.03250   13.54840 9532.67480    1.58970    9.28260   25.43640   52.66970   10.61010
 12200.00000    9.18210   12.78910 -121.97170   20.46440    -999.25    -999.25    -999.25    0.02170    0.03540   17.48550    2.65840    0.02310   13.87370 9846.68070  110.90190   11.04670   20.64440   51.07790   10.73020
 12250.00000    9.12340   11.40960 -109.41860   14.15340    -999.25    -999.25    -999.25    0.02560    0.02060   17.85400    2.66150    0.01090   15.01790 9826.26760   22.48440   11.20220   17.24560   50.92370   10.94110
 12300.00000   16.93150   22.34240  -78.97640   45.54450    -999.25    -999.25    -999.25    0.00640    0.02440   21.64660    2.66730   -0.00760   15.24800 9793.12500  122.53150   11.21860   20.27740   48.92720   11.12670
 12350.00000   15.63810   21.05800  -71.98770   35.97060    -999.25    -999.25    -999.25    0.00740   -0.00450   18.86330    2.70070    0.01530   15.42520 9753.78910  104.46740   11.24850   25.87110   49.58820   11.16510
 12400.00000   17.58510   19.13260  -62.95840   62.88790    -999.25    -999.25    -999.25    0.00280    0.00640   19.28220    2.71460    0.02660   15.53010 9710.82230  511.61290   11.29660   26.92100   54.02010   11.29600
 12450.00000   21.67350   22.39560  -70.91660   51.05270    -999.25    -999.25    -999.25    0.00340    0.01390   18.21670    2.70760    0.00720   15.55080 9667.79200   43.26470   11.33030   21.52710   50.12320   11.20570
 12500.00000   27.29420   29.26480  -72.66540   85.95730    -999.25    -999.25    -999.25    0.00740    0.02860   23.96410    2.67810    0.02000   15.71720 9648.89360  117.43870   11.38750   25.18280   49.68740   11.27140
 12550.00000   23.72220   26.77520  -56.82270   67.12850    -999.25    -999.25    -999.25    0.00410    0.01730   17.91010    2.68630    0.01810   15.57070 9605.12990  305.65210   11.42800   23.34690   49.17130   11.28510
 12600.00000   19.16200   22.52120  -88.11940   53.71180    -999.25    -999.25    -999.25    0.00840    0.02030   24.60780    2.65430    0.00760   15.11350 9574.72460 2006.98720   11.45250   23.28340   49.70790   11.05250
 12650.00000   27.11900   23.26340  -75.12130  104.77340    -999.25    -999.25    -999.25    0.01000    0.01050   36.89080    2.67230    0.01750   14.92090 9565.83790  452.18500   11.49550   32.93760   49.60390   11.26150
 12700.00000   24.45930   33.67900  -53.93010   51.51210    -999.25    -999.25    -999.25    0.02610    0.03490   43.59720    2.66880    0.01240   13.96450 9562.42380 1187.28220   11.61700   36.41400   54.27960   10.91630
 12750.00000    2.70010    2.35210  -31.21580    4.20790    -999.25    -999.25    -999.25    0.26140    0.08500   83.47340    2.49050    0.10800   15.84310 9549.61430    5.22910   11.02990   81.29230   82.72530   11.36500
 12800.00000    3.93070    3.47290  -32.24030    6.14330    -999.25    -999.25    -999.25    0.13690    0.06880   77.62650    2.61030    0.00980   14.28860 9405.50290    0.58350   10.90560   66.27710   73.54100   11.24630
 12850.00000    3.60150    3.93800  -31.41430    6.75610    -999.25    -999.25    -999.25    0.26490    0.16160   84.85300    2.52040    0.02050   13.51800 9410.94820    0.81530   11.61410   84.38480   72.61030   10.91600
 12900.00000    8.83410   10.49270  -32.23200   14.17470    -999.25    -999.25    -999.25    0.14270    0.04820   68.15630    2.63500    0.00360   12.89650 9413.70800    6.77630   10.17830   59.83640   62.62630   10.67080
 12950.00000    4.00210    3.50370  -21.78750    6.79480    -999.25    -999.25    -999.25    0.13100    0.09160   57.62920    2.56230    -999.25   14.58150 10031.79300    1.11130   14.44250    0.61960  184.32180    8.80220
 13000.00000    7.29300    6.18620  -20.14330   11.39510    -999.25    -999.25    -999.25    0.10990    0.08040   69.80320    2.58870    -999.25   14.44010 10004.38280   10.75950   14.06040   74.17430   84.14810   13.04020
 13050.00000    7.43160   13.72400  -22.23740    7.25980    -999.25    -999.25    -999.25    0.13710    0.25450   58.53720    2.43940    -999.25   16.21670 10089.69340    9.13720   14.76810   62.27840   86.08720   14.49710
 13100.00000    4.59470    3.75910  -17.83260    7.78390    -999.25    -999.25    -999.25    0.21050    0.03100   66.58890    2.65450    0.05040   16.28550 10023.06640    2.67570   14.60580   76.92770   91.61330   14.28970
 13150.00000   21.92870   22.46990  -16.98090   33.39610    -999.25    -999.25    -999.25    0.20480    0.05870   62.00850    2.57510    0.06990   15.28770 9957.81350   36.69680   14.22410   67.64350   58.91070   12.13460
 13200.00000   55.89290   16.98450  -27.06480  157.27340    -999.25    -999.25    -999.25   -0.00170   -0.01250   20.14490    2.76580    0.01290   12.30850 9973.56540   63.64800   13.06920   23.54410   51.55770   11.64550
