~Version ---------------------------------------------------
VERS.      2.0 : CWLS log ASCII Standard -VERSION 2.0
WRAP.      YES : Multiple lines per depth step
CREA. 02/15/13 : LAS Creation Date
~Well ------------------------------------------------------
STRT.FT                 1550.0 : START DEPTH
STOP.FT                 9650.0 : STOP DEPTH
STEP.FT               50.00000 : STEP LENGTH
NULL.                  -999.25 : NULL VALUE
COMP.     MARATHON OIL COMPANY : COMPANY
WELL.              NEWELL #A-2 : WELL
FLD .               BEAR GRASS : FIELD
LOC .                          : LOCATION
CNTY.                     LEON : COUNTY
STAT.                    TEXAS : STATE
CTRY. UNITED STATES OF AMERICA : COUNTRY
SRVC.                   Reeves : SERVICE COMPANY
DATE.              02-Nov-1999 : LOGDATE
API .           42289313060000 : API NUMBER
UWI .           42289313060000 : UNIQUE WELL ID
SLAT.WGS84       31.3636770246 : SURFACE LATITUDE
SLON.WGS84      -96.2532956557 : SURFACE LONGITUDE
~Curve Information -----------------------------------------
DEPT    .FT    : DEPTH FEET
CALWS   .IN    : CALIPER [DCALED+BITS]
CONDWS  .MMHO  : CONDUCTIVITY [1000/DRESWS]
DCALED  .IN    : DIFFERENTIAL CALIPER FROM AIT LOG
DCORWS  .G/C3  : DENSITY CORRECTION [DRHOED]
DENWS   .G/C3  : FORMATION BULK DENSITY [CALC FROM DPOWS, M=2.71, F=1.0]
DPHILSED.V/V   : DENSITY POROSITY LIME[M=2.71, F=1.0] FROM DENSITY LOG
DPOWS   .V/V   : DENSITY POROSITY LIME[DPHIED]
DRESWS  .OHMM  : DEEP RESISTIVITY [ILDED]
DRHOED  .G/C3  : DENSITY CORRECTION FROM DENSITY LOG
GRRED   .GAPI  : GAMMA RAY FROM AIT LOG
GRWS    .GAPI  : GAMMA RAY [GRRED]
ILDED   .OHMM  : DEEP INDUCTION RESISTIVITY FROM AIT LOG
ILMED   .OHMM  : MEDIUM  INDUCTION RESISTIVITY FROM AIT LOG
MRESWS  .OHMM  : MEDIUM RESISTIVITY [ILMED]
NPHILSED.V/V   : NEUTRON POROSITY LIME FROM DENSITY LOG
NPOWS   .V/V   : NEUTRON POROSITY LIME  [NPHIED]
PEFED   .B/E   : PHOTOELECTRIC FACTOR FROM DENSITY LOG
PEFWS   .B/E   : PHOTOELECTRIC FACTOR [PEFED]
SFLED   .OHMM  : SHALLOW FOCUSED RESISTIVITY FROM AIT LOG
SPRED   .MV    : SPONTANEOUS POTENTIAL FROM AIT LOG
SPWS    .MV    : SPONTANEOUS POTENTIAL [SPRED]
SRESWS  .OHMM  : SHALLOW RESISTIVITY [SFLED]
~Params ----------------------------------------------------
PD  .                     GL : PERMANENT DATUM
EPD .FT                  525 : ELEVATION PERMANENT DATUM
LMF .                     KB : LOG MEASURED FROM
DAPD.FT                   17 : FEET ABOVE PERMANENT DATUM
DMF .                     KB : DRILLING MEASURED FROM
EKB .FT                  542 : KELLY BUSHING
EDF .FT                  540 : DRILLING FLOOR
EGL .FT                  525 : GROUND LEVEL
DATE.               11/02/99 : RUN DATE
RUN .                      1 : RUN NUMBER
DD  .FT                 9700 : DEPTH DRILLER
DL  .FT                 9705 : DEPTH LOGGER
BLI .FT                 9704 : BOTTOM LOG INTERVAL
TLI .FT                 1514 : TOP LOG INTERVAL
CS  .IN                8.625 : CASING SIZE
CBD .FT                 1515 : CASING BOTTOM DRILLER
CBL .FT                 1514 : CASING BOTTOM LOGGER
BS  .IN                7.875 : BIT SIZE
BSD .FT                 9700 : BIT SIZE AT DEPTH
DFT .                   DISP : DRILLING FLUID TYPE
DFD .                   10.1 : DRILLING FLUID DENSITY
DFV .                     50 : DRILLING FLUID VISCOSITY
DFPH.                    9.1 : DRILLING FLUID PH
DFL .                     10 : DRILLING FLUID LOSS
MSS .               FLOWLINE : MUD SAMPLE SOURCE
RMS .OHMM               1.22 : RESISTIVITY MUD SAMPLE
MST .DEGF                 80 : MUD SAMPLE TEMPERATURE
RMF .OHMM               0.91 : RESISTIVITY MUD FILTRATE SAMPLE
MFST.DEGF                 80 : MUD FILTRATE SAMPLE TEMPERATURE
RMC .OHMM               1.51 : RESISTIVITY MUD CAKE
MCST.DEGF                 80 : MUD CAKE SAMPLE TEMPERATURE
MFSS.                   MEAS : MUD FILTRATE SAMPLE SOURCE
MCSS.                   MEAS : MUD CAKE SAMPLE SOURCE
RMB .OHMM               0.45 : RESISTIVITY MUD AT BHT
TCS .HRS                   6 : TIME CIRCULATED STOPPED
LUN .                  V1049 : LOGGING UNIT NUMBER
LUL .                   KLCR : LOGGING UNIT LOCATION
ENGI.                 LEESON : RECORDING ENGINEER
WITN.                LAMBERT : WITNESSED BY
CLNT.                A2DTECH : CLIENT CODE
ORIG.         1" 2" 5" PRINT : ORIGIN OF DATA
UWI .         42289313060000 : UNIQUE WELL ID
DICO. A2D Technologies, Inc. : DIGITIZING COMPANY
~Other -----------------------------------------------------
TOOL RUN IN COMBINATION:ARRAY INDUCTION/RSFE/PHOTO-DENSITY/NEUTRON/GR LOG
~ASCII -----------------------------------------------------
# ...
 3150.00000    -999.25  919.96320    -999.25    -999.25    -999.25    -999.25    -999.25    1.08700    -999.25   79.74100   79.74100    1.08700    0.99700    0.99700    -999.25    -999.25    -999.25    -999.25    1.36800  -39.34300   -2.10470    1.36800
 3200.00000    -999.25  782.47260    -999.25    -999.25    -999.25    -999.25    -999.25    1.27800    -999.25   70.38000   70.38000    1.27800    1.20600    1.20600    -999.25    -999.25    -999.25    -999.25    1.48000  -41.63100   -4.50190    1.48000
 3250.00000    -999.25  807.10250    -999.25    -999.25    -999.25    -999.25    -999.25    1.23900    -999.25   80.11000   80.11000    1.23900    1.15400    1.15400    -999.25    -999.25    -999.25    -999.25    1.49500  -41.25700   -4.23710    1.49500
 3300.00000    -999.25  865.80090    -999.25    -999.25    -999.25    -999.25    -999.25    1.15500    -999.25   79.95900   79.95900    1.15500    1.08200    1.08200    -999.25    -999.25    -999.25    -999.25    1.42300  -43.03400   -6.12330    1.42300
 3350.00000    -999.25  777.60500    -999.25    -999.25    -999.25    -999.25    -999.25    1.28600    -999.25   79.91700   79.91700    1.28600    1.20200    1.20200    -999.25    -999.25    -999.25    -999.25    1.57100  -41.70800   -4.90650    1.57100
 3400.00000    -999.25  807.75440    -999.25    -999.25    -999.25    -999.25    -999.25    1.23800    -999.25   88.17600   88.17600    1.23800    1.16600    1.16600    -999.25    -999.25    -999.25    -999.25    1.50500  -40.11000   -3.41760    1.50500
 3450.00000    -999.25  842.46000    -999.25    -999.25    -999.25    -999.25    -999.25    1.18700    -999.25   85.83500   85.83500    1.18700    1.13100    1.13100    -999.25    -999.25    -999.25    -999.25    1.49400  -42.17200   -5.58880    1.49400
 3500.00000    -999.25 1049.31790    -999.25    -999.25    -999.25    -999.25    -999.25    0.95300    -999.25   72.91400   72.91400    0.95300    0.91400    0.91400    -999.25    -999.25    -999.25    -999.25    1.29500  -42.36600   -5.89200    1.29500
 3550.00000    -999.25  881.05730    -999.25    -999.25    -999.25    -999.25    -999.25    1.13500    -999.25   67.67400   67.67400    1.13500    1.06100    1.06100    -999.25    -999.25    -999.25    -999.25    1.53400  -38.82300   -2.45820    1.53400
 3600.00000    -999.25  341.64670    -999.25    -999.25    -999.25    -999.25    -999.25    2.92700    -999.25   71.55200   71.55200    2.92700    2.74500    2.74500    -999.25    -999.25    -999.25    -999.25    2.89100  -58.16700  -20.68140    2.89100
 3650.00000    -999.25  362.05650    -999.25    -999.25    -999.25    -999.25    -999.25    2.76200    -999.25   80.24400   80.24400    2.76200    2.88200    2.88200    -999.25    -999.25    -999.25    -999.25    2.89400  -61.56800  -22.14170    2.89400
 3700.00000    -999.25  567.53690    -999.25    -999.25    -999.25    -999.25    -999.25    1.76200    -999.25   85.64700   85.64700    1.76200    1.68400    1.68400    -999.25    -999.25    -999.25    -999.25    1.99600  -45.59300   -4.51560    1.99600
 3750.00000    -999.25  601.32290    -999.25    -999.25    -999.25    -999.25    -999.25    1.66300    -999.25  106.48200  106.48200    1.66300    1.59400    1.59400    -999.25    -999.25    -999.25    -999.25    1.89500  -42.45500   -1.66510    1.89500
 3800.00000    -999.25  805.15300    -999.25    -999.25    -999.25    -999.25    -999.25    1.24200    -999.25   87.94600   87.94600    1.24200    1.18400    1.18400    -999.25    -999.25    -999.25    -999.25    1.66300  -43.23400   -2.73150    1.66300
 3850.00000    -999.25  670.69080    -999.25    -999.25    -999.25    -999.25    -999.25    1.49100    -999.25   73.08300   73.08300    1.49100    1.44900    1.44900    -999.25    -999.25    -999.25    -999.25    1.78300  -44.77600   -4.56100    1.78300
 3900.00000    -999.25  580.04640    -999.25    -999.25    -999.25    -999.25    -999.25    1.72400    -999.25   72.57100   72.57100    1.72400    1.66500    1.66500    -999.25    -999.25    -999.25    -999.25    1.92800  -44.82500   -4.89750    1.92800
 3950.00000    -999.25  841.75080    -999.25    -999.25    -999.25    -999.25    -999.25    1.18800    -999.25   84.88100   84.88100    1.18800    1.10300    1.10300    -999.25    -999.25    -999.25    -999.25    1.55600  -41.64500   -2.00500    1.55600
 4000.00000    -999.25  797.44820    -999.25    -999.25    -999.25    -999.25    -999.25    1.25400    -999.25   95.15400   95.15400    1.25400    1.21500    1.21500    -999.25    -999.25    -999.25    -999.25    1.58200  -44.04200   -4.68950    1.58200
 4050.00000    -999.25  872.60030    -999.25    -999.25    -999.25    -999.25    -999.25    1.14600    -999.25   92.46300   92.46300    1.14600    1.10300    1.10300    -999.25    -999.25    -999.25    -999.25    1.52600  -44.17300   -5.10790    1.52600
 4100.00000    -999.25  914.91310    -999.25    -999.25    -999.25    -999.25    -999.25    1.09300    -999.25   70.71500   70.71500    1.09300    1.03500    1.03500    -999.25    -999.25    -999.25    -999.25    1.48600  -42.41000   -3.63240    1.48600
 4150.00000    -999.25  881.83420    -999.25    -999.25    -999.25    -999.25    -999.25    1.13400    -999.25   75.32100   75.32100    1.13400    1.09300    1.09300    -999.25    -999.25    -999.25    -999.25    1.52000  -37.26800    1.22210    1.52000
 4200.00000    -999.25  972.76260    -999.25    -999.25    -999.25    -999.25    -999.25    1.02800    -999.25   73.32300   73.32300    1.02800    1.00500    1.00500    -999.25    -999.25    -999.25    -999.25    1.40200  -38.77500   -0.57240    1.40200
 4250.00000    -999.25  914.91310    -999.25    -999.25    -999.25    -999.25    -999.25    1.09300    -999.25   82.51700   82.51700    1.09300    1.07800    1.07800    -999.25    -999.25    -999.25    -999.25    1.48600  -38.74100   -0.82590    1.48600
 4300.00000    -999.25  834.72450    -999.25    -999.25    -999.25    -999.25    -999.25    1.19800    -999.25   87.59500   87.59500    1.19800    1.16500    1.16500    -999.25    -999.25    -999.25    -999.25    1.58100  -39.27200   -1.64430    1.58100
 4350.00000    -999.25  537.34550    -999.25    -999.25    -999.25    -999.25    -999.25    1.86100    -999.25   79.31200   79.31200    1.86100    1.86500    1.86500    -999.25    -999.25    -999.25    -999.25    2.06700  -41.67700   -4.33680    2.06700
 4400.00000    -999.25  473.26080    -999.25    -999.25    -999.25    -999.25    -999.25    2.11300    -999.25   69.62400   69.62400    2.11300    2.04600    2.04600    -999.25    -999.25    -999.25    -999.25    2.57000  -41.13600   -4.08330    2.57000
 4450.00000    -999.25  630.91480    -999.25    -999.25    -999.25    -999.25    -999.25    1.58500    -999.25   87.63700   87.63700    1.58500    1.54800    1.54800    -999.25    -999.25    -999.25    -999.25    1.92100  -38.89700   -2.13180    1.92100
 4500.00000    -999.25  484.49610    -999.25    -999.25    -999.25    -999.25    -999.25    2.06400    -999.25   59.73400   59.73400    2.06400    1.98200    1.98200    -999.25    -999.25    -999.25    -999.25    2.39300  -40.06100   -3.58330    2.39300
 4550.00000    -999.25  394.01100    -999.25    -999.25    -999.25    -999.25    -999.25    2.53800    -999.25   48.27200   48.27200    2.53800    2.48600    2.48600    -999.25    -999.25    -999.25    -999.25    3.04700  -40.76100   -4.57080    3.04700
 4600.00000    -999.25  294.11760    -999.25    -999.25    -999.25    -999.25    -999.25    3.40000    -999.25   31.48500   31.48500    3.40000    3.30600    3.30600    -999.25    -999.25    -999.25    -999.25    3.83100  -50.04200  -14.13920    3.83100
 4650.00000    -999.25  296.73590    -999.25    -999.25    -999.25    -999.25    -999.25    3.37000    -999.25   37.30100   37.30100    3.37000    3.15100    3.15100    -999.25    -999.25    -999.25    -999.25    3.54800  -49.24300  -13.62770    3.54800
 4700.00000    -999.25  316.35560    -999.25    -999.25    -999.25    -999.25    -999.25    3.16100    -999.25   36.12200   36.12200    3.16100    3.10700    3.10700    -999.25    -999.25    -999.25    -999.25    3.40100  -39.52900   -4.22720    3.40100
