~Version ---------------------------------------------------
VERS. 2.0 : CWLS log ASCII Standard -VERSION 2.0
WRAP.  NO : ONE LINE PER DEPTH STEP
~Well ------------------------------------------------------
STRT.F                   3700.0 : START DEPTH
STOP.F                   8650.0 : STOP DEPTH
STEP.F                 50.00000 : STEP LENGTH
NULL.                   -999.25 : NULL VALUE
COMP. WINDSOR PRODUCING COMPANY : COMPANY
WELL.    EDGAR A. KURIO UNIT #1 : WELL
FLD .                  GIDDINGS : FIELD
LOC .                           : LOCATION
CNTY.                       LEE : COUNTY
STAT.                     TEXAS : STATE
CTRY.  UNITED STATES OF AMERICA : COUNTRY
SRVC.              Schlumberger : SERVICE COMPANY
DATE.               30-Apr-1981 : LOGDATE
API .            42287309370000 : API NUMBER
UWI .            42287309370000 : UNIQUE WELL ID
SLAT.WGS84        30.1866257807 : SURFACE LATITUDE
SLON.WGS84       -96.9092291216 : SURFACE LONGITUDE
~Curve Information -----------------------------------------
DEPT   .F    0   1   0  0 : 1 MEASURED DEPTH
GRN    .GAPI 35 310 01 00 : GAMMA RAY FROM GRN LOG
NEUT   .NAPI 35 330 01 00 : NEUTRON
SPR    .MV   07 010 01 00 : SPONTANEOUS POTENTIAL FROM RESISTIVITY LOG
ILD    .OHMM 07 120 46 00 : INDUCTION DEEP RESISTIVITY
ILM    .OHMM 07 120 44 00 : INDUCTION MEDIUM RESISTIVITY
SFLU   .OHMM 07 220 01 00 : SHALLOW FOCUSED RESISTIVITY (UNAVERAGED)
CALR   .IN   07 280 01 00 : CALIPER FROM RESISTIVITY LOG
DPHI_LS.DEC  45 890 10 00 : DENSITY POROSITY LIMESTONE
GRR    .GAPI 07 310 01 00 : GAMMA RAY FROM RESISTIVITY LOG
DRHO   .G/C3 45 356 01 00 : BULK DENSITY CORRECTION
~Params ----------------------------------------------------
PD  .                     GL : PERMANENT DATUM
EPD .FT                  486 : ELEVATION PERMANENT DATUM
LMF .                     KB : LOG MEASURED FROM
DAPD.FT                 20.5 : FEET ABOVE PERMANENT DATUM
DMF .                     KB : DRILLING MEASURED FROM
EKB .FT                506.5 : KELLY BUSHING
EGL .FT                  486 : GROUND LEVEL
DATE.               04/30/81 : RUN DATE
RUN .                      1 : RUN NUMBER
DD  .FT                 8730 : DEPTH DRILLER
BLI .FT                 8414 : BOTTOM LOG INTERVAL
TLI .FT                 3653 : TOP LOG INTERVAL
CS  .IN                7.625 : CASING SIZE
CBL .FT                 3653 : CASING BOTTOM LOGGER
DFD .                    9.7 : DRILLING FLUID DENSITY
DFV .                     45 : DRILLING FLUID VISCOSITY
DFL .                      7 : DRILLING FLUID LOSS
MSS .               FLOWLINE : MUD SAMPLE SOURCE
RMS .OHMM               2.87 : RESISTIVITY MUD SAMPLE
MST .DEGF                 75 : MUD SAMPLE TEMPERATURE
RMF .OHMM               2.15 : RESISTIVITY MUD FILTRATE SAMPLE
MFST.DEGF                 75 : MUD FILTRATE SAMPLE TEMPERATURE
RMC .OHMM                4.3 : RESISTIVITY MUD CAKE
MCST.DEGF                 75 : MUD CAKE SAMPLE TEMPERATURE
MFSS.                      M : MUD FILTRATE SAMPLE SOURCE
MCSS.                      C : MUD CAKE SAMPLE SOURCE
RMB .OHMM               1.15 : RESISTIVITY MUD AT BHT
TCS .HRS                1100 : TIME CIRCULATED STOPPED
TLAB.HRS                1700 : TIME LOGGER AT BOTTOM
LUN .                   8138 : LOGGING UNIT NUMBER
LUL .                BRENHAM : LOGGING UNIT LOCATION
ENGI.                   STAU : RECORDING ENGINEER
WITN.                  ERANK : WITNESSED BY
CLNT.                A2DTECH : CLIENT CODE
ORIG.            2" 5" PRINT : ORIGIN OF DATA
UWI .         42287309370000 : UNIQUE WELL ID
DICO. A2D Technologies, Inc. : DIGITIZING COMPANY
~Other -----------------------------------------------------
~ASCII -----------------------------------------------------
# ...
 7000.00000    -999.25    -999.25  -16.85290    1.72360    1.79060    1.82420    -999.25    -999.25    -999.25    -999.25
 7050.00000    -999.25    -999.25  -15.71230    1.75130    1.84260    1.88670    -999.25    -999.25    -999.25    -999.25
 7100.00000    -999.25    -999.25  -20.16710    1.31550    1.36680    1.43160    -999.25    -999.25    -999.25    -999.25
 7150.00000   61.87400  242.09540  -17.95640    1.34690    1.39930    1.53370    -999.25    -999.25    -999.25    -999.25
 7200.00000   57.04300  251.61380  -10.43250    1.76420    1.83620    2.06650    9.99390    0.12170   91.24380    0.04460
 7250.00000   41.09190  546.13200  -10.80130    3.68180    3.60480    4.09380    9.98400    0.06560   61.93350    0.00920
 7300.00000   67.11360  452.38170   -6.37710    2.45450    2.66210    2.84920   10.24480    0.08330   77.00310    0.02000
 7350.00000   51.62310  497.92510   -7.25650    2.42340    2.52190    2.34310   10.87530    0.13240   84.58470    0.01530
 7400.00000   55.45600  494.03640   -5.73620    2.19840    2.28360    2.32360   11.19010    0.10480   90.02590    0.00470
 7450.00000   63.11270  439.95290   -2.92470    2.29540    2.38430    2.60330   10.95770    0.10060   91.66100   -0.00110
 7500.00000   64.57220  357.05080   -2.03680    3.16000    3.32130    3.68830   10.58160    0.07410   81.39310    0.00290
 7550.00000   66.22830  228.95860   -5.24520    2.03020    2.17870    2.63250   11.43870    0.07830   94.27650    0.10200
 7600.00000   59.75820  248.23800  -25.81020    2.21720    2.32700    2.52840   11.19540    0.12350   84.85930    0.02510
 7650.00000   32.48130  459.24690  -26.20410    6.41310    5.51350    5.39580   10.21320    0.06540   38.48950   -0.00970
 7700.00000   31.96240  407.05810  -31.14680    5.60650    4.54000    4.55230   10.22770    0.08450   56.68630    0.08300
 7750.00000   18.93570  507.30790  -28.87830    7.69460    6.76670   10.36280    9.55700    0.09700   25.82170    0.02100
 7800.00000   21.09860  463.33110  -28.39460   11.20810    8.23260    9.74130    9.75030    0.11850   38.44360    0.05980
 7850.00000   20.24520  463.72300  -24.68330    9.50940    8.38650   10.27240   10.13920    0.12850   32.76500    0.03350
 7900.00000   14.70640  540.29400  -33.98380   14.98950   12.33440   15.54940   10.17810    0.19250   24.89640    0.09680
 7950.00000   16.07370  466.94520  -23.52720   10.96390   10.51460   14.41000    9.86050    0.08810   22.56310   -0.00290
 8000.00000   21.58360  512.60970  -21.93590    8.48710    8.05610   18.13520    9.60910    0.07770   35.42470   -0.00790
 8050.00000   29.20260  431.29480  -13.92990    6.44850    5.78690    6.84950    9.95650    0.06590   42.32180    0.00560
 8100.00000   23.89450  468.16320  -13.19990    7.55470    6.83070    8.22660   10.11390    0.03990   32.88020    0.00580
 8150.00000   27.91470  460.30740  -12.91380    6.05490    4.91450    5.69210    9.78860    0.04690   55.30040    0.03550
 8200.00000   36.16390  513.80740  -13.23350    8.07190    6.94120    6.85830    9.48160    0.06960   44.29710   -0.01060
 8250.00000   22.21220  608.92130  -28.63290   20.59230   13.44970   14.28320    9.17500    0.05180   36.07380   -0.00200
 8300.00000   34.84970  689.23900  -28.86580   26.86400   16.57750   32.40990    9.11190    0.06070   31.45080    0.00940
 8350.00000   31.52760  481.91130  -18.67730   53.94150   20.91770   22.09160    9.60860    0.13760   52.14270    0.10010
 8400.00000   36.17960  468.61000   -9.05580   54.60190   21.90270   23.56570   10.85950    0.20920   31.12590   -0.00820
 8450.00000   70.43450  273.61940    -999.25    -999.25    -999.25    -999.25    -999.25    -999.25    -999.25    -999.25
 8500.00000   59.31330  279.24270    -999.25    -999.25    -999.25    -999.25    -999.25    -999.25    -999.25    -999.25
 8550.00000   87.06620  217.72360    -999.25    -999.25    -999.25    -999.25    -999.25    -999.25    -999.25    -999.25
 8600.00000    8.42560  853.75120    -999.25    -999.25    -999.25    -999.25    -999.25    -999.25    -999.25    -999.25
 8650.00000   35.16330  440.74790    -999.25    -999.25    -999.25    -999.25    -999.25    -999.25    -999.25    -999.25
