~Version ---------------------------------------------------
VERS. 2.0 : CWLS log ASCII Standard -VERSION 2.0
WRAP.  NO : ONE LINE PER DEPTH STEP
~Well ------------------------------------------------------
STRT.F                        3800.0 : START DEPTH
STOP.F                        8250.0 : STOP DEPTH
STEP.F                      50.00000 : STEP LENGTH
NULL.                        -999.25 : NULL VALUE
COMP. COLUMBIA GAS DEVELOPMENT CORP. : COMPANY
WELL.           KUCERA ET AL UNIT #1 : WELL
FLD .                       GIDDINGS : FIELD
LOC .                                : LOCATION
CNTY.                       BURLESON : COUNTY
STAT.                          TEXAS : STATE
CTRY.       UNITED STATES OF AMERICA : COUNTRY
SRVC.                       Gearhart : SERVICE COMPANY
DATE.                    14-Jan-1980 : LOGDATE
API .                 42051305140000 : API NUMBER
UWI .                 42051305140000 : UNIQUE WELL ID
SLAT.WGS84             30.3602402537 : SURFACE LATITUDE
SLON.WGS84            -96.7630552245 : SURFACE LONGITUDE
~Curve Information -----------------------------------------
DEPT  .F    0   1   0  0 : 1 MEASURED DEPTH
CDL_LS.DEC  45 890 10 00 : COMPENSATED DENSITY POROSITY LIMESTONE
CNS_LS.DEC  42 890 01 00 : COMPENSATED NEUTRON POROSITY
GRD   .GAPI 45 310 01 00 : GAMMA RAY FROM DENSITY LOG
CALX  .IN   45 280 13 00 : CALIPER FROM X AXIS OF X-Y CALIPER(S)
DRHO  .G/C3 45 356 01 00 : BULK DENSITY CORRECTION
RHOB  .G/C3 45 350 01 00 : BULK DENSITY
ARLL  .OHMM 07 221 04 00 : AMPLIFIED RAW LATEROLOG
CILD  .MMHO 07 110 46 00 : INDUCTION DEEP CONDUCTIVITY
RILD  .OHMM 07 120 46 00 : RAW DEEP INDUCTION RESISTIVITY
SPR   .MV   07 010 01 00 : SPONTANEOUS POTENTIAL FROM RESISTIVITY LOG
DT    .US/F 60 500 00 00 : DELTA-T (INTERVAL TRANSIT TIME)
RILM  .OHMM 07 120 44 00 : RAW MEDIUM INDUCTION RESISTIVITY
RLL   .OHMM 07 220 04 00 : RAW LATEROLOG COUNT RATE
~Params ----------------------------------------------------
PD  .                     GL : PERMANENT DATUM
EPD .FT                  280 : ELEVATION PERMANENT DATUM
LMF .                     KB : LOG MEASURED FROM
DAPD.FT                    3 : FEET ABOVE PERMANENT DATUM
DMF .                     KB : DRILLING MEASURED FROM
EKB .FT                  280 : KELLY BUSHING
EDF .FT                  284 : DRILLING FLOOR
EGL .FT                  280 : GROUND LEVEL
DATE.               01/14/80 : RUN DATE
RUN .                      1 : RUN NUMBER
DD  .FT                 8265 : DEPTH DRILLER
DL  .FT                 8265 : DEPTH LOGGER
BLI .FT                 8264 : BOTTOM LOG INTERVAL
TLI .FT                 7231 : TOP LOG INTERVAL
CS  .IN                    1 : CASING SIZE
CBD .FT                 7240 : CASING BOTTOM DRILLER
CBL .FT                 7231 : CASING BOTTOM LOGGER
BSD .FT                 8265 : BIT SIZE AT DEPTH
DFT .                 STARCH : DRILLING FLUID TYPE
DFD .                    9.4 : DRILLING FLUID DENSITY
DFV .                     64 : DRILLING FLUID VISCOSITY
MSS .                MUD PIT : MUD SAMPLE SOURCE
RMS .OHMM               0.04 : RESISTIVITY MUD SAMPLE
MST .DEGF                 72 : MUD SAMPLE TEMPERATURE
RMF .OHMM               0.06 : RESISTIVITY MUD FILTRATE SAMPLE
MFST.DEGF                 72 : MUD FILTRATE SAMPLE TEMPERATURE
RMC .OHMM              0.065 : RESISTIVITY MUD CAKE
MCST.DEGF                 72 : MUD CAKE SAMPLE TEMPERATURE
MFSS.                      M : MUD FILTRATE SAMPLE SOURCE
MCSS.                      M : MUD CAKE SAMPLE SOURCE
RMB .OHMM               0.11 : RESISTIVITY MUD AT BHT
TCS .HRS                1800 : TIME CIRCULATED STOPPED
TLAB.HRS                 230 : TIME LOGGER AT BOTTOM
LUN .                   1524 : LOGGING UNIT NUMBER
LUL .                 CONRAE : LOGGING UNIT LOCATION
ENGI.          MAHONEY HOGAN : RECORDING ENGINEER
WITN.                   HOWE : WITNESSED BY
CLNT.                A2DTECH : CLIENT CODE
ORIG.            2" 5" PRINT : ORIGIN OF DATA
UWI .         42051305140000 : UNIQUE WELL ID
DICO. A2D Technologies, Inc. : DIGITIZING COMPANY
~Other -----------------------------------------------------
~ASCII -----------------------------------------------------
# ...
 6400.00000    0.09090    0.24490  168.82100    9.18210    0.10000    2.56210    2.43790  553.81290    1.80570  -34.80290    -999.25    -999.25    -999.25
 6450.00000    0.10900    0.25070  179.11220   10.39380    0.20940    2.52220    1.96900  712.84390    1.40280  -32.49830    -999.25    -999.25    -999.25
 6500.00000    0.15500    0.29660  183.93310   10.70790    0.13810    2.44390    1.84780  801.66890    1.24740  -28.86210    -999.25    -999.25    -999.25
 6550.00000    0.14300    0.30940  164.17920    9.97720    0.15660    2.45780    2.10510  593.18120    1.68580    -999.25    -999.25    -999.25    -999.25
 6600.00000    0.06430    0.13300   89.70560    8.78010    0.02730    2.59930    4.73900  277.52480    3.60330   -2.69450    -999.25    -999.25    -999.25
 6650.00000    0.08290    0.12390   70.54240    8.78680    0.00900    2.57440    6.84910  181.20320    5.51870   -9.53960    -999.25    -999.25    -999.25
 6700.00000    0.09190    0.22780  169.59320    8.90980    0.06200    2.55270    2.84460  494.55170    2.02210   -6.40260    -999.25    -999.25    -999.25
 6750.00000    0.06340    0.17760  136.89520    8.76620    0.04580    2.60130    3.37160  373.97210    2.67400   -5.97900    -999.25    -999.25    -999.25
 6800.00000    0.08860    0.20980  174.77460    8.77040    0.14140    2.55960    2.41500  586.05830    1.70630  -11.12750    -999.25    -999.25    -999.25
 6850.00000    0.06710    0.16580  158.82000    8.72040    0.04480    2.59510    3.24030  403.07980    2.48090   -7.70530    -999.25    -999.25    -999.25
 6900.00000    0.07720    0.18530  190.13870    8.72040    0.04540    2.57710    2.82070  488.57270    2.04720   -8.17070    -999.25    -999.25    -999.25
 6950.00000    0.07880    0.25680  181.32650    8.69420    0.08220    2.57130    2.48360  560.01150    1.78570  -12.48690    -999.25    -999.25    -999.25
 7000.00000    0.06680    0.21360  152.34470    8.62690    0.06820    2.59740    3.19000  398.48930    2.50950  -11.21450    -999.25    -999.25    -999.25
 7050.00000    0.08820    0.27410  177.08720    8.54080    0.09520    2.55480    2.33770  613.93020    1.62900  -16.46830    -999.25    -999.25    -999.25
 7100.00000    0.08510    0.23610  169.26280    8.61410    0.13320    2.56480    2.49200  593.74630    1.70840  -16.92770    -999.25    -999.25    -999.25
 7150.00000    0.08410    0.25620  180.70860    8.54830    0.08160    2.56470    2.54950  551.91830    1.81190  -17.29120    -999.25    -999.25    -999.25
 7200.00000    0.07100    0.26020  175.60850    8.62100    0.06910    2.58400    2.71950  549.13630    1.81980  -17.13020    -999.25    -999.25    -999.25
 7250.00000    0.03740    0.06220   35.54070    7.73810    0.10010    2.65110    -999.25    -999.25    4.45100  -60.78220   73.49950    0.44940    4.26610
 7300.00000    0.05510    0.05590   26.86200    7.30720    0.05770    2.61880    -999.25    -999.25    6.94120  -56.51770   68.26070    0.50870    4.98830
 7350.00000    0.11330    0.04360   22.94610    8.30690    0.25080    2.52020    -999.25    -999.25   18.61250  -54.66280   68.34580    0.51610    6.41410
 7400.00000    0.04030    0.07030   39.72590    7.01170    0.07140    2.64570    -999.25    -999.25    4.65270  -57.20670   69.46130    0.58040    4.84500
 7450.00000    0.04330    0.04460   31.06210    6.79600    0.06380    2.63960    -999.25    -999.25   10.73710  -59.71660   67.04680    0.58930    6.48260
 7500.00000    0.02700    0.04840   40.78230    6.79930    0.07030    2.66860    -999.25    -999.25    5.54690  -55.04270   73.38350    0.57900    5.25110
 7550.00000    0.04980    0.07250   35.71760    6.87970    0.04980    2.62680    -999.25    -999.25    5.44240  -47.58070   75.52420    0.48220    4.59590
 7600.00000    0.04260    0.09090   34.62410    6.85990    0.08940    2.64010    -999.25    -999.25    4.92960  -39.56820   71.54240    0.55760    4.41670
 7650.00000    0.03280    0.07700   38.32930    6.76400    0.10400    2.65950    -999.25    -999.25    7.57660  -36.11700   70.73290    0.64490    6.98230
 7700.00000    0.05170    0.09290   55.04250    6.68550    0.11880    2.62560    -999.25    -999.25   12.34360  -36.78350   69.72180    0.49000    7.59230
 7750.00000    0.08300    0.07320   42.61960    6.64340    0.17100    2.57150    -999.25    -999.25   20.62050  -37.04110   67.79280    0.45170    7.16420
 7800.00000    0.10020    0.08870   53.82550    6.52960    0.04020    2.54850    -999.25    -999.25   21.03930  -40.57570   68.84120    0.69930   10.49710
 7850.00000    0.05290    0.06330   30.69250    6.27000    0.11440    2.62010    -999.25    -999.25   22.09970  -37.22730   66.89810    1.12850    8.42270
 7900.00000    0.07300    0.19730  123.93030    6.87920    0.12450    2.59270    -999.25    -999.25    4.76660  -36.50340  109.35800    0.55840    4.37600
 7950.00000    0.08980    0.14510  121.05610    6.63170    0.11230    2.57460    -999.25    -999.25    6.41860  -31.92060  100.11940    0.56330    7.20580
 8000.00000    0.13080    0.16390  101.86170    6.36290    0.08790    2.50070    -999.25    -999.25    7.85560  -27.64180   98.72260    0.57160    7.09160
 8050.00000    0.05120    0.18440  140.40860    6.44920    0.11250    2.61710    -999.25    -999.25    4.47980  -18.85950  100.02140    -999.25    3.26770
 8100.00000    0.03310    0.14670   77.53600    6.46590    0.10990    2.65780    -999.25    -999.25    5.00160   -0.25340   75.09450    0.87500    4.45350
 8150.00000    0.01250    0.05810   54.03930    6.40310    0.14740    2.69770    -999.25    -999.25    6.81830   -9.31590   66.78130    1.11220    8.14220
 8200.00000   -0.00890    0.02770   13.91790    6.17130    0.11750    2.73040    -999.25    -999.25   16.01690  -20.55670   57.85660    3.74810   15.57620
 8250.00000    0.00100    0.01200    -999.25    6.10280    0.10200    2.70360    -999.25    -999.25   29.81510  -19.57670    -999.25    7.41930   17.36510
