~Version ---------------------------------------------------
VERS. 2.0 : CWLS log ASCII Standard -VERSION 2.0
WRAP.  NO : One line per depth step
~Well ------------------------------------------------------
STRT.FT                     1050.0 : START DEPTH
STOP.FT                    19600.0 : STOP DEPTH
STEP.FT                   50.00000 : STEP LENGTH
NULL.                      -999.25 : NULL VALUE
COMP. PAN AMERICAN PETROLEUM CORP. : COMPANY
WELL.           MURRAY FRANKLIN #1 : WELL
FLD .                      WILDCAT : FIELD
LOC .                              : LOCATION
CNTY.                    MC MULLEN : COUNTY
STAT.                        TEXAS : STATE
CTRY.     UNITED STATES OF AMERICA : COUNTRY
SRVC.                 Schlumberger : SERVICE COMPANY
DATE.                  30-Aug-1964 : LOGDATE
API .               42311001580000 : API NUMBER
UWI .               42311001580000 : UNIQUE WELL ID
SLAT.WGS84           28.5946649186 : SURFACE LATITUDE
SLON.WGS84          -98.6650291661 : SURFACE LONGITUDE
~Curve Information -----------------------------------------
DEPT  .FT    : DEPTH
ASNED .OHMM  : AMPLIFIED SHORT NORMAL 16 IN.
CALWS .IN    : CALIPER (CALSED)
CALSED.IN    : CALIPER FROM SONIC LOG (ADJ TO RES.)
CILDED.MMHO  : CONDUCTIVITY FROM LOG
CONDWS.MMHO  : CONDUCTIVITY (1000/DREWS)
DRESWS.OHMM  : DEEP RESISTIVITY (IF ILDED<1, THEN 1000/CILDED)
DTED  .US/F  : DELTA TIME  (ADJ TO RES.)
DTWS  .US/F  : DELTA TIME  (DTED)
GRNED .GAPI  : GAMMA RAY FROM NEUTRON LOG (ADJ TO RES.)
GRWS  .GAPI  : GAMMA RAY (GRNED)
ILDED .OHMM  : DEEP INDUCTION RESISTIVITY
NEUTED.CU    : NEUTRON FROM GAMMA RAY NEUTRON LOG (ADJ TO RES.)
NEUTWS.CU    : NEUTRON FROM GAMMA RAY NEUTRON LOG (NEUTED)
SPWS  .MV    : SPONTANEOUS POTENTIAL BASELINE 0 MV (SPRED)
SPRED .MV    : SPONTANEOUS POTENTIAL FROM RESISTIVITY
SRESWS.OHMM  : SHALLOW RESISTIVITY (ASNED)
~Params ----------------------------------------------------
PD  .                 2" BHO : PERMANENT DATUM
EPD .F                   395 : ELEVATION PERMANENT DATUM
LMF .                     KB : LOG MEASURED FROM
DAPD.F                  23.7 : FEET ABOVE PERMANENT DATUM
DMF .                     KB : DRILLING MEASURED FROM
EKB .F                 418.7 : KELLING BUSHING
EDF .F                 416.0 : DRILLING FLOOR
EGL .F                 395.0 : GROUND LEVEL
DATE.             08-30-1964 : RUN DATE
RUN .                      6 : RUN NUMBER
DD  .F                 19636 : DEPTH DRILLER
DL  .F                 19632 : DEPTH LOGGER
BLI .F                 19632 : BOTTOM LOG INTERVAL
TLI .F                 18788 : TOP LOG INTERVAL
CS  .IN                    5 : CASING SIZE
CBD .F                 16836 : CASING BOTTOM DRILLER
BS  .IN                 4.25 : BIT SIZE
BSD .F                 19636 : BIT SIZE AT DEPTH
DFT .        UNICAL OIL EMUL : DRILLING FLUID TYPE
TCS .HRS                   3 : TIME CURCULATED STOPPED
LUN .                   4521 : LOGGING UNIT NUMBER
LUL .                    KEN : LOGGING UNIT LOCATION
ENGI.                  ELLIS : RECORDING ENGINEER
WITN.       FREEMAN, SHAPLEY : WITNESSED BY
CLNT.                A2DTECH : CLIENT CODE
ORIG.               5" PRINT : ORIGIN OF DATA
UWI .         42311001580000 : UNIQUE WELL ID
DICO. A2D Technologies, Inc. : DIGITIZING COMPANY
~Other -----------------------------------------------------
~ASCII -----------------------------------------------------
# ...
 3200.00000   12.25300   12.47300   12.47300   58.42860   72.05130   13.87900  100.28360  100.28360    -999.25    -999.25   13.87900    -999.25    -999.25   -9.27510  -15.84600   12.25300
 3250.00000    9.18800   12.36800   12.36800   55.60310   70.86670   14.11100  102.75420  102.75420    -999.25    -999.25   14.11100    -999.25    -999.25  -14.63370  -19.03100    9.18800
 3300.00000   14.36600   12.63500   12.63500   36.92620   52.55690   19.02700  100.18690  100.18690    -999.25    -999.25   19.02700    -999.25    -999.25   -3.20130   -5.76900   14.36600
 3350.00000   14.46700   12.49300   12.49300   38.42090   51.89950   19.26800   96.39090   96.39090    -999.25    -999.25   19.26800    -999.25    -999.25  -10.23690  -10.97500   14.46700
 3400.00000   12.71700   12.56600   12.56600   50.64130   66.01530   15.14800   94.23980   94.23980    -999.25    -999.25   15.14800    -999.25    -999.25  -17.65740  -16.56600   12.71700
 3450.00000    7.57600   12.68100   12.68100   93.52460  106.49630    9.39000   98.40160   98.40160    -999.25    -999.25    9.39000    -999.25    -999.25  -34.80900  -31.88800    7.57600
 3500.00000    9.06100   12.35000   12.35000  111.29890  129.18230    7.74100   99.98080   99.98080    -999.25    -999.25    7.74100    -999.25    -999.25  -16.17960  -11.57000    9.06100
 3550.00000    8.63700   12.62300   12.62300   80.83230   93.04920   10.74700   97.06110   97.06110    -999.25    -999.25   10.74700    -999.25    -999.25  -18.19590  -14.57600    8.63700
 3600.00000    4.97300   12.93500   12.93500  231.13480  240.32690    4.16100   99.87130   99.87130    -999.25    -999.25    4.16100    -999.25    -999.25  -32.58910  -29.95900    4.97300
 3650.00000    5.61600   12.92300   12.92300  193.00310  211.37180    4.73100   98.06020   98.06020    -999.25    -999.25    4.73100    -999.25    -999.25  -31.07240  -29.43200    5.61600
 3700.00000    4.27900   12.64400   12.64400  237.39190  213.53830    4.68300   97.21580   97.21580    -999.25    -999.25    4.68300    -999.25    -999.25  -29.55470  -28.90400    4.27900
 3750.00000    6.31900   12.50400   12.50400  138.21020  147.84150    6.76400   94.18700   94.18700    -999.25    -999.25    6.76400    -999.25    -999.25  -31.09690  -31.43600    6.31900
 3800.00000    7.11700   12.52200   12.52200  123.16160  133.52920    7.48900   92.57460   92.57460    -999.25    -999.25    7.48900    -999.25    -999.25  -27.76120  -29.09000    7.11700
 3850.00000    8.87100   12.48400   12.48400   76.07010   91.82740   10.89000   96.86780   96.86780    -999.25    -999.25   10.89000    -999.25    -999.25  -15.73550  -18.05400    8.87100
 3900.00000    8.11500   12.45500   12.45500   90.77040  101.98880    9.80500   92.75590   92.75590    -999.25    -999.25    9.80500    -999.25    -999.25  -16.68530  -19.38200    8.11500
 3950.00000    7.63000   12.29000   12.29000  106.25930  123.04660    8.12700   89.24890   89.24890    -999.25    -999.25    8.12700    -999.25    -999.25  -22.83830  -24.48600    7.63000
 4000.00000    7.78800   12.48600   12.48600  103.02880  116.60450    8.57600   95.15980   95.15980    -999.25    -999.25    8.57600    -999.25    -999.25  -18.26620  -18.86500    7.78800
 4050.00000    4.43900   13.26200   13.26200  238.96320  256.08190    3.90500   99.61380   99.61380    -999.25    -999.25    3.90500    -999.25    -999.25  -18.42750  -18.24500    4.43900
 4100.00000    4.17400   12.36100   12.36100  224.83600  238.83450    4.18700   96.28910   96.28910    -999.25    -999.25    4.18700    -999.25    -999.25  -20.77910  -24.90100    4.17400
 4150.00000    3.93900   12.68700   12.68700  243.76320  250.94100    3.98500   94.55710   94.55710    -999.25    -999.25    3.98500    -999.25    -999.25  -16.75470  -25.18100    3.93900
 4200.00000    2.27100   12.88500   12.88500  479.04190  459.98160    2.17400  101.47060  101.47060    -999.25    -999.25    2.17400    -999.25    -999.25   -8.89030  -21.62100    2.27100
 4250.00000    1.31900   12.34300   12.34300  999.00200  885.73960    1.12900  131.24440  131.24440    -999.25    -999.25    1.12900    -999.25    -999.25   -4.43030  -21.05800    1.31900
 4300.00000    3.17300   12.58400   12.58400  425.39890  433.83950    2.30500  100.97100  100.97100    -999.25    -999.25    2.30500    -999.25    -999.25  -14.29480  -30.70000    3.17300
 4350.00000    4.16300   12.58400   12.58400  274.37480  283.36640    3.52900   91.64670   91.64670    -999.25    -999.25    3.52900    -999.25    -999.25  -15.37340  -31.55600    4.16300
 4400.00000    3.22700   12.81300   12.81300  377.22180  367.10720    2.72400   98.45320   98.45320    -999.25    -999.25    2.72400    -999.25    -999.25  -11.19990  -27.16000    3.22700
 4450.00000    2.68600   13.32000   13.32000  463.53450  474.15840    2.10900   95.84300   95.84300    -999.25    -999.25    2.10900    -999.25    -999.25   -5.90340  -21.64100    2.68600
 4500.00000    1.95300   13.39600   13.39600  627.34530  594.53030    1.68200  101.31430  101.31430    -999.25    -999.25    1.68200    -999.25    -999.25   -4.22790  -19.74300    1.95300
 4550.00000    2.75100   13.05800   13.05800  422.99610  420.52150    2.37800   95.61160   95.61160    -999.25    -999.25    2.37800    -999.25    -999.25   -7.41350  -22.70600    2.75100
 4600.00000    3.34800   12.64000   12.64000  354.35950  369.54910    2.70600   91.33730   91.33730    -999.25    -999.25    2.70600    -999.25    -999.25  -14.49600  -29.56600    3.34800
 4650.00000    3.03000   13.00300   13.00300  378.24350  377.50090    2.64900   91.59580   91.59580    -999.25    -999.25    2.64900    -999.25    -999.25   -9.16450  -24.01200    3.03000
 4700.00000    1.99600   13.74500   13.74500  649.70060  672.94750    1.48600  103.84100  103.84100    -999.25    -999.25    1.48600    -999.25    -999.25   -5.84500  -20.47000    1.99600
 4750.00000    2.40000   13.69900   13.69900  504.31370  456.82960    2.18900   97.78230   97.78230    -999.25    -999.25    2.18900    -999.25    -999.25   -8.22260  -22.62500    2.40000
 4800.00000    2.19300   13.67700   13.67700  532.65520  486.14490    2.05700  101.62480  101.62480    -999.25    -999.25    2.05700    -999.25    -999.25   -6.39910  -20.57900    2.19300
 4850.00000    2.23800   13.28800   13.28800  569.05360  602.04690    1.66100   96.99660   96.99660    -999.25    -999.25    1.66100    -999.25    -999.25   -9.07810  -23.40300    2.23800
 4900.00000    2.37500   13.24000   13.24000  530.08980  558.65920    1.79000  105.28940  105.28940    -999.25    -999.25    1.79000    -999.25    -999.25  -15.21700  -29.93200    2.37500
 4950.00000    2.93000   12.78500   12.78500  397.20560  404.69450    2.47100   88.08870   88.08870    -999.25    -999.25    2.47100    -999.25    -999.25  -14.10390  -29.20900    2.93000
 5000.00000    2.13900   13.29900   13.29900  618.46310  560.53810    1.78400   93.51860   93.51860    -999.25    -999.25    1.78400    -999.25    -999.25   -8.21590  -23.71100    2.13900
 5050.00000    4.02900   12.57900   12.57900  489.02200  475.96380    2.10100   84.41950   84.41950    -999.25    -999.25    2.10100    -999.25    -999.25  -50.26480  -66.15000    4.02900
 5100.00000    2.33500   13.22200   13.22200  538.91090  580.04640    1.72400   93.40820   93.40820    -999.25    -999.25    1.72400    -999.25    -999.25   -6.57480  -22.85000    2.33500
 5150.00000    3.50500   12.87200   12.87200  362.80590  374.67220    2.66900   83.25600   83.25600    -999.25    -999.25    2.66900    -999.25    -999.25  -16.31170  -32.97700    3.50500
 5200.00000    2.98600   12.90700   12.90700  400.08870  385.80250    2.59200   88.94040   88.94040    -999.25    -999.25    2.59200    -999.25    -999.25  -10.80170  -27.85700    2.98600
 5250.00000    2.05000   13.30800   13.30800  628.76560  604.96070    1.65300   88.42420   88.42420    -999.25    -999.25    1.65300    -999.25    -999.25   -4.80860  -22.25400    2.05000
 5300.00000    3.58400   12.70400   12.70400  455.99080  476.87170    2.09700   88.94670   88.94670    -999.25    -999.25    2.09700    -999.25    -999.25  -35.78060  -53.25100    3.58400
