~Version ---------------------------------------------------
VERS. 2.0 : CWLS log ASCII Standard -VERSION 2.0
WRAP. YES : MULTIPLE LINES PER DEPTH STEP
~Well ------------------------------------------------------
STRT.FT                     600.0 : START DEPTH
STOP.FT                    6950.0 : STOP DEPTH
STEP.FT                  50.00000 : STEP LENGTH
NULL.                     -999.25 : NULL VALUE
COMP. ENCANA OIL & GAS (USA) INC. : COMPANY
WELL.               F. J. WEBB #1 : WELL
FLD .                     WILDCAT : FIELD
LOC .                             : LOCATION
CNTY.                      DIMMIT : COUNTY
STAT.                       TEXAS : STATE
CTRY.    UNITED STATES OF AMERICA : COUNTRY
SRVC.                Baker Hughes : SERVICE COMPANY
DATE.                 05-Jan-2006 : LOGDATE
API .              42127332970000 : API NUMBER
UWI .              42127332970000 : UNIQUE WELL ID
SLAT.WGS84          28.5870102193 : SURFACE LATITUDE
SLON.WGS84         -99.9764767301 : SURFACE LONGITUDE
~Curve Information -----------------------------------------
DEPT    .FT    : DEPTH FEET  [ALL CURVES ARE NULLED AS PER OFFSET FROM TD 6964F]
CALRED  .IN    : CALIPER FROM RESISTIVITY LOG
CALWS   .IN    : CALIPER [CALRED]
CNCFLSED.V/V   : NEUTRON POROSITY LIMESTONE FROM HDI/CD/CN LOG
CONDWS  .MMHO  : CONDUCTIVITY [1000/DRESWS]
DCORWS  .G/C3  : DENSITY CORRECTION [ZCORED]
DENWS   .G/C3  : BULK DENSITY [M=2.71 F=1.0] [CALCULATED FROM DPOWS]
DPOWS   .V/V   : DENSITY POROSITY [M=2.71 F=1.0] [PORZLSED]
DRESWS  .OHMM  : DEEP RESISTIVITY [M1R9ED]
GRRED   .GAPI  : GAMMA RAY FROM RESISTIVITY LOG
GRWS    .GAPI  : GAMMA RAY [594 GRREDNRM 732 GRRED]
M1R1ED  .OHMM  : 10 INCH DOI RESISTIVITY FROM HDI/CD/CN LOG
M1R2ED  .OHMM  : 20 INCH DOI RESISTIVITY FROM HDI/CD/CN LOG
M1R3ED  .OHMM  : 30 INCH DOI RESISTIVITY FROM HDI/CD/CN LOG
M1R6ED  .OHMM  : 60 INCH DOI RESISTIVITY FROM HDI/CD/CN LOG
M1R9ED  .OHMM  : 90 INCH DOI RESISTIVITY FROM HDI/CD/CN LOG
M1RXED  .OHMM  : 120 INCH DOI RESISTIVITY FROM HDI/CD/CN LOG
MRESWS  .OHMM  : MEDIUM RESISTIVITY [M1R3ED]
NPOWS   .V/V   : NEUTRON POROSITY LIMESTONE [CNCFLSED]
PEFED   .B/E   : PHOTOELECTRIC FACTOR FROM DENSITY LOG
PEFWS   .B/E   : PHOTOELECTRIC FACTOR [PEFED]
PORZLSED.V/V   : DENSITY POROSITY [M=2.71 F=1.0] FROM HDI/CD/CN LOG
SPRED   .MV    : SPONTANEOUS POTENTIAL FROM RESISTIVITY LOG
SPWS    .MV    : SPONTANEOUS POTENTIAL [BASELINE 0 MV] [SPRED]
SRESWS  .OHMM  : SHALLOW RESISTIVITY [594 M1R1ED 777 M1R2ED 791 M1R1ED 957 M1R2ED 962.5 M1R1ED 1436.5 M1R2ED 1678 M1R1ED 2193 M1R2ED 3139 M1R1ED 3874 M1R2ED]
TENRED  .LBF   : TENSION FROM RESISTIVITY LOG
ZCORED  .G/C3  : DENSITY CORRECTION FROM HDI/CD/CN LOG
~Params ----------------------------------------------------
PD  .                     GL : PERMANENT DATUM
EPD .F                 697.3 : ELEVATION PERMANENT DATUM
LMF .                     KB : LOG MEASURED FROM
DAPD.F                  12.0 : FEET ABOVE PERMANENT DATUM
DMF .                     KB : DRILLING MEASURED FROM
EKB .F                 709.3 : KELLING BUSHING
EDF .F                 708.3 : DRILLING FLOOR
EGL .F                 697.3 : GROUND LEVEL
DATE.             01/05/2006 : RUN DATE
RUN .                      1 : RUN NUMBER
DD  .F                  6972 : DEPTH DRILLER
DL  .F                  6964 : DEPTH LOGGER
BLI .F                  6956 : BOTTOM LOG INTERVAL
TLI .F                   732 : TOP LOG INTERVAL
CS  .IN                9.625 : CASING SIZE
CBD .F                   732 : CASING BOTTOM DRILLER
CBL .F                   732 : CASING BOTTOM LOGGER
BS  .IN                 8.75 : BIT SIZE
BSD .F                  6972 : BIT SIZE AT DEPTH
DFT .                    WBM : DRILLING FLUID TYPE
DFD .                    9.7 : DRILLING FLUID DENSITY
DFV .                     79 : DRILLING FLUID VISCOSITY
DFPH.                   11.0 : DRILLING FLUID PH
DFL .                    8.4 : DRILLING FLUID LOSS
MSS .               FLOWLINE : MUD SAMPLE SOURCE
RMS .OHMM               0.36 : RESISTIVITY MUD SAMPLE
MST .F                    75 : MUD SAMPLE TEMPERATURE
RMF .OHMM               0.29 : RESISTIVITY MUD FILTRATE SAMPLE
MFST.F                    75 : MUD FILTRATE SAMPLE TEMPERATURE
RMC .OHMM               0.45 : RESISTIVITY MUD CAKE
MCST.F                    75 : MUD CAKE SAMPLE TEMPERATURE
MFSS.                      M : MUD FILTRATE SAMPLE SOURCE
MCSS.                      C : MUD CAKE SAMPLE SOURCE
RMB .OHMM               0.15 : RESISTIVITY MUD AT BHT
TCS .HRS                  10 : TIME CURCULATED STOPPED
LUN .                HL-6540 : LOGGING UNIT NUMBER
LUL .              ALICE, TX : LOGGING UNIT LOCATION
ENGI.              C. MCCANN : RECORDING ENGINEER
WITN.            D. JOHNSTON : WITNESSED BY
CLNT.                A2DTECH : CLIENT CODE
ORIG.            1" 5" PRINT : ORIGIN OF DATA
UWI .         42127332970000 : UNIQUE WELL ID
DICO. A2D Technologies, Inc. : DIGITIZING COMPANY
~Other -----------------------------------------------------
~ASCII -----------------------------------------------------
# ...
 1950.00000    9.10780    9.10780    0.29080  308.35640    0.09430    2.50820    0.11800    3.24300   78.83960   78.83960    2.18130    2.83760    3.56290    3.39050    3.24300    3.70420    3.56290    0.29080    3.40380    3.40380    0.11800  -19.90890   -9.04760    2.18130  -63.97440    0.09430
 2000.00000    9.31930    9.31930    0.32770  420.20340    0.09430    2.41810    0.17070    2.37980   82.00220   82.00220    1.58480    2.11130    2.24720    2.48710    2.37980    2.61160    2.24720    0.32770    3.58420    3.58420    0.17070  -18.40460   -7.25970    1.58480  -64.81960    0.09430
 2050.00000    9.22860    9.22860    0.29230  318.11670    0.06720    2.44770    0.15340    3.14350   78.38860   78.38860    1.97930    2.56400    3.14370    2.95400    3.14350    3.11490    3.14370    0.29230    3.34310    3.34310    0.15340  -17.65060   -6.22210    1.97930  -58.22550    0.06720
 2100.00000    9.16810    9.16810    0.19140  272.98540    0.06720    2.42970    0.16390    3.66320   75.00000   75.00000    3.17420    3.21790    3.61280    4.09450    3.66320    4.39960    3.61280    0.19140    3.10240    3.10240    0.16390  -19.00670   -7.29460    3.17420  -18.15830    0.06720
 2150.00000   10.46800   10.46800    0.23510  265.49140    0.26040    2.30760    0.23530    3.76660   73.41810   73.41810    3.21880    3.84190    3.61270    4.22490    3.76660    4.54740    3.61270    0.23510    4.09640    4.09640    0.23530  -16.44510   -4.44930    3.21880  -50.05470    0.26040
 2200.00000    8.20100    8.20100    0.17260  450.45040    0.06110    2.30510    0.23680    2.22000   30.27110   30.27110    8.63000    4.65770    3.23210    2.74100    2.22000    2.19260    3.23210    0.17260    1.98800    1.98800    0.23680  -79.54860  -67.06560    4.65770  -30.24150    0.06110
 2250.00000   10.04500   10.04500    0.17030  130.57730    0.23560    2.41660    0.17160    7.65830   68.44860   68.44860    3.75000    5.83880    6.75690    5.14150    7.65830    4.77110    6.75690    0.17030    3.97590    3.97590    0.17160  -13.43450   -1.38190    5.83880  -76.51010    0.23560
 2300.00000    9.25870    9.25870    0.28330  276.80130    0.08980    2.38630    0.18930    3.61270   65.55920   65.55920    3.59690    2.69950    3.30320    3.02790    3.61270    3.32520    3.30320    0.28330    2.67080    2.67080    0.18930  -21.41640  -11.63240    2.69950  -55.96930    0.08980
 2350.00000    9.01700    9.01700    0.26900  139.99130    0.18500    2.45540    0.14890    7.14330   77.93600   77.93600    4.86200    5.19470    6.96840    7.31880    7.14330    8.99500    6.96840    0.26900    3.50150    3.50150    0.14890  -37.07860  -29.56330    5.19470   43.64880    0.18500
 2400.00000    8.44270    8.44270    0.25390  150.07580    0.03700    2.44770    0.15340    6.66330   50.82890   50.82890   16.47020    7.34320    6.48040    6.84080    6.66330    5.96100    6.48040    0.25390    2.01810    2.01810    0.15340  -31.11100  -24.96130    7.34320    4.81800    0.03700
 2450.00000    8.47290    8.47290    0.24490  281.92040    0.07320    2.35000    0.21050    3.54710   62.57530   62.57530    6.41300    4.43250    3.46500    3.72430    3.54710    3.27520    3.46500    0.24490    2.19890    2.19890    0.21050  -32.81660  -27.54620    4.43250   37.45180    0.07320
 2500.00000    8.71490    8.71490    0.23890  332.57950    0.04600    2.29210    0.24440    3.00680   49.02090   49.02090    9.21510    4.49080    3.26490    3.33370    3.00680    2.97050    3.26490    0.23890    2.31930    2.31930    0.24440  -46.71710  -42.32600    4.49080   13.91650    0.04600
 2550.00000    9.19830    9.19830    0.25020  221.56740    0.03780    2.40390    0.17900    4.51330   81.19380   81.19380    5.16180    5.03400    4.45070    4.32140    4.51330    3.91520    4.45070    0.25020    2.50000    2.50000    0.17900  -12.38050   -8.86880    5.03400  -13.62360    0.03780
 2600.00000    9.48540    9.48540    0.24860  350.66800    0.14570    2.33070    0.22180    2.85170   87.87650   87.87650    3.04270    2.87200    3.31490    3.31300    2.85170    4.45330    3.31490    0.24860    3.49410    3.49410    0.22180   -5.60240   -2.97000    2.87200  -10.49520    0.14570
 2650.00000    9.34940    9.34940    0.25160  237.52400    0.01280    2.45540    0.14890    4.21010   91.71720   91.71720    3.85570    4.07070    4.09470    4.31250    4.21010    4.80330    4.09470    0.25160    2.98190    2.98190    0.14890   -7.25940   -5.50640    4.07070  -20.89390    0.01280
 2700.00000    9.34960    9.34960    0.25620  254.63430    0.05510    2.43690    0.15970    3.92720   93.18040   93.18040    4.61880    4.42950    3.85340    4.13440    3.92720    3.34450    3.85340    0.25620    2.64440    2.64440    0.15970   -6.05380   -5.18010    4.42950   36.57980    0.05510
 2750.00000   10.43760   10.43760    0.28930  368.22920    0.20000    2.24830    0.27000    2.71570  112.72570  112.72570    3.30960    3.12580    2.66700    2.92640    2.71570    2.75020    2.66700    0.28930    3.88550    3.88550    0.27000   -3.79520   -3.80090    3.12580  -30.33860    0.20000
 2800.00000    9.86330    9.86330    0.25540  307.70180    0.03460    2.37570    0.19550    3.24990   78.48580   78.48580    5.28100    3.73470    3.17450    3.32830    3.24990    3.23240    3.17450    0.25540    2.64300    2.64300    0.19550  -18.85490  -19.73990    3.73470  -49.78420    0.03460
 2850.00000    9.31940    9.31940    0.28700  260.51840    0.24210    2.21390    0.29010    3.83850   96.72930   96.72930    2.31130    2.74910    3.21840    2.99520    3.83850    3.13200    3.21840    0.28700    3.57390    3.57390    0.29010   -1.28910   -2.61430    2.74910   10.10270    0.24210
 2900.00000    9.56840    9.56840    0.33840  460.06630    0.26020    2.15990    0.32170    2.17360  104.79670  104.79670    1.61770    1.82880    2.04610    2.12190    2.17360    2.24750    2.04610    0.33840    3.34100    3.34100    0.32170   -2.03900   -3.78140    1.82880   15.21250    0.26020
 2950.00000    8.65420    8.65420    0.24410  310.55900    0.01610    2.26560    0.25990    3.22000   73.24260   73.24260    4.47120    3.60220    3.27510    3.28000    3.22000    3.10410    3.27510    0.24410    2.22270    2.22270    0.25990  -24.37830  -25.28740    3.60220   61.82970    0.01610
 3000.00000    8.71470    8.71470    0.24490  289.84670    0.02850    2.35950    0.20500    3.45010   82.53370   82.53370    4.47110    3.79490    3.41290    3.45640    3.45010    3.27630    3.41290    0.24490    2.46210    2.46210    0.20500  -16.49040  -14.02740    3.79490   24.56180    0.02850
 3050.00000    9.19460    9.19460    0.22650  205.79100    0.00450    2.43420    0.16130    4.85930   88.77890   88.77890    7.06680    5.21040    5.02030    5.02910    4.85930    4.79580    5.02030    0.22650    2.70270    2.70270    0.16130  -11.63420   -5.79910    5.21040  -38.02040    0.00450
 3100.00000    9.74240    9.74240    0.40000  273.07480    0.05560    2.45860    0.14700    3.66200   97.15140   97.15140    4.22970    3.99390    3.64720    3.75960    3.66200    3.37560    3.64720    0.40000    3.09310    3.09310    0.14700  -11.80280   -3.28610    3.99390  -12.27140    0.05560
 3150.00000    9.71010    9.71010    0.25490  214.51860    0.03160    2.47010    0.14030    4.66160  102.54870  102.54870    4.19300    5.54430    4.88270    4.87940    4.66160    4.44480    4.88270    0.25490    2.76280    2.76280    0.14030  -12.98350   -5.15640    4.19300  -36.24860    0.03160
 3200.00000    9.31920    9.31920    0.18380  171.83610    0.00800    2.46120    0.14550    5.81950   86.42070   86.42070    6.09550    6.36880    5.66230    6.07710    5.81950    5.63650    5.66230    0.18380    2.64260    2.64260    0.14550  -18.35860  -11.22100    6.09550   24.85380    0.00800
 3250.00000    7.98930    7.98930    0.20910  116.53110    0.03460    2.34660    0.21250    8.58140   58.24590   58.24590    9.85830    8.38650    9.25100    7.53440    8.58140    6.77950    9.25100    0.20910    2.22220    2.22220    0.21250  -39.19390  -32.74580    9.85830   42.93190    0.03460
