~Version ---------------------------------------------------
VERS. 2.0 : CWLS log ASCII Standard -VERSION 2.0
WRAP.  NO : ONE LINE PER DEPTH STEP
~Well ------------------------------------------------------
STRT.F                    2500.0 : START DEPTH
STOP.F                   10100.0 : STOP DEPTH
STEP.F                  50.00000 : STEP LENGTH
NULL.                    -999.25 : NULL VALUE
COMP. CHAMPLIN PETROLEUM COMPANY : COMPANY
WELL.          HERMAN SCHULTZ #1 : WELL
FLD .                   GIDDINGS : FIELD
LOC .                            : LOCATION
CNTY.                   BURLESON : COUNTY
STAT.                      TEXAS : STATE
CTRY.   UNITED STATES OF AMERICA : COUNTRY
SRVC.                            : SERVICE COMPANY
DATE.                            : LOGDATE
API .             42051316590000 : API NUMBER
UWI .             42051316590000 : UNIQUE WELL ID
SLAT.WGS84         30.3586797556 : SURFACE LATITUDE
SLON.WGS84        -96.6025693505 : SURFACE LONGITUDE
~Curve Information -----------------------------------------
DEPT.F                 : 
DT  .US/F 60 520 00 00 : INTERVAL TRANSIT TIME
DTL .US/F 60 523 00 00 : ACOUSTIC TRANSIT TIME SLOWNESS, LONG SPACING
CALD.IN   45 280 60 00 : CALIPER FROM DENSITY LOG
RHOB.G/C3 45 350 01 00 : BULK DENSITY
DRHO.G/C3 45 356 01 00 : DENSITY CORRECTION
DCAL.IN   07 280 30 00 : DIFFERENTIAL CALIPER
NPHI.DEC  42 890 03 00 : NEUTRON POROSITY SANDSTONE
SPR .MV   07 010 01 00 : SPONTANEOUS POTENTIAL FROM RES. LOG
GRR .GAPI 07 310 01 00 : GAMMA RAY
RILM.OHMM 07 120 44 00 : RED. INDUCTION LOG MEDIUM
RILD.OHMM 07 120 46 00 : RES. INDUCTION LOG DEEP
RFOC.OHMM 07 220 01 00 : RES. FOCUSED LOG
~Params ----------------------------------------------------
EKB .F                  294.0 : Kelly bushing
EGL .F                  276.0 : Ground level
EDF .F                  293.0 : Drilling floor
EPD .F                  276.0 : Permanent datum
TD  .F                10080.0 : Total depth
DATE.             14-OCT-1981 : Date logged
CLNT.                 A2DTECH : Client Code
SL  . 1695' FSEL & 4700' FSWL : Surface Location
PD  .                      GL : Permanent Datum
LMF .                      KB : Log Measured From
DMF .                      KB : Drilling Measured From
DAPD.F                     18 : Feet Above Permanent Datum
DD  .F                  10080 : Depth driller
DL  .F                  10079 : Depth logger
BLI .F                  10073 : Bottom log interval
TLI .F                   9159 : Top log interval
CS1 .IN                     7 : Casing size
CBD1.              7" @ 9170' : Casing driller 1
CBL1.F                   9159 : Casing logger 1
BS1 .IN                 6.125 : Bit size
BSD1.F                  10080 : Depth drilled with bit1
DFT .                   BENEX : Type fluid in hole
DFD .                     9.3 : Density
DFV .                      40 : Viscosity
DFPH.                     9.0 : pH
DFL .                     9.0 : Fluid loss
MSS .                    TANK : Source of sample
RMS .OHMM                0.67 : Rm
RMF .OHMM                0.47 : Rmf
RMC .OHMM                 1.0 : Rmc
MFSS.                    CALC : Source Rmf.
MCSS.                    CALC : Source Rmc.
RMB .OHMM               0.305 : Rm. at BHT
BHT .F                    223 : BHT.
TCS .HRS                 1900 : Time Circ. stopped
TLAB.HRS                   15 : Time logger at bottom
LUN .                    8262 : Logging unit number
LUL .                 BRENHAM : Logging unit location
ENGI.     GILLILAND/PRIESTLEY : Recorded By
WITN.              DALE VODAK : Witnessed by
ORIG.                5" PRINT : Origin of data
UWI .          42051316590000 : Unique Well ID
DICO.  A2D TECHNOLOGIES, INC. : Digitizing Company
~Other -----------------------------------------------------
~ASCII -----------------------------------------------------
# ...
 5300.00000    -999.25    -999.25    -999.25    2.51900    0.02700    0.01900    0.19500  -68.18800   39.90600    4.36400    2.36800   13.84100
 5350.00000    -999.25    -999.25    -999.25    2.40200    0.05400    0.17600    0.29200  -69.52400   66.03200    2.01100    1.50600    3.70700
 5400.00000    -999.25    -999.25    -999.25    2.43900    0.03400    0.66800    0.31700  -43.52500   66.12800    1.88000    1.66800    2.57000
 5450.00000    -999.25    -999.25    -999.25    2.40000    0.06100   -0.01000    0.31300  -77.72500   63.95300    1.96800    1.53600    3.12900
 5500.00000    -999.25    -999.25    -999.25    2.42200    0.08600   -0.25300    0.25100 -116.99200   41.92500    1.71400    1.18600    4.76100
 5550.00000    -999.25    -999.25    -999.25    2.49600    0.10100    0.53700    0.34400  -37.86300   88.38100    1.91800    1.80500    1.89700
 5600.00000    -999.25    -999.25    -999.25    2.51400    0.09900    0.53000    0.29400  -38.07500   81.25300    1.86600    1.82800    2.17100
 5650.00000    -999.25    -999.25    -999.25    2.46300    0.05900    1.31600    0.31400  -45.92900   68.03400    1.99000    1.66200    2.20300
 5700.00000    -999.25    -999.25    -999.25    2.42000    0.04700    0.70400    0.27900  -51.17400   65.35700    1.79000    1.74200    1.98600
 5750.00000    -999.25    -999.25    -999.25    2.45500    0.06100    1.13200    0.28500  -44.08000   62.70800    2.08000    2.03500    2.15300
 5800.00000    -999.25    -999.25    -999.25    2.47100    0.07200    1.17300    0.30200  -38.29300   80.30900    2.23900    2.18100    2.02700
 5850.00000    -999.25    -999.25    -999.25    2.49400    0.07300    0.76500    0.29100  -38.19100   65.95000    2.15500    2.19800    2.08000
 5900.00000    -999.25    -999.25    -999.25    2.48500    0.07500    1.02300    0.30800  -38.84500   78.71600    2.26500    2.09900    2.09900
 5950.00000    -999.25    -999.25    -999.25    2.49200    0.09900    1.16100    0.32000  -35.75000   80.19200    2.24500    2.07300    2.16400
 6000.00000    -999.25    -999.25    -999.25    2.54400    0.10200    0.76600    0.28600  -40.07400   74.04500    2.51800    2.31100    2.38700
 6050.00000    -999.25    -999.25    -999.25    2.49100    0.09900    0.95100    0.35300  -35.05000   78.32300    1.81200    1.75800    1.90200
 6100.00000    -999.25    -999.25    -999.25    2.49400    0.09900    0.57000    0.33800  -33.71700   77.83100    1.81300    1.76500    1.86200
 6150.00000    -999.25    -999.25    -999.25    2.48900    0.10100    0.74400    0.35900  -33.32700   75.75000    1.82700    1.72200    1.90500
 6200.00000    -999.25    -999.25    -999.25    2.50500    -999.25    1.34200    0.32000  -34.13200   73.85600    1.74600    1.68300    1.88000
 6250.00000    -999.25    -999.25    -999.25    2.48200    0.10300    1.52900    0.35500  -34.36000   74.67200    1.67900    1.56400    1.84500
 6300.00000    -999.25    -999.25    -999.25    2.46300    -999.25    1.05400    0.36300  -39.11600   73.57600    1.62900    1.58100    1.72700
 6350.00000    -999.25    -999.25    -999.25    2.42100    -999.25    1.58900    0.36200  -37.46500   81.00300    1.52100    1.43200    1.66000
 6400.00000    -999.25    -999.25    -999.25    2.48800    0.10100    2.15400    0.35000  -43.48900   88.35200    1.74000    1.64700    1.74400
 6450.00000    -999.25    -999.25    -999.25    2.40800    -999.25    2.98200    0.33000  -36.64100   79.93100    1.46200    1.40700    1.60500
 6500.00000    -999.25    -999.25    -999.25    2.40900    -999.25    2.08100    0.35800  -35.06400   74.34800    1.19200    1.21800    1.43000
 6550.00000    -999.25    -999.25    -999.25    2.50500    0.08500    1.40300    0.27300  -41.25500   65.54100    2.20400    2.03600    2.00100
 6600.00000    -999.25    -999.25    -999.25    2.49800    0.10100    1.21300    0.29800  -38.98400   62.31700    1.97100    1.83900    1.91200
 6650.00000    -999.25    -999.25    -999.25    2.49500    0.10100    0.99400    0.28400  -39.17700   62.83600    2.02300    1.92600    1.98600
 6700.00000    -999.25    -999.25    -999.25    2.45600    0.10100    1.36500    0.36700  -41.77300   66.19000    1.30400    1.23700    1.45900
 6750.00000    -999.25    -999.25    -999.25    2.49600    0.09800    1.88900    0.29300  -39.37100   66.02000    1.71100    1.65300    1.69600
 6800.00000    -999.25    -999.25    -999.25    2.36400    0.08900    1.73700    0.36200  -36.61700   67.45900    1.20100    1.18000    1.34400
 6850.00000    -999.25    -999.25    -999.25    2.46800    0.06600    0.95700    0.31300  -36.78100   66.53200    1.62700    1.55300    1.68300
 6900.00000    -999.25    -999.25    -999.25    2.45900    0.10200    0.81900    0.36700  -36.96800   69.25900    1.24200    1.21000    1.38700
 6950.00000    -999.25    -999.25    -999.25    2.47900    0.07100    1.54300    0.38700  -36.40400   66.47400    1.30100    1.27700    1.38700
 7000.00000    -999.25    -999.25    -999.25    2.44400    0.03000    1.90700    0.29600  -38.41100   68.24600    1.25100    1.22500    1.45300
 7050.00000    -999.25    -999.25    -999.25    2.58300    0.03500    0.75800    0.23600  -35.97400   51.55500    2.54600    2.54700    2.45800
 7100.00000    -999.25    -999.25    -999.25    2.43600    0.05700    1.17300    0.31800  -36.87600   70.31500    1.33700    1.31000    1.51200
 7150.00000    -999.25    -999.25    -999.25    2.47100    0.10100    1.13300    0.21000  -49.94300   48.57900    2.38800    2.26200    2.38700
 7200.00000    -999.25    -999.25    -999.25    2.47600    0.10100    1.78400    0.26900  -42.16100   72.95800    1.77900    1.74700    1.94200
 7250.00000    -999.25    -999.25    -999.25    2.49100    0.06800    1.16900    0.25100  -39.71500   57.97400    2.26300    2.06600    2.14500
 7300.00000    -999.25    -999.25    -999.25    2.46700    0.10200    1.95700    0.26500  -38.38300   68.32400    2.18800    1.96800    2.15800
 7350.00000    -999.25    -999.25    -999.25    2.42100    0.10200    2.36600    0.31500  -44.27100   73.01300    1.61700    1.57000    1.72400
 7400.00000    -999.25    -999.25    -999.25    2.39600    0.10200    2.49000    0.36800  -36.89900  119.75500    1.67800    1.62700    1.65200
 7450.00000    -999.25    -999.25    -999.25    2.40400    0.08800    2.44600    0.30600  -36.65900   75.55500    1.47600    1.50500    1.63700
 7500.00000    -999.25    -999.25    -999.25    2.44000    -999.25    3.03900    0.32500  -37.58200   73.83600    1.59800    1.57200    1.66300
 7550.00000    -999.25    -999.25    -999.25    2.49500    -999.25    2.64400    0.27600  -37.13700   70.88900    2.23000    2.17800    1.88000
 7600.00000    -999.25    -999.25    -999.25    2.45500    -999.25    2.25900    0.29600  -37.95500   74.87300    1.81100    1.78200    1.91900
 7650.00000    -999.25    -999.25    -999.25    2.39200    -999.25    3.60500    0.37800  -38.91400   64.59600    1.46400    1.43700    1.54900
 7700.00000    -999.25    -999.25    -999.25    2.49700    0.09500    3.29100    0.30200  -38.67200   75.85100    1.65200    1.62200    1.72900
 7750.00000    -999.25    -999.25    -999.25    2.52200    -999.25    2.62600    0.27800  -37.39200   64.75400    1.87300    1.84400    1.95000
 7800.00000    -999.25    -999.25    -999.25    2.51300    -999.25    3.12500    0.29300  -37.05000   71.19400    1.60500    1.63300    1.74600
 7850.00000    -999.25    -999.25    -999.25    2.41900    0.09000    2.57700    0.28700  -35.63300   69.00900    2.41000    2.42500    2.23700
 7900.00000    -999.25    -999.25    -999.25    2.53100    0.10000    3.20100    0.27500  -35.85500   61.89900    1.77800    1.74000    1.92900
 7950.00000    -999.25    -999.25    -999.25    2.54100    0.07400    3.37300    0.26600  -33.24900   71.76800    2.07400    2.13800    2.18600
 8000.00000    -999.25    -999.25    -999.25    2.54600    -999.25    5.49800    0.28900  -37.46300   57.19700    1.45200    1.49600    1.65200
 8050.00000    -999.25    -999.25    -999.25    2.57100    0.09900    2.97100    0.26500  -33.39800   61.49300    1.91900    1.86400    1.97900
