~Version ---------------------------------------------------
VERS.      2.0 : CWLS log ASCII Standard -VERSION 2.0
WRAP.      YES : Multiple lines per depth step
CREA. 10/06/20 : LAS Creation Date
~Well ------------------------------------------------------
STRT.FT                 3150.0 : START DEPTH
STOP.FT                18400.0 : STOP DEPTH
STEP.FT               50.00000 : STEP LENGTH
NULL.                  -999.25 : NULL VALUE
COMP. AMOCO PRODUCTION COMPANY : COMPANY
WELL.       MARTIN GAS UNIT #1 : WELL
FLD .                  WILDCAT : FIELD
LOC .                          : LOCATION
CNTY.                     LEON : COUNTY
STAT.                    TEXAS : STATE
CTRY. UNITED STATES OF AMERICA : COUNTRY
SRVC.             Schlumberger : SERVICE COMPANY
DATE.              06-Oct-1998 : LOGDATE
API .           42289312900000 : API NUMBER
UWI .           42289312900000 : UNIQUE WELL ID
SLAT.WGS84       31.2448401024 : SURFACE LATITUDE
SLON.WGS84      -96.2384028977 : SURFACE LONGITUDE
~Curve Information -----------------------------------------
DEPT    .FT    : DEPTH FEET
AT20ED  .OHMM  : 20 INCH ARRAY RESISTIVITY TWO FOOT RESOLUTION FROM AIT LOG
AT30ED  .OHMM  : 30 INCH ARRAY RESISTIVITY TWO FOOT RESOLUTION FROM AIT LOG
AT60ED  .OHMM  : 60 INCH ARRAY RESISTIVITY TWO FOOT RESOLUTION FROM AIT LOG
AT90ED  .OHMM  : 90 INCH ARRAY RESISTIVITY TWO FOOT RESOLUTION FROM AIT LOG
BITSED  .IN    : BIT SIZE FROM RUN HEADERS
CALDED  .IN    : CALIPER FROM DENSITY LOG [DSH. TO GRRED]
CALWS   .IN    : CALIPER [TOP CALDED 14108' (DCALDED+BITSED) TD]
CONDWS  .MMHO  : DEEP CONDUCTIVITY [1000/DRESWS]
DCALDED .IN    : DIFFERENTIAL CALIPER FROM DENSITY LOG [DSH. TO GRRED]
DCORWS  .G/C3  : DENSITY CORRECTION [TOP DRHOED 16650' DRHED TD]
DENWS   .G/C3  : BULK DENSITY [CALC. FROM DPOLSWS]
DPHILSED.V/V   : DENSITY POROSITY (LS) [M=2.71 F=1.00] [DSH. TO GRRED]
DPOLSED .V/V   : DENSITY POROSITY (LS) [M=2.71 F=1.00] [DSH. TO GRRED]
DPOLSWS .V/V   : DENSITY POROSITY (LS) [M=2.71 F=1.00] [TOP DPHILSED 16650' DPOLSED TD]
DRESWS  .OHMM  : DEEP RESISTIVITY [TOP AT90ED 14100' ILDED 16650' IDPHED TD]
DRHED   .G/C3  : DENSITY CORRECTION FROM DENSITY LOG [DSH. TO GRRED]
DRHOED  .G/C3  : DENSITY CORRECTION FROM DENSITY LOG [DSH. TO GRRED]
DTCOED  .US/F  : DELTA TIME COMPRESSIONAL FROM SONIC LOG
DTLFED  .US/F  : DELTA TIME LONG SPACING FAR DETECTOR FROM SONIC LOG
DTLNED  .US/F  : DELTA TIME LONG SPACING NEAR DETECTOR FROM SONIC LOG
DTSMED  .US/F  : DELTA TIME SHEAR WAVE FROM SONIC LOG
DTSWS   .US/F  : DELTA TIME SHEAR [DTSMED]
DTWS    .US/F  : DELTA TIME COMPRESSIONAL [TOP DTCOED 16650' DTLNED TD]
GRDED   .GAPI  : GAMMA RAY FROM DENSITY LOG [DSH. TO GRRED]
GRRED   .GAPI  : GAMMA RAY FROM RESISTIVITY LOG
GRWS    .GAPI  : GAMMA RAY [GRRED][RESCALED GRWS IN CSG )14030-14106' & 16606-16645') FROM 0/90-0/150]
IDPHED  .OHMM  : DEEP INDUCTION PHASE RESISTIVITY
ILDED   .OHMM  : DEEP INDUCTION RESISTIVITY
ILMED   .OHMM  : MEDIUM INDUCTION RESISTIVITY
IMPHED  .OHMM  : MEDIUM INDUCTION PHASE RESISTIVITY
MRESWS  .OHMM  : MEDIUM RESISTIVITY [TOP AT30ED 14100' ILMED 16650' IMPHED TD]
NPHILSED.V/V   : NEUTRON POROSITY (LS) [DSH. TO GRRED]
NPOLSWS .V/V   : NEUTRON POROSITY (LS) [NPHILSED]
PEFED   .B/E   : PHOTOELECTRIC FACTOR FROM DENSITY LOG [DSH. TO GRRED]
PEFWS   .B/E   : PHOTOELECTRIC FACTOR [PEFED]
SFLUED  .OHMM  : SPHERICALLY FOCUSED UNAVERAGED RESISTIVITY
SPWS    .MV    : SPONTANEOUS POTENTIAL [BASELINE 0 MV] [SPRED]
SPRED   .MV    : SPONTANEOUS POTENTIAL FROM RESISTIVITY LOG
SRESWS  .OHMM  : SHALLOW RESISTIVITY [TOP AT20ED 14100' SFLUED TD]
TENDED  .LBF   : TENSION FROM DENSITY LOG [DSH. TO GRRED]
TENRED  .LBF   : TENSION FROM RESISTIVITY LOG
~Params ----------------------------------------------------
PD  .                     GL : PERMANENT DATUM
EPD .FT                389.3 : ELEVATION PERMANENT DATUM
LMF .                     KB : LOG MEASURED FROM
DAPD.FT                 33.7 : MEASUREMENT ABOVE PERMANENT DATUM
DMF .                     KB : DRILLING MEASURED FROM
EKB .FT                  423 : KELLY BUSHING
EDF .FT                  422 : DRILLING FLOOR
EGL .FT                389.3 : GROUND LEVEL
DATE.               10/06/98 : RUN DATE
RUN .                      3 : RUN NUMBER
DD  .FT                18400 : DEPTH DRILLER
DL  .FT                18391 : DEPTH LOGGER
BLI .FT                18381 : BOTTOM LOG INTERVAL
TLI .FT                16646 : TOP LOG INTERVAL
CS  .IN                7.625 : CASING SIZE
CBD .FT                16650 : CASING BOTTOM DRILLER
CBL .FT                16646 : CASING BOTTOM LOGGER
BS  .IN                 6.25 : BIT SIZE
BSD .FT                18400 : BIT SIZE AT DEPTH
DFT .             VERSADRILL : DRILLING FLUID TYPE
DFD .                   17.9 : DRILLING FLUID DENSITY
DFV .                     45 : DRILLING FLUID VISCOSITY
MSS .                MUD PIT : MUD SAMPLE SOURCE
MFSS.                   CALC : MUD FILTRATE SAMPLE SOURCE
MCSS.                   CALC : MUD CAKE SAMPLE SOURCE
TCS .HRS                 830 : TIME CIRCULATED STOPPED
TLAB.HRS                2357 : TIME LOGGER AT BOTTOM
LUN .                   2142 : LOGGING UNIT NUMBER
LUL .                  TYLER : LOGGING UNIT LOCATION
ENGI.                SKRBICH : RECORDING ENGINEER
WITN.       WALKER WYSZYNSKI : WITNESSED BY
CLNT.                A2DTECH : CLIENT CODE
ORIG.         1" 2" 5" PRINT : ORIGIN OF DATA
UWI .         42289312900000 : UNIQUE WELL ID
DICO. A2D Technologies, Inc. : DIGITIZING COMPANY
~Other -----------------------------------------------------
1) RESISTIVITY INVALID 14360-14404', 15400-15475 NULLED (REPEAT LOG N/A). PATCHED FROM REPEAT LOG 15950-15980' & 16590-16645'.
2) GRRED PATCHED FROM REPEAT LOG 15400-15500 & 16550-16606'.
3) SONIC NOT LOGGED 14100-16650' AND ERRATIC ON SOME AREAS ABOVE 6300' WITH SOME GAPS AND SPIKES HENCE PATCHED SOME SMALL AREAS.
4) LDL/CNL STICKING TOOL ENTIRE RUN2 - NULLED PEF INVALID @ 15410-15625' & 15730-15410', PATCHED DENSITY@16025-16040', PATCHED NEUTRON@14295-14320' & PATCHED GRDED@VARIOUS DEPTHS BASED ON GRRED. ANY DOUBTS, PLEASE REFER TO ORIGINAL CURVES IN STANDARD LAS. STICKING TOOL MAY SLIGHTLY AFFECT LOG QUALITY ON OTHER AREAS, PLEASE USE WITH CAUTIONS.
~ASCII -----------------------------------------------------
# ...
 14850.00000    -999.25    -999.25    -999.25    -999.25    8.50000    -999.25    8.43820  235.53800   -0.06180   -0.00100    2.65490    0.03220    -999.25    0.03220    4.24560    -999.25   -0.00100    -999.25    -999.25    -999.25    -999.25    -999.25    -999.25  130.56150  125.48410  125.48410    -999.25    4.24560    3.98960    -999.25    3.98960    0.16430    0.16430    6.42850    6.42850    4.25960   -1.42320   92.02560    4.25960 4778.24320 4481.56590
 14900.00000    -999.25    -999.25    -999.25    -999.25    8.50000    -999.25    8.92370  274.56690    0.42370    0.01050    2.66900    0.02400    -999.25    0.02400    3.64210    -999.25    0.01050    -999.25    -999.25    -999.25    -999.25    -999.25    -999.25  133.33330  132.80280  132.80280    -999.25    3.64210    3.39960    -999.25    3.39960    0.20220    0.20220    7.99750    7.99750    4.35650   -4.79070   90.44500    4.35650 4991.47170 4481.86910
 14950.00000    -999.25    -999.25    -999.25    -999.25    8.50000    -999.25    8.60750  271.86470    0.10750    0.01320    2.67200    0.02220    -999.25    0.02220    3.67830    -999.25    0.01320    -999.25    -999.25    -999.25    -999.25    -999.25    -999.25  121.64370  106.36660  106.36660    -999.25    3.67830    3.60050    -999.25    3.60050    0.18630    0.18630    6.05160    6.05160    4.93780   -3.52940   94.66850    4.93780 4936.70160 4422.65330
 15000.00000    -999.25    -999.25    -999.25    -999.25    8.50000    -999.25    8.78230  236.32840    0.28230    0.00440    2.68230    0.01620    -999.25    0.01620    4.23140    -999.25    0.00440    -999.25    -999.25    -999.25    -999.25    -999.25    -999.25  119.23170   85.74480   85.74480    -999.25    4.23140    3.84610    -999.25    3.84610    0.09550    0.09550    8.92880    8.92880   10.68660   -7.14790   97.94740   10.68660 4842.51270 4472.39940
 15050.00000    -999.25    -999.25    -999.25    -999.25    8.50000    -999.25    8.72860  258.96670    0.22860    0.01260    2.66420    0.02680    -999.25    0.02680    3.86150    -999.25    0.01260    -999.25    -999.25    -999.25    -999.25    -999.25    -999.25  111.14620  114.22840  114.22840    -999.25    3.86150    3.78550    -999.25    3.78550    0.17730    0.17730    6.22170    6.22170    5.09270   -5.05540  106.93730    5.09270 4889.72660 4542.94780
 15100.00000    -999.25    -999.25    -999.25    -999.25    8.50000    -999.25    8.70830  256.41680    0.20830    0.00810    2.66570    0.02590    -999.25    0.02590    3.89990    -999.25    0.00810    -999.25    -999.25    -999.25    -999.25    -999.25    -999.25  114.87120  115.35350  115.35350    -999.25    3.89990    3.59660    -999.25    3.59660    0.18380    0.18380    8.58210    8.58210    4.63750   -5.05140  113.83870    4.63750 4851.77440 4588.43070
 15150.00000    -999.25    -999.25    -999.25    -999.25    8.50000    -999.25    8.72270   21.03770    0.22270   -0.00040    2.63970    0.04110    -999.25    0.04110   47.53370    -999.25   -0.00040    -999.25    -999.25    -999.25    -999.25    -999.25    -999.25   25.39490   25.45380   25.45380    -999.25   47.53370   33.46940    -999.25   33.46940    0.01050    0.01050    3.58080    3.58080  175.56860   -7.56460  113.44630  175.56860 5057.96240 4537.90280
 15200.00000    -999.25    -999.25    -999.25    -999.25    8.50000    -999.25    8.41270  300.39050   -0.08730    0.00330    2.64840    0.03600    -999.25    0.03600    3.32900    -999.25    0.00330    -999.25    -999.25    -999.25    -999.25    -999.25    -999.25  127.23530  126.58360  126.58360    -999.25    3.32900    3.26170    -999.25    3.26170    0.20240    0.20240    4.96510    4.96510    4.67740  -10.85400  103.91570    4.67740 4845.26960 4408.67770
 15250.00000    -999.25    -999.25    -999.25    -999.25    8.50000    -999.25    8.47610   85.37890   -0.02390    0.00210    2.59150    0.06930    -999.25    0.06930   11.71250    -999.25    0.00210    -999.25    -999.25    -999.25    -999.25    -999.25    -999.25   34.10230   37.93420   37.93420    -999.25   11.71250   10.64180    -999.25   10.64180    0.09410    0.09410    5.96780    5.96780   21.40080   -9.73450   99.77210   21.40080 4825.06770 3286.50020
 15300.00000    -999.25    -999.25    -999.25    -999.25    8.50000    -999.25    9.20110  193.32640    0.70110    0.00940    2.70060    0.00550    -999.25    0.00550    5.17260    -999.25    0.00940    -999.25    -999.25    -999.25    -999.25    -999.25    -999.25  120.93980  123.59520  123.59520    -999.25    5.17260    4.92810    -999.25    4.92810    0.11090    0.11090    6.21290    6.21290    6.18890   -7.19820  102.49980    6.18890 4917.74020 3285.35910
 15350.00000    -999.25    -999.25    -999.25    -999.25    8.50000    -999.25    9.31150  325.11870    0.81150    0.02100    2.63650    0.04300    -999.25    0.04300    3.07580    -999.25    0.02100    -999.25    -999.25    -999.25    -999.25    -999.25    -999.25  111.53720  106.02010  106.02010    -999.25    3.07580    2.95920    -999.25    2.95920    0.19810    0.19810   10.00000   10.00000    3.95060   -6.82250  107.10250    3.95060 5070.91850 3294.84400
 15400.00000    -999.25    -999.25    -999.25    -999.25    8.50000    -999.25   10.54370    -999.25    2.04370    0.00800    2.64740    0.03660    -999.25    0.03660    -999.25    -999.25    0.00800    -999.25    -999.25    -999.25    -999.25    -999.25    -999.25  122.28570  103.47000  103.47000    -999.25    -999.25    -999.25    -999.25    -999.25    0.14760    0.14760    8.36190    8.36190    -999.25   -5.01890  114.01230    -999.25 4947.79880 3709.28590
 15450.00000    -999.25    -999.25    -999.25    -999.25    8.50000    -999.25   14.39820    -999.25    5.89820    0.02780    2.65630    0.03140    -999.25    0.03140    -999.25    -999.25    0.02780    -999.25    -999.25    -999.25    -999.25    -999.25    -999.25   90.32090   86.56000   86.56000    -999.25    -999.25    -999.25    -999.25    -999.25    0.24390    0.24390    -999.25    -999.25    -999.25   -8.91810  107.66490    -999.25 5115.71530 4650.28420
 15500.00000    -999.25    -999.25    -999.25    -999.25    8.50000    -999.25   14.40950  379.23320    5.90950   -0.07300    2.52960    0.10550    -999.25    0.10550    2.63690    -999.25   -0.07300    -999.25    -999.25    -999.25    -999.25    -999.25    -999.25   78.89090   72.70310   72.70310    -999.25    2.63690    2.38160    -999.25    2.38160    0.28950    0.28950    -999.25    -999.25    3.67800   -9.31470  107.71800    3.67800 5047.97410 4664.44530
 15550.00000    -999.25    -999.25    -999.25    -999.25    8.50000    -999.25   13.66220  393.15900    5.16220   -0.00680    2.60190    0.06320    -999.25    0.06320    2.54350    -999.25   -0.00680    -999.25    -999.25    -999.25    -999.25    -999.25    -999.25   70.06410   89.41460   89.41460    -999.25    2.54350    2.49690    -999.25    2.49690    0.27150    0.27150    -999.25    -999.25    3.22270   -4.78440  111.45200    3.22270 5083.31150 4671.88870
 15600.00000    -999.25    -999.25    -999.25    -999.25    8.50000    -999.25   11.79210  353.74440    3.29210    0.01220    2.58860    0.07100    -999.25    0.07100    2.82690    -999.25    0.01220    -999.25    -999.25    -999.25    -999.25    -999.25    -999.25  102.13320  105.10520  105.10520    -999.25    2.82690    2.48100    -999.25    2.48100    0.24400    0.24400    -999.25    -999.25    3.44820   -8.06230  105.97270    3.44820 4960.23540 4675.13870
 15650.00000    -999.25    -999.25    -999.25    -999.25    8.50000    -999.25   11.44650  326.00900    2.94650    0.01240    2.58650    0.07220    -999.25    0.07220    3.06740    -999.25    0.01240    -999.25    -999.25    -999.25    -999.25    -999.25    -999.25  100.52970  119.91630  119.91630    -999.25    3.06740    3.13510    -999.25    3.13510    0.20930    0.20930   10.00000   10.00000    3.86870   -8.28670  105.59950    3.86870 5051.90280 4766.82810
 15700.00000    -999.25    -999.25    -999.25    -999.25    8.50000    -999.25   11.27840  295.35120    2.77840    0.01190    2.58650    0.07220    -999.25    0.07220    3.38580    -999.25    0.01190    -999.25    -999.25    -999.25    -999.25    -999.25    -999.25  115.16230   98.45360   98.45360    -999.25    3.38580    3.32030    -999.25    3.32030    0.23720    0.23720   10.00000   10.00000    3.86600   -6.98030  110.40610    3.86600 5020.43510 4815.02000
