~Version ---------------------------------------------------
VERS.      2.0 : CWLS log ASCII Standard -VERSION 2.0
WRAP.      YES : Multiple lines per depth step
CREA. 03/28/16 : LAS Creation Date
~Well ------------------------------------------------------
STRT.FT                                      300.0 : START DEPTH
STOP.FT                                    14300.0 : STOP DEPTH
STEP.FT                                   50.00000 : STEP LENGTH
NULL.                                      -999.25 : NULL VALUE
COMP.               COLUMBIA GAS DEVELOPMENT CORP. : COMPANY
WELL.                                 UNION FEE #1 : WELL
FLD .                                      WILDCAT : FIELD
LOC .                                              : LOCATION
CNTY.                                       GRIMES : COUNTY
STAT.                                        TEXAS : STATE
CTRY.                     UNITED STATES OF AMERICA : COUNTRY
SRVC. ATLAS WIRELINE SERVICES / WESTERN ATLAS INTL : SERVICE COMPANY
DATE.                                  20-Jul-1990 : LOGDATE
API .                               42185304230000 : API NUMBER
UWI .                               42185304230000 : UNIQUE WELL ID
SLAT.WGS84                           30.6748360809 : SURFACE LATITUDE
SLON.WGS84                          -95.9134095283 : SURFACE LONGITUDE
~Curve Information -----------------------------------------
DEPT    .FT    : DEPTH FEET
ACED    .US/F  : DELTA TIME (ACOUSTIC) FROM DIND-FOC/BHC SONIC LOG
C13ED   .IN    : CALIPER 1-3 FROM COMPENSATED Z-DENSILOG/CN/GR LOG
CALDED  .IN    : CALIPER FROM DENSITY LOG [DSH TO GRRED]
CALRED  .IN    : CALIPER FROM DIND-FOC/BHC SONIC LOG
CALWS   .IN    : CALIPER [TOP CALRED 11608' CALDED 11850' C13ED TD]
CNCLSED .V/V   : NEUTRON POROSITY LIMESTONE FROM COMPENSATED Z-DENSILOG/CN/GR LOG [DSH TO GRRED]
CNCSSED .V/V   : NEUTRON POROSITY SANDSTONE FROM COMPENSATED Z-DENSILOG/CN/GR LOG [DSH TO GRRED]
CONDWS  .MMHO  : DEEP CONDUCTIVITY [1000/DRESWS]
DCORWS  .G/C3  : DENSITY CORRECTION [ZCORED]
DENWS   .G/C3  : BULK DENSITY [CALCULATED FROM DPOLSWS, M=2.71,F=1.0]
DPOLSWS .V/V   : DENSITY POROSITY (LS) [TOP PORZLSED 11338' PORZSSED CONVERTED TO LIMESTONE 11850' PORZLSED TD]
DRESWS  .OHMM  : DEEP RESISTIVITY [RILDED]
DTWS    .US/F  : DELTA TIME COMPRESSIONAL [ACED]
GRDED   .GAPI  : GAMMA RAY FROM COMPENSATED Z-DENSILOG/CN/GR LOG [DSH TO GRRED]
GRMED   .GAPI  : GAMMA RAY MICROLOG [DSH TO GRRED]
GRN1ED  .GAPI  : GAMMA RAY FROM GRN LOG (HALLIBURTON) [DSH TO GRRED]
GRNED   .CU    : GAMMA RAY FROM GRN LOG (PENWOOD) [DSH TO GRRED]
GRRED   .GAPI  : GAMMA RAY FROM DIND-FOC/BHC SONIC LOG
GRWS    .GAPI  : GAMMA RAY [TOP GRRED 10990 GRDED 11250 GRRED 14107 GRDED 14250 GRMED TD (IN CASING 3012-2965 GRRED+15)]
MCALED  .IN    : CALIPER FROM MICROLOG [DSH TO GRRED]
MRESWS  .OHMM  : MEDIUM RESISTIVITY [RILMED]
NEUT1ED .NAPI  : NEUTRON FROM GRN LOG (HALLIBURTON) [DSH TO GRRED]
NEUTED  .CU    : NEUTRON FROM GRN LOG (PENWOOD [DSH TO GRRED])
NPOLSWS .V/V   : NEUTRON POROSITY LIMESTONE [TOP CNCLSED 11338' CNCSSED CONVERTED TO LIMESTONE 11850' CNCLSED TD]
PEFED   .B/E   : PHOTOELECTRIC FACTOR FROM COMPENSATED Z-DENSILOG/CN/GR LOG [DSH TO GRRED]
PEFWS   .B/E   : PHOTOELECTRIC FACTOR [PEFED]
PORZLSED.V/V   : DENSITY POROSITY (LS) [M=2.71 F=1.0] FROM COMPENSATED Z-DENSILOG/CN/GR LOG [DSH TO GRRED]
PORZSSED.V/V   : DENSITY POROSITY (SS) [M=2.65 F=1.0] FROM COMPENSATED Z-DENSILOG/CN/GR LOG [DSH TO GRRED]
RFOCED  .OHMM  : FOCUSED RESISTIVITY FROM DIND-FOC/BHC SONIC LOG
RILDED  .OHMM  : INDUCTION LOG DEEP RESISTIVITY FROM DIND-FOC/BHC SONIC LOG
RILMED  .OHMM  : INDUCTION LOG MEDIUM RESISTIVITY FROM DIND-FOC/BHC SONIC LOG
SPRED   .MV    : SPONTANEOUS POTENTIAL FROM DIND-FOC/BHC SONIC LOG
SPWS    .MV    : SPONTANEOUS POTENTIAL [BASELINE 0 MV] [SPRED]
SRESWS  .OHMM  : SHALLOW RESISTIVITY [RFOCED]
TENDED  .LBF   : TENSION FROM COMPENSATED Z-DENSILOG/CN/GR LOG [DSH TO GRRED]
TENRED  .LBF   : TENSION FROM DIND-FOC/BHC SONIC LOG
ZCORED  .G/C3  : DENSITY CORRECTION FROM COMPENSATED Z-DENSILOG/CN/GR LOG [DSH TO GRRED]
~Params ----------------------------------------------------
PD  .                     GL : PERMANENT DATUM
EPD .FT                  366 : ELEVATION PERMANENT DATUM
LMF .                    RKB : LOG MEASURED FROM
DAPD.FT                   21 : FEET ABOVE PERMANENT DATUM
DMF .                    RKB : DRILLING MEASURED FROM
EKB .FT                  387 : KELLY BUSHING
EDF .FT                  386 : DRILLING FLOOR
EGL .FT                  366 : GROUND LEVEL
DATE.               07/20/90 : RUN DATE
RUN .                      1 : RUN NUMBER
DD  .FT                14300 : DEPTH DRILLER
DL  .FT                14300 : DEPTH LOGGER
BLI .FT                14297 : BOTTOM LOG INTERVAL
TLI .FT                11428 : TOP LOG INTERVAL
CS  .IN                9.625 : CASING SIZE
CBD .FT                 3814 : CASING BOTTOM DRILLER
CBL .FT                 3814 : CASING BOTTOM LOGGER
BS  .IN                 8.75 : BIT SIZE
BSD .FT                14300 : BIT SIZE AT DEPTH
DFT .                        : DRILLING FLUID TYPE
DFD .                    9.9 : DRILLING FLUID DENSITY
DFV .                     36 : DRILLING FLUID VISCOSITY
DFPH.                    9.5 : DRILLING FLUID PH
DFL .                    6.8 : DRILLING FLUID LOSS
MSS .                    PIT : MUD SAMPLE SOURCE
RMS .OHMM               1.26 : RESISTIVITY MUD SAMPLE
MST .DEGF                 78 : MUD SAMPLE TEMPERATURE
RMF .OHMM               0.78 : RESISTIVITY MUD FILTRATE SAMPLE
MFST.DEGF                 78 : MUD FILTRATE SAMPLE TEMPERATURE
RMC .OHMM               1.68 : RESISTIVITY MUD CAKE
MCST.DEGF                 78 : MUD CAKE SAMPLE TEMPERATURE
MFSS.                   MEAS : MUD FILTRATE SAMPLE SOURCE
MCSS.                   MEAS : MUD CAKE SAMPLE SOURCE
RMB .OHMM               0.32 : RESISTIVITY MUD AT BHT
TCS .HRS                  18 : TIME CIRCULATED STOPPED
TLAB.HRS                   0 : TIME LOGGER AT BOTTOM
LUN .                HL 6428 : LOGGING UNIT NUMBER
LUL .               BEALMONT : LOGGING UNIT LOCATION
ENGI.                SHERRIN : RECORDING ENGINEER
WITN.                  SADDO : WITNESSED BY
CLNT.                A2DTECH : CLIENT CODE
ORIG.               5" PRINT : ORIGIN OF DATA
UWI .         42185304230000 : UNIQUE WELL ID
DICO. A2D Technologies, Inc. : DIGITIZING COMPANY
OS  .                        : OTHER SERVICES
PWI .                        : PRIMARY WELL IDENTIFIER
R1  .                        : REMARKS 1
R2  .                        : REMARKS 2
LSRV.                        : LOG MNEMONIC
~Other -----------------------------------------------------
~ASCII -----------------------------------------------------
# ...
 11300.00000   55.05660    -999.25   11.34850   11.57760   11.57760    0.06110    -999.25   23.22620    0.11250    2.32180    0.22700   43.05490   55.05660   29.31980   30.66590   37.56230    -999.25   33.62340   33.62340   12.52130   22.85570   12.17030    -999.25    0.06110    5.08210    5.08210    0.22700    -999.25   33.03950   43.05490   22.85570  -48.83000  -36.92110   33.03950    0.64270   10.69830    0.11250
 11350.00000   70.04620    -999.25   12.09100   10.28090   10.28090    -999.25    0.11980   69.00450    0.22920    2.15990    0.32170   14.49180   70.04620   26.90850   30.44570   53.67470    -999.25   31.75220   31.75220    8.94730   15.77500   21.63650    -999.25    0.07980    5.04150    5.04150    -999.25    0.29700   14.81150   14.49180   15.77500  -53.68650  -42.55010   14.81150    9.33390   12.50850    0.22920
 11400.00000   59.92930    -999.25   11.39460   10.28840   10.28840    -999.25    0.11600   53.83520    0.29580    2.28370    0.24930   18.57520   59.92930   21.77400   23.23360   17.36960    -999.25   21.36060   21.36060    7.41760   11.86940    8.24750    -999.25    0.07600    5.30100    5.30100    -999.25    0.22200   13.30750   18.57520   11.86940  -81.40570  -71.04190   13.30750   -5.88700   15.19370    0.29580
 11450.00000   69.26960    -999.25   10.87650    8.86880    8.86880    -999.25    0.08630   60.10480    0.07980    2.48380    0.13230   16.63760   69.26960   21.33150   20.88890   60.36910    -999.25   20.21020   20.21020   10.39680   12.97800   14.04530    -999.25    0.04630    2.62730    2.62730    -999.25    0.10070   14.56070   16.63760   12.97800  -86.55830  -76.96710   14.56070   -0.28930    7.71980    0.07980
 11500.00000   76.30150    -999.25    9.66710   10.03640   10.03640    -999.25    0.11960   62.71400    0.23200    2.29560    0.24240   15.94540   76.30150   24.37280   22.08410   34.42990    -999.25   23.38860   23.38860   11.06390   13.47070    8.57490    -999.25    0.07960    6.21040    6.21040    -999.25    0.21480   13.30370   15.94540   13.47070  -84.07550  -75.25680   13.30370    3.71200   10.50420    0.23200
 11550.00000   67.80860    -999.25   10.50670   10.53210   10.53210    -999.25    0.12350  196.04770    0.20220    2.40040    0.18110    5.10080   67.80860   24.76270   26.13300   24.76370    -999.25   25.00100   25.00100    9.28040    5.51730    9.61040    -999.25    0.08350    4.08700    4.08700    -999.25    0.15130    7.64760    5.10080    5.51730  -71.42740  -63.38130    7.64760   15.46950   13.55870    0.20220
 11600.00000   68.63060    -999.25    9.64180   10.63340   10.63340    -999.25    0.19520  134.21920    0.25120    2.08600    0.36490    7.45050   68.63060   69.04690   74.18160   96.62510    -999.25   69.80550   69.80550    9.89000    6.72980   27.28320    -999.25    0.15520    5.59730    5.59730    -999.25    0.34180    7.06270    7.45050    6.72980  -26.24750  -18.97390    7.06270    0.75370   19.88520    0.25120
 11650.00000   72.86690    -999.25    8.55200    -999.25    8.55200    -999.25    0.24540  200.57360    0.24130    1.97420    0.43030    4.98570   72.86690   68.28220   71.08130  108.10100    -999.25   62.90840   62.90840   10.21350    3.72080   12.53270    -999.25    0.20540    6.05890    6.05890    -999.25    0.40960    5.18140    4.98570    3.72080  -17.30990  -10.80890    5.18140    3.08850    0.71530    0.24130
 11700.00000   81.47580    -999.25   14.12540    -999.25   14.12540    -999.25    0.28280  326.46670    0.27970    2.10760    0.35230    3.06310   81.47580   77.05610   77.03400    -999.25    -999.25   73.58420   73.58420   12.83280    5.76600   17.00030    -999.25    0.24280    4.31180    4.31180    -999.25    0.32870    4.14890    3.06310    5.76600   -9.23920   -3.51070    4.14890   99.21460  -12.08960    0.27970
 11750.00000   77.93160    -999.25   11.41780    -999.25   11.41780    -999.25    0.26520  306.97450    0.29450    2.16900    0.31640    3.25760   77.93160   89.72950   86.91880    -999.25    -999.25   79.05790   79.05790   11.67960    6.06600    -999.25    -999.25    0.22520    4.57590    4.57590    -999.25    0.29150    4.58650    3.25760    6.06600   -9.39950   -4.44360    4.58650  -10.36730   -0.56440    0.29450
 11800.00000   88.55540    -999.25   13.72820    -999.25   13.72820    -999.25    0.29670  443.14460    0.28420    2.16520    0.31860    2.25660   88.55540   85.38340   83.74410    -999.25    -999.25   82.88520   82.88520   12.38600    4.14850    -999.25    -999.25    0.25670    4.73870    4.73870    -999.25    0.29380    2.94490    2.25660    4.14850   -2.48100    1.70240    2.94490   11.70830    0.28490    0.28420
 11850.00000   83.56630    -999.25    -999.25    -999.25    -999.25    -999.25    -999.25  463.52090    -999.25    -999.25    -999.25    2.15740   83.56630    -999.25   78.15320    -999.25    -999.25   76.75290   76.75290   10.73270    3.44730    -999.25    -999.25    -999.25    -999.25    -999.25    -999.25    -999.25    2.77950    2.15740    3.44730   -9.61950   -7.05570    2.77950    -999.25   -2.36150    -999.25
 11900.00000   81.50980    -999.25    -999.25    -999.25    -999.25    -999.25    -999.25  210.32710    -999.25    -999.25    -999.25    4.75450   81.50980    -999.25   91.40170    -999.25    -999.25   89.99690   89.99690   11.88480    7.06980    -999.25    -999.25    -999.25    -999.25    -999.25    -999.25    -999.25    4.99180    4.75450    7.06980  -11.96720  -11.40350    4.99180    -999.25   -0.62220    -999.25
 11950.00000   84.23770    -999.25    -999.25    -999.25    -999.25    -999.25    -999.25  251.76870    -999.25    -999.25    -999.25    3.97190   84.23770    -999.25   79.90100    -999.25    -999.25   79.78100   79.78100   12.88700    5.65630    -999.25    -999.25    -999.25    -999.25    -999.25    -999.25    -999.25    4.64210    3.97190    5.65630  -19.94200  -21.37840    4.64210    -999.25    1.21160    -999.25
 12000.00000   90.81150    -999.25    -999.25    -999.25    -999.25    -999.25    -999.25  362.92370    -999.25    -999.25    -999.25    2.75540   90.81150    -999.25   73.36860    -999.25    -999.25   72.36960   72.36960   12.80100    3.59560    -999.25    -999.25    -999.25    -999.25    -999.25    -999.25    -999.25    3.13440    2.75540    3.59560  -22.35760  -25.79410    3.13440    -999.25   -0.65490    -999.25
 12050.00000  124.03280    -999.25    -999.25    -999.25    -999.25    -999.25    -999.25  460.04510    -999.25    -999.25    -999.25    2.17370  124.03280    -999.25   67.17340    -999.25    -999.25   65.82100   65.82100   12.22370    3.05350    -999.25    -999.25    -999.25    -999.25    -999.25    -999.25    -999.25    2.80050    2.17370    3.05350  -15.67330  -21.10990    2.80050    -999.25    2.27520    -999.25
 12100.00000   89.06760    -999.25    -999.25    -999.25    -999.25    -999.25    -999.25  215.21110    -999.25    -999.25    -999.25    4.64660   89.06760    -999.25   79.59790    -999.25    -999.25   73.67420   73.67420   11.91830    6.02040    -999.25    -999.25    -999.25    -999.25    -999.25    -999.25    -999.25    4.84410    4.64660    6.02040  -27.91430  -35.35100    4.84410    -999.25    0.17700    -999.25
 12150.00000   94.05660    -999.25    -999.25    -999.25    -999.25    -999.25    -999.25  242.43010    -999.25    -999.25    -999.25    4.12490   94.05660    -999.25   81.77380    -999.25    -999.25   74.50680   74.50680   10.30790    6.10170    -999.25    -999.25    -999.25    -999.25    -999.25    -999.25    -999.25    4.87950    4.12490    6.10170  -24.26510  -33.70190    4.87950    -999.25  -13.24260    -999.25
 12200.00000  100.91270    -999.25    -999.25    -999.25    -999.25    -999.25    -999.25  203.35120    -999.25    -999.25    -999.25    4.91760  100.91270    -999.25   76.94240   65.38740    -999.25   73.58780   73.58780   11.82950    9.70390    -999.25    -999.25    -999.25    -999.25    -999.25    -999.25    -999.25    6.61200    4.91760    9.70390  -21.72360  -33.16060    6.61200    -999.25    8.25480    -999.25
 12250.00000  101.58570   14.04730    -999.25    -999.25   14.04730    0.04680    -999.25  390.00040    0.02900    -999.25    -999.25    2.56410  101.58570   64.26420   62.24940   47.29250    -999.25   66.44640   66.44640   12.56090    4.22520    -999.25    -999.25    0.04680    1.27460    1.27460    -999.25    -999.25    4.58760    2.56410    4.22520  -21.56860  -35.00570    4.58760    -999.25   38.73780    0.02900
