~Version ---------------------------------------------------
VERS. 2.0 : CWLS log ASCII Standard -VERSION 2.0
WRAP.  NO : ONE LINE PER DEPTH STEP
~Well ------------------------------------------------------
STRT.F                   300.0 : START DEPTH
STOP.F                 14000.0 : STOP DEPTH
STEP.F                50.00000 : STEP LENGTH
NULL.                  -999.25 : NULL VALUE
COMP.        GETTY OIL COMPANY : COMPANY
WELL.           R. B. LEWIS #1 : WELL
FLD .                  WILDCAT : FIELD
LOC .                          : LOCATION
CNTY.                 BURLESON : COUNTY
STAT.                    TEXAS : STATE
CTRY. UNITED STATES OF AMERICA : COUNTRY
SRVC.             Schlumberger : SERVICE COMPANY
DATE.              12-May-1980 : LOGDATE
API .           42051306100000 : API NUMBER
UWI .           42051306100000 : UNIQUE WELL ID
SLAT.WGS84           30.417676 : SURFACE LATITUDE
SLON.WGS84          -96.504349 : SURFACE LONGITUDE
~Curve Information -----------------------------------------
DEPT.F                 : 
SPR .MV   07 010 01 00 : SPONTANEOUS POTENTIAL
DT  .US/F 60 520 00 00 : DELTA TIME
ILD .OHMM 07 120 46 00 : DEEP INDUCTION RESISTIVITY
ILM .OHMM 07 120 44 00 : INDUCTION LOG MEDIUM RESISTIVITY
SFLU.OHMM 07 220 01 00 : SPHERICALLY FOCUSED LOG UNAVERAGED RESISTIVITY
GRD .GAPI 45 310 01 00 : GAMMA RAY FROM DENSITY LOG
CALD.IN   45 280 60 00 : CALIPER FROM DENSITY
DRHO.G/C3 45 356 01 00 : DENSITY CORRECTION
RHOB.G/C3 45 350 01 00 : BULK DENSITY
NPHI.DEC  42 890 03 00 : NEUTRON POROSITY SANDSTONE
GR  .GAPI 30 310 01 00 : GAMMA RAY
~Params ----------------------------------------------------
EKB .F                 283.0 : KELLY BUSHING
EGL .F                   266 : ELEVATION GROUND LEVEL
EDF .F                   282 : ELEVATION DERRICK FLOOR
EPD .F                   266 : ELEVATION PERMANENT DATUM
TD  .F               14006.0 : TOTAL DEPTH
DATE.            14-MAY-1980 : DATE LOGGED
CLNT.                A2DTECH : CLIENT CODE
SL  . 3459' FNEL & 2038' FSL : SURFACE LOCATION
PD  .                     GL : PERMANENT DATUM
LMF .                     KB : LOG MEASURED FROM
DMF .                     KB : DRILLING MEASURED FROM
DAPD.F                    17 : FEET ABOVE PERMANENT DATUM
DD  .F                 14001 : DEPTH DRILLER
DL  .F                 14006 : DEPTH LOGGER
BLI .F                 14003 : BOTTOM LOG INTERVAL
TLI .F                  9717 : TOP LOG INTERVAL
CS1 .IN                7.875 : CASING SIZE
CBD1.         7.875" @ 9729' : CASING DRILLER 1
CBL1.F                  9717 : CASING LOGGER 1
BS1 .IN                  6.5 : BIT SIZE
BSD1.F                 14001 : DEPTH DRILLED WITH BIT1
DFT .         SPERSENE/XF-20 : TYPE FLUID IN HOLE
DFD .                   10.2 : DENSITY
DFV .                     43 : VISCOSITY
DFPH.                     10 : PH
DFL .                   10.4 : FLUID LOSS
MSS .              CIRC TANK : SOURCE OF SAMPLE
RMS .OHMM              0.616 : RM
RMF .OHMM               0.46 : RMF
RMC .OHMM               0.92 : RMC
MFSS.                   CALC : SOURCE RMF.
MCSS.                   CALC : SOURCE RMC.
RMB .OHMM              0.143 : RM. AT BHT
BHT .F                   322 : BHT.
TCS .HRS                2200 : TIME CIRC. STOPPED
TLAB.HRS                 500 : TIME LOGGER AT BOTTOM
LUN .                   8176 : LOGGING UNIT NUMBER
LUL .                BRENHAM : LOGGING UNIT LOCATION
ENGI.                 HARVEY : RECORDED BY
WITN.           ADDINGTON JR : WITNESSED BY
ORIG.               5" PRINT : ORIGIN OF DATA
UWI .         42051306100000 : UNIQUE WELL ID
DICO. A2D TECHNOLOGIES, INC. : DIGITIZING COMPANY
~Other -----------------------------------------------------
# NPHI SANDSTONE/LIMESTONE
~ASCII -----------------------------------------------------
# ...
 12450.00000  -15.17800   50.62600  101.36800  115.39500  538.29500   30.05700    8.01000    0.03000    2.70000    0.01000    -999.25
 12500.00000    4.66800   52.01600   26.31500   24.75700  135.27500   37.68000    7.83900    0.04700    2.74500    0.01000    -999.25
 12550.00000    3.38200   69.29500    5.87000    7.24600    8.30500   86.31200    8.59900    0.04700    2.70100    0.11500    -999.25
 12600.00000    6.77700   74.85600    4.08900    3.12700    4.54500   94.28900   10.71100    0.23200    2.80200    0.03400    -999.25
 12650.00000    4.90900   87.76600    2.24700    2.12700    2.90600   82.64600   15.83900    0.21400    2.61400    0.18900    -999.25
 12700.00000    4.91800   79.48800    5.17400    5.99700    6.58300   92.12600   13.58100    0.04600    2.59000    0.16900    -999.25
 12750.00000    5.72500   53.50500   68.76200   19.52700  117.87900   48.31500    9.50900    0.02500    2.70300    0.00300    -999.25
 12800.00000    2.44700   59.31300   11.17100   11.84600   18.76900   32.88700    8.67800    0.04000    2.74900    0.06400    -999.25
 12850.00000    7.22200   69.54100    4.89000    5.26300    5.40800   59.13200    8.75300    0.11500    2.59400    0.00000    -999.25
 12900.00000    5.07600   62.74100    3.36100    2.97500    8.45900   79.15900    9.38100    0.25000    2.63400    0.08500    -999.25
 12950.00000  -37.34800   49.34100   70.20000  104.06700  268.13100   22.04500    9.98100    0.03000    2.74800   -0.00100    -999.25
 13000.00000  -34.62900   49.96800  225.00000  849.86500  469.28600   22.11200    9.34900    0.03200    2.73900    0.00000    -999.25
 13050.00000  -29.02600   50.42700  813.18500  495.75900  534.87100   21.98400    8.95400    0.04200    2.74900    0.00000    -999.25
 13100.00000  -48.90100   49.82300 1555.23000  184.61800  310.94800   32.10000    8.53800    0.03600    2.72900    0.00100    -999.25
 13150.00000  -25.85600   49.65200  182.92100  183.15500  276.08900   15.53200    8.43700    0.02700    2.72400    0.00100    -999.25
 13200.00000  -20.33000   55.98600   12.93300   11.87000   17.83500   46.68100    8.22600    0.02500    2.73900    0.01700    -999.25
 13250.00000  -31.20300   50.19400  161.95400 1919.35400  337.62800   31.07100    8.36300    0.02200    2.70800    0.00200    -999.25
 13300.00000  -79.81600   50.40400 1884.56300 1990.87500  209.84700   35.92200    8.18500    0.02700    2.76300    0.00200    -999.25
 13350.00000  -39.98400   49.87300  532.11100 1884.56300  340.94400   21.34900    7.79600    0.04200    2.76600    0.00400    -999.25
 13400.00000  -17.79000   51.61900   34.69200   45.16200   50.85700   55.84300    7.60100    0.04500    2.75300    0.01100    -999.25
 13450.00000   -7.28700   49.63300   79.98800 1334.76700  247.39100   20.57000    7.81400    0.04200    2.78800    0.00800    -999.25
 13500.00000  -11.43800   50.22800   14.65500   25.95100  249.66400   64.49700    7.96800    0.01700    2.70300    0.09400    -999.25
 13550.00000   -5.04100   52.97000   23.15200   23.36500   37.39000   41.67100    7.85500    0.06300    2.77400    0.01400    -999.25
 13600.00000  -41.01800   48.33400  714.75600 2000.00000  963.52400   32.73000    8.39300    0.05500    2.73500    0.00300    -999.25
 13650.00000    7.93600   71.53200    3.02700    3.36500    5.90700  101.13600    7.77300    0.06400    2.69000    0.09900    -999.25
 13700.00000    6.02300   54.39900    7.72500    8.33600   23.36500   56.09400    7.48600    0.04500    2.75400    0.02900    -999.25
 13750.00000   -3.63800   58.80400    8.12600    8.05300   13.46000   84.53300    7.37800    0.08100    2.75800    0.01500    -999.25
 13800.00000   -2.77700   53.60500   16.73800   27.27700  105.67400   57.18700    7.16100    0.04900    2.70600    0.03700    -999.25
 13850.00000  -31.55900   54.20100   12.09400   15.91200   17.04200   48.53500    7.25100    0.03600    2.71000    0.03100    -999.25
 13900.00000  -25.69000   58.27200   17.20400   22.67400   24.45800   44.86300    7.02800    0.07400    2.62000    0.01900    -999.25
 13950.00000  -22.10200   55.26400   15.64500   19.71000   40.96200   33.39000    7.16100    0.06700    2.69400    0.01700    -999.25
 14000.00000    5.35400    -999.25    5.41300    4.71400    6.03500  136.54400    7.17800    0.09600    2.72700    0.11000    -999.25
