~Version ---------------------------------------------------
VERS. 2.0 : CWLS log ASCII Standard -VERSION 2.0
WRAP.  NO : ONE LINE PER DEPTH STEP
~Well ------------------------------------------------------
STRT.F                      550.0 : START DEPTH
STOP.F                     7800.0 : STOP DEPTH
STEP.F                   50.00000 : STEP LENGTH
NULL.                     -999.25 : NULL VALUE
COMP. BELCO PETROLEUM CORPORATION : COMPANY
WELL.            E. B. KINCAID #1 : WELL
FLD .                    UN-NAMED : FIELD
LOC .          S200 T2640N R1383E : LOCATION
CNTY.                    MAVERICK : COUNTY
STAT.                       TEXAS : STATE
CTRY.    UNITED STATES OF AMERICA : COUNTRY
SRVC.                             : SERVICE COMPANY
DATE.                             : LOGDATE
API .              42323300710000 : API NUMBER
UWI .              42323300710000 : UNIQUE WELL ID
SLAT.WGS84          28.7741926765 : SURFACE LATITUDE
SLON.WGS84        -100.4227523578 : SURFACE LONGITUDE
~Curve Information -----------------------------------------
DEPT.F                 : 
RHOB.G/C3 45 350 01 00 : BULK DENSITY
DRHO.G/C3 45 356 01 00 : DENSITY CORRECTION
SPR .MV   07 010 01 00 : SPONTANEOUS POTENTIAL FROM RES. LOG
ILD .OHMM 07 120 46 00 : INDUCTION LOG DEEP
ILM .OHMM 07 120 44 00 : INDUCTION LOG MEDIUM
LL8 .OHMM 07 220 08 00 : LATEROLOG-8 RES.
CALD.IN   42 280 60 00 : CALIPER FROM NEUTRON LOG.
NPHI.DEC  42 890 00 00 : 
GRD .GAPI 42 310 01 00 : GAMMA RAY FROM COMPENSATED NEUTRON LOG
~Params ----------------------------------------------------
EKB .F                 895.5 : Kelly bushing
EGL .F                 883.0 : Ground level
EDF .F                   0.0 : Drilling floor
EPD .F                 883.0 : Permanent datum
TD  .F                7839.0 : Total depth
DATE.            12-OCT-1971 : Date logged
CLNT.                A2DTECH : Client Code
SL  .  2640' FNL & 1383' FWL : Surface Location
PD  .                     GL : Permanent Datum
LMF .                     KB : Log Measured From
DMF .                     KB : Drilling Measured From
DAPD.F                  12.5 : Feet Above Permanent Datum
DD  .F                  7836 : Depth driller
DL  .F                  7839 : Depth logger
BLI .F                  7835 : Bottom log interval
TLI .F                  7744 : Top log interval
CS1 .IN                7.625 : Casing size
CBD1.         7.625" @ 7244' : Casing driller 1
CBL1.F                  7244 : Casing logger 1
BS1 .IN                 6.75 : Bit size
BSD1.F                  7836 : Depth drilled with bit1
DFT .             SPERESENEL : Type fluid in hole
DFD .                   19.0 : Density
DFV .                     53 : Viscosity
DFPH.                   10.0 : pH
DFL .                    1.6 : Fluid loss
MSS .               CIRC PIT : Source of sample
RMS .OHMM               0.54 : Rm
RMF .OHMM               0.76 : Rmf
RMC .OHMM                2.3 : Rmc
MFSS.                      M : Source Rmf.
MCSS.                      C : Source Rmc.
RMB .OHMM               0.23 : Rm. at BHT
BHT .F                   218 : BHT.
TCS .HRS                  18 : Time Circ. stopped
LUN .                   7504 : Logging unit number
LUL .                  PLEAS : Logging unit location
ENGI.                 MCNABB : Recorded By
WITN.                 WILCOX : Witnessed by
ORIG.               5" PRINT : Origin of data
UWI .         42323300710000 : Unique Well ID
DICO. A2D TECHNOLOGIES, INC. : Digitizing Company
~Other -----------------------------------------------------
~ASCII -----------------------------------------------------
  550.00000    -999.25    -999.25  -29.74700    2.03600    1.81600    2.29200    -999.25    -999.25    -999.25
  600.00000    -999.25    -999.25  -30.29400    3.82300    3.36200    3.65500    -999.25    -999.25    -999.25
  650.00000    -999.25    -999.25  -26.23500    2.53800    2.30200    2.43900    -999.25    -999.25    -999.25
  700.00000    -999.25    -999.25  -26.44600    2.04900    2.39500    2.29000    -999.25    -999.25    -999.25
  750.00000    -999.25    -999.25  -26.16000    4.67300    5.81200    5.48700    -999.25    -999.25    -999.25
  800.00000    -999.25    -999.25  -29.21500    5.20600    4.96700    5.82400    -999.25    -999.25    -999.25
  850.00000    -999.25    -999.25  -46.89900    3.14400    3.06600    3.91100    -999.25    -999.25    -999.25
  900.00000    -999.25    -999.25  -27.88500    3.52500    3.21300    3.34700    -999.25    -999.25    -999.25
  950.00000    -999.25    -999.25  -26.20500    2.56000    2.26000    2.66100    -999.25    -999.25    -999.25
 1000.00000    -999.25    -999.25  -20.89100    1.68600    1.56100    1.84100    -999.25    -999.25    -999.25
 1050.00000    -999.25    -999.25  -25.69600    2.76900    2.46200    2.74000    -999.25    -999.25    -999.25
 1100.00000    -999.25    -999.25  -25.80300    3.72300    3.65500    4.01000    -999.25    -999.25    -999.25
 1150.00000    -999.25    -999.25  -24.43500    2.25400    1.97400    2.53200    -999.25    -999.25    -999.25
 1200.00000    -999.25    -999.25  -23.79500    1.65500    1.53200    2.01600    -999.25    -999.25    -999.25
 1250.00000    -999.25    -999.25  -24.15600    2.27200    2.16600    2.57200    -999.25    -999.25    -999.25
 1300.00000    -999.25    -999.25  -23.08800    2.81700    2.51300    2.94900    -999.25    -999.25    -999.25
 1350.00000    -999.25    -999.25  -23.62400    2.95500    2.76400    3.24200    -999.25    -999.25    -999.25
 1400.00000    -999.25    -999.25  -22.98900    2.25300    1.90600    2.35400    -999.25    -999.25    -999.25
 1450.00000    -999.25    -999.25  -23.15700    3.34500    3.12000    3.79100    -999.25    -999.25    -999.25
 1500.00000    -999.25    -999.25  -21.78600    2.55200    2.87600    2.81700    -999.25    -999.25    -999.25
 1550.00000    -999.25    -999.25  -23.57800    7.19300    7.30000    8.77900    -999.25    -999.25    -999.25
 1600.00000    -999.25    -999.25  -22.37400    4.29400    4.37200    5.63700    -999.25    -999.25    -999.25
 1650.00000    -999.25    -999.25  -21.70500    4.79400    4.61800    4.79400    -999.25    -999.25    -999.25
 1700.00000    -999.25    -999.25  -23.28500    5.75900    5.50100    5.81200    -999.25    -999.25    -999.25
 1750.00000    -999.25    -999.25  -20.33100    7.58200    7.65100    6.84000    -999.25    -999.25    -999.25
 1800.00000    -999.25    -999.25  -22.59100    8.86000    9.02400   10.77900    -999.25    -999.25    -999.25
 1850.00000    -999.25    -999.25  -22.46400    8.38600    9.31000   13.88500    -999.25    -999.25    -999.25
 1900.00000    -999.25    -999.25  -21.74800    9.35100   10.74200   12.55300    -999.25    -999.25    -999.25
 1950.00000    -999.25    -999.25  -20.18000    4.37400    5.86500   15.78700    -999.25    -999.25    -999.25
 2000.00000    2.55300    0.09400  -20.10400    3.60300    4.01500    5.88500   11.43000    0.13400   59.62700
 2050.00000    2.96600    0.18300  -22.95200    6.60700    9.53600   26.86800   11.07600    0.11800   55.51800
 2100.00000    2.60400    0.01500  -22.27000   10.58700   10.55600   10.74200   10.71400    0.04200   53.36100
 2150.00000    2.61200    0.03300  -30.83000   15.84200   18.92900   20.58100   10.89000    0.05100   35.47800
 2200.00000    2.64400    0.04000  -22.69700   13.26300   14.12100   12.21300   10.86000    0.04900   42.04600
 2250.00000    2.70600    0.04400  -23.79600   12.55300   13.58100    9.44800   10.89000    0.06100   47.79300
 2300.00000    2.67400    0.02500  -19.70000   11.24500   11.78500   14.46500   10.89000    0.06300   65.79500
 2350.00000    2.60100    0.01700  -24.97800   11.95500   12.10100   12.84400   10.37000    0.08000   83.98800
 2400.00000    2.57100    0.01900  -31.21400   13.02200   16.58400   12.78500   10.36600    0.07900   40.81800
 2450.00000    2.57400    0.01400  -29.76600    9.80100   10.61800   12.32500   10.33000    0.07700   30.00000
 2500.00000    2.54700    0.00700  -31.37400    8.62000    9.19900   11.88500   10.29000    0.10000   34.96400
 2550.00000    2.58100   -0.00100  -30.01700   12.21300   13.02200   16.97400   10.26400    0.09100   48.77300
 2600.00000    2.57100    0.01100  -24.82200   32.69900   35.14600   29.58600   10.21000    0.09200  108.06000
 2650.00000    2.59400    0.01500  -26.61300   33.22100   31.79100   51.97200   10.19000    0.05300   43.28800
 2700.00000    2.56400    0.00100  -22.28300   50.87800   49.50700  150.58600   10.16500    0.05100   61.04600
 2750.00000    2.55900    0.02400  -20.78400   29.68300   25.65600   62.45200   10.16700    0.09000   63.43100
 2800.00000    2.57800    0.02200  -25.40100   15.93200   17.52400   29.71900   10.17000    0.11100   56.47700
 2850.00000    2.62400    0.04200  -21.34600   21.58700   20.11500   50.57900   10.23000    0.08400   49.46600
 2900.00000    2.58300    0.01500  -21.78800   16.28200   15.54300   24.06300   10.21000    0.09900   53.02800
 2950.00000    2.55700    0.02900  -21.21900   22.09600   23.27700   38.41600   10.16000    0.11300   50.40100
 3000.00000    2.48200    0.00700  -19.86600   12.46900   13.21900   19.95500   10.30700    0.17200   82.67600
 3050.00000    2.50200    0.02400  -20.38000   40.96300   39.89000   63.60800   10.26500    0.14000   79.31400
 3100.00000    2.41100    0.00000  -21.05700   58.68600   56.98100   99.68100   10.31300    0.16600   85.34800
 3150.00000    2.52900    0.00500  -21.87600   70.30400   94.34500  191.12100   10.20100    0.09300   91.88400
 3200.00000    2.66200    0.02000  -35.78300   27.73400   30.54700   38.12000   10.44900    0.02100   11.25800
 3250.00000    2.67800    0.01800  -35.67200   22.64800   25.77100   33.17500   10.35500    0.02700   17.67900
 3300.00000    2.62200    0.00300  -39.47400   28.38700   31.63700   48.75700   10.34800    0.02000   17.36900
 3350.00000    2.05900    0.09300  -15.39200    2.23500    1.86400    2.85400   16.68600    0.19200   67.56200
 3400.00000    2.16000    0.06500  -14.48900    2.24000    1.74900    2.24700   17.68200    0.19500   70.33500
 3450.00000    1.85300    0.08700  -14.40800    1.84500    1.63600    1.86500   17.67000    0.23000   67.51500
 3500.00000    2.40300    0.12200  -16.07200    2.62000    2.44900    2.94400   17.68900    0.19400   69.28800
 3550.00000    2.14100    0.06800  -15.15300    2.15900    2.15900    2.94900   17.16600    0.20700   66.36400
 3600.00000    2.67100    0.02300  -16.56600   11.89600   12.45900   16.39700   11.37600    0.02900   27.53500
 3650.00000    2.66300    0.02400  -27.75900   19.49300   20.59500   23.69300   11.02200    0.01700   17.20600
 3700.00000    2.45800    0.03100  -45.07600   12.03200   12.43900   14.14200   12.43100    0.10200   14.70500
 3750.00000    2.64900    0.03700  -21.31600   14.94300   17.70700   17.46200   10.94600    0.03100   16.99800
 3800.00000    2.69400    0.02200  -23.42400   22.64500   22.82200   29.95100   11.21200    0.00500   23.05500
 3850.00000    2.68500    0.00800  -20.61400   22.89900   18.96400   36.43400   10.96400    0.00300   21.71400
 3900.00000    2.65200    0.01100  -19.04800   18.60500   17.30300   26.64200   11.04900    0.00600   23.99500
 3950.00000    2.73700    0.02000  -20.09500   24.17600   27.26600   44.75400   10.86900    0.00200   21.48700
 4000.00000    2.68200   -0.00200  -19.44200   32.40500   28.64900   51.32000   10.76500   -0.00800   14.76200
 4050.00000    2.72800    0.04000  -19.23900   32.56300   35.94000   74.93700   10.64400   -0.00700   20.73500
 4100.00000    2.66900    0.01400  -15.35700   27.81900   29.31100   42.26600   10.67200    0.01100   11.51200
 4150.00000    2.66900    0.01100  -23.24000   32.87200   34.77000   46.89400   10.55200    0.00600   21.24100
