~Version ---------------------------------------------------
VERS. 2.0 : CWLS log ASCII Standard -VERSION 2.0
WRAP.  NO : One line per depth step
~Well ------------------------------------------------------
STRT.FT                 2350.0 : START DEPTH
STOP.FT                 8250.0 : STOP DEPTH
STEP.FT               50.00000 : STEP LENGTH
NULL.                  -999.25 : NULL VALUE
COMP.        IKE LOVELADY INC. : COMPANY
WELL.           RUTH BOWERS #1 : WELL
FLD .                   STRAIT : FIELD
LOC .                          : LOCATION
CNTY.                   DIMMIT : COUNTY
STAT.                    TEXAS : STATE
CTRY. UNITED STATES OF AMERICA : COUNTRY
SRVC.                          : SERVICE COMPANY
DATE.                          : LOGDATE
API .           42127317180000 : API NUMBER
UWI .           42127317180000 : UNIQUE WELL ID
SLAT.WGS84       28.5460115215 : SURFACE LATITUDE
SLON.WGS84      -99.5917438073 : SURFACE LONGITUDE
~Curve Information -----------------------------------------
DEPT  .FT    : DEPTH
CILDED.MMHO  : CONDUCTIVITY FROM RESISTIVITY LOG
ILDED .OHMM  : INDUCTION LOG DEEP RESISTIVITY
ALL8ED.OHMM  : AVG. LATEROLOG-8 RESISTIVITY
SPED  .MV    : SPONTANEOUS POTENTIAL [BASELINE 0 MV] FROM RESISTIVITY LOG
NPHIED.V/V   : NEUTRON POROSITY SANDSTONE FROM DENSITY LOG DEPTH ADJUSTED TO ALL8ED
CALDED.IN    : CALIPER FROM DENSITY LOG DEPTH ADJUSTED TO ALL8ED
CORRED.G/C3  : DENSITY CORRECTION FROM DENSITY LOG DEPTH ADJUSTED TO ALL8ED
GRDED .GAPI  : GAMMA RAY FROM DENSITY LOG DEPTH ADJUSTED TO ALL8ED
RHOBED.G/C3  : BULK DENSITY FROM DENSITY LOG DEPTH ADJUSTED TO ALL8ED
CALWS .IN    : CALIPER [CALDED]
CONDWS.MMHO  : CONDUCTIVITY [CILDED]
DCORWS.G/C3  : DENSITY CORRECTION [DRHOED]
DENWS .G/C3  : BULK DENSITY [RHOBED]
DRESWS.OHMM  : DEEP RESISTIVITY [2350 ILDED, 7200 1000/CILDED] [IF DRESWS<1;1000/CILDED]
GRWS  .GAPI  : GAMMA RAY [GRDED]
NPOWS .V/V   : NEUTRON POROSITY LIMESTONE [NPHIED]
SPWS  .MV    : SPONTANEOUS POTENTIAL [SPED]
SRESWS.OHMM  : SHALLOW RESISTIVITY [ALL8ED]
DPOWS .V/V   : DENSITY POROSITY [M=2.71 F=1.0] [CALCULATED FROM RHOBED]
~Params ----------------------------------------------------
EKB .F                 486.0 : Kelly bushing
EGL .F                 474.0 : Ground level
EDF .F                 485.0 : Drilling floor
EPD .F                 474.0 : Permanent datum
TD  .F                8268.0 : Total depth
CLNT.                A2DTECH : Client Code
SL  .   1980' FEL & 660' FSL : Surface Location
PD  .                     GL : Permanent Datum
LMF .                     KB : Log Measured From
DMF .                     KB : Drilling Measured From
DAPD.F                    12 : Feet Above Permanent Datum
DATE.            07-JUL-1978 : Date Logged [DD-MMM-YYYY]
DD  .F                  8268 : Depth driller
DL  .F                  8260 : Depth logger
BLI .F                  8259 : Bottom log interval
TLI .F                  7950 : Top log interval
CS1 .IN                7.625 : Casing size
CBD1.         7.625" @ 7180' : Casing driller 1
BS1 .IN                  6.5 : Bit size
BSD1.F                  8268 : Depth drilled with bit1
DFT .              LIGNOSULF : Type fluid in hole
DFD .                    9.5 : Density
DFV .                     47 : Viscosity
DFPH.                     10 : pH
DFL .                    5.8 : Fluid loss
MSS .              CIRC TANK : Source of sample
RMS .OHMM               0.64 : Rm
RMF .OHMM               0.53 : Rmf
MFSS.                   MEAS : Source Rmf.
RMC .OHMM                0.5 : Rmc
MCSS.                   CALC : Source Rmc.
RMB .OHMM                0.3 : Rm. at BHT
BHT .F                   172 : BHT.
TCS .HRS                 900 : Time Circ. stopped
TLAB.HRS                1730 : Time logger at bottom
LUN .                   7769 : Logging unit number
LUL .                 LAREDO : Logging unit location
ENGI.          RENFROW/FOGAL : Recorded By
WITN.                GRIFFEN : Witnessed by
ORIG.        2.5" & 1" PRINT : Origin of data
UWI .         42127317180000 : Unique Well ID
DICO. A2D TECHNOLOGIES, INC. : Digitizing Company
~Other -----------------------------------------------------
~ASCII -----------------------------------------------------
# ...
 6050.00000  253.72580    3.88060    4.23150   -2.14150    0.27810   12.81550    0.06260   67.96200    2.49900   12.81550  253.72580    0.06260    2.49900    3.88060   67.96200    0.27810   -2.14150    4.23150    0.12340
 6100.00000  116.98960    8.73130   10.02990   -3.06410    0.14470   12.10250    0.04100   49.47990    2.61110   12.10250  116.98960    0.04100    2.61110    8.73130   49.47990    0.14470   -3.06410   10.02990    0.05780
 6150.00000  105.18780    8.27120    8.35330   -7.27020    0.10170   11.77560    0.00120   48.68620    2.61040   11.77560  105.18780    0.00120    2.61040    8.27120   48.68620    0.10170   -7.27020    8.35330    0.05820
 6200.00000  155.87500   10.89550   10.73170   -5.70480    0.10800   11.44820   -0.01240   47.61290    2.54750   11.44820  155.87500   -0.01240    2.54750   10.89550   47.61290    0.10800   -5.70480   10.73170    0.09500
 6250.00000   72.65340   13.84330   20.32190   -4.56260    0.08440   11.74630    0.00170   36.44640    2.58760   11.74630   72.65340    0.00170    2.58760   13.84330   36.44640    0.08440   -4.56260   20.32190    0.07160
 6300.00000   55.14160   17.58160   18.41320  -10.78340    0.07320   11.89510    0.00340   38.00890    2.63340   11.89510   55.14160    0.00340    2.63340   17.58160   38.00890    0.07320  -10.78340   18.41320    0.04480
 6350.00000   50.67060   21.03100   28.44310   -9.54170    0.05010   12.10870   -0.00290   22.81920    2.63280   12.10870   50.67060   -0.00290    2.63280   21.03100   22.81920    0.05010   -9.54170   28.44310    0.04510
 6400.00000   55.63880   18.24950   21.25650  -12.03210    0.07190   12.31010   -0.00360   23.33650    2.61270   12.31010   55.63880   -0.00360    2.61270   18.24950   23.33650    0.07190  -12.03210   21.25650    0.05690
 6450.00000   52.02100   20.70880   23.99690   -9.89400    0.06130   11.73330   -0.00590   22.19640    2.63370   11.73330   52.02100   -0.00590    2.63370   20.70880   22.19640    0.06130   -9.89400   23.99690    0.04460
 6500.00000   83.08260   11.69150   12.36530   -7.60740    0.13010   11.98570   -0.01090   30.43400    2.62900   11.98570   83.08260   -0.01090    2.62900   11.69150   30.43400    0.13010   -7.60740   12.36530    0.04740
 6550.00000   21.33230   38.54540   40.47930  -14.57450    0.07960   12.37250   -0.00030   24.61770    2.58720   12.37250   21.33230   -0.00030    2.58720   38.54540   24.61770    0.07960  -14.57450   40.47930    0.07180
 6600.00000   34.43110   30.79600   36.05790   -9.00440    0.07740   12.34290   -0.00480   45.41140    2.63750   12.34290   34.43110   -0.00480    2.63750   30.79600   45.41140    0.07740   -9.00440   36.05790    0.04240
 6650.00000   29.44130   33.65650   39.47600   -9.23020    0.11550   12.14970    0.01430   61.93930    2.61330   12.14970   29.44130    0.01430    2.61330   33.65650   61.93930    0.11550   -9.23020   39.47600    0.05650
 6700.00000   29.44110   42.23880   56.71640   -5.07820    0.13410   11.76240   -0.00250   51.81250    2.56710   11.76240   29.44110   -0.00250    2.56710   42.23880   51.81250    0.13410   -5.07820   56.71640    0.08360
 6750.00000   30.93810   42.91040   60.78870   -4.53260    0.13880   12.71760   -0.00210   45.24270    2.60370   12.71760   30.93810   -0.00210    2.60370   42.91040   45.24270    0.13880   -4.53260   60.78870    0.06220
 6800.00000   55.38920   19.75120   20.18850   -2.84320    0.16950   12.06080    0.00230   37.52650    2.59240   12.06080   55.38920    0.00230    2.59240   19.75120   37.52650    0.16950   -2.84320   20.18850    0.06880
 6850.00000   66.61800   14.02990   18.00980    0.93580    0.25730   12.56960   -0.00570   75.50000    2.50040   12.56960   66.61800   -0.00570    2.50040   14.02990   75.50000    0.25730    0.93580   18.00980    0.12260
 6900.00000   23.95210   49.62670  101.34100   -4.99350    0.16390   12.03340   -0.00250   55.66250    2.53820   12.03340   23.95210   -0.00250    2.53820   49.62670   55.66250    0.16390   -4.99350  101.34100    0.10050
 6950.00000   28.44310   39.14180   47.01490   -6.96610    0.19890   11.91280   -0.00220   72.87680    2.48860   11.91280   28.44310   -0.00220    2.48860   39.14180   72.87680    0.19890   -6.96610   47.01490    0.12950
 7000.00000   11.97600   61.22660   50.00000   -9.43640    0.03860   12.24200    0.17420   21.99390    2.56710   12.24200   11.97600    0.17420    2.56710   61.22660   21.99390    0.03860   -9.43640   50.00000    0.08360
 7050.00000    1.37230  123.73020  119.10450  -16.01110    0.01530   11.42190    0.01770   18.66740    2.66190   11.42190    1.37230    0.01770    2.66190  123.73020   18.66740    0.01530  -16.01110  119.10450    0.02810
 7100.00000  204.34130    5.42290   26.49250   -1.39170    0.15820    9.91400    0.03250   69.81960    2.66000    9.91400  204.34130    0.03250    2.66000    5.42290   69.81960    0.15820   -1.39170   26.49250    0.02920
 7150.00000  371.93410    3.10950   20.79550   -1.99630    0.24720   10.09890    0.01320   82.98570    2.62420   10.09890  371.93410    0.01320    2.62420    3.10950   82.98570    0.24720   -1.99630   20.79550    0.05020
 7200.00000    -999.25   18.05950    -999.25    0.22660    -999.25   10.90180    0.16000   73.19220    -999.25   10.90180    -999.25    0.16000    -999.25    -999.25   73.19220    -999.25    0.22660    -999.25    -999.25
 7250.00000   12.72460    -999.25    -999.25   -2.17490    0.00890    9.24970    0.20190   21.61790    2.71170    9.24970   12.72460    0.20190    2.71170   78.58790   21.61790    0.00890   -2.17490    -999.25   -0.00100
 7300.00000    9.72990    -999.25    -999.25  -12.67100    0.00560    9.39640    0.20420   24.78810    2.65920    9.39640    9.72990    0.20420    2.65920  102.77600   24.78810    0.00560  -12.67100    -999.25    0.02970
 7350.00000   15.09500    -999.25    -999.25   -0.34860    0.00700    9.29660    0.22800   26.87270    2.50320    9.29660   15.09500    0.22800    2.50320   66.24710   26.87270    0.00700   -0.34860    -999.25    0.12090
 7400.00000   10.47900    -999.25    -999.25   -0.74780    0.01280    7.59090    0.02570   32.38340    2.90120    7.59090   10.47900    0.02570    2.90120   95.42900   32.38340    0.01280   -0.74780    -999.25   -0.11180
 7450.00000    1.49700    -999.25    -999.25  -17.44390    0.02080    6.81510    0.01230   26.46740    2.68110    6.81510    1.49700    0.01230    2.68110  668.00270   26.46740    0.02080  -17.44390    -999.25    0.01690
 7500.00000    9.98000    -999.25    -999.25  -12.07270    0.01850    7.02740    0.05390   38.61320    2.68380    7.02740    9.98000    0.05390    2.68380  100.20040   38.61320    0.01850  -12.07270    -999.25    0.01530
 7550.00000   10.47900    -999.25    -999.25  -11.69320    0.01190    6.90450    0.00620   29.68160    2.68310    6.90450   10.47900    0.00620    2.68310   95.42900   29.68160    0.01190  -11.69320    -999.25    0.01570
 7600.00000    5.98800    -999.25    -999.25  -11.06250    0.01100    7.35200    0.06110   48.44770    2.63820    7.35200    5.98800    0.06110    2.63820  167.00070   48.44770    0.01100  -11.06250    -999.25    0.04200
 7650.00000    0.00100    -999.25    -999.25  -54.46940    0.00660    7.18330    0.02100   42.16030    2.70210    7.18330    0.00100    0.02100    2.70210 999999.93700   42.16030    0.00660  -54.46940    -999.25    0.00460
 7700.00000   53.39160    -999.25    -999.25  -37.19740    0.10050    6.36180    0.05160   26.93490    2.63320    6.36180   53.39160    0.05160    2.63320   18.72950   26.93490    0.10050  -37.19740    -999.25    0.04490
 7750.00000    -999.25    -999.25    -999.25    -999.25    0.04880    7.67520    0.15970   36.79960    2.82550    7.67520    -999.25    0.15970    2.82550    -999.25   36.79960    0.04880    -999.25    -999.25   -0.06750
 7800.00000    2.99250    -999.25   25.79010  -17.33790    0.01910    8.27120    0.20290   27.79260    2.76860    8.27120    2.99250    0.20290    2.76860  334.16880   27.79260    0.01910  -17.33790   25.79010   -0.03430
 7850.00000   10.47790   68.75650   15.17350  -51.63450    0.04620    6.77880    0.05830   30.04030    2.76690    6.77880   10.47790    0.05830    2.76690   95.43900   30.04030    0.04620  -51.63450   15.17350   -0.03330
