~Version ---------------------------------------------------
VERS. 2.0 : CWLS log ASCII Standard -VERSION 2.0
WRAP.  NO : ONE LINE PER DEPTH STEP
~Well ------------------------------------------------------
STRT.F                    300.0 : START DEPTH
STOP.F                   6750.0 : STOP DEPTH
STEP.F                 50.00000 : STEP LENGTH
NULL.                   -999.25 : NULL VALUE
COMP. EVERGREEN OIL CORPORATION : COMPANY
WELL.          SELMA VICKERS #1 : WELL
FLD .                      COST : FIELD
LOC .                           : LOCATION
CNTY.                  GONZALES : COUNTY
STAT.                     TEXAS : STATE
CTRY.  UNITED STATES OF AMERICA : COUNTRY
SRVC.              Schlumberger : SERVICE COMPANY
DATE.               04-Sep-1980 : LOGDATE
API .            42177305970000 : API NUMBER
UWI .            42177305970000 : UNIQUE WELL ID
SLAT.WGS84        29.4181485878 : SURFACE LATITUDE
SLON.WGS84        -97.580112582 : SURFACE LONGITUDE
~Curve Information -----------------------------------------
DEPT.F                 : 
GRR .GAPI 07 310 01 00 : GAMMA RAY FROM RESISTIVITY LOG
ILD .OHMM 07 120 46 00 : INDUCTION DEEP RESISTIVITY
ILM .OHMM 07 120 44 00 : INDUCTION MEDIUM RESISTIVITY
SFLU.OHMM 07 220 01 00 : SHALLOW FOCUSED RESISTIVITY (UNAVERAGED)
SPR .MV   07 010 01 00 : SPONTANEOUS POTENTIAL FROM RESISTIVITY LOG
DT  .US/F 60 500 00 00 : DELTA-T (INTERVAL TRANSIT TIME)
DPHI.DEC  45 890 10 00 : DENSITY POROSITY
NPHI.DEC  42 890 01 00 : NEUTRON POROSITY
GRD .GAPI 45 310 01 00 : GAMMA RAY FROM DENSITY LOG
RHOB.G/C3 45 350 01 00 : BULK DENSITY
DRHO.G/C3 45 356 01 00 : BULK DENSITY CORRECTION
CALD.IN   45 280 60 00 : CALIPER FROM DENSITY LOG
~Params ----------------------------------------------------
PD  .                     GL : PERMANENT DATUM
EPD .FT                  349 : ELEVATION PERMANENT DATUM
LMF .                     KB : LOG MEASURED FROM
DAPD.FT                   11 : FEET ABOVE PERMANENT DATUM
DMF .                     KB : DRILLING MEASURED FROM
EKB .FT                  360 : KELLY BUSHING
EDF .FT                  359 : DRILLING FLOOR
EGL .FT                  349 : GROUND LEVEL
DATE.             09/04/1980 : RUN DATE
RUN .                      2 : RUN NUMBER
DD  .FT                 6800 : DEPTH DRILLER
DL  .FT                 6779 : DEPTH LOGGER
BLI .FT                 6772 : BOTTOM LOG INTERVAL
TLI .FT                 4750 : TOP LOG INTERVAL
CS  .IN                8.625 : CASING SIZE
CBD .FT                 2162 : CASING BOTTOM DRILLER
BS  .IN                7.875 : BIT SIZE
BSD .FT                 6800 : BIT SIZE AT DEPTH
DFT .         LIGNOSULFONATE : DRILLING FLUID TYPE
DFD .                    9.1 : DRILLING FLUID DENSITY
DFV .                     34 : DRILLING FLUID VISCOSITY
DFPH.                     10 : DRILLING FLUID PH
DFL .                     20 : DRILLING FLUID LOSS
MSS .               CIRC PIT : MUD SAMPLE SOURCE
RMS .OHMM               2.45 : RESISTIVITY MUD SAMPLE
MST .DEGF                 88 : MUD SAMPLE TEMPERATURE
RMF .OHMM               2.49 : RESISTIVITY MUD FILTRATE SAMPLE
MFST.DEGF                 74 : MUD FILTRATE SAMPLE TEMPERATURE
RMC .OHMM               3.68 : RESISTIVITY MUD CAKE
MCST.DEGF                 88 : MUD CAKE SAMPLE TEMPERATURE
MFSS.                      M : MUD FILTRATE SAMPLE SOURCE
MCSS.                      C : MUD CAKE SAMPLE SOURCE
RMB .OHMM               1.28 : RESISTIVITY MUD AT BHT
TCS .HRS                 100 : TIME CIRCULATED STOPPED
TLAB.HRS                1600 : TIME LOGGER AT BOTTOM
LUN .                   8013 : LOGGING UNIT NUMBER
LUL .               VICTORIA : LOGGING UNIT LOCATION
ENGI.              PERTERSON : RECORDING ENGINEER
WITN.               THOMPSON : WITNESSED BY
CLNT.                A2DTECH : CLIENT CODE
ORIG.        0.5" 2.5" PRINT : ORIGIN OF DATA
UWI .         42177305970000 : UNIQUE WELL ID
DICO. A2D Technologies, Inc. : DIGITIZING COMPANY
~Other -----------------------------------------------------
~ASCII -----------------------------------------------------
  300.00000    -999.25    -999.25    -999.25    -999.25    -999.25    -999.25    0.36430    0.45000   47.04510    2.04670   -0.00290   12.80740
  350.00000    -999.25    -999.25    -999.25    -999.25    -999.25    -999.25    0.47390    0.55340   76.58230    1.86430    0.04770   13.67170
  400.00000    -999.25    -999.25    -999.25    -999.25    -999.25    -999.25    0.31920    0.60000   92.98740    2.12760   -0.00210   11.41180
  450.00000    -999.25    -999.25    -999.25    -999.25    -999.25    -999.25    0.34980    0.49310   46.21390    2.06110    0.02280   11.51890
  500.00000    -999.25    -999.25    -999.25    -999.25    -999.25    -999.25    0.35270    0.41560   52.49270    2.06630    0.01190   11.40440
  550.00000    -999.25    -999.25    -999.25    -999.25    -999.25    -999.25    0.33730    0.43680   82.90440    2.09260   -0.00040   11.96140
  600.00000    -999.25    -999.25    -999.25    -999.25    -999.25    -999.25    0.38420    0.55100   74.26280    2.02240    0.02890   13.59470
  650.00000    -999.25    -999.25    -999.25    -999.25    -999.25    -999.25    0.32520    0.47310   76.84060    2.10930    0.00820   12.36460
  700.00000    -999.25    -999.25    -999.25    -999.25    -999.25    -999.25    0.33100    0.46070   81.88380    2.09860    0.01620   12.30950
  750.00000    -999.25    -999.25    -999.25    -999.25    -999.25    -999.25    0.36820    0.44580   50.66450    2.03950    0.00630   12.13700
  800.00000    -999.25    -999.25    -999.25    -999.25    -999.25    -999.25    0.34250    0.52370   71.81080    2.08540    0.04110   13.27280
  850.00000    -999.25    -999.25    -999.25    -999.25    -999.25    -999.25    0.29460    0.51710   85.90760    2.15580    0.03080   13.10690
  900.00000    -999.25    -999.25    -999.25    -999.25    -999.25    -999.25    0.31190    0.56200   79.61570    2.13370    0.04080   12.63020
  950.00000    -999.25    -999.25    -999.25    -999.25    -999.25    -999.25    0.30610    0.50490   76.14260    2.14220    0.02150   12.71240
 1000.00000    -999.25    -999.25    -999.25    -999.25    -999.25    -999.25    0.29640    0.48810   77.58160    2.16210    0.01510   13.06310
 1050.00000    -999.25    -999.25    -999.25    -999.25    -999.25    -999.25    0.29230    0.56500   74.35170    2.15890    0.01330   13.49020
 1100.00000    -999.25    -999.25    -999.25    -999.25    -999.25    -999.25    0.60090    0.59950   59.46940    1.66660    0.00320   14.92470
 1150.00000    -999.25    -999.25    -999.25    -999.25    -999.25    -999.25    0.28800    0.45900   78.59550    2.16440    0.03410   13.59100
 1200.00000    -999.25    -999.25    -999.25    -999.25    -999.25    -999.25    0.24780    0.50560   80.85060    2.24130    0.02900   14.95370
 1250.00000    -999.25    -999.25    -999.25    -999.25    -999.25    -999.25    0.33950    0.35530   46.52470    2.08770   -0.00050   15.76710
 1300.00000    -999.25    -999.25    -999.25    -999.25    -999.25    -999.25    0.29520    0.30770   26.56710    2.16510    0.00870   16.30560
 1350.00000    -999.25    -999.25    -999.25    -999.25    -999.25    -999.25    0.28860    0.44570   89.05490    2.17230    0.00280   17.29840
 1400.00000    -999.25    -999.25    -999.25    -999.25    -999.25    -999.25    0.28920    0.44300   50.09370    2.17140    0.01280   19.99790
 1450.00000    -999.25    -999.25    -999.25    -999.25    -999.25    -999.25    0.34310    0.36930   45.52470    2.08310    0.00610   20.69580
 1500.00000    -999.25    -999.25    -999.25    -999.25    -999.25    -999.25    0.28270    0.39060   68.61550    2.18260    0.02670   18.31380
 1550.00000    -999.25    -999.25    -999.25    -999.25    -999.25    -999.25    0.32340    0.45810   65.06490    2.11010    0.02200   18.04080
 1600.00000    -999.25    -999.25    -999.25    -999.25    -999.25    -999.25    0.32980    0.45840   59.20710    2.10080    0.00710   16.38160
 1650.00000    -999.25    -999.25    -999.25    -999.25    -999.25    -999.25    0.24190    0.46680   69.81690    2.24840    0.02990   18.11810
 1700.00000    -999.25    -999.25    -999.25    -999.25    -999.25    -999.25    0.28790    0.51110   60.13110    2.15330    0.01040   18.62150
 1750.00000    -999.25    -999.25    -999.25    -999.25    -999.25    -999.25    0.38990    0.55410   43.05450    1.99820    0.07210   20.68690
 1800.00000    -999.25    -999.25    -999.25    -999.25    -999.25    -999.25    0.16970    0.37580   53.17720    2.28720    0.00090   14.61970
 1850.00000    -999.25    -999.25    -999.25    -999.25    -999.25    -999.25    0.25820    0.39310   72.70770    2.22270    0.01010   18.40830
 1900.00000    -999.25    -999.25    -999.25    -999.25    -999.25    -999.25    0.18950    0.46660  103.96070    2.33250    0.03470   16.03850
 1950.00000    -999.25    -999.25    -999.25    -999.25    -999.25    -999.25    0.23590    0.41990   88.88570    2.26010    0.03670   15.91980
 2000.00000    -999.25    -999.25    -999.25    -999.25    -999.25    -999.25    0.31860    0.43000   58.12500    2.12150    0.00250   20.72540
 2050.00000    -999.25    -999.25    -999.25    -999.25    -999.25    -999.25    0.34600    0.42500   58.64010    2.08080   -0.00760   14.12970
 2100.00000    -999.25    -999.25    -999.25    -999.25    -999.25    -999.25    0.34940    0.40420   72.64400    2.07450    0.02800   11.78400
 2150.00000   62.81070    -999.25    -999.25    -999.25    -999.25    -999.25    0.22920    0.41050  114.39810    2.26900    0.02130   12.14490
 2200.00000   83.64060    3.38090    2.75540    2.59940  -23.39640  126.43600    0.30820    0.10010   11.80310    2.13430    0.05320   12.25440
 2250.00000   88.56610    3.05580    3.30760    3.81680  -23.57920  126.34070    -999.25    -999.25    -999.25    -999.25    -999.25    -999.25
 2300.00000   86.50770    2.03960    2.12760    1.84120  -22.20040  132.89520    -999.25    -999.25    -999.25    -999.25    -999.25    -999.25
 2350.00000   79.73850    2.36080    2.33020    1.91930  -20.14600  125.76460    -999.25    -999.25    -999.25    -999.25    -999.25    -999.25
 2400.00000  102.10820    2.97520    3.28190    2.53210  -23.32040  130.02100    -999.25    -999.25    -999.25    -999.25    -999.25    -999.25
 2450.00000   78.23960    5.07010    5.30640    7.03840  -30.33910  116.73430    -999.25    -999.25    -999.25    -999.25    -999.25    -999.25
 2500.00000   95.51550    4.34630    4.52990    3.91060  -27.98670  123.88430    -999.25    -999.25    -999.25    -999.25    -999.25    -999.25
 2550.00000   73.73440    5.08320    5.65480    7.24190  -29.73090  115.20500    -999.25    -999.25    -999.25    -999.25    -999.25    -999.25
 2600.00000   84.13000    2.63070    2.89560    2.41660  -23.56640  130.54570    -999.25    -999.25    -999.25    -999.25    -999.25    -999.25
 2650.00000   91.24700    2.43310    2.65210    2.40650  -22.21340  118.08940    -999.25    -999.25    -999.25    -999.25    -999.25    -999.25
 2700.00000   72.77710    7.70830    8.06280    9.78880  -32.45740  118.24850    -999.25    -999.25    -999.25    -999.25    -999.25    -999.25
 2750.00000   64.38790    9.05660    9.34840    9.85860  -34.10770  117.51960    -999.25    -999.25    -999.25    -999.25    -999.25    -999.25
 2800.00000   58.49650    8.56770    8.84620    9.92950  -30.59940  116.45910    -999.25    -999.25    -999.25    -999.25    -999.25    -999.25
 2850.00000   86.53710    4.63820    4.78760    5.63540  -22.33340  110.31820    -999.25    -999.25    -999.25    -999.25    -999.25    -999.25
 2900.00000  103.39490    4.50070    4.66590    5.81220  -26.39630  111.68020    -999.25    -999.25    -999.25    -999.25    -999.25    -999.25
 2950.00000   73.65470    5.74180    5.92690    6.57510  -31.49890  108.36510    -999.25    -999.25    -999.25    -999.25    -999.25    -999.25
 3000.00000   66.42060    6.43290    6.73660    6.05040  -29.40700  115.26100    -999.25    -999.25    -999.25    -999.25    -999.25    -999.25
 3050.00000   49.08260    6.22300    7.42870    8.00920  -29.51860  103.14130    -999.25    -999.25    -999.25    -999.25    -999.25    -999.25
