~Version ---------------------------------------------------
VERS. 2.0 : CWLS log ASCII Standard -VERSION 2.0
WRAP. YES : MULTIPLE LINES PER DEPTH STEP
~Well ------------------------------------------------------
STRT.FT                   3650.0 : START DEPTH
STOP.FT                   9600.0 : STOP DEPTH
STEP.FT                 50.00000 : STEP LENGTH
NULL.                    -999.25 : NULL VALUE
COMP. LADD PETROLEUM CORPORATION : COMPANY
WELL.                   KELLY #1 : WELL
FLD .              ALABAMA FERRY : FIELD
LOC .                            : LOCATION
CNTY.                       LEON : COUNTY
STAT.                      TEXAS : STATE
CTRY.   UNITED STATES OF AMERICA : COUNTRY
SRVC.                            : SERVICE COMPANY
DATE.                            : LOGDATE
API .             42289308110000 : API NUMBER
UWI .             42289308110000 : UNIQUE WELL ID
SLAT.WGS84         31.2591611688 : SURFACE LATITUDE
SLON.WGS84        -95.8375326441 : SURFACE LONGITUDE
~Curve Information -----------------------------------------
DEPT  .FT    : DEPTH
CILDED.MMHO  : CONDUCTIVITY
RILDED.OHMM  : DEEP INDUCTION RESISTIVITY
RILMED.OHMM  : INDUCTION LOG MEDIUM RESISTIVITY
RFOCED.OHMM  : FOCUSED RESISTIVITY
GRRED .GAPI  : GAMMA RAY FROM RESISTIVITY LOG
CORRED.G/C3  : DENSITY CORRECTION
PORDED.V/V   : DENSITY POROSITY SANDSTONE (M=2.71 F=1) FILLED OFFSCALE VALUES @.3 WHERE NULL
CALDED.IN    : CALIPER FROM DENSITY LOG
NPHIED.V/V   : NEUTRON POROSITY LIMESTONE
RNMLED.OHMM  : MICRONORMAL RESISTIVITY
RLMLED.OHMM  : MICROINVERSE RESISTIVITY
SPED  .MV    : SPONTANEOUS POTENTIAL [BASELINE -10 MV]
DPOWS .V/V   : DENSITY POROSITY [M=2.71, F=1.0]
DENWS .G/C3  : BULK DENSITY [FROM DPOWS M=2.71, F=1.0]
CALWS .IN    : CALIPER
DRESWS.OHMM  : DEEP RESISTIVITY
GRWS  .GAPI  : GAMMA RAY
NPOWS .V/V   : NEUTRON POROSITY LIMESTONE
SPWS  .MV    : SPONTANEOUS POTENTIAL [BASELINE -10 MV]
CONDWS.MMHO  : CONDUCTIVITY FROM DEEP RESISTIVITY
DCORWS.G/C3  : DENSITY CORRECTION
MRESWS.OHMM  : MEDIUM RESISTIVITY
SRESWS.OHMM  : SHALLOW RESISTIVITY
~Params ----------------------------------------------------
EKB .F                 294.0 : KELLY BUSHING
EGL .F                   277 : ELEVATION GROUND LEVEL
EDF .F                   293 : ELEVATION DERRICK FLOOR
EPD .F                   277 : ELEVATION PERMANENT DATUM
TD  .F                9600.0 : TOTAL DEPTH
DATE.            04-MAR-1987 : DATE LOGGED
CLNT.                A2DTECH : CLIENT CODE
SL  .  2797' FNL & 6000' FEL : SURFACE LOCATION
PD  .                     GL : PERMANENT DATUM
LMF .                     KB : LOG MEASURED FROM
DMF .                     KB : DRILLING MEASURED FROM
DAPD.F                    17 : FEET ABOVE PERMANENT DATUM
DD  .F                  9600 : DEPTH DRILLER
DL  .F                  9606 : DEPTH LOGGER
BLI .F                  9624 : BOTTOM LOG INTERVAL
TLI .F                  3611 : TOP LOG INTERVAL
CS1 .IN                8.625 : CASING SIZE
CBD1.         8.625" @ 3595' : CASING DRILLER 1
CBL1.F                  3611 : CASING LOGGER 1
BS1 .IN                7.875 : BIT SIZE
BSD1.F                  9600 : DEPTH DRILLED WITH BIT1
DFT .               GEL CHEM : TYPE FLUID IN HOLE
DFD .                   10.3 : DENSITY
DFV .                     50 : VISCOSITY
DFPH.                     10 : PH
DFL .                    9.6 : FLUID LOSS
MSS .                MUD PIT : SOURCE OF SAMPLE
RMS .OHMM               3.43 : RM
RMF .OHMM               2.57 : RMF
RMC .OHMM               4.29 : RMC
MFSS.                   CALC : SOURCE RMF.
MCSS.                   CALC : SOURCE RMC.
RMB .OHMM                1.6 : RM. AT BHT
BHT .F                   204 : BHT.
TCS .HRS                 4.5 : TIME CIRC. STOPPED
LUN .                HL-6380 : LOGGING UNIT NUMBER
LUL .              TYLER, TX : LOGGING UNIT LOCATION
ENGI.                 HANKLA : RECORDED BY
WITN.                  GROVE : WITNESSED BY
ORIG.          5" & 1" PRINT : ORIGIN OF DATA
UWI .         42289308110000 : UNIQUE WELL ID
DICO. A2D TECHNOLOGIES, INC. : DIGITIZING COMPANY
~Other -----------------------------------------------------
~ASCII -----------------------------------------------------
# ...
 5200.00000  942.07320    1.06470    1.09860    1.51430    -999.25    -999.25    -999.25    -999.25    -999.25    -999.25    -999.25  -11.29510    -999.25    -999.25    -999.25    1.06470    -999.25    -999.25  -11.29510  942.07320    -999.25    1.09860    1.51430
 5250.00000 1411.58530    0.71560    0.79450    1.35710    -999.25    -999.25    -999.25    -999.25    -999.25    -999.25    -999.25  -10.02790    -999.25    -999.25    -999.25    0.71560    -999.25    -999.25  -10.02790 1411.58530    -999.25    0.79450    1.35710
 5300.00000 1126.01290    0.91010    0.91970    1.38500    -999.25    -999.25    -999.25    -999.25    -999.25    -999.25    -999.25  -10.26690    -999.25    -999.25    -999.25    0.91010    -999.25    -999.25  -10.26690 1126.01290    -999.25    0.91970    1.38500
 5350.00000  164.12480    5.97130    6.49210    5.83200    -999.25    -999.25    -999.25    -999.25    -999.25    -999.25    -999.25  -19.83310    -999.25    -999.25    -999.25    5.97130    -999.25    -999.25  -19.83310  164.12480    -999.25    6.49210    5.83200
 5400.00000  231.70480    4.31890    4.69600    5.02730    -999.25    -999.25    -999.25    -999.25    -999.25    -999.25    -999.25  -17.06340    -999.25    -999.25    -999.25    4.31890    -999.25    -999.25  -17.06340  231.70480    -999.25    4.69600    5.02730
 5450.00000  312.50000    3.61630    3.44390    3.14890    -999.25    -999.25    -999.25    -999.25    -999.25    -999.25    -999.25  -15.79690    -999.25    -999.25    -999.25    3.61630    -999.25    -999.25  -15.79690  312.50000    -999.25    3.44390    3.14890
 5500.00000  230.69110    4.59840    4.69550    4.92370    -999.25    -999.25    -999.25    -999.25    -999.25    -999.25    -999.25  -16.33930    -999.25    -999.25    -999.25    4.59840    -999.25    -999.25  -16.33930  230.69110    -999.25    4.69550    4.92370
 5550.00000  416.15850    2.23730    2.40550    2.77350    -999.25    -999.25    -999.25    -999.25    -999.25    -999.25    -999.25  -11.16700    -999.25    -999.25    -999.25    2.23730    -999.25    -999.25  -11.16700  416.15850    -999.25    2.40550    2.77350
 5600.00000  546.75450    1.91160    1.99320    2.37150    -999.25    -999.25    -999.25    -999.25    -999.25    -999.25    -999.25  -12.69450    -999.25    -999.25    -999.25    1.91160    -999.25    -999.25  -12.69450  546.75450    -999.25    1.99320    2.37150
 5650.00000  444.35920    2.33120    2.45640    2.98380    -999.25    -999.25    -999.25    -999.25    -999.25    -999.25    -999.25  -10.14070    -999.25    -999.25    -999.25    2.33120    -999.25    -999.25  -10.14070  444.35920    -999.25    2.45640    2.98380
 5700.00000  655.99680    1.55090    1.58380    2.15920    -999.25    -999.25    -999.25    -999.25    -999.25    -999.25    -999.25  -15.82850    -999.25    -999.25    -999.25    1.55090    -999.25    -999.25  -15.82850  655.99680    -999.25    1.58380    2.15920
 5750.00000  714.17680    1.41170    1.48750    1.98630    -999.25    -999.25    -999.25    -999.25    -999.25    -999.25    -999.25  -16.02570    -999.25    -999.25    -999.25    1.41170    -999.25    -999.25  -16.02570  714.17680    -999.25    1.48750    1.98630
 5800.00000  603.65860    1.68600    1.75810    2.22790    -999.25    -999.25    -999.25    -999.25    -999.25    -999.25    -999.25  -14.41860    -999.25    -999.25    -999.25    1.68600    -999.25    -999.25  -14.41860  603.65860    -999.25    1.75810    2.22790
 5850.00000  479.16670    2.10010    2.18970    2.52490    -999.25    -999.25    -999.25    -999.25    -999.25    -999.25    -999.25  -13.11090    -999.25    -999.25    -999.25    2.10010    -999.25    -999.25  -13.11090  479.16670    -999.25    2.18970    2.52490
 5900.00000  656.15140    1.61710    1.77670    2.13660    -999.25    -999.25    -999.25    -999.25    -999.25    -999.25    -999.25  -12.10400    -999.25    -999.25    -999.25    1.61710    -999.25    -999.25  -12.10400  656.15140    -999.25    1.77670    2.13660
 5950.00000  475.81320    2.10000    2.18970    2.66000    -999.25    -999.25    -999.25    -999.25    -999.25    -999.25    -999.25  -11.70220    -999.25    -999.25    -999.25    2.10000    -999.25    -999.25  -11.70220  475.81320    -999.25    2.18970    2.66000
 6000.00000  258.68050    3.89040    4.09870    4.16610    -999.25    -999.25    -999.25    -999.25    -999.25    -999.25    -999.25  -13.10060    -999.25    -999.25    -999.25    3.89040    -999.25    -999.25  -13.10060  258.68050    -999.25    4.09870    4.16610
 6050.00000  624.60570    1.65130    1.72160    2.34720    -999.25    -999.25    -999.25    -999.25    -999.25    -999.25    -999.25  -11.49650    -999.25    -999.25    -999.25    1.65130    -999.25    -999.25  -11.49650  624.60570    -999.25    1.72160    2.34720
 6100.00000  671.74800    1.50310    1.56720    1.98620    -999.25    -999.25    -999.25    -999.25    -999.25    -999.25    -999.25   -9.58740    -999.25    -999.25    -999.25    1.50310    -999.25    -999.25   -9.58740  671.74800    -999.25    1.56720    1.98620
 6150.00000  599.33630    1.72180    1.81420    2.21020    -999.25    -999.25    -999.25    -999.25    -999.25    -999.25    -999.25   -8.57770    -999.25    -999.25    -999.25    1.72180    -999.25    -999.25   -8.57770  599.33630    -999.25    1.81420    2.21020
 6200.00000  582.31710    1.74000    1.79530    2.25110    -999.25    -999.25    -999.25    -999.25    -999.25    -999.25    -999.25  -13.88690    -999.25    -999.25    -999.25    1.74000    -999.25    -999.25  -13.88690  582.31710    -999.25    1.79530    2.25110
 6250.00000  510.67080    1.87210    2.02460    2.34720    -999.25    -999.25    -999.25    -999.25    -999.25    -999.25    -999.25  -10.77540    -999.25    -999.25    -999.25    1.87210    -999.25    -999.25  -10.77540  510.67080    -999.25    2.02460    2.34720
 6300.00000  633.12350    1.50310    1.58350    2.15890    -999.25    -999.25    -999.25    -999.25    -999.25    -999.25    -999.25  -18.49200    -999.25    -999.25    -999.25    1.50310    -999.25    -999.25  -18.49200  633.12350    -999.25    1.58350    2.15890
 6350.00000  335.36830    3.15670    3.22360    3.47430    -999.25    -999.25    -999.25    -999.25    -999.25    -999.25    -999.25  -14.21000    -999.25    -999.25    -999.25    3.15670    -999.25    -999.25  -14.21000  335.36830    -999.25    3.22360    3.47430
 6400.00000  159.55280    6.35800    6.56080    6.45860    -999.25    -999.25    -999.25    -999.25    -999.25    -999.25    -999.25  -21.27370    -999.25    -999.25    -999.25    6.35800    -999.25    -999.25  -21.27370  159.55280    -999.25    6.56080    6.45860
 6450.00000  202.74390    4.58840    4.58760    4.92380    -999.25    -999.25    -999.25    -999.25    -999.25    -999.25    -999.25  -17.74300    -999.25    -999.25    -999.25    4.58840    -999.25    -999.25  -17.74300  202.74390    -999.25    4.58760    4.92380
 6500.00000 1255.76540    1.19040    1.16180    2.19600    -999.25    -999.25    -999.25    -999.25    -999.25    -999.25    -999.25  -19.97390    -999.25    -999.25    -999.25    1.19040    -999.25    -999.25  -19.97390 1255.76540    -999.25    1.16180    2.19600
 6550.00000  115.34550    8.89030    9.03060    8.01910   42.45720    0.00180    0.03880    9.64800    0.13410   12.21610    9.12390  -27.10300    0.03880    2.64370    9.64800    8.89030   42.45720    0.13410  -27.10300  115.34550    0.00180    9.03060    8.01910
 6600.00000  155.48780    7.23960    7.19940    8.37350   15.39820   -0.03410    0.04490    9.93230    0.11820   12.51520   19.90870  -33.02000    0.04490    2.63320    9.93230    7.23960   15.39820    0.11820  -33.02000  155.48780   -0.03410    7.19940    8.37350
 6650.00000  161.33290    5.80060    6.18990    5.89620   51.20850   -0.01080    0.05100   11.06390    0.14370    5.11440    5.20550  -16.65390    0.05100    2.62280   11.06390    5.80060   51.20850    0.14370  -16.65390  161.33290   -0.01080    6.18990    5.89620
 6700.00000  539.63660    1.85420    2.97100    9.73970   22.39500    0.07750    0.15590    9.02070    0.15930    4.45120    1.82650 -120.46470    0.15590    2.44340    9.02070    1.85420   22.39500    0.15930 -120.46470  539.63660    0.07750    2.97100    9.73970
