~Version ---------------------------------------------------
VERS. 2.0 : CWLS log ASCII Standard -VERSION 2.0
WRAP. YES : MULTIPLE LINES PER DEPTH STEP
~Well ------------------------------------------------------
STRT.FT                 1150.0 : START DEPTH
STOP.FT                 8650.0 : STOP DEPTH
STEP.FT               50.00000 : STEP LENGTH
NULL.                  -999.25 : NULL VALUE
COMP. FLAG-REDFERN OIL COMPANY : COMPANY
WELL.          WILCO SUPPLY #1 : WELL
FLD .                 GIDDINGS : FIELD
LOC .                          : LOCATION
CNTY.                      LEE : COUNTY
STAT.                    TEXAS : STATE
CTRY. UNITED STATES OF AMERICA : COUNTRY
SRVC.             Schlumberger : SERVICE COMPANY
DATE.              22-Jun-1982 : LOGDATE
API .           42287312020000 : API NUMBER
UWI .           42287312020000 : UNIQUE WELL ID
SLAT.WGS84           30.100566 : SURFACE LATITUDE
SLON.WGS84          -96.965706 : SURFACE LONGITUDE
~Curve Information -----------------------------------------
DEPT    .FT    : DEPTH FEET
CALWS   .IN    : CALIPER [DCALED+BITED]
CONDWS  .MMHO  : CONDUCTIVITY [1000/DRESWS]
DCALED  .IN    : DIFFERENTIAL CALIPER FROM DENSITY LOG
DCORWS  .G/C3  : DENSITY CORRECTION [DRHOED]
DENWS   .G/C3  : BULK DENSITY [M=2.71 F=1.0] [CALCULATED FROM DPOWS]
DPHILSED.V/V   : DENSITY POROSITY [M=2.71 F=1.0] FROM DENSITY LOG
DPHISSED.V/V   : DENSITY POROSITY [M=2.65 F=1.0] FROM DENSITY LOG
DPOLSWS .V/V   : DENSITY POROSITY [M=2.71 F=1.0] [1121 DPOLSCAL 7198 DPHILSED]
DRESWS  .OHMM  : DEEP RESISTIVITY [ILDED]
DRHOED  .G/C3  : DENSITY CORRECTION FROM DENSITY LOG
GRRED   .GAPI  : GAMMA RAY FROM RESISTIVITY LOG
GRWS    .GAPI  : GAMMA RAY [GRRED]
ILDED   .OHMM  : INDUCTION LOG DEEP RESISTIVITY
ILMED   .OHMM  : INDUCTION LOG MEDIUM RESISTIVITY
MRESWS  .OHMM  : MEDIUM RESISTIVITY [ILMED]
NPHILSED.V/V   : NEUTRON POROSITY LIMESTONE FROM DENSITY LOG
NPHISSED.V/V   : NEUTRON POROSITY SANDSTONE FROM DENSITY LOG
NPOLSWS .V/V   : NEUTRON POROSITY LIMESTONE [1121 NPOLSCAL 7198 NPHILSED] [NPHISSED WAS CONVERTED TO NPOLSCAL USING POWERLOG MODULE]
SFLUED  .OHMM  : SPHERICALLY FOCUSED LOG RESISTIVITY
SPRED   .MV    : SPONTANEOUS POTENTIAL FROM RESISTIVITY LOG [SHIFTS ARE REMOVED]
SPWS    .MV    : SPONTANEOUS POTENTIAL [BASELINE 0 MV] [SPRED][POSITIVE VALUES, PL. USE W/ RESERVATIONS]
SRESWS  .OHMM  : SHALLOW RESISTIVITY [SFLUED]
~Params ----------------------------------------------------
PD  .                     GL : PERMANENT DATUM
EPD .FT                  478 : ELEVATION PERMANENT DATUM
LMF .                     KB : LOG MEASURED FROM
DAPD.FT                   17 : FEET ABOVE PERMANENT DATUM
DMF .                     KB : DRILLING MEASURED FROM
EKB .FT                  495 : KELLY BUSHING
EDF .FT                  494 : DRILLING FLOOR
EGL .FT                  478 : GROUND LEVEL
DATE.               06/22/82 : RUN DATE
RUN .                      2 : RUN NUMBER
DD  .FT                 8700 : DEPTH DRILLER
DL  .FT                 8700 : DEPTH LOGGER
BLI .FT                 8694 : BOTTOM LOG INTERVAL
TLI .FT                 7748 : TOP LOG INTERVAL
CS  .IN                    7 : CASING SIZE
CBD .FT                 7749 : CASING BOTTOM DRILLER
CBL .FT                 7748 : CASING BOTTOM LOGGER
BS  .IN                6.125 : BIT SIZE
BSD .FT                 8700 : BIT SIZE AT DEPTH
DFT .         LIGNOSULFONATE : DRILLING FLUID TYPE
DFD .                    9.9 : DRILLING FLUID DENSITY
DFV .                     41 : DRILLING FLUID VISCOSITY
DFPH.                     11 : DRILLING FLUID PH
DFL .                    5.2 : DRILLING FLUID LOSS
MSS .                   TANK : MUD SAMPLE SOURCE
RMS .OHMM               1.05 : RESISTIVITY MUD SAMPLE
MST .DEGF                107 : MUD SAMPLE TEMPERATURE
RMF .OHMM               0.77 : RESISTIVITY MUD FILTRATE SAMPLE
MFST.DEGF                107 : MUD FILTRATE SAMPLE TEMPERATURE
RMC .OHMM               1.54 : RESISTIVITY MUD CAKE
MCST.DEGF                107 : MUD CAKE SAMPLE TEMPERATURE
MFSS.                   MEAS : MUD FILTRATE SAMPLE SOURCE
MCSS.                   CALC : MUD CAKE SAMPLE SOURCE
RMB .OHMM              0.598 : RESISTIVITY MUD AT BHT
TCS .HRS                 700 : TIME CIRCULATED STOPPED
TLAB.HRS                1130 : TIME LOGGER AT BOTTOM
LUN .                   8096 : LOGGING UNIT NUMBER
LUL .                BRENHAM : LOGGING UNIT LOCATION
ENGI.                   HALL : RECORDING ENGINEER
WITN.                 PARKER : WITNESSED BY
CLNT.                A2DTECH : CLIENT CODE
ORIG.            2" 5" PRINT : ORIGIN OF DATA
UWI .         42287312020000 : UNIQUE WELL ID
DICO. A2D Technologies, Inc. : DIGITIZING COMPANY
~Other -----------------------------------------------------
~ASCII -----------------------------------------------------
# ...
 2750.00000    9.40550  347.65680    0.65550    0.04800    2.22400    -999.25    0.25820    0.28420    2.87640    0.04800   82.41780   82.41780    2.87640    2.77650    2.77650    -999.25    0.47510    0.43340    3.13290   -8.54110   -8.19140    3.13290
 2800.00000    9.51300  196.69170    0.76300    0.04850    2.26900    -999.25    0.23090    0.25790    5.08410    0.04850   69.69180   69.69180    5.08410    4.81500    4.81500    -999.25    0.35610    0.31250    5.48780   -5.77550   -4.34470    5.48780
 2850.00000    9.13810  120.77150    0.38810    0.03910    2.08210    -999.25    0.34420    0.36720    8.28010    0.03910   47.34430   47.34430    8.28010    7.87220    7.87220    -999.25    0.42740    0.38510    7.35250  -14.75360  -12.42080    7.35250
 2900.00000    8.64160  193.36380   -0.10840    0.04800    2.17180    -999.25    0.28980    0.31470    5.17160    0.04800   78.79650   78.79650    5.17160    4.82230    4.82230    -999.25    0.40580    0.36300    5.46510  -13.63490  -11.41500    5.46510
 2950.00000    8.79600  125.80520    0.04600    0.03970    2.14380    -999.25    0.30680    0.33110    7.94880    0.03970   75.29070   75.29070    7.94880    7.32020    7.32020    -999.25    0.39110    0.34810    6.72770  -16.19740  -14.09040    6.72770
 3000.00000    9.15860  150.15470    0.40860    0.05050    2.20220    -999.25    0.27140    0.29700    6.65980    0.05050   67.66240   67.66240    6.65980    6.17740    6.17740    -999.25    0.41920    0.37670    4.58410  -10.11280   -8.11870    4.58410
 3050.00000    8.84140  155.72440    0.09140    0.02860    2.10720    -999.25    0.32900    0.35250    6.42160    0.02860   78.01130   78.01130    6.42160    6.33720    6.33720    -999.25    0.44290    0.40100    8.65100  -14.87390  -12.99270    8.65100
 3100.00000    8.71860  167.96280   -0.03140    0.06120    2.25780    -999.25    0.23770    0.26440    5.95370    0.06120   82.34580   82.34580    5.95370    5.46060    5.46060    -999.25    0.42980    0.38760    6.07760  -15.13710  -13.36880    6.07760
 3150.00000    9.34620  152.38330    0.59620    0.07650    2.20450    -999.25    0.27000    0.29560    6.56240    0.07650   76.63340   76.63340    6.56240    5.71220    5.71220    -999.25    0.41370    0.37110    5.38140  -15.40680  -13.75140    5.38140
 3200.00000    9.42130  117.68580    0.67130    0.06940    2.06950    -999.25    0.35180    0.37450    8.49720    0.06940   57.09070   57.09070    8.49720    8.05010    8.05010    -999.25    0.45130    0.40960   10.45610  -11.20840   -9.66590   10.45610
 3250.00000    9.02200  186.13310    0.27200    0.08890    2.23450    -999.25    0.25180    0.27810    5.37250    0.08890   90.64430   90.64430    5.37250    5.07260    5.07260    -999.25    0.41980    0.37730    5.23950  -15.16420  -13.80300    5.23950
 3300.00000    9.15560  115.63230    0.40560    0.06120    2.15450    -999.25    0.30030    0.32490    8.64810    0.06120   57.55530   57.55530    8.64810    8.30050    8.30050    -999.25    0.41120    0.36860    8.54810  -16.51760  -15.34620    8.54810
 3350.00000   10.20580  346.66850    1.45580    0.09860    2.16180    -999.25    0.29590    0.32060    2.88460    0.09860   90.23040   90.23040    2.88460    2.68180    2.68180    -999.25    0.47100    0.42930    2.60970   -1.72060   -0.73700    2.60970
 3400.00000   10.01850  104.92080    1.26850    0.09530    2.07220    -999.25    0.35020    0.37300    9.53100    0.09530   54.85110   54.85110    9.53100    9.18740    9.18740    -999.25    0.40100    0.35810    8.85250  -25.01020  -24.02660    8.85250
 3450.00000    8.95430   84.27370    0.20430    0.02950    2.15830    -999.25    0.29800    0.32260   11.86610    0.02950   60.16970   60.16970   11.86610   11.23510   11.23510    -999.25    0.38090    0.33770   11.18190  -21.96630  -20.98270   11.18190
 3500.00000   10.07950  287.16650    1.32950    0.09060    2.15040    -999.25    0.30280    0.32730    3.48230    0.09060  104.31820  104.31820    3.48230    3.39930    3.39930    -999.25    0.41360    0.37100    3.35360   -8.65470   -7.67110    3.35360
 3550.00000    8.73220  139.48560   -0.01780    0.07140    2.14810    -999.25    0.30420    0.32860    7.16920    0.07140   61.23670   61.23670    7.16920    8.13300    8.13300    -999.25    0.36160    0.31810    9.50710  -34.16800  -33.18440    9.50710
 3600.00000    8.99590  205.16190    0.24590    0.07170    2.32680    -999.25    0.19590    0.22410    4.87420    0.07170   85.23190   85.23190    4.87420    5.21160    5.21160    -999.25    0.36490    0.32140    5.78910  -22.62930  -21.64570    5.78910
 3650.00000    8.75410  301.07790    0.00410    0.03310    2.18540    -999.25    0.28160    0.30680    3.32140    0.03310   92.29670   92.29670    3.32140    3.92000    3.92000    -999.25    0.38330    0.34010    6.09190  -44.16320  -43.12320    6.09190
 3700.00000    9.21800  362.25320    0.46800    0.02790    2.12370    -999.25    0.31900    0.34290    2.76050    0.02790   59.72100   59.72100    2.76050    3.39050    3.39050    -999.25    0.39970    0.35680    6.12140  -51.56270  -50.27750    6.12140
 3750.00000   10.22620  392.49550    1.47620    0.03580    2.09910    -999.25    0.33390    0.35730    2.54780    0.03580   43.67070   43.67070    2.54780    2.93300    2.93300    -999.25    0.38290    0.33970    5.33490  -57.53260  -56.00220    5.33490
 3800.00000   10.77250  384.45270    2.02250    0.01090    1.77170    -999.25    0.53230    0.54870    2.60110    0.01090   66.80390   66.80390    2.60110    2.79780    2.79780    -999.25    0.52880    0.48710    3.07080  -55.53650  -53.76090    3.07080
 3850.00000    9.29570  383.68570    0.54570    0.03430    2.16090    -999.25    0.29640    0.32110    2.60630    0.03430   53.44010   53.44010    2.60630    3.18200    3.18200    -999.25    0.33720    0.29340    6.32450  -59.65590  -57.63510    6.32450
 3900.00000    9.54970  409.43330    0.79970    0.04070    2.14580    -999.25    0.30560    0.33000    2.44240    0.04070   57.09550   57.09550    2.44240    3.07090    3.07090    -999.25    0.38140    0.33820    6.10530  -57.59500  -55.32900    6.10530
 3950.00000   10.37730  488.83020    1.62730    0.10160    2.09130    -999.25    0.33860    0.36180    2.04570    0.10160   47.02570   47.02570    2.04570    2.58450    2.58450    -999.25    0.38130    0.33810    5.16160  -67.87660  -65.36540    5.16160
 4000.00000    9.85570  400.65710    1.10570    0.02710    2.14030    -999.25    0.30890    0.33310    2.49590    0.02710   63.66230   63.66230    2.49590    2.88590    2.88590    -999.25    0.36980    0.32640    4.19500  -57.16620  -54.40980    4.19500
 4050.00000    9.92430  504.79560    1.17430    0.10310    2.19810    -999.25    0.27390    0.29940    1.98100    0.10310   89.64310   89.64310    1.98100    2.02220    2.02220    -999.25    0.39170    0.34870    2.03680   -4.45500   -1.77540    2.03680
 4100.00000   10.15790  510.17800    1.40790    0.09590    2.37990    -999.25    0.16370    0.19300    1.96010    0.09590   92.42590   92.42590    1.96010    1.99020    1.99020    -999.25    0.46930    0.42760    1.97990   -7.30890   -5.13290    1.97990
 4150.00000    9.35800  291.56220    0.60800    0.07970    1.86920    -999.25    0.47320    0.49170    3.42980    0.07970  109.21370  109.21370    3.42980    3.65130    3.65130    -999.25    0.59970    0.55800    3.53990   -3.39090   -1.71860    3.53990
 4200.00000    8.95230  325.00240    0.20230    0.04810    2.23420    -999.25    0.25200    0.27820    3.07690    0.04810   53.21730   53.21730    3.07690    3.68690    3.68690    -999.25    0.32100    0.27710    5.86050  -48.18070  -47.01200    5.86050
 4250.00000   10.13500  319.60110    1.38500    0.09540    1.97370    -999.25    0.40990    0.43060    3.12890    0.09540   88.54860   88.54860    3.12890    2.97180    2.97180    -999.25    0.58670    0.54500    6.03100   -3.53220   -2.82950    6.03100
 4300.00000    8.61860  477.98860   -0.13140    0.05500    2.16970    -999.25    0.29110    0.31600    2.09210    0.05500   48.07220   48.07220    2.09210    2.50190    2.50190    -999.25    0.38250    0.33930    4.88040  -58.29260  -57.67570    4.88040
