~Version ---------------------------------------------------
VERS. 2.0 : CWLS log ASCII Standard -VERSION 2.0
WRAP.  NO : ONE LINE PER DEPTH STEP
~Well ------------------------------------------------------
STRT.F                      550.0 : START DEPTH
STOP.F                    10300.0 : STOP DEPTH
STEP.F                   50.00000 : STEP LENGTH
NULL.                     -999.25 : NULL VALUE
COMP.      SUTTON PRODUCING CORP. : COMPANY
WELL.                   REEVES #3 : WELL
FLD .                 STUART CITY : FIELD
LOC .                             : LOCATION
CNTY.                    LA SALLE : COUNTY
STAT.                       TEXAS : STATE
CTRY.    UNITED STATES OF AMERICA : COUNTRY
SRVC. HALLIBURTON Sperry Drilling : SERVICE COMPANY
DATE.                 29-Oct-1994 : LOGDATE
API .              42283315610000 : API NUMBER
UWI .              42283315610000 : UNIQUE WELL ID
SLAT.WGS84          28.2239577875 : SURFACE LATITUDE
SLON.WGS84         -99.2395489084 : SURFACE LONGITUDE
~Curve Information -----------------------------------------
DEPT.F                 : 
GRR .GAPI 07 310 01 00 : GAMMA RAY FROM RESISTIVITY
SPR .MV   07 010 01 00 : SPONTANEOUS POTENTIAL FROM RESISTIVITY
DFL .OHMM 07 220 01 00 : DIGITAL FOCUSED LATEROLOG
ILD .OHMM 07 120 46 00 : INDUCTION LOG DEEP RESISTIVITY
SGRD.OHMM 07 220 05 00 : SHORT GUARD RESISTIVITY
~Params ----------------------------------------------------
EKB .F                 515.7 : Kelly bushing
EGL .F                 501.3 : Ground level
EDF .F                 514.7 : Drilling floor
TD  .F               10302.0 : Total depth
CLNT.                A2DTECH : Client Code
SL  .   1750' FWL & 660' FSL : Surface Location
PD  .                     GL : Permanent Datum
EPD .F                 501.3 : Elevation Permanent Datum
LMF .                    TKB : Log Measured From
DMF .                    TKB : Drilling Measured From
DAPD.F                  14.4 : Feet Above Permanent Datum
DATE.            28-OCT-1994 : Date Logged [DD-MMM-YYYY]
DD  .F                 10300 : Depth driller
DL  .F                 10302 : Depth logger
BLI .F                 10300 : Bottom log interval
TLI .F                   531 : Top log interval
CS1 .IN                9.625 : Casing size
CBD1.          9.625" @ 531' : Casing driller 1
CBL1.F                   531 : Casing logger 1
BS1 .IN                7.875 : Bit size
BSD1.F                 10300 : Depth drilled with bit1
DFT .             WATER BASE : Type fluid in hole
DFD .                   10.8 : Density
DFV .                     40 : Viscosity
DFPH.                   10.5 : pH
DFL .                    5.8 : Fluid loss
MSS .             CIRCULATED : Source of sample
RMS .OHMM               1.15 : Rm
RMF .OHMM               0.92 : Rmf
MFSS.                   MEAS : Source Rmf.
RMC .OHMM               1.38 : Rmc
MCSS.                   MEAS : Source Rmc.
RMB .OHMM               0.35 : Rm. at BHT
BHT .F                   243 : BHT.
TCS .HRS                   6 : Time Circ. stopped
TLAB.HRS                1056 : Time logger at bottom
LUN .                   7668 : Logging unit number
LUL .                   VICT : Logging unit location
ENGI.                  STAPP : Recorded By
WITN.                 SUTTON : Witnessed by
ORIG.               1" PRINT : Origin of data
UWI .         42283315610000 : Unique Well ID
DICO. A2D TECHNOLOGIES, INC. : Digitizing Company
~Other -----------------------------------------------------
~ASCII -----------------------------------------------------
  550.00000   78.22820  -24.24920   20.06490   28.91080    -999.25
  600.00000   67.41750  -32.58260    7.56490   10.44900    -999.25
  650.00000   63.88910  -31.45650    9.89520    5.55880    -999.25
  700.00000   41.44140  -22.97290   10.04970   16.56690    -999.25
  750.00000   39.38940  -20.79580    8.87510   14.42000    -999.25
  800.00000   35.43540  -34.83620    7.82440    8.95520    -999.25
  850.00000   68.61870  -38.73870    4.38520    5.65970    -999.25
  900.00000   69.36930  -40.54050    3.44910    3.85070    -999.25
  950.00000   65.31530  -32.88290    1.29740    5.65240    -999.25
 1000.00000   73.42340  -36.84490    2.70460    3.10450    -999.25
 1050.00000   59.08410  -47.18470    3.72460    3.63540    -999.25
 1100.00000   80.18020  -34.23420    1.41320    2.29850    -999.25
 1150.00000   43.01790  -47.74770    4.37130    4.77400    -999.25
 1200.00000   71.02130  -34.23420    1.44910    1.61190    -999.25
 1250.00000   73.72370  -34.23420    3.16280    2.43280    -999.25
 1300.00000   83.78380  -35.13510    1.96410    2.00000    -999.25
 1350.00000   75.07510  -35.81080    2.67470    2.73130    -999.25
 1400.00000   55.55560  -59.90990    6.22760    4.65670    -999.25
 1450.00000   57.65760  -56.41890    5.28140    3.97510    -999.25
 1500.00000   74.09900  -32.65770    8.94620    7.61190    -999.25
 1550.00000   99.39910  -33.37080    1.42810    1.51740    -999.25
 1600.00000   75.89510  -38.28830    6.63470    6.26870    -999.25
 1650.00000   91.28030  -34.45950    4.47300    4.45770    -999.25
 1700.00000   70.13460  -42.04200    3.08380    3.73140    -999.25
 1750.00000   77.99420  -42.71770    6.26350    6.82600    -999.25
 1800.00000   86.67660  -34.23420    2.09980    2.50750    -999.25
 1850.00000   66.16770  -38.02550    8.59780   14.60100    -999.25
 1900.00000   58.83230  -42.56760    8.74250   10.29940    -999.25
 1950.00000   61.52690  -45.15770    9.32930    9.29360    -999.25
 2000.00000   70.20960  -48.64860    5.28550    5.31340    -999.25
 2050.00000   58.27060  -45.49550    3.92870    3.91890    -999.25
 2100.00000   52.32270  -52.25230    6.97600    6.01600    -999.25
 2150.00000   45.47160  -43.24320   11.38220   12.11710    -999.25
 2200.00000   44.91020  -41.44140   11.19760   13.71370    -999.25
 2250.00000   73.84010  -45.15770    8.15870    9.54810    -999.25
 2300.00000   73.72760  -33.10810    1.92220    5.70230    -999.25
 2350.00000   46.44510  -41.77930   12.05080   14.91820    -999.25
 2400.00000   66.46710  -37.38740    8.24860    5.20520    -999.25
 2450.00000   66.69110  -43.73120   16.15620   19.89990    -999.25
 2500.00000   80.38890  -34.90990    2.01010   23.08310    -999.25
 2550.00000   61.97680  -44.25680   19.94790   28.31330    -999.25
 2600.00000   56.13770  -40.89720   15.98790   22.69080    -999.25
 2650.00000   36.33980  -41.66670   16.42700   22.17130    -999.25
 2700.00000   67.86790  -38.10280   13.19370   12.32930    -999.25
 2750.00000   81.15480  -31.08110    7.02820    6.38540    -999.25
 2800.00000   74.62460  -41.74170   12.87820   21.08430    -999.25
 2850.00000   91.89250  -35.66070    6.61180   11.50600    -999.25
 2900.00000   67.56760  -39.18920   14.02200   16.21290    -999.25
 2950.00000   54.05480  -36.93740   21.51200   36.11650    -999.25
 3000.00000   53.30340  -41.89190   24.69880   33.13250    -999.25
 3050.00000   61.93690  -46.84680   17.84940   24.89960    -999.25
 3100.00000   52.10200  -45.94590   20.00000   28.71490    -999.25
 3150.00000   83.10830  -40.09010    9.47780    8.51400    -999.25
 3200.00000   33.03320  -32.43240   19.63870   50.60240    -999.25
 3250.00000   77.20910  -47.67270   12.20070   13.93570    -999.25
 3300.00000   75.37430  -36.63660   10.96810    9.55820    -999.25
 3350.00000   53.55570  -39.26430   13.84720   16.93780    -999.25
 3400.00000  106.43710  -32.36520    6.22750    6.74700    -999.25
 3450.00000   90.56890  -31.75680    7.31540    7.26730    -999.25
 3500.00000   91.31740  -34.90990    8.44360    9.54950    -999.25
 3550.00000   57.26240  -44.03160    9.54100   10.97100    -999.25
 3600.00000   77.69480  -43.42380    8.10380    8.04800    -999.25
 3650.00000   51.90870  -45.94590   23.87720   11.97290    -999.25
 3700.00000  102.61980  -34.68470    4.42430    4.56820    -999.25
 3750.00000   87.61230  -36.14840    4.50450    3.48900    -999.25
 3800.00000   92.06590  -27.47750    2.06610    2.24900    -999.25
 3850.00000   91.99060  -32.62000    5.16530    4.03610    -999.25
 3900.00000   69.76050  -51.72670    7.06300    5.19080    -999.25
 3950.00000  107.78410  -34.23420    4.45050    4.23410    -999.25
 4000.00000   69.16170  -53.60360    4.62460    3.91570    -999.25
 4050.00000  103.77950  -32.43240    5.15920    4.48580    -999.25
 4100.00000   86.90190  -41.89260    4.60470    4.34740    -999.25
 4150.00000   90.53160  -52.02560    8.47640    3.78440    -999.25
 4200.00000   98.95200  -30.93080    3.57960    3.73490    -999.25
 4250.00000   69.60940  -73.87390    5.22500    3.11320    -999.25
 4300.00000  102.35700  -30.63060    3.69170    3.81530    -999.25
 4350.00000   60.40450  -39.93850    4.39240    4.08130    -999.25
 4400.00000   79.49100  -59.38460    6.38240    4.03610    -999.25
 4450.00000   79.93890  -85.24670    6.60060    2.51500    -999.25
 4500.00000   56.13810  -79.05400    6.60660    2.01810    -999.25
 4550.00000  108.12160  -38.62610    6.89310    5.83830    -999.25
 4600.00000   94.31140  -57.59360    5.65770    3.59440    -999.25
 4650.00000  102.02110  -32.54500    4.40440    4.15870    -999.25
 4700.00000   92.06800  -38.28920    4.83580    4.15660    -999.25
 4750.00000  111.67620  -29.16670    3.56420    2.97620    -999.25
 4800.00000   48.95210  -94.59460    8.02790    2.02810    -999.25
 4850.00000   41.76650  -85.02200    6.71670    1.79050    -999.25
 4900.00000   55.83830  -55.18020    6.14930    3.05900    -999.25
 4950.00000   44.91020  -92.30500   10.71850    2.72090    -999.25
 5000.00000  114.44570  -41.84370    4.71860    5.38770    -999.25
 5050.00000  115.31530  -35.39170    4.31140    4.37120    -999.25
 5100.00000  109.45950  -33.88550    4.35240    4.79040    -999.25
 5150.00000  108.93330  -33.43370    3.81460    3.71260    -999.25
 5200.00000  106.68150  -33.88550    4.17930    4.13170    -999.25
 5250.00000  111.03510  -34.56330    4.41990    4.41790    -999.25
 5300.00000   99.54880  -32.07810    3.39100    3.22390    -999.25
 5350.00000  114.52710  -30.15810    1.89050    1.88060    -999.25
 5400.00000  100.74990  -30.27110    1.88260    1.97010    -999.25
 5450.00000  104.20420  -32.14290    2.12940    2.10950    -999.25
 5500.00000  111.11120  -32.14290    1.91050    1.97020    -999.25
 5550.00000   91.89190  -31.98760    2.32840    2.74630    -999.25
 5600.00000  104.50450  -30.72290    2.29250    2.26870    -999.25
 5650.00000   87.76350  -30.15810    2.06670    2.14710    -999.25
 5700.00000   93.75110  -29.59340    2.53730    2.08960    -999.25
 5750.00000   98.68250  -29.02860    2.75720    2.65460    -999.25
 5800.00000   93.44690  -32.87420    3.55380    3.44770    -999.25
 5850.00000   79.63100  -34.90210    2.78810    2.90050    -999.25
 5900.00000   82.60610  -31.92750    2.17710    2.33830    -999.25
 5950.00000   79.17920  -34.67620    3.10450    2.83090    -999.25
 6000.00000   70.48190  -39.30720    5.01490    4.87560    -999.25
 6050.00000   83.13250  -38.29070    -999.25    3.79090    3.95720
 6100.00000   85.39120  -38.02710    -999.25    2.72640    2.99100
 6150.00000   83.73640  -35.57980    -999.25    3.21390    3.86550
 6200.00000   82.22890  -35.24100    -999.25    3.16420    3.22390
 6250.00000   92.64260  -33.09490    -999.25    2.25580    2.51150
 6300.00000   87.98750  -32.15350    -999.25    2.74630    2.77010
 6350.00000   96.54560  -35.27870    -999.25    2.53730    2.76620
 6400.00000   91.89260  -33.43370    -999.25    2.56720    2.71900
 6450.00000   87.46220  -33.77260    -999.25    2.89550    3.23390
 6500.00000   89.63960  -36.06940    -999.25    2.56710    2.81990
