~Version ---------------------------------------------------
VERS. 2.0 : CWLS log ASCII Standard -VERSION 2.0
WRAP. YES : MULTIPLE LINES PER DEPTH STEP
~Well ------------------------------------------------------
STRT.FT                   3900.0 : START DEPTH
STOP.FT                   7900.0 : STOP DEPTH
STEP.FT                 50.00000 : STEP LENGTH
NULL.                    -999.25 : NULL VALUE
COMP. CHAMPLIN PETROLEUM COMPANY : COMPANY
WELL.        MELVIN M. HRONEK #1 : WELL
FLD .                   GIDDINGS : FIELD
LOC .                            : LOCATION
CNTY.                   BURLESON : COUNTY
STAT.                      TEXAS : STATE
CTRY.   UNITED STATES OF AMERICA : COUNTRY
SRVC.               Schlumberger : SERVICE COMPANY
DATE.                08-Jul-1980 : LOGDATE
API .             42051308330000 : API NUMBER
UWI .             42051308330000 : UNIQUE WELL ID
SLAT.WGS84         30.5404535436 : SURFACE LATITUDE
SLON.WGS84        -96.6440104121 : SURFACE LONGITUDE
~Curve Information -----------------------------------------
DEPT    .FT    : DEPTH FEET
CALDED  .IN    : CALIPER FROM CNFL [DEPTH ADJ. TO GRR.]
CALWS   .IN    : CALIPER [CALDED]
CONDWS  .MMHO  : CONDUCTIVITY [1000/DRESWS]
DCORWS  .G/C3  : DENSITY CORRECTION [DRHOED]
DENWS   .G/C3  : BULK DENSITY [M=2.71 F=1.0] [RHOBED]
DPHILSED.V/V   : DENSITY POROSITY [M=2.71 F=1.0] FROM CNFL [DEPTH ADJ. TO GRR.]
DPOWS   .V/V   : DENSITY POROSITY [M=2.71 F=1.0] [CALCULATED FROM DENWS]
DRESWS  .OHMM  : DEEP RESISTIVITY [ILDED]
DRHOED  .G/C3  : DENSITY CORRECTION FROM DENSITY LOG
DTED    .US/F  : DELTA TIME FROM DUAL INDUCTION SFL -SONIC LOG
DTWS    .US/F  : DELTA TIME [DTED]
GRDED   .GAPI  : GAMMA RAY FROM CNFL [DEPTH ADJ. TO GRR.]
GRRED   .GAPI  : GAMMA RAY FROM DUAL INDUCTION SFL -SONIC LOG
GRWS    .GAPI  : GAMMA RAY [GRDED]
ILDED   .OHMM  : INDUCTION LOG DEEP FROM DUAL INDUCTION SFL -SONIC LOG
ILMED   .OHMM  : INDUCTION LOG MEDIUM FROM DUAL INDUCTION SFL -SONIC LOG
MRESWS  .OHMM  : MEDIUM RESISTIVITY [ILMED]
NPHILSED.V/V   : NEUTRON POROSITY LIMESTONE FROM CNFL [DEPTH ADJ. TO GRR.]
NPOWS   .V/V   : NEUTRON POROSITY LIMESTONE [NPHILSED]
RHOBED  .G/C3  : BULK DENSITY FROM CNFL [DEPTH ADJ. TO GRR.]
SFLUED  .OHMM  : SPHERICALLY FOCUSED FROM DUAL INDUCTION SFL -SONIC LOG
SPHILSED.V/V   : SONIC POROSITY FROM DENSITY SONIC LOG [DEPTH ADJ. TO GRR.]
SPOWS   .V/V   : SONIC POROSITY [SPHIED]
SPRED   .MV    : SPONTANEOUS POTENTIAL FROM DUAL INDUCTION SFL -SONIC LOG
SPWS    .MV    : SPONTANEOUS POTENTIAL [BASELINE 0 MV] [SPRED]
SRESWS  .OHMM  : SHALLOW RESISTIVITY [SFLUED]
~Params ----------------------------------------------------
PD  .                     GL : PERMANENT DATUM
EPD .FT                  404 : ELEVATION PERMANENT DATUM
LMF .                     KB : LOG MEASURED FROM
DAPD.FT                   14 : FEET ABOVE PERMANENT DATUM
DMF .                     KB : DRILLING MEASURED FROM
EKB .FT                  418 : KELLY BUSHING
EDF .FT                  417 : DRILLING FLOOR
EGL .FT                  404 : GROUND LEVEL
DATE.               07/08/80 : RUN DATE
RUN .                      1 : RUN NUMBER
DD  .FT                 7958 : DEPTH DRILLER
DL  .FT                 7938 : DEPTH LOGGER
BLI .FT                 7932 : BOTTOM LOG INTERVAL
TLI .FT                 3892 : TOP LOG INTERVAL
CS  .IN                9.625 : CASING SIZE
CBD .FT                 3910 : CASING BOTTOM DRILLER
CBL .FT                 3892 : CASING BOTTOM LOGGER
BS  .IN                 8.75 : BIT SIZE
BSD .FT                 7958 : BIT SIZE AT DEPTH
DFT .               BROCK WL : DRILLING FLUID TYPE
DFD .                    9.7 : DRILLING FLUID DENSITY
DFV .                     40 : DRILLING FLUID VISCOSITY
DFPH.                    8.5 : DRILLING FLUID PH
DFL .                   0.15 : DRILLING FLUID LOSS
MSS .                   TANK : MUD SAMPLE SOURCE
RMS .OHMM               2.44 : RESISTIVITY MUD SAMPLE
MST .DEGF                 79 : MUD SAMPLE TEMPERATURE
RMF .OHMM                2.1 : RESISTIVITY MUD FILTRATE SAMPLE
MFST.DEGF                 75 : MUD FILTRATE SAMPLE TEMPERATURE
RMC .OHMM               3.66 : RESISTIVITY MUD CAKE
MCST.DEGF                 79 : MUD CAKE SAMPLE TEMPERATURE
MFSS.                      M : MUD FILTRATE SAMPLE SOURCE
MCSS.                      C : MUD CAKE SAMPLE SOURCE
RMB .OHMM               0.98 : RESISTIVITY MUD AT BHT
TCS .HRS                 100 : TIME CIRCULATED STOPPED
TLAB.HRS                 530 : TIME LOGGER AT BOTTOM
LUN .                   7750 : LOGGING UNIT NUMBER
LUL .                BRENHAM : LOGGING UNIT LOCATION
ENGI.                 HARRIS : RECORDING ENGINEER
WITN.                 SCHELL : WITNESSED BY
CLNT.                A2DTECH : CLIENT CODE
ORIG.            2" 5" PRINT : ORIGIN OF DATA
UWI .         42051308330000 : UNIQUE WELL ID
DICO. A2D Technologies, Inc. : DIGITIZING COMPANY
~Other -----------------------------------------------------
~ASCII -----------------------------------------------------
# ...
 6600.00000    9.63090    9.63090  438.50030   -0.00180    2.56500    0.08520    0.08480    2.28050   -0.00180   87.51940   87.51940   78.50320   77.00640   87.51940    2.28050    2.33150    2.33150    0.20790    0.20790    2.56500    2.81900    -999.25    -999.25    3.38890   -2.21290    2.81900
 6650.00000   10.42020   10.42020  507.43390    0.13380    2.50060    0.12430    0.12250    1.97070    0.13380   91.92650   91.92650   82.47750   80.68230   91.92650    1.97070    2.05530    2.05530    0.23850    0.23850    2.50060    2.20870    -999.25    -999.25   -0.08550   -5.73590    2.20870
 6700.00000   11.96200   11.96200  707.81430    0.12660    2.47750    0.13720    0.13600    1.41280    0.12660   95.13230   95.13230   92.64190   80.10190   95.13230    1.41280    1.48480    1.48480    0.34040    0.34040    2.47750    1.71040    -999.25    -999.25   -2.51620   -8.21520    1.71040
 6750.00000   10.97180   10.97180  603.86470    0.07850    2.47740    0.13270    0.13600    1.65600    0.07850   93.29650   93.29650   89.90590   87.23450   93.29650    1.65600    1.74760    1.74760    0.25870    0.25870    2.47740    2.00220    -999.25    -999.25   -0.31790   -6.06550    2.00220
 6800.00000   11.68220   11.68220  619.54030    0.10060    2.46310    0.14750    0.14440    1.61410    0.10060   94.55060   94.55060   95.73250   89.61390   94.55060    1.61410    1.69590    1.69590    0.27670    0.27670    2.46310    1.97630    -999.25    -999.25    0.10250   -5.69370    1.97630
 6850.00000   11.22070   11.22070  627.27390    0.18410    2.54800    0.09180    0.09470    1.59420    0.18410   93.59720   93.59720   73.54460   67.73000   93.59720    1.59420    1.67530    1.67530    0.27500    0.27500    2.54800    1.97350    -999.25    -999.25    1.20250   -4.64230    1.97350
 6900.00000   12.32590   12.32590  651.84800    0.13060    2.52460    0.11440    0.10840    1.53410    0.13060   94.91330   94.91330   89.82580   82.71460   94.91330    1.53410    1.61120    1.61120    0.28990    0.28990    2.52460    1.97330    -999.25    -999.25   -0.05310   -5.94650    1.97330
 6950.00000   12.84470   12.84470  689.75030    0.10700    2.50460    0.12310    0.12010    1.44980    0.10700   95.88510   95.88510   84.41260   80.43340   95.88510    1.44980    1.52240    1.52240    0.32790    0.32790    2.50460    1.84830    -999.25    -999.25   -0.06720   -6.00930    1.84830
 7000.00000   10.82860   10.82860  561.07280    0.11690    2.50670    0.11520    0.11890    1.78230    0.11690   92.43690   92.43690   86.26570   74.09450   92.43690    1.78230    1.87210    1.87210    0.26950    0.26950    2.50670    2.16400    -999.25    -999.25    4.79200   -1.19870    2.16400
 7050.00000   11.52590   11.52590  570.35300    0.10810    2.54310    0.09520    0.09760    1.75330    0.10810   92.36050   92.36050   84.93710   76.64810   92.36050    1.75330    1.84280    1.84280    0.29460    0.29460    2.54310    2.21970    -999.25    -999.25    4.68180   -1.22810    2.21970
 7100.00000   13.18300   13.18300  591.71600    0.07090    2.55770    0.08870    0.08910    1.69000    0.07090   93.33390   93.33390   85.62730   80.91620   93.33390    1.69000    1.77500    1.77500    0.26180    0.26180    2.55770    2.09040    -999.25    -999.25    3.63450   -2.16620    2.09040
 7150.00000   12.43270   12.43270  614.55260    0.08220    2.51910    0.11170    0.11160    1.62720    0.08220   92.50330   92.50330   87.63840   70.90280   92.50330    1.62720    1.71240    1.71240    0.28300    0.28300    2.51910    2.08530    -999.25    -999.25    4.82270   -0.86890    2.08530
 7200.00000   11.87970   11.87970  546.41820    0.11300    2.53660    0.10100    0.10140    1.83010    0.11300   92.32520   92.32520   89.15580   84.79540   92.32520    1.83010    1.89690    1.89690    0.27670    0.27670    2.53660    2.19340    -999.25    -999.25    4.97960   -0.60280    2.19340
 7250.00000   12.28400   12.28400  545.67280    0.09600    2.54470    0.09660    0.09670    1.83260    0.09600   91.39440   91.39440   83.37320   71.48950   91.39440    1.83260    1.93460    1.93460    0.27370    0.27370    2.54470    2.22580    -999.25    -999.25    0.98050   -3.75940    2.22580
 7300.00000   12.48750   12.48750  523.28620    0.04210    2.52890    0.10580    0.10590    1.91100    0.04210   90.43480   90.43480   79.61040   74.82620   90.43480    1.91100    2.00690    2.00690    0.25380    0.25380    2.52890    2.40600    0.25900    0.25900    0.98850   -2.97480    2.40600
 7350.00000   10.76900   10.76900   77.95080    0.23180    2.23090    0.30920    0.28020   12.82860    0.23180   64.51290   64.51290   41.75110   41.37550   64.51290   12.82860   11.43600   11.43600    0.11850    0.11850    2.23090   18.30010    0.04740    0.04740  -20.13710  -26.55350   18.30010
 7400.00000    9.77470    9.77470  112.39240    0.02920    2.60180    0.06750    0.06330    8.89740    0.02920   65.99370   65.99370   46.79960   37.60320   65.99370    8.89740    7.91510    7.91510    0.08150    0.08150    2.60180   17.52880    0.06230    0.06230  -22.95880  -31.82840   17.52880
 7450.00000    9.65090    9.65090   91.03570    0.07230    2.55980    0.09120    0.08790   10.98470    0.07230   65.30760   65.30760   36.95600   33.12150   65.30760   10.98470    9.86360    9.86360    0.10070    0.10070    2.55980   14.46570    0.06050    0.06050  -19.86530  -31.18810   14.46570
 7500.00000   10.01600   10.01600   54.14360   -0.00590    2.58760    0.07000    0.07160   18.46940   -0.00590   61.78460   61.78460   19.83010   23.79380   61.78460   18.46940   17.04870   17.04870    0.05810    0.05810    2.58760   35.11030    0.05180    0.05180   -6.91030  -20.68630   35.11030
 7550.00000   15.12920   15.12920  288.63360    0.13620    2.41300    0.17390    0.17370    3.46460    0.13620  100.99250  100.99250  104.58450   84.80280  100.99250    3.46460    2.48830    2.48830    0.36250    0.36250    2.41300    3.13540    0.33630    0.33630    1.43210  -14.79700    3.13540
 7600.00000   10.80520   10.80520  261.82810    0.02390    2.50860    0.11700    0.11780    3.81930    0.02390   92.76640   92.76640   97.89370   90.25380   92.76640    3.81930    3.95330    3.95330    0.25990    0.25990    2.50860    6.05900    0.27560    0.27560   15.50580   -3.17650    6.05900
 7650.00000   10.23210   10.23210   73.25360   -0.00830    2.42510    0.16730    0.16660   13.65120   -0.00830   90.10480   90.10480   96.34220   87.96870   90.10480   13.65120   14.02400   14.02400    0.26140    0.26140    2.42510   25.32640    0.25930    0.25930   22.08620    2.32450   25.32640
 7700.00000   10.35050   10.35050   83.37090   -0.00890    2.46940    0.13800    0.14070   11.99460   -0.00890   91.08760   91.08760  149.38710  149.23040   91.08760   11.99460   11.99300   11.99300    0.27750    0.27750    2.46940   23.16910    0.25240    0.25240   21.98140    2.21970   23.16910
 7750.00000   14.04140   14.04140  395.58530    0.12350    2.45200    0.14930    0.15090    2.52790    0.12350   95.88400   95.88400   90.95170   84.88680   95.88400    2.52790    2.08510    2.08510    0.35310    0.35310    2.45200    4.68670    0.29580    0.29580   -3.42040  -23.18210    4.68670
 7800.00000   11.07410   11.07410  302.87430    0.02320    2.66760    0.02330    0.02480    3.30170    0.02320   70.43340   70.43340   61.14590   49.02030   70.43340    3.30170    3.38790    3.38790    0.16290    0.16290    2.66760    3.98700    0.11700    0.11700   17.95900   -1.80270    3.98700
 7850.00000    9.85890    9.85890   47.83540   -0.00250    2.68870    0.01310    0.01250   20.90500   -0.00250   55.11430   55.11430   23.02150   21.90840   55.11430   20.90500   22.72340   22.72340    0.02470    0.02470    2.68870   27.68730    0.00130    0.00130    2.54660  -17.21510   27.68730
 7900.00000    9.18270    9.18270   25.53310    0.00840    2.66520    0.02570    0.02620   39.16480    0.00840   52.77900   52.77900   22.47060   33.59880   52.77900   39.16480   35.96930   35.96930    0.01330    0.01330    2.66520   37.66900   -0.02310   -0.02310   -4.49720  -24.25890   37.66900
