~Version ---------------------------------------------------
VERS. 2.0 : CWLS log ASCII Standard -VERSION 2.0
WRAP. YES : Multiple lines per depth step
~Well ------------------------------------------------------
STRT.FT                   3900.0 : START DEPTH
STOP.FT                   8200.0 : STOP DEPTH
STEP.FT                 50.00000 : STEP LENGTH
NULL.                    -999.25 : NULL VALUE
COMP. CHAMPLIN PETROLEUM COMPANY : COMPANY
WELL.         FLOYD T. SWONKE #1 : WELL
FLD .                   GIDDINGS : FIELD
LOC .                            : LOCATION
CNTY.                   BURLESON : COUNTY
STAT.                      TEXAS : STATE
CTRY.   UNITED STATES OF AMERICA : COUNTRY
SRVC.               Schlumberger : SERVICE COMPANY
DATE.                21-Sep-1980 : LOGDATE
API .             42051309360000 : API NUMBER
UWI .             42051309360000 : UNIQUE WELL ID
SLAT.WGS84         30.4510572184 : SURFACE LATITUDE
SLON.WGS84        -96.7010729865 : SURFACE LONGITUDE
~Curve Information -----------------------------------------
DEPT    .FT    : 
CALWS   .IN    : CALIPER [DCALED+8.5]
CONDWS  .MMHO  : CONDUCTIVITY [1000/DRESWS]
DCALED  .IN    : DIFFERENTIAL CALIPER FROM DIL-SFL-CNFD LOG
DCORWS  .G/C3  : DENSITY CORRECTION [DRHOED]
DENWS   .G/C3  : FORMATION BULK DENSITY [CALCULATED FROM DPOWS, M=2.71, F=1.0]
DPHILSED.V/V   : DENSITY POROSITY LIMESTONE [M=2.71, F=1.0] FROM DIL-SFL-CNFD LOG [ADJ. TO GRRED]
DPHISSED.V/V   : DENSITY POROSITY SANDSTONE [M=2.65, F=1.0] FROM DIL-SFL-CNFD LOG [ADJ. TO GRRED]
DPOWS   .V/V   : DENSITY POROSITY LIMESTONE [DPHISSED CONVERTED TO LIMESTONE MATRIX(M=2.71, F=1.0) & SPL. TO DPHILSED @6394']
DRESWS  .OHMM  : DEEP RESISTIVITY [RILDED]
DRHOED  .G/C3  : BULK DENSITY CORRECTION FROM DIL-SFL-CNFD LOG
GRRED   .GAPI  : GAMMA RAY FROM DIL-SFL-CNFD LOG
GRWS    .GAPI  : GAMMA RAY [GRRED] CSG < 3712'
MRESWS  .OHMM  : MEDIUM RESISTIVITY [RILMED]
NPHILSED.V/V   : NEUTRON POROSITY LIMESTONE FROM DIL-SFL-CNFD LOG [ADJ. TO GRRED]
NPHISSED.V/V   : NEUTRON POROSITY SANDSTONE FROM DIL-SFL-CNFD LOG [ADJ. TO GRRED]
NPOWS   .V/V   : NEUTRON POROSITY LIMESTONE [NPHISSED MATRIX CONVERSION FOR LIMESTONE, SPL. TO NPHILSED @6394'] CSG < 3712'
RILDED  .OHMM  : DEEP INDUCTION RESISTIVITY FROM DIL-SFL-CNFD LOG
RILMED  .OHMM  : MEDIUM INDUCTION LOG RESISTIVITY FROM DIL-SFL-CNFD LOG
SFLUED  .OHMM  : SHALLOW FOCUSED RESISTIVITY (UNAVERAGED) FROM DIL-SFL-CNFD LOG
SPRED   .MV    : SPONTANEOUS POTENTIAL FROM DIL-SFL-CNFD LOG
SPWS    .MV    : SPONTANEOUS POTENTIAL [BASELINE 0 MV, SPRED]
SRESWS  .OHMM  : SHALLOW RESISTIVITY [SFLUED]
~Params ----------------------------------------------------
PD  .                     GL : PERMANENT DATUM
EPD .FT                  393 : ELEVATION PERMANENT DATUM
LMF .                     KB : LOG MEASURED FROM
DAPD.FT                   14 : FEET ABOVE PERMANENT DATUM
DMF .                     KB : DRILLING MEASURED FROM
EKB .FT                  407 : KELLY BUSHING
EDF .FT                  406 : DRILLING FLOOR
EGL .FT                  393 : GROUND LEVEL
DATE.               09/21/80 : RUN DATE
RUN .                      1 : RUN NUMBER
DD  .FT                 8220 : DEPTH DRILLER
DL  .FT                 8221 : DEPTH LOGGER
BLI .FT                 8215 : BOTTOM LOG INTERVAL
TLI .FT                 3912 : TOP LOG INTERVAL
CS  .IN                9.625 : CASING SIZE
CBD .FT                 3900 : CASING BOTTOM DRILLER
CBL .FT                 3912 : CASING BOTTOM LOGGER
BS  .IN                  8.5 : BIT SIZE
BSD .FT                 8220 : BIT SIZE AT DEPTH
DFT .            BENEX WL100 : DRILLING FLUID TYPE
DFD .                    9.2 : DRILLING FLUID DENSITY
DFV .                     41 : DRILLING FLUID VISCOSITY
DFPH.                      8 : DRILLING FLUID PH
DFL .                    5.6 : DRILLING FLUID LOSS
MSS .                   TANK : MUD SAMPLE SOURCE
RMS .OHMM                2.1 : RESISTIVITY MUD SAMPLE
MST .DEGF                 90 : MUD SAMPLE TEMPERATURE
RMF .OHMM               1.89 : RESISTIVITY MUD FILTRATE SAMPLE
MFST.DEGF                 75 : MUD FILTRATE SAMPLE TEMPERATURE
RMC .OHMM               3.15 : RESISTIVITY MUD CAKE
MCST.DEGF                 90 : MUD CAKE SAMPLE TEMPERATURE
MFSS.                      M : MUD FILTRATE SAMPLE SOURCE
MCSS.                      C : MUD CAKE SAMPLE SOURCE
RMB .OHMM                  1 : RESISTIVITY MUD AT BHT
TCS .HRS                2100 : TIME CIRCULATED STOPPED
TLAB.HRS                 730 : TIME LOGGER AT BOTTOM
LUN .                   7750 : LOGGING UNIT NUMBER
LUL .                BRENHAM : LOGGING UNIT LOCATION
ENGI.       ALEXANDER HARRIS : RECORDING ENGINEER
WITN.                 SCHELL : WITNESSED BY
CLNT.                A2DTECH : CLIENT CODE
ORIG.            2" 5" PRINT : ORIGIN OF DATA
UWI .         42051309360000 : UNIQUE WELL ID
DICO. A2D Technologies, Inc. : DIGITIZING COMPANY
~Other -----------------------------------------------------
~ASCII -----------------------------------------------------
# ...
 7100.00000   13.15100  541.24270    4.65100    0.09990    2.51980    0.11120    -999.25    0.11120    1.84760    0.09990   89.37300   89.37300    1.91840    0.28680    -999.25    0.28680    1.84760    1.91840    2.20210   -2.08700   -4.35070    2.20210
 7150.00000   11.77660  501.90720    3.27660    0.10070    2.55100    0.09300    -999.25    0.09300    1.99240    0.10070   86.25040   86.25040    2.16010    0.26290    -999.25    0.26290    1.99240    2.16010    2.43150   -0.40490   -2.61620    2.43150
 7200.00000   13.35710  552.82220    4.85710    0.08380    2.52650    0.10730    -999.25    0.10730    1.80890    0.08380   98.34450   98.34450    1.86970    0.27990    -999.25    0.27990    1.80890    1.86970    2.18440   -0.95410   -3.11300    2.18440
 7250.00000   14.36890  576.83430    5.86890    0.07220    2.51270    0.11540    -999.25    0.11540    1.73360    0.07220   80.81830   80.81830    1.84860    0.29790    -999.25    0.29790    1.73360    1.84860    2.12530   -0.77470   -2.88120    2.12530
 7300.00000   11.96940  534.58780    3.46940    0.06280    2.57640    0.07810    -999.25    0.07810    1.87060    0.06280   92.21900   92.21900    1.97060    0.25710    -999.25    0.25710    1.87060    1.97060    2.25360    0.36270   -1.69140    2.25360
 7350.00000   13.96070  585.06900    5.46070    0.08960    2.49780    0.12410    -999.25    0.12410    1.70920    0.08960   82.77120   82.77120    1.78500    0.27350    -999.25    0.27350    1.70920    1.78500    2.07940  -12.00670  -14.07510    2.07940
 7400.00000   11.06130  552.79160    2.56130    0.08990    2.30400    0.23740    -999.25    0.23740    1.80900    0.08990  112.11660  112.11660    1.94140    0.31710    -999.25    0.31710    1.80900    1.94140    1.77820  -12.13900  -14.28310    1.77820
 7450.00000   10.46790  137.41550    1.96790   -0.00220    2.63070    0.04640    -999.25    0.04640    7.27720   -0.00220   30.63070   30.63070    7.68820    0.07100    -999.25    0.07100    7.27720    7.68820    8.04710  -13.61010  -15.82990    8.04710
 7500.00000   10.75980  258.28450    2.25980    0.05880    2.50860    0.11780    -999.25    0.11780    3.87170    0.05880   51.41620   51.41620    4.10520    0.12490    -999.25    0.12490    3.87170    4.10520    4.47270  -12.36170  -14.65730    4.47270
 7550.00000   10.11370  210.91260    1.61370    0.05080    2.56570    0.08440    -999.25    0.08440    4.74130    0.05080   68.93600   68.93600    5.07650    0.10100    -999.25    0.10100    4.74130    5.07650    3.76820  -14.70580  -17.07710    3.76820
 7600.00000    9.73640   99.38970    1.23640    0.04550    2.59050    0.06990    -999.25    0.06990   10.06140    0.04550   42.83870   42.83870   10.92850    0.07630    -999.25    0.07630   10.06140   10.92850    8.78200  -22.80740  -25.25440    8.78200
 7650.00000   10.12290  100.03700    1.62290    0.10150    2.38480    0.19020    -999.25    0.19020    9.99630    0.10150   49.98550   49.98550   10.80650    0.08990    -999.25    0.08990    9.99630   10.80650   16.20100  -31.54850  -34.07120   16.20100
 7700.00000    9.79010   93.10290    1.29010    0.09440    2.60020    0.06420    -999.25    0.06420   10.74080    0.09440   40.71210   40.71210   11.31170    0.09560    -999.25    0.09560   10.74080   11.31170   17.25030  -17.09370  -19.69220   17.25030
 7750.00000    9.38630   67.36550    0.88630    0.00000    2.57700    0.07780    -999.25    0.07780   14.84440    0.00000   49.80080   49.80080   13.46470    0.08560    -999.25    0.08560   14.84440   13.46470   35.54120  -11.06860  -13.74280   35.54120
 7800.00000   15.41950  492.78080    6.91950    0.09840    2.39830    0.18230    -999.25    0.18230    2.02930    0.09840   94.74640   94.74640    1.78130    0.39740    -999.25    0.39740    2.02930    1.78130    2.99050  -19.17460  -21.92450    2.99050
 7850.00000   14.17810  390.88460    5.67810    0.08890    2.29750    0.24120    -999.25    0.24120    2.55830    0.08890  104.62670  104.62670    2.36700    0.40420    -999.25    0.40420    2.55830    2.36700    3.13310  -12.29260  -15.11820    3.13310
 7900.00000   10.25220  302.50780    1.75220    0.06040    2.53370    0.10310    -999.25    0.10310    3.30570    0.06040   99.81690   99.81690    3.43280    0.28200    -999.25    0.28200    3.30570    3.43280    4.74620   -3.12420   -6.02560    4.74620
 7950.00000    9.55060  110.84750    1.05060    0.00460    2.48330    0.13260    -999.25    0.13260    9.02140    0.00460   92.11250   92.11250    9.86700    0.23750    -999.25    0.23750    9.02140    9.86700   15.72320    1.84040   -1.13670   15.72320
 8000.00000   12.45820  375.47400    3.95820    0.10060    2.54910    0.09410    -999.25    0.09410    2.66330    0.10060   91.61760   91.61760    2.67030    0.31390    -999.25    0.31390    2.66330    2.67030    4.02630  -10.90470  -15.72470    4.02630
 8050.00000    9.55530   95.99690    1.05530    0.09370    2.63890    0.04160    -999.25    0.04160   10.41700    0.09370   33.35400   33.35400   11.55500    0.13700    -999.25    0.13700   10.41700   11.55500   16.72330   -5.59040  -12.54100   16.72330
 8100.00000    9.01270   20.66070    0.51270   -0.00140    2.66210    0.02800    -999.25    0.02800   48.40110   -0.00140   19.80450   19.80450   35.18310    0.02160    -999.25    0.02160   48.40110   35.18310   47.16710  -13.25270  -22.33390   47.16710
 8150.00000    8.89050   34.34930    0.39050    0.00370    2.68160    0.01660    -999.25    0.01660   29.11270    0.00370   26.11010   26.11010   26.80560    0.01970    -999.25    0.01970   29.11270   26.80560   30.82840   -3.33320  -13.99100   30.82840
 8200.00000    8.38620    8.92710   -0.11380    0.04150    2.69020    0.01160    -999.25    0.01160  112.01790    0.04150    -999.25    -999.25   71.69250    -999.25    -999.25    -999.25  112.01790   71.69250   79.49350   -7.99100  -18.64880   79.49350
