~Version ---------------------------------------------------
VERS. 2.0 : CWLS log ASCII Standard -VERSION 2.0
WRAP.  NO : ONE LINE PER DEPTH STEP
~Well ------------------------------------------------------
STRT.F                   300.0 : START DEPTH
STOP.F                 13150.0 : STOP DEPTH
STEP.F                50.00000 : STEP LENGTH
NULL.                  -999.25 : NULL VALUE
COMP.     SUNDANCE OIL COMPANY : COMPANY
WELL.       PARKER AND SONS #1 : WELL
FLD .                  WILDCAT : FIELD
LOC .                          : LOCATION
CNTY.                LIMESTONE : COUNTY
STAT.                    TEXAS : STATE
CTRY. UNITED STATES OF AMERICA : COUNTRY
SRVC.            Dresser Atlas : SERVICE COMPANY
DATE.              01-Apr-1979 : LOGDATE
API .           42293304380000 : API NUMBER
UWI .           42293304380000 : UNIQUE WELL ID
SLAT.WGS84       31.3046679499 : SURFACE LATITUDE
SLON.WGS84      -96.4505702007 : SURFACE LONGITUDE
~Curve Information -----------------------------------------
DEPT.F                 : 
SPR .MV   07 010 01 00 : SPONTANEOUS POTENTIAL FROM RES. LOG
ILM .OHMM 07 120 44 00 : INDUCTION LOG MEDIUM
SFLU.OHMM 07 220 01 00 : SPHERICALLY FOCUSED LOG UNAVERAGED RESISTIVITY
ILD .OHMM 07 120 46 00 : INDUCTION LOG DEEP
CALS.IN   60 280 50 00 : CALIPER FROM DIL/SONIC
DT  .US/F 60 520 00 00 : INTERVAL TRANSIT TIME
CALD.IN   45 280 60 00 : CALIPER FROM DENSITY LOG
GRD .GAPI 45 310 01 00 : GAMMA RAY FROM DENSITY LOG
PORD.DEC  45 890 12 00 : POROSITY DENSITY SANDSTONE
NPOR.DEC  42 890 03 00 : NEUTRON POROSITY SANDSTONE
CORR.G/C3 45 356 01 00 : DENSITY CORRECTION
RHOB.G/C3 45 350 01 00 : BULK DENSITY
~Params ----------------------------------------------------
PD  .                     GL : PERMANENT DATUM
EPD .F                   393 : ELEVATION PERMANENT DATUM
LMF .                    RKB : LOG MEASURED FROM
DAPD.F                    19 : FEET ABOVE PERMANENT DATUM
DMF .                    RKB : DRILLING MEASURED FROM
EKB .F                   412 : KELLING BUSHING
EDF .F                   410 : DRILLING FLOOR
EGL .F                   393 : GROUND LEVEL
DATE.               4-1-1979 : RUN DATE
RUN .                      1 : RUN NUMBER
DD  .F                 13150 : DEPTH DRILLER
DL  .F                 13144 : DEPTH LOGGER
BLI .F                 13142 : BOTTOM LOG INTERVAL
TLI .F                  4648 : TOP LOG INTERVAL
CS  .IN                9.625 : CASING SIZE
CBD .F                  4647 : CASING BOTTOM DRILLER
CBL .F                  4648 : CASING BOTTOM LOGGER
BS  .IN                 8.75 : BIT SIZE
BSD .F                 13150 : BIT SIZE AT DEPTH
DFT .                 LIGNO. : DRILLING FLUID TYPE
DFD .                   11.1 : DRILLING FLUID DENSITY
DFV .                     40 : DRILLING FLUID VISCOSITY
DFPH.                     10 : DRILLING FLUID PH
DFL .                   11.4 : DRILLING FLUID LOSS
MSS .               MUD TANK : MUD SAMPLE SOURCE
RMS .OHMM               2.21 : RESISTIVITY MUD SAMPLE
MST .F                    92 : MUD SAMPLE TEMPERATURE
RMF .OHMM               1.72 : RESISTIVITY MUD FILTRATE SAMPLE
MFST.F                    92 : MUD FILTRATE SAMPLE TEMPERATURE
RMC .OHMM               2.42 : RESISTIVITY MUD CAKE
MCST.F                    92 : MUD CAKE SAMPLE TEMPERATURE
MFSS.                   CALC : MUD FILTRATE SAMPLE SOURCE
MCSS.                   CALC : MUD CAKE SAMPLE SOURCE
RMB .OHMM               0.81 : RESISTIVITY MUD AT BHT
TCS .HRS                   6 : TIME CURCULATED STOPPED
LUN .                   6209 : LOGGING UNIT NUMBER
LUL .                  TYLER : LOGGING UNIT LOCATION
ENGI.             S. LEONARD : RECORDING ENGINEER
WITN.                 DECKER : WITNESSED BY
CLNT.                A2DTECH : CLIENT CODE
ORIG.               5" PRICE : ORIGIN OF DATA
UWI .         42293304380000 : UNIQUE WELL ID
DICO. A2D Technologies, Inc. : DIGITIZING COMPANY
~Other -----------------------------------------------------
~ASCII -----------------------------------------------------
# ...
 8700.00000 -102.55500   11.61500   20.94300   10.02400    -999.25    -999.25    9.42700   24.16500    0.07200    0.05500   -0.06340    2.53500
 8750.00000  -86.68200   16.58100   22.13200   15.20800    -999.25    -999.25    9.42600   21.68400    0.06400    0.05100   -0.05330    2.54430
 8800.00000 -112.95900   19.81700   41.82700   16.18200    -999.25    -999.25    9.36800   35.27300    0.05000    0.07800   -0.07440    2.56530
 8850.00000 -109.68800   15.31200   46.24100   15.19200    -999.25    -999.25    9.43900   21.27300    0.06700    0.03700   -0.07240    2.54510
 8900.00000  -94.16800   16.18200   28.86900   13.96500    -999.25    -999.25    9.61700   20.43300    0.04000    0.04400   -0.05370    2.58620
 8950.00000  -94.12700   14.22400   13.46000   15.03600    -999.25    -999.25    9.59500   24.82500    0.02100    0.04500   -0.04940    2.62110
 9000.00000  -72.67600   12.27500   10.52700   10.35300    -999.25    -999.25   10.20200   52.54500    0.03300    0.07500   -0.09200    2.60170
 9050.00000  -66.51400    4.79800    5.81600    4.26100    -999.25    -999.25   11.20300   89.50100   -0.02400    0.23000   -0.01520    2.69860
 9100.00000  -80.38700    9.63000    8.18500    9.19700    -999.25    -999.25    9.93200   30.27700    0.04700    0.05600   -0.06680    2.57390
 9150.00000  -98.24900   11.88400   18.06100   11.53400    -999.25    -999.25    9.89200   44.49200    0.06700    0.08200   -0.07240    2.55120
 9200.00000 -100.84500   12.27500   15.88700   12.61700    -999.25    -999.25    9.77000   26.41800    0.05800    0.05700   -0.07590    2.55090
 9250.00000  -98.56600   22.54400   71.95000   23.90000    -999.25    -999.25    9.77000   20.24100    0.03300    0.05200   -0.09050    2.56380
 9300.00000  -92.77900   22.83300   36.39400   19.45500    -999.25    -999.25    9.72200   23.39100    0.06900    0.04700   -0.08200    2.52410
 9350.00000 -126.07500    4.84200   11.46100    3.84600    -999.25    -999.25    9.84400   46.40100    0.01400    0.10600   -0.05540    2.64990
 9400.00000  -76.62800    6.62300    8.11500    5.91400    -999.25    -999.25   10.88600   92.77900   -0.01800    0.17700   -0.01400    2.69110
 9450.00000  -62.33900    8.84500    7.84600    8.13100    -999.25    -999.25   12.14700   77.91300    0.04400    0.15900   -0.10260    2.58700
 9500.00000  -89.21300   15.59700   20.18500   12.08700    -999.25    -999.25   10.19400   49.10400    0.06200    0.12600   -0.01960    2.55700
 9550.00000 -100.44000   17.41900   20.78700   14.48900    -999.25    -999.25    9.57000   18.43900    0.09800    0.06700   -0.06240    2.49880
 9600.00000 -103.73900   34.71400   39.90500   15.41900    -999.25    -999.25    9.94000   23.93500    0.09600    0.08500   -0.04180    2.48910
 9650.00000 -140.87600    6.97000   38.37900    4.90000    -999.25    -999.25    9.79500   23.37600    0.12000    0.09600   -0.05020    2.45380
 9700.00000 -150.41000   10.99100   22.63600    7.19500    -999.25    -999.25    9.73000   16.47100    0.15500    0.15100   -0.03130    2.38860
 9750.00000 -107.65900   27.10400   44.64000   23.01100    -999.25    -999.25    9.75200   20.03200    0.06600    0.03900   -0.07740    2.54250
 9800.00000  -77.65500   36.22400  171.60600   39.17700    -999.25    -999.25    9.61800   54.92500    0.02400    0.06100   -0.04200    2.62680
 9850.00000  -96.24300   12.24400   15.47000   11.53800    -999.25    -999.25   10.33300   35.37700    0.03200    0.06600   -0.07390    2.59250
 9900.00000  -74.16000   27.10400   34.43700   21.42100    -999.25    -999.25   10.11300   50.78700    0.11000    0.11100   -0.02770    2.38060
 9950.00000  -56.38400    8.72600    7.87500   19.45500    -999.25    -999.25   13.89700   83.91300    0.19500    0.32400    0.11540    2.37780
 10000.00000 -108.95800   12.47900   69.34700    7.74500    -999.25    -999.25   12.45500   24.72200    0.12400    0.08800    0.02880    2.46970
 10050.00000  -96.69000   39.23100  221.32500   42.95700    -999.25    -999.25    9.73100   20.73300    0.04900    0.05000   -0.05440    2.52960
 10100.00000  -67.60900   21.33200   44.56900   22.71700    -999.25    -999.25   10.00600   62.92500    0.00900    0.09000   -0.05730    2.62290
 10150.00000  -66.57200   16.57600   10.21000   17.20500    -999.25    -999.25   11.99100   77.67200    0.07600    0.13600   -0.08570    2.56690
 10200.00000  -96.08300   14.22400   44.56900   14.92700    -999.25    -999.25   10.25600   22.71000    0.10500    0.07200   -0.07250    2.47280
 10250.00000  -79.42900    4.88700   50.70300    4.06500    -999.25    -999.25    9.93400   21.37800    0.07000    0.06700   -0.04110    2.49670
 10300.00000  -94.00400   20.85700   31.03400   20.18500    -999.25    -999.25    9.93100   91.31000    0.00900    0.10800   -0.06540    2.63750
 10350.00000  -85.15100   31.45500   46.71700   45.23500    -999.25    -999.25   10.17700   24.49100    0.08200    0.06100   -0.07360    2.50010
 10400.00000  -64.79400   12.50300    9.48500   10.10100    -999.25    -999.25   10.64200   73.70900    0.00800    0.12000   -0.07090    2.63800
 10450.00000  -85.27300   42.27900   73.28800   34.15900    -999.25    -999.25   10.27600   27.75600    0.11300    0.06100   -0.07030    2.46110
 10500.00000  -62.78000    8.18500   12.97300    8.04000    -999.25    -999.25   12.91100   81.77600    0.01600    0.16400   -0.06740    2.61980
 10550.00000 -103.47000   48.24300  125.03500   59.84500    -999.25    -999.25   10.09600   37.08900    0.11700    0.07700   -0.07090    2.45640
 10600.00000  -85.13600   15.35900   19.81700   14.20300    -999.25    -999.25   10.25600   37.77000    0.08200    0.10900    0.03290    2.50230
 10650.00000  -67.39500    5.26100    6.09600    4.93900    -999.25    -999.25   11.14300   42.09200    0.04200    0.10900   -0.03450    2.57940
 10700.00000  -65.14800    7.57800   11.61500    6.70000    -999.25    -999.25   10.54700   37.13000    0.14400    0.07800   -0.05730    2.43150
 10750.00000  -78.01200   11.17800   26.85600   15.31200    -999.25    -999.25   10.17200   51.85900   -0.00300    0.09500   -0.08400    2.65560
 10800.00000  -80.74000  102.67900  230.38800   49.77700    -999.25    -999.25   11.12000   15.19400    0.09300    0.05300    0.03360    2.50310
 10850.00000  -53.24000   24.28600   26.11600   27.10400    -999.25    -999.25   10.52200   89.30800    0.03400    0.18200   -0.03610    2.60890
 10900.00000  -82.21800   13.84500   16.48300   16.92100    -999.25    -999.25   10.04000   27.12600    0.09200    0.07700   -0.06390    2.48990
 10950.00000  -52.59800    8.49200    9.29900    8.72600    -999.25    -999.25   10.58900   46.94100    0.06100    0.10800   -0.05430    2.54670
 11000.00000  -52.81900    9.64600    8.60000    8.29800    -999.25    -999.25   10.30600   84.56000    0.06900    0.19900   -0.01000    2.54250
 11050.00000  -74.58400   20.94300   34.07700   29.61200    -999.25    -999.25    9.89000   41.83100    0.07000    0.11700   -0.01540    2.53890
 11100.00000  -48.69000    8.81100   14.70700   10.76900    -999.25    -999.25   10.09400   78.08700    0.04200    0.18900   -0.03920    2.58090
 11150.00000  -51.60400    7.36400    8.42400    7.46000    -999.25    -999.25   11.04600   98.42500    0.04700    0.22600   -0.03500    2.61520
 11200.00000  -47.61200   12.63800   15.37700   14.14000    -999.25    -999.25   10.76700   96.13800    0.02100    0.19400   -0.14210    2.59180
 11250.00000  -44.23200    9.64400   14.28300   10.40000    -999.25    -999.25   10.63600   98.02500    0.01800    0.24000    0.01150    2.58980
 11300.00000  -42.64200   12.57100   19.45500   14.60700    -999.25    -999.25    -999.25    -999.25    -999.25    -999.25    -999.25    -999.25
 11350.00000  -48.92000    6.17800    6.32500    6.60300    -999.25    -999.25    -999.25    -999.25    -999.25    -999.25    -999.25    -999.25
 11400.00000  -52.86600    8.00300    9.38000    7.38400    -999.25    -999.25    -999.25    -999.25    -999.25    -999.25    -999.25    -999.25
 11450.00000  -54.47800    7.72600    8.65000    8.17700    -999.25    -999.25    -999.25    -999.25    -999.25    -999.25    -999.25    -999.25
