~Version ---------------------------------------------------
VERS. 2.0 : CWLS log ASCII Standard -VERSION 2.0
WRAP.  NO : ONE LINE PER DEPTH STEP
~Well ------------------------------------------------------
STRT.F                        1350.0 : START DEPTH
STOP.F                       10400.0 : STOP DEPTH
STEP.F                      50.00000 : STEP LENGTH
NULL.                        -999.25 : NULL VALUE
COMP. ANADARKO PETROLEUM CORPORATION : COMPANY
WELL.                       COOKE #1 : WELL
FLD .                          COOKE : FIELD
LOC .                                : LOCATION
CNTY.                       LA SALLE : COUNTY
STAT.                          TEXAS : STATE
CTRY.       UNITED STATES OF AMERICA : COUNTRY
SRVC.                   Schlumberger : SERVICE COMPANY
DATE.                    06-Feb-1994 : LOGDATE
API .                 42283315400000 : API NUMBER
UWI .                 42283315400000 : UNIQUE WELL ID
SLAT.WGS84             28.3237548927 : SURFACE LATITUDE
SLON.WGS84            -99.0567652111 : SURFACE LONGITUDE
~Curve Information -----------------------------------------
DEPT.F                 : 
DTLF.US/F 60 523 00 00 : ACOUSTIC TRANSIT TIME, LONG SPACED, FAR ARRAY
DTLN.US/F 60 523 00 00 : ACOUSTIC TRANSIT TIME, LONG SPACED, NEAR ARRAY
DPHI.DEC  45 890 10 00 : DENSITY POROSITY LIMESTONE
NPHI.DEC  42 890 01 00 : NEUTRON POROSITY LIMESTONE
DRHO.G/C3 45 356 01 00 : DENSITY CORRECTION
PEF .B/E  45 358 01 00 : PHOTOELECTRIC FACTOR
SPR .MV   07 010 01 00 : SPONTANEOUS POTENTIAL FROM RES. LOG
CALR.IN   07 280 01 00 : CALIPER FROM RESISTIVITY
GRR .GAPI 07 310 01 00 : GAMMA RAY FROM RES. LOG
SFLU.OHMM 07 220 01 00 : SPHERICALLY FOCUSED LOG UNAVERAGED RESISTIVITY
IMPH.OHMM 07 120 44 00 : INDUCTION MEDIUM PHASOR RES.
IDPH.OHMM 07 120 46 00 : INDUCTION DEEP PHASOR RES.
~Params ----------------------------------------------------
PD  .                     GL : PERMANENT DATUM
EPD .F                   355 : ELEVATION PERMANENT DATUM
LMF .                     KB : LOG MEASURED FROM
DAPD.F                    18 : FEET ABOVE PERMANENT DATUM
DMF .                     KB : DRILLING MEASURED FROM
EKB .F                   373 : KELLING BUSHING
EDF .F                   372 : DRILLING FLOOR
EGL .F                   355 : GROUND LEVEL
DATE.             02-06-1994 : RUN DATE
RUN .                      1 : RUN NUMBER
DD  .F                 10500 : DEPTH DRILLER
DL  .F                 10450 : DEPTH LOGGER
BLI .F                 10442 : BOTTOM LOG INTERVAL
CLNT.                A2DTECH : CLIENT CODE
ORIG.               5" PRINT : ORIGIN OF DATA
UWI .         42283315400000 : UNIQUE WELL ID
DICO. A2D Technologies, Inc. : DIGITIZING COMPANY
~Other -----------------------------------------------------
~ASCII -----------------------------------------------------
# ...
 6950.00000   96.00470   95.36330    -999.25    -999.25    -999.25    -999.25  -10.41450   12.57180   72.63310    2.10640    1.89810    1.88360
 7000.00000   83.78800   84.65080    -999.25    -999.25    -999.25    -999.25   -9.64650   11.61190   64.94080    3.15290    2.95970    2.81350
 7050.00000   88.75940  106.18530    -999.25    -999.25    -999.25    -999.25   -7.88640   11.47890   76.94940    2.71220    2.51240    2.40670
 7100.00000   90.88200   90.94700    -999.25    -999.25    -999.25    -999.25   -6.34210   12.38370   73.00390    2.40430    2.19530    2.17550
 7150.00000   88.61550   88.48510    -999.25    -999.25    -999.25    -999.25   -3.90780   12.06510   72.01180    2.76310    2.24690    2.21540
 7200.00000   88.06330   89.29190    -999.25    -999.25    -999.25    -999.25   -4.56560   11.88840   77.22330    2.58670    2.38060    2.32320
 7250.00000   92.50070   92.71080    -999.25    -999.25    -999.25    -999.25   -5.28580   12.14600   71.74560    2.36100    2.20690    2.18750
 7300.00000   87.92650   88.97410    -999.25    -999.25    -999.25    -999.25   -6.13410   11.46350   71.09040    2.66930    2.48490    2.42630
 7350.00000   86.66770   86.90680    -999.25    -999.25    -999.25    -999.25   -6.03040   11.43090   75.02080    3.05990    2.71640    2.59630
 7400.00000   87.28950   87.71440    -999.25    -999.25    -999.25    -999.25   -6.93690   11.15780   75.51720    2.99360    2.69760    2.62160
 7450.00000   89.18100   89.76440    -999.25    -999.25    -999.25    -999.25   -8.30380   11.59750   70.68420    2.60420    2.36170    2.25610
 7500.00000   86.43890   86.67790    -999.25    -999.25    -999.25    -999.25   -7.74200   10.96480   77.03130    3.18980    3.01850    2.75430
 7550.00000   82.34640   82.38220    -999.25    -999.25    -999.25    -999.25   -7.90930   11.55270   66.95540    3.40190    3.24170    3.06630
 7600.00000   91.99960   92.31980    0.24690    0.22040    0.13820    3.87930  -10.11220   13.09670   72.02390    2.47900    2.23560    2.19090
 7650.00000   81.42300   83.13200    0.12660    0.14580    0.02680    2.81880  -11.58280   17.12430   62.57400    3.07590    3.24560    3.06820
 7700.00000   83.48320   83.78790    0.09960    0.14240    0.05590    2.93510  -11.05640   10.55920   75.19020    4.26340    3.76690    3.41540
 7750.00000   84.31790   86.52390    0.13780    0.17830    0.02130    2.78010  -10.43510    9.86140   85.49600    3.45430    3.12080    2.84740
 7800.00000   81.20520   81.51520    0.09090    0.15850    0.00190    3.11350   -9.58300   10.77660   76.72910    3.66130    3.39660    2.98030
 7850.00000   88.40950   90.54340    0.16120    0.21490    0.12210    3.07840  -10.67060   11.48420   88.74680    2.36430    2.23310    2.15580
 7900.00000   84.06240   84.50440    0.13860    0.21800    0.11160    3.26410  -11.38580   11.04270   84.76330    2.58570    2.65720    2.58270
 7950.00000   90.13910   90.64900    -999.25    -999.25    -999.25    -999.25  -12.17770   11.97160   94.35300    2.29750    2.26980    2.20620
 8000.00000   81.98440   81.52140    -999.25    -999.25    -999.25    -999.25  -11.26230   11.59170   78.12070    3.59580    3.21620    2.89460
 8050.00000   84.03780   83.73510    -999.25    -999.25    -999.25    -999.25  -11.83060   11.46650   86.45360    3.27530    2.93670    2.79510
 8100.00000   79.97780   80.83080    -999.25    -999.25    -999.25    -999.25  -12.85410   12.00730   84.34940    4.18660    3.82270    3.49050
 8150.00000   82.05430   84.05870    -999.25    -999.25    -999.25    -999.25  -13.21370   12.38520   87.15250    3.71990    3.06350    3.07330
 8200.00000   86.49480   87.50270    -999.25    -999.25    -999.25    -999.25  -13.45660   12.48880   90.07300    2.83180    2.62260    2.49530
 8250.00000   81.66530   82.82940    -999.25    -999.25    -999.25    -999.25  -12.87480   12.17340   84.42180    4.00050    3.45890    3.14530
 8300.00000   83.55840   84.31280    -999.25    -999.25    -999.25    -999.25  -13.41160   12.80450   83.23380    3.39660    2.87220    2.78830
 8350.00000   92.08170   92.32070    -999.25    -999.25    -999.25    -999.25  -13.50880   14.11290   94.59390    2.25610    2.10670    2.04130
 8400.00000   83.63790   86.57370    -999.25    -999.25    -999.25    -999.25  -12.54380   11.91640   94.82250    2.99970    2.66630    2.49340
 8450.00000  101.64460  101.20690    -999.25    -999.25    -999.25    -999.25  -13.39890   13.23980  101.43230    2.13970    2.33550    2.26110
 8500.00000   87.25220   88.19720    -999.25    -999.25    -999.25    -999.25  -12.64700   14.82840   86.41240    2.99060    2.76240    2.73380
 8550.00000   85.74700   85.98610    -999.25    -999.25    -999.25    -999.25  -12.49400   15.29980   76.77510    2.69030    2.50630    2.45520
 8600.00000   83.08730   83.58350    -999.25    -999.25    -999.25    -999.25  -12.55110   16.86360   86.09620    3.12740    3.02150    2.89540
 8650.00000   86.71620   87.15280    -999.25    -999.25    -999.25    -999.25  -12.15140    -999.25   85.05920    2.81700    2.63460    2.57700
 8700.00000   84.63540   85.13350    -999.25    -999.25    -999.25    -999.25  -12.05130   14.27950   85.17330    3.08740    2.91010    2.71200
 8750.00000   81.35120   81.02590    -999.25    -999.25    -999.25    -999.25  -10.84260   12.24490   85.20680    3.89290    3.37840    3.21620
 8800.00000   81.83240   82.60860    -999.25    -999.25    -999.25    -999.25  -10.95680   12.56360   85.52310    3.61060    3.44340    3.19480
 8850.00000   80.53940   81.02040    -999.25    -999.25    -999.25    -999.25  -10.57230   12.21310   82.73160    3.26820    3.28080    3.13350
 8900.00000   82.85570   83.86250    -999.25    -999.25    -999.25    -999.25  -10.49720   13.86480   90.93760    3.15830    2.79620    3.07330
 8950.00000   85.33190   85.95620    -999.25    -999.25    -999.25    -999.25  -10.44770   14.03290   97.80940    2.88380    2.80810    2.85770
 9000.00000   80.30860   82.30790    -999.25    -999.25    -999.25    -999.25   -8.21340   13.00790   80.57390    3.73680    3.45100    3.24690
 9050.00000   80.48810   80.81700    -999.25    -999.25    -999.25    -999.25   -8.69820   12.77610   79.05410    3.65280    3.75380    3.73880
 9100.00000   80.78680   81.13530    -999.25    -999.25    -999.25    -999.25   -7.71200   12.91760   81.18010    3.82940    3.42760    3.21150
 9150.00000   75.34200   75.58100    -999.25    -999.25    -999.25    -999.25   -6.66240   11.12210   65.38680    6.02290    5.03870    4.57500
 9200.00000   69.71070   70.08800    -999.25    -999.25    -999.25    -999.25   -7.65920   11.43750   59.35290    7.47970    6.39250    5.75850
 9250.00000   66.37060   66.60970    -999.25    -999.25    -999.25    -999.25   -9.79550   11.39560   49.79460    9.82890    8.29660    8.00140
 9300.00000   69.74420   69.99100    -999.25    -999.25    -999.25    -999.25  -10.35600   11.24570   53.18870    7.02270    6.12060    5.86390
 9350.00000   60.16930   62.03190    -999.25    -999.25    -999.25    -999.25  -12.45470   10.46980   48.03660   20.00000   14.81580   12.06580
 9400.00000   61.10710   61.34610    -999.25    -999.25    -999.25    -999.25  -11.96540   10.76900   52.70630   21.50900   17.85060   16.68990
 9450.00000   71.59420   72.70100    -999.25    -999.25    -999.25    -999.25  -11.88230   11.06130   59.39730    7.29160    7.38020    7.59710
 9500.00000   63.13960   63.37860    -999.25    -999.25    -999.25    -999.25  -12.48020   10.82000   47.62390   15.02160   12.36010   12.16750
 9550.00000   60.44370   60.52790    -999.25    -999.25    -999.25    -999.25  -14.35480   10.66470   41.13560   24.06830   16.82700   15.34950
 9600.00000   71.03420   71.40180    -999.25    -999.25    -999.25    -999.25   -9.68440   12.03710   56.11110    8.71900    6.91270    6.70560
 9650.00000   72.10600   73.08540    -999.25    -999.25    -999.25    -999.25   -8.89550   12.10480   63.46150    7.91160    6.29050    5.93180
 9700.00000   69.26210   69.46910    -999.25    -999.25    -999.25    -999.25   -8.96100   15.99010   54.28580    7.85820    7.23720    6.95250
