~Version ---------------------------------------------------
VERS. 2.0 : CWLS log ASCII Standard -VERSION 2.0
WRAP.  NO : ONE LINE PER DEPTH STEP
~Well ------------------------------------------------------
STRT.F                          600.0 : START DEPTH
STOP.F                         6150.0 : STOP DEPTH
STEP.F                       50.00000 : STEP LENGTH
NULL.                         -999.25 : NULL VALUE
COMP. TIPPERARY OIL & GAS CORPORATION : COMPANY
WELL.                        SPAHN #1 : WELL
FLD .                     PEACH CREEK : FIELD
LOC .                                 : LOCATION
CNTY.                        GONZALES : COUNTY
STAT.                           TEXAS : STATE
CTRY.        UNITED STATES OF AMERICA : COUNTRY
SRVC.                        Gearhart : SERVICE COMPANY
DATE.                     07-Apr-1981 : LOGDATE
API .                  42177309100000 : API NUMBER
UWI .                  42177309100000 : UNIQUE WELL ID
SLAT.WGS84              29.5570145984 : SURFACE LATITUDE
SLON.WGS84             -97.4879513775 : SURFACE LONGITUDE
~Curve Information -----------------------------------------
DEPT.F                 : 
GRR .GAPI 07 310 01 00 : GAMMA RAY FROM RESISTIVITY LOG
RILD.OHMM 07 120 46 00 : RAW DEEP INDUCTION RESISTIVITY
RILM.OHMM 07 120 44 00 : RAW MEDIUM INDUCTION RESISTIVITY
RLL .OHMM 07 220 04 00 : RAW LATEROLOG COUNT RATE
SPR .MV   07 010 01 00 : SPONTANEOUS POTENTIAL FROM RESISTIVITY LOG
DT  .US/F 60 500 00 00 : DELTA-T (INTERVAL TRANSIT TIME)
~Params ----------------------------------------------------
PD  .                     GL : PERMANENT DATUM
EPD .FT                  300 : ELEVATION PERMANENT DATUM
LMF .                     KB : LOG MEASURED FROM
DAPD.FT                   15 : FEET ABOVE PERMANENT DATUM
DMF .                     KB : DRILLING MEASURED FROM
EKB .FT                  313 : KELLY BUSHING
EDF .FT                  314 : DRILLING FLOOR
EGL .FT                  300 : GROUND LEVEL
DATE.               04/07/81 : RUN DATE
RUN .                      1 : RUN NUMBER
DD  .FT                 6150 : DEPTH DRILLER
DL  .FT                 6153 : DEPTH LOGGER
BLI .FT                 6152 : BOTTOM LOG INTERVAL
TLI .FT                  605 : TOP LOG INTERVAL
CS  .IN                9.625 : CASING SIZE
CBL .FT                  605 : CASING BOTTOM LOGGER
BS  .IN                7.875 : BIT SIZE
BSD .FT                 6150 : BIT SIZE AT DEPTH
DFT .         LIGNOSULFONATE : DRILLING FLUID TYPE
DFD .                    9.5 : DRILLING FLUID DENSITY
DFV .                     50 : DRILLING FLUID VISCOSITY
DFPH.                      9 : DRILLING FLUID PH
DFL .                    6.2 : DRILLING FLUID LOSS
MSS .               FLOWLINE : MUD SAMPLE SOURCE
RMS .OHMM                2.6 : RESISTIVITY MUD SAMPLE
MST .DEGF                 75 : MUD SAMPLE TEMPERATURE
RMF .OHMM                3.0 : RESISTIVITY MUD FILTRATE SAMPLE
MFST.DEGF                 75 : MUD FILTRATE SAMPLE TEMPERATURE
RMC .OHMM                2.8 : RESISTIVITY MUD CAKE
MCST.DEGF                 75 : MUD CAKE SAMPLE TEMPERATURE
MFSS.                      M : MUD FILTRATE SAMPLE SOURCE
MCSS.                      M : MUD CAKE SAMPLE SOURCE
RMB .OHMM                1.2 : RESISTIVITY MUD AT BHT
TCS .HRS                1300 : TIME CIRCULATED STOPPED
TLAB.HRS                2015 : TIME LOGGER AT BOTTOM
LUN .                   7535 : LOGGING UNIT NUMBER
LUL .                   VICT : LOGGING UNIT LOCATION
ENGI.                HAUBERT : RECORDING ENGINEER
WITN.     CLUTTER FREYMULLER : WITNESSED BY
CLNT.                A2DTECH : CLIENT CODE
ORIG.             2.5" PRINT : ORIGIN OF DATA
UWI .         42177309100000 : UNIQUE WELL ID
DICO. A2D Technologies, Inc. : DIGITIZING COMPANY
~Other -----------------------------------------------------
~ASCII -----------------------------------------------------
  600.00000   56.16040    -999.25    -999.25    -999.25    -999.25    -999.25
  650.00000   83.13630    2.21690    2.10650    2.58430  -32.42210    -999.25
  700.00000   78.79470    3.15730    3.10970    3.54890  -33.62730    -999.25
  750.00000   76.77580    3.11330    3.06860    3.19730  -35.96590    -999.25
  800.00000   60.13100    5.01620    4.79420    4.80530  -42.74960    -999.25
  850.00000   77.73150    4.41510    5.14030    5.15040  -40.43150    -999.25
  900.00000   84.09110    4.06180    3.91700    4.83780  -46.07570    -999.25
  950.00000   42.08270   19.46790   19.95460   13.76000  -50.33220    -999.25
 1000.00000   47.75680   14.53820   15.69880   11.32790  -51.36590    -999.25
 1050.00000   81.02310    4.43740    4.77390    4.36680  -29.15020    -999.25
 1100.00000   75.46280    5.48700    4.75020    4.94090  -30.36730    -999.25
 1150.00000   52.84310   14.59890   17.39380   14.73540  -42.75280    -999.25
 1200.00000   75.33130   10.41190   10.81280    9.06820  -98.76250    -999.25
 1250.00000   61.65960   11.11750   12.29750   10.70120  -46.06140    -999.25
 1300.00000   74.42790    5.94410    7.07270    7.32350  -28.67790    -999.25
 1350.00000   72.02610    5.29130    5.24920    5.22120  -33.67930    -999.25
 1400.00000  101.20270    2.90250    2.95140    3.30230  -20.49780    -999.25
 1450.00000   94.27190    4.51730    5.00260    5.14230  -30.16270    -999.25
 1500.00000  104.86170    2.25440    2.31810    2.44160  -23.99680    -999.25
 1550.00000  101.49930    3.20560    3.62600    3.76150  -23.81350    -999.25
 1600.00000   96.99550    2.86940    2.80130    2.72970  -25.66840    -999.25
 1650.00000   93.64160    2.94710    3.45440    4.45140  -41.38620    -999.25
 1700.00000   96.51600    2.41960    2.67650    3.10380  -66.21520    -999.25
 1750.00000  106.96830    2.48980    2.58170    2.71690  -25.80620    -999.25
 1800.00000  102.12500    2.31070    2.43820    2.60530  -23.83500    -999.25
 1850.00000  102.96230    3.95050    4.00480    3.92210  -30.74630    -999.25
 1900.00000   99.02080    3.48190    3.66230    3.80830  -28.87400    -999.25
 1950.00000   76.20970    4.98880    5.50660    6.54430  -50.71070    -999.25
 2000.00000   99.18630    3.74460    3.89830    3.92980  -32.51910    -999.25
 2050.00000  105.32210    2.94310    2.98610    3.16320  -27.33070    -999.25
 2100.00000  100.82850    2.97760    2.61690    2.64270  -21.81880    -999.25
 2150.00000   75.17900    3.62250    4.00840    4.06240  -39.28440    -999.25
 2200.00000   81.89580    4.35780    4.83570    5.20230  -41.74960    -999.25
 2250.00000   82.92630    3.73240    3.65840    2.99830  -25.08470    -999.25
 2300.00000   87.24580    3.09800    2.87330    2.58050  -22.87580    -999.25
 2350.00000   73.10710    7.88340    9.70880    8.09370  -31.04960    -999.25
 2400.00000   95.43190    2.14430    2.15310    2.19510  -17.68180    -999.25
 2450.00000   98.64580    2.79860    2.90080    2.42620  -20.04820    -999.25
 2500.00000   73.83560    4.42680    5.63660    5.55670  -25.73770    -999.25
 2550.00000   61.41520   10.36840    8.68840    8.85940  -31.95490    -999.25
 2600.00000   79.04900    2.71720    2.74380    3.35320  -18.73980    -999.25
 2650.00000   80.75710    5.90810    7.52040    7.89900  -27.26590    -999.25
 2700.00000   69.19540    8.90560   10.24980    9.91240  -29.83080    -999.25
 2750.00000   86.40440    2.78160    2.92130    2.93090  -14.91770    -999.25
 2800.00000   54.01510   11.03460   11.84170   10.36130  -29.47270    -999.25
 2850.00000   60.72250    7.28810    9.23380    8.84050  -27.35420    -999.25
 2900.00000   60.10940    9.90730   10.32120   10.62420  -29.15090    -999.25
 2950.00000   64.32430    5.95300    7.96170    8.08060  -33.21920    -999.25
 3000.00000   98.66080    2.87260    2.75590    3.01890  -18.79410    -999.25
 3050.00000   67.96870    6.86630    8.73140   10.59250  -29.27910    -999.25
 3100.00000   78.28590    4.30360    4.65660    4.74140  -29.02240    -999.25
 3150.00000   66.48270    3.65650    4.37500    6.73760  -48.28750    -999.25
 3200.00000   89.81230    3.71220    4.14550    6.03480  -29.67690    -999.25
 3250.00000  107.02020    3.22330    3.44120    3.80930  -22.38360    -999.25
 3300.00000  116.49250    2.09650    2.20330    2.43660  -15.67200    -999.25
 3350.00000  107.13540    2.84820    2.93640    3.05820  -17.99700    -999.25
 3400.00000   97.65680    2.79490    2.38470    4.17770  -42.15530    -999.25
 3450.00000  102.32790    2.10530    2.19240    2.29390  -16.93310    -999.25
 3500.00000  108.69220    2.46780    2.51100    2.55150  -17.15680    -999.25
 3550.00000  107.28390    2.07160    2.14250    2.21760  -15.95360    -999.25
 3600.00000  110.56530    1.85060    1.91970    1.96840  -17.32260    -999.25
 3650.00000  111.77420    1.88350    1.92630    2.01170  -18.19740    -999.25
 3700.00000  108.66650    1.41860    1.45450    1.64750  -17.35080    -999.25
 3750.00000  111.58280    1.31120    1.34370    1.57310  -17.81310    -999.25
 3800.00000  116.19990    1.24000    1.27610    1.45710  -17.58700    -999.25
 3850.00000  110.26470    1.31600    1.34880    1.47660  -17.75160    -999.25
 3900.00000  103.09820    1.26930    1.30060    1.35690  -17.72650    -999.25
 3950.00000  106.79830    0.99370    1.05300    1.21060  -14.99540    -999.25
 4000.00000   97.78210    1.69570    1.74310    1.80530  -14.58730    -999.25
 4050.00000  132.48420    1.21830    1.38630    1.42340  -16.92090    -999.25
 4100.00000   95.71270    2.39000    2.46080    2.49100  -15.20200    -999.25
 4150.00000   91.51900    1.33490    1.37730    1.47960  -19.63300    -999.25
 4200.00000  102.83880    1.35460    1.37430    1.41240  -18.51230    -999.25
 4250.00000   78.26170    2.10620    2.33880    2.86790  -27.46900    -999.25
 4300.00000   95.39800    1.53130    1.61060    1.66230  -20.11140    -999.25
 4350.00000   92.59660    1.56520    1.62010    1.69700  -18.42550    -999.25
 4400.00000   93.52080    1.57470    1.60860    1.65240  -17.69460    -999.25
 4450.00000  102.81980    1.22850    1.29000    1.43100  -19.45940    -999.25
 4500.00000   93.12990    1.50850    1.56210    1.59750  -19.82150    -999.25
 4550.00000   95.99260    1.51500    1.58990    1.66730  -19.77260    -999.25
 4600.00000  101.67040    1.37380    1.45180    1.53250  -20.95990    -999.25
 4650.00000   87.29470    1.70930    1.74650    1.84580  -19.57440    -999.25
 4700.00000   87.28190    1.73540    1.77170    1.84250  -20.17990    -999.25
 4750.00000   82.77970    2.57600    2.54420    2.44820  -13.32190    -999.25
 4800.00000  100.68590    1.50720    1.57580    1.59480  -14.67890    -999.25
 4850.00000   93.21380    1.83980    1.87900    2.00680  -15.16160    -999.25
 4900.00000  121.24110    1.01470    1.11030    1.18970  -17.23480    -999.25
 4950.00000  117.40920    0.99940    1.06220    1.10820  -13.31510    -999.25
 5000.00000  116.84500    0.86030    0.91090    1.14160  -15.82740    -999.25
 5050.00000  120.23960    0.88130    0.94210    1.25600  -12.98500    -999.25
 5100.00000  110.01250    1.18360    1.10390    1.34430  -20.28520    -999.25
 5150.00000  115.16960    1.33840    1.48850    1.50420  -17.50850    -999.25
 5200.00000  111.28910    1.15100    1.03100    1.43130  -19.74940  106.61740
 5250.00000  108.89140    1.35380    1.24830    1.54060  -15.94540   99.67400
 5300.00000  106.26580    1.69100    1.78210    1.88140   -9.82960   88.42340
 5350.00000  100.79920    2.14380    2.25110    2.28480   -8.22490   87.41710
 5400.00000  115.46620    1.37030    1.32940    1.47680  -19.45770  100.61210
 5450.00000  103.34890    1.26300    1.35990    1.75610  -17.47590  100.17210
 5500.00000   70.38860    3.48010    3.35490    3.36550  -10.05120   80.53770
 5550.00000   75.84680    2.49510    2.59720    2.95220  -10.92550   83.72430
 5600.00000   65.47850    4.24210    4.72310    4.88950  -12.14930   74.49890
 5650.00000   43.43490    6.11160    7.54490    8.58560  -12.14480   59.74490
 5700.00000  139.14470    0.56490    0.57620    1.55760   -9.38810  111.47580
