~Version ---------------------------------------------------
VERS. 2.0 : CWLS log ASCII Standard -VERSION 2.0
WRAP. YES : Multiple lines per depth step
~Well ------------------------------------------------------
STRT.FT                  2550.0 : START DEPTH
STOP.FT                 14350.0 : STOP DEPTH
STEP.FT                50.00000 : STEP LENGTH
NULL.                   -999.25 : NULL VALUE
COMP. GENERAL CRUDE OIL COMPANY : COMPANY
WELL.    A G HENKES GAS UNIT #1 : WELL
FLD .                   WILDCAT : FIELD
LOC .                           : LOCATION
CNTY.                    LAVACA : COUNTY
STAT.                     TEXAS : STATE
CTRY.  UNITED STATES OF AMERICA : COUNTRY
SRVC.                   Unknown : SERVICE COMPANY
DATE.               29-Aug-1977 : LOGDATE
API .            42285307220000 : API NUMBER
UWI .            42285307220000 : UNIQUE WELL ID
SLAT.WGS84        29.3839239903 : SURFACE LATITUDE
SLON.WGS84       -96.9359395822 : SURFACE LONGITUDE
~Curve Information -----------------------------------------
DEPT  .FT    : DEPTH
SPED  .MV    : SPONTANEOUS POTENTIAL FROM DIL/SONIC LOG
CALRED.IN    : CALIPER FROM DIL/SONIC LOG
ILDED .OHMM  : INDUCTION LOG DEEP RESISTIVITY FROM DIL/SONIC LOG
ILMED .OHMM  : INDUCTION LOG MEDIUM RESISTIVITY FROM DIL/SONIC LOG
LL8ED .OHMM  : LATEROLOG 8 INCH FROM DIL/SONIC LOG
CILDED.MMHO  : CONDUCTIVITY FROM DIL/SONIC LOG
CALDED.IN    : CALIPER FROM CN/FD LOG
GRDED .GAPI  : GAMMA RAY FROM CN/FD LOG
DRHOED.G/C3  : DENSITY CORRECTION FROM CN/FD LOG
RHOBED.G/C3  : BULK DENSITY FROM CN/FD LOG
NPHIED.V/V   : NEUTRON POROSITY LIMETONE FROM CN/FD LOG
DTED  .US/F  : DELTA TIME FROM DIL/SONIC LOG
DPHIED.V/V   : DENSITY POROSITY [M=2.68, F=1.0] FROM CN/FD LOG
SPWS  .MV    : SPONTANEOUS POTENTIAL [BASELINE 0 MV]
CALWS .IN    : CALIPER [2520 CALRED, 9690.5 CALDED]
CONDWS.MMHO  : CONDUCTIVITY [CILDED]
DCORWS.G/C3  : DENSITY CORRECTION [DRHOED]
DENWS .G/C3  : BULK DENSITY [RHOBED]
DPOWS .V/V   : DENSITY POROSITY [M=2.68, F=1.0] [DPHIED]
DRESWS.OHMM  : DEEP RESISTIVITY [ILDED]
DTWS  .US/F  : DELTA TIME [DTED]
GRWS  .GAPI  : GAMMA RAY [GRDED]
MRESWS.OHMM  : MEDIUM RESISTIVITY [ILMED]
NPOWS .V/V   : NEUTRON POROSITY LIMETONE [NPHIED]
SRESWS.OHMM  : SHALLOW RESISTIVITY [LL8ED]
~Params ----------------------------------------------------
EKB .F                 278.0 : Kelly bushing
EGL .F                 260.0 : Ground level
EDF .F                 277.0 : Drilling floor
EPD .F                 260.0 : Permanent datum
TD  .F               14505.0 : Total depth
DATE.            29-AUG-1977 : Date logged
CLNT.                A2DTECH : Client Code
DAPD.F                    18 : Feet Above Permanent Datum
DD  .F                 14505 : Depth driller
DL  .F                 14401 : Depth logger
BLI .F                 14394 : Bottom log interval
TLI .F                 13663 : Top log interval
CS1 .IN                    7 : Casing size
CBD1.             7" @ 3646' : Casing driller 1
CBL1.F                 13663 : Casing logger 1
BS1 .IN                    6 : Bit size
BSD1.F                 14505 : Depth drilled with bit1
DFT .                CLS-LIG : Type fluid in hole
DFD .                   11.6 : Density
DFV .                     45 : Viscosity
DFPH.                     11 : pH
DFL .                    3.8 : Fluid loss
MSS .              CIRC. PIT : Source of sample
RMS .OHMM              0.865 : Rm
RMF .OHMM               0.57 : Rmf
RMC .OHMM                1.3 : Rmc
MFSS.                   MEAS : Source Rmf.
MCSS.                   CALC : Source Rmc.
TCS .HRS                 330 : Time Circ. stopped
TLAB.HRS                 530 : Time logger at bottom
LUN .                   8005 : Logging unit number
LUL .                   VICT : Logging unit location
ORIG.            2" 5" PRINT : Origin of data
UWI .         42285307220000 : Unique Well ID
DICO. A2D TECHNOLOGIES, INC. : Digitizing Company
SL  .  3700' FWL & 1000' FNL : Surface Location
PD  .                     GL : Permanent Datum
LMF .                     KB : Log Measured From
DMF .                     KB : Drilling Measured From
~Other -----------------------------------------------------
~ASCII -----------------------------------------------------
# ...
 5350.00000  -42.46570   13.15020    0.94440    0.92510    1.57240 1048.47580    -999.25    -999.25    -999.25    -999.25    -999.25    -999.25    -999.25   -3.10320   13.15020 1048.47580    -999.25    -999.25    -999.25    0.94440    -999.25    -999.25    0.92510    -999.25    1.57240
 5400.00000  -43.17150   12.92500    1.47740    1.50820    1.73120  719.64020    -999.25    -999.25    -999.25    -999.25    -999.25    -999.25    -999.25   -4.16540   12.92500  719.64020    -999.25    -999.25    -999.25    1.47740    -999.25    -999.25    1.50820    -999.25    1.73120
 5450.00000  -43.85550   12.42940    0.89380    0.82870    1.34990 1186.40690    -999.25    -999.25    -999.25    -999.25    -999.25    -999.25    -999.25   -5.20580   12.42940 1186.40690    -999.25    -999.25    -999.25    0.89380    -999.25    -999.25    0.82870    -999.25    1.34990
 5500.00000  -40.27770   12.60960    1.01170    1.01170    1.43650 1012.49300    -999.25    -999.25    -999.25    -999.25    -999.25    -999.25    -999.25   -1.98440   12.60960 1012.49300    -999.25    -999.25    -999.25    1.01170    -999.25    -999.25    1.01170    -999.25    1.43650
 5550.00000  -41.67520   13.18020    0.94340    0.95640    1.46790 1048.47640    -999.25    -999.25    -999.25    -999.25    -999.25    -999.25    -999.25   -3.73820   13.18020 1048.47640    -999.25    -999.25    -999.25    0.94340    -999.25    -999.25    0.95640    -999.25    1.46790
 5600.00000  -42.30280   13.07510    1.45650    1.46670    1.91850  692.65360    -999.25    -999.25    -999.25    -999.25    -999.25    -999.25    -999.25   -4.72220   13.07510  692.65360    -999.25    -999.25    -999.25    1.45650    -999.25    -999.25    1.46670    -999.25    1.91850
 5650.00000  -42.28490   12.80480    1.11310    1.05330    1.38470 1002.99850    -999.25    -999.25    -999.25    -999.25    -999.25    -999.25    -999.25   -5.06070   12.80480 1002.99850    -999.25    -999.25    -999.25    1.11310    -999.25    -999.25    1.05330    -999.25    1.38470
 5700.00000  -41.48530   12.20420    1.28650    1.26030    1.71930  774.61270    -999.25    -999.25    -999.25    -999.25    -999.25    -999.25    -999.25   -4.61750   12.20420  774.61270    -999.25    -999.25    -999.25    1.28650    -999.25    -999.25    1.26030    -999.25    1.71930
 5750.00000  -39.45780   12.42930    0.90920    0.88460    1.30340 1114.10070    -999.25    -999.25    -999.25    -999.25    -999.25    -999.25    -999.25   -2.94640   12.42930 1114.10070    -999.25    -999.25    -999.25    0.90920    -999.25    -999.25    0.88460    -999.25    1.30340
 5800.00000  -38.73920   12.41940    0.83440    0.80890    1.25330 1171.89830    -999.25    -999.25    -999.25    -999.25    -999.25    -999.25    -999.25   -2.58410   12.41940 1171.89830    -999.25    -999.25    -999.25    0.83440    -999.25    -999.25    0.80890    -999.25    1.25330
 5850.00000  -38.43840   12.82600    0.75040    0.73470    1.13630 1338.83130    -999.25    -999.25    -999.25    -999.25    -999.25    -999.25    -999.25   -2.63970   12.82600 1338.83130    -999.25    -999.25    -999.25    0.75040    -999.25    -999.25    0.73470    -999.25    1.13630
 5900.00000  -35.73570   12.95470    0.88420    0.84890    1.22590 1162.02270    -999.25    -999.25    -999.25    -999.25    -999.25    -999.25    -999.25   -0.29340   12.95470 1162.02270    -999.25    -999.25    -999.25    0.88420    -999.25    -999.25    0.84890    -999.25    1.22590
 5950.00000  -37.50420   12.57700    0.99510    0.94550    1.25150 1029.94010    -999.25    -999.25    -999.25    -999.25    -999.25    -999.25    -999.25   -2.41830   12.57700 1029.94010    -999.25    -999.25    -999.25    0.99510    -999.25    -999.25    0.94550    -999.25    1.25150
 6000.00000  -40.54300   12.89430    1.39860    1.41130    1.90580  691.61680    -999.25    -999.25    -999.25    -999.25    -999.25   94.57930    -999.25   -5.81350   12.89430  691.61680    -999.25    -999.25    -999.25    1.39860   94.57930    -999.25    1.41130    -999.25    1.90580
 6050.00000  -36.63620   13.06040    1.31380    1.26370    2.00000  797.90420    -999.25    -999.25    -999.25    -999.25    -999.25   98.19370    -999.25   -2.57230   13.06040  797.90420    -999.25    -999.25    -999.25    1.31380   98.19370    -999.25    1.26370    -999.25    2.00000
 6100.00000  -33.03300   12.84890    1.63710    1.63810    2.04170  598.80240    -999.25    -999.25    -999.25    -999.25    -999.25   98.19370    -999.25   -0.87170   12.84890  598.80240    -999.25    -999.25    -999.25    1.63710   98.19370    -999.25    1.63810    -999.25    2.04170
 6150.00000  -42.37220   12.92450    1.84550    1.79130    2.65950  586.82640    -999.25    -999.25    -999.25    -999.25    -999.25   87.50000    -999.25  -10.16900   12.92450  586.82640    -999.25    -999.25    -999.25    1.84550   87.50000    -999.25    1.79130    -999.25    2.65950
 6200.00000  -81.09810   12.51660    1.34930    1.80370    4.14870  733.53290    -999.25    -999.25    -999.25    -999.25    -999.25   88.55420    -999.25  -48.16980   12.51660  733.53290    -999.25    -999.25    -999.25    1.34930   88.55420    -999.25    1.80370    -999.25    4.14870
 6250.00000  -60.35530   12.29430    1.81810    2.00000    3.04360  556.88620    -999.25    -999.25    -999.25    -999.25    -999.25   89.60880    -999.25  -26.70190   12.29430  556.88620    -999.25    -999.25    -999.25    1.81810   89.60880    -999.25    2.00000    -999.25    3.04360
 6300.00000  -73.78780   12.32430    1.76630    2.10580    4.52560  589.93520    -999.25    -999.25    -999.25    -999.25    -999.25   83.58430    -999.25  -39.40930   12.32430  589.93520    -999.25    -999.25    -999.25    1.76630   83.58430    -999.25    2.10580    -999.25    4.52560
 6350.00000  -69.72890   12.16660    2.03190    2.42520    3.79360  480.81710    -999.25    -999.25    -999.25    -999.25    -999.25   90.66320    -999.25  -34.62530   12.16660  480.81710    -999.25    -999.25    -999.25    2.03190   90.66320    -999.25    2.42520    -999.25    3.79360
 6400.00000 -141.54310   12.00900    0.86740    1.22520    5.57780 1164.92290    -999.25    -999.25    -999.25    -999.25    -999.25   85.99510    -999.25 -105.71440   12.00900 1164.92290    -999.25    -999.25    -999.25    0.86740   85.99510    -999.25    1.22520    -999.25    5.57780
 6450.00000 -103.77300   12.05410    1.41610    2.02780    6.31360  672.14750    -999.25    -999.25    -999.25    -999.25    -999.25   83.43340    -999.25  -67.21920   12.05410  672.14750    -999.25    -999.25    -999.25    1.41610   83.43340    -999.25    2.02780    -999.25    6.31360
 6500.00000  -69.21310   12.42950    1.94450    2.14240    3.57890  524.16540    -999.25    -999.25    -999.25    -999.25    -999.25   86.59580    -999.25  -31.93420   12.42950  524.16540    -999.25    -999.25    -999.25    1.94450   86.59580    -999.25    2.14240    -999.25    3.57890
 6550.00000  -80.18090   12.14410    2.00000    2.35930    4.25100  514.97000    -999.25    -999.25    -999.25    -999.25    -999.25   86.50190    -999.25  -42.17700   12.14410  514.97000    -999.25    -999.25    -999.25    2.00000   86.50190    -999.25    2.35930    -999.25    4.25100
 6600.00000 -127.02630   11.94900    0.79290    1.15310    5.53960 1304.39110    -999.25    -999.25    -999.25    -999.25    -999.25   87.70960    -999.25  -88.29730   11.94900 1304.39110    -999.25    -999.25    -999.25    0.79290   87.70960    -999.25    1.15310    -999.25    5.53960
 6650.00000 -104.95550   12.02400    2.39260    3.09690    7.77770  399.70060    -999.25    -999.25    -999.25    -999.25    -999.25   80.72140    -999.25  -65.50140   12.02400  399.70060    -999.25    -999.25    -999.25    2.39260   80.72140    -999.25    3.09690    -999.25    7.77770
 6700.00000  -54.54150   12.48950    2.18810    2.31100    2.78440  464.07190    -999.25    -999.25    -999.25    -999.25    -999.25   85.24170    -999.25  -14.36230   12.48950  464.07190    -999.25    -999.25    -999.25    2.18810   85.24170    -999.25    2.31100    -999.25    2.78440
