~Version ---------------------------------------------------
VERS. 2.0 : CWLS log ASCII Standard -VERSION 2.0
WRAP.  NO : One line per depth step
~Well ------------------------------------------------------
STRT.FT                     1500.0 : START DEPTH
STOP.FT                     8900.0 : STOP DEPTH
STEP.FT                   50.00000 : STEP LENGTH
NULL.                      -999.25 : NULL VALUE
COMP. PAN AMERICAN PETROLEUM CORP. : COMPANY
WELL.       FROST NATIONAL BANK #1 : WELL
FLD .                           WC : FIELD
LOC .                              : LOCATION
CNTY.                       DIMMIT : COUNTY
STAT.                        TEXAS : STATE
CTRY.     UNITED STATES OF AMERICA : COUNTRY
SRVC.                              : SERVICE COMPANY
DATE.                              : LOGDATE
API .               42127301140000 : API NUMBER
UWI .               42127301140000 : UNIQUE WELL ID
SLAT.WGS84           28.4914048015 : SURFACE LATITUDE
SLON.WGS84           -99.834117977 : SURFACE LONGITUDE
~Curve Information -----------------------------------------
DEPT  .FT                                                 : DEPTH
CALSED.IN                                                 : CALIPER FROM SONIC LOG
GRDED .GAPI                                               : GAMMA RAY FROM DENSITY LOG
NPHIED.V/V                                                : NEUTRON POROSITY LIMESTONE FROM DENSITY LOG
SPRED .MV                                                 : SPONTANEOUS POTENTIAL FROM RESISTIVITY LOG [MECH. SHIFT REMOVED@4750 (-16MV)]
CILDED.MMHO                                               : CONDUCTIVITY FROM RESISTIVITY LOG
SPWS  .MV :   SPONTANEOUS POTENTIAL [FROM SPRED. BASELINE : 0MV]
CALDED.IN                                                 : CALIPER FROM DENSITY LOG
ILDED .OHMM                                               : INDUCTION LOG DEEP RESISTIVITY
ALL8ED.OHMM                                               : AMPLIFIED LATEROLOG 8
DTED  .US/F                                               : DELTA TIME FROM SONIC LOG
SPSED .MV                                                 : SPONTANEOUS POTENTIAL FROM SONIC LOG
CALWS .IN                                                 : CALIPER [CALSED]
GRWS  .GAPI                                               : GAMMA RAY [GRDED]
NPOWS .V/V                                                : NEUTRON POROSITY LIMESTONE [NPHIED]
DTWS  .US/F                                               : DELTA TIME [DTED]
DRESWS.OHMM                                               : DEEP RESISTIVITY [=1000/CILDED IF ILDED < 1. ELSE ILDED]
MRESWS.OHMM                                               : MEDIUM RESISTIVITY [ALL8ED]
CONDWS.MMHO                                               : CONDUCTIVITY [1000/DRESWS]
~Params ----------------------------------------------------
EKB .F                 603.3 : Kelly bushing
EGL .F                 590.3 : Ground level
EDF .F                   0.0 : Drilling floor
EPD .F                 590.8 : Permanent datum
TD  .F                8898.0 : Total depth
DATE.            21-NOV-1970 : Date logged
CLNT.                A2DTECH : Client Code
SL  .  660' FNEL & 600' FSEL : Surface Location
PD  .                     GL : Permanent Datum
LMF .                     KB : Log Measured From
DMF .                     KB : Drilling Measured From
DAPD.F                  12.5 : Feet Above Permanent Datum
DD  .F                  8898 : Depth driller
DL  .F                  8894 : Depth logger
BLI .F                  8893 : Bottom log interval
TLI .F                  1500 : Top log interval
CS1 .IN                10.75 : Casing size
CBD1.         10.75" @ 1500' : Casing driller 1
CBL1.F                  1500 : Casing logger 1
BS1 .IN                 8.75 : Bit size
BSD1.F                  8898 : Depth drilled with bit1
DFT .     LOW SOLIDS/POLYMER : Type fluid in hole
DFD .                   10.5 : Density
DFV .                     80 : Viscosity
DFPH.                    8.0 : pH
DFL .                    8.0 : Fluid loss
MSS .               FLOWLINE : Source of sample
RMS .OHMM               1.05 : Rm
RMF .OHMM               1.21 : Rmf
RMC .OHMM               2.42 : Rmc
MFSS.                   MEAS : Source Rmf.
MCSS.                   CALC : Source Rmc.
RMB .OHMM               0.51 : Rm. at BHT
BHT .F                   198 : BHT.
TCS .HRS                   7 : Time Circ. stopped
LUN .                   7027 : Logging unit number
LUL .                  PHARD : Logging unit location
ENGI.                   FETT : Recorded By
WITN.           LEANS/FOCSOM : Witnessed by
ORIG.          5" & 1" PRINT : Origin of data
UWI .         42127301140000 : Unique Well ID
DICO. A2D TECHNOLOGIES, INC. : Digitizing Company
~Other -----------------------------------------------------
~ASCII -----------------------------------------------------
# ...
 3450.00000    8.32730   45.72760    0.19880  -59.38500  245.00000  -22.93130    9.36940    4.50100    6.90900   82.71030  -28.77460    8.32730   45.72760    0.19880   82.71030    4.50100    6.90900  222.17290
 3500.00000    8.91100   45.12820    0.15020  -48.87600  161.00000  -13.30960   10.15020    6.57100    7.85600   76.50520  -26.88120    8.91100   45.12820    0.15020   76.50520    6.57100    7.85600  152.18380
 3550.00000    8.10200   40.03050    0.17270  -65.66600  180.00000  -30.98690   11.83190    5.29200    6.87400   81.14000  -33.03540    8.10200   40.03050    0.17270   81.14000    5.29200    6.87400  188.96450
 3600.00000    7.23070   54.87400    0.21220  -35.69000  343.00000   -1.95610   13.82880    3.50000    3.81400   90.16520  -20.27680    7.23070   54.87400    0.21220   90.16520    3.50000    3.81400  285.71430
 3650.00000    8.52200   56.82180    0.25810  -38.29900  384.00000   -6.01060   12.25230    2.88300    3.32300   93.10400  -20.42700    8.52200   56.82180    0.25810   93.10400    2.88300    3.32300  346.86090
 3700.00000    9.15270   48.57480    0.15610  -40.94800  241.00000   -6.45510   11.51660    4.49900    5.26500   81.76810  -20.87750    9.15270   48.57480    0.15610   81.76810    4.49900    5.26500  222.27160
 3750.00000    7.75600   52.77430    0.18620  -41.20000  349.00000   -4.84270   12.25230    3.30200    3.78300   87.14930  -20.88180    7.75600   52.77430    0.18620   87.14930    3.30200    3.78300  302.84670
 3800.00000    8.25150   53.67360    0.22660  -39.58200  454.00000   -2.49960   11.92200    2.68400    3.05800   94.47370  -20.58920    8.25150   53.67360    0.22660   94.47370    2.68400    3.05800  372.57820
 3850.00000    8.59670   57.12140    0.22350  -39.62600  367.00000   -3.31550   12.04210    2.68500    3.61300   92.23310  -21.03900    8.59670   57.12140    0.22350   92.23310    2.68500    3.61300  372.43950
 3900.00000    6.56750   54.12320    0.24610  -33.50400  347.00000   -2.10990   11.99690    3.11500    3.41500   91.86180  -19.67840    6.56750   54.12320    0.24610   91.86180    3.11500    3.41500  321.02730
 3950.00000    6.56720    -999.25    -999.25  -37.98300  278.00000   -7.73920    -999.25    3.70000    4.50300   84.83770  -22.40130    6.56720    -999.25    -999.25   84.83770    3.70000    4.50300  270.27030
 4000.00000    6.28360    -999.25    -999.25  -33.25000  399.00000   -4.15640    -999.25    3.00900    3.23600   93.06220  -20.90690    6.28360    -999.25    -999.25   93.06220    3.00900    3.23600  332.33630
 4050.00000    6.38860    -999.25    -999.25  -33.17900  301.00000   -4.33370    -999.25    3.60700    3.71200   85.38980  -21.51010    6.38860    -999.25    -999.25   85.38980    3.60700    3.71200  277.23870
 4100.00000    6.26910    -999.25    -999.25  -33.18300  365.00000   -4.54840    -999.25    3.10100    3.54200   87.93680  -19.84070    6.26910    -999.25    -999.25   87.93680    3.10100    3.54200  322.47660
 4150.00000    6.63000    -999.25    -999.25  -33.50100  325.00000   -4.15740    -999.25    3.31400    3.59400   88.69130  -20.14110    6.63000    -999.25    -999.25   88.69130    3.31400    3.59400  301.75020
 4200.00000    6.49570    -999.25    -999.25  -33.80700  353.00000   -3.36020    -999.25    3.50000    3.58100  103.07670  -18.94280    6.49570    -999.25    -999.25  103.07670    3.50000    3.58100  285.71430
 4250.00000    6.56260    -999.25    -999.25  -37.99000  268.00000   -6.44550    -999.25    3.89400    4.57100   83.73600  -18.64350    6.56260    -999.25    -999.25   83.73600    3.89400    4.57100  256.80530
 4300.00000    6.79530    -999.25    -999.25  -43.60300  388.00000  -11.00420    -999.25    3.30000    3.21800   86.73160  -21.03350    6.79530    -999.25    -999.25   86.73160    3.30000    3.21800  303.03030
 4350.00000    6.58590    -999.25    -999.25  -42.64800  310.00000   -8.99490    -999.25    3.90000    4.06000   86.73200  -22.08650    6.58590    -999.25    -999.25   86.73200    3.90000    4.06000  256.41020
 4400.00000    6.85640    -999.25    -999.25  -45.93100  289.00000  -11.22360    -999.25    3.70100    4.42000   86.50620  -20.88240    6.85640    -999.25    -999.25   86.50620    3.70100    4.42000  270.19720
 4450.00000    6.56880    -999.25    -999.25  -44.39500  287.00000   -8.63330    -999.25    3.70000    4.47700   84.48140  -21.79470    6.56880    -999.25    -999.25   84.48140    3.70000    4.47700  270.27030
 4500.00000    6.57020    -999.25    -999.25  -39.69400  301.00000   -2.87800    -999.25    3.50000    4.30000   86.77480  -21.17830    6.57020    -999.25    -999.25   86.77480    3.50000    4.30000  285.71430
 4550.00000    7.20060    -999.25    -999.25  -41.20000  312.00000   -4.44520    -999.25    3.69900    4.18200   87.89440  -20.13100    7.20060    -999.25    -999.25   87.89440    3.69900    4.18200  270.34340
 4600.00000    7.90600    -999.25    -999.25  -43.65300  253.00000   -7.46060    -999.25    3.97200    5.05400   81.54390  -20.13590    7.90600    -999.25    -999.25   81.54390    3.97200    5.05400  251.76230
 4650.00000    7.93590    -999.25    -999.25  -38.92800  424.00000   -3.61420    -999.25    2.70400    3.31900   93.71490  -19.39110    7.93590    -999.25    -999.25   93.71490    2.70400    3.31900  369.82250
 4700.00000    7.81530    -999.25    -999.25  -37.96900  383.00000   -5.32550    -999.25    2.90100    3.80800   91.99310  -19.83180    7.81530    -999.25    -999.25   91.99310    2.90100    3.80800  344.70870
 4750.00000    7.61660    -999.25    -999.25  -32.10130  248.00000   -2.10130    -999.25    4.22940    -999.25   89.84060  -19.68130    7.61660    -999.25    -999.25   89.84060    4.22940    -999.25  236.44020
 4800.00000    7.37630    -999.25    -999.25  -33.83300  293.20000   -3.83300    -999.25    4.99570    4.68470   84.13570  -21.34000    7.37630    -999.25    -999.25   84.13570    4.99570    4.68470  200.17210
 4850.00000    7.46600    -999.25    -999.25  -32.60000  213.60000   -1.83870    -999.25    6.02410    7.00450   78.66290  -18.63580    7.46600    -999.25    -999.25   78.66290    6.02410    7.00450  165.99990
 4900.00000    7.58640    -999.25    -999.25  -34.09900  176.40000   -2.30890    -999.25    6.62650    9.48950   74.29430  -19.38780    7.58640    -999.25    -999.25   74.29430    6.62650    9.48950  150.90920
 4950.00000    7.96050    -999.25    -999.25  -35.60000   99.60000   -2.78110    -999.25    9.33730   12.49690   64.08370  -18.93390    7.96050    -999.25    -999.25   64.08370    9.33730   12.49690  107.09730
 5000.00000    8.48440    -999.25    -999.25  -35.81600   92.80000   -2.96860    -999.25   10.24100   12.79970   68.50250  -25.38170    8.48440    -999.25    -999.25   68.50250   10.24100   12.79970   97.64670
 5050.00000    8.46950    -999.25    -999.25  -35.20800  138.00000   -3.33240    -999.25    9.26200   10.24780   66.44600  -22.68710    8.46950    -999.25    -999.25   66.44600    9.26200   10.24780  107.96800
 5100.00000    8.50010    -999.25    -999.25  -33.00200  172.40000   -1.69710    -999.25    5.57230    8.48350   81.09250  -21.77710    8.50010    -999.25    -999.25   81.09250    5.57230    8.48350  179.45910
 5150.00000    8.48880    -999.25    -999.25  -33.79800  106.80000   -2.72200    -999.25    7.90660   12.25980   68.03890  -22.22220    8.48880    -999.25    -999.25   68.03890    7.90660   12.25980  126.47660
 5200.00000    8.48870    -999.25    -999.25  -33.00000  141.20000   -1.87580    -999.25    7.22890   10.06010   70.73350  -19.81980    8.48870    -999.25    -999.25   70.73350    7.22890   10.06010  138.33360
 5250.00000    8.48880    -999.25    -999.25  -36.59300   68.40000   -5.09530    -999.25   13.62930   26.56930   59.20660  -23.57290    8.48880    -999.25    -999.25   59.20660   13.62930   26.56930   73.37130
 5300.00000    8.53370    -999.25    -999.25  -33.74300  115.60000   -1.87190    -999.25    7.07830   14.06980   70.07460  -19.66970    8.53370    -999.25    -999.25   70.07460    7.07830   14.06980  141.27690
 5350.00000    8.38400    -999.25    -999.25  -34.56700   50.80000   -1.80840    -999.25   16.64080   45.05220   57.39580  -18.15980    8.38400    -999.25    -999.25   57.39580   16.64080   45.05220   60.09330
