~Version ---------------------------------------------------
VERS. 2.0 : CWLS log ASCII Standard -VERSION 2.0
WRAP. YES : MULTIPLE LINES PER DEPTH STEP
~Well ------------------------------------------------------
STRT.FT                 2500.0 : START DEPTH
STOP.FT                 7750.0 : STOP DEPTH
STEP.FT               50.00000 : STEP LENGTH
NULL.                  -999.25 : NULL VALUE
COMP.   CITIES SERVICE COMPANY : COMPANY
WELL.              GALIPP A #1 : WELL
FLD .                  WILDCAT : FIELD
LOC .                          : LOCATION
CNTY.                      LEE : COUNTY
STAT.                    TEXAS : STATE
CTRY. UNITED STATES OF AMERICA : COUNTRY
SRVC.             Schlumberger : SERVICE COMPANY
DATE.              05-May-1981 : LOGDATE
API .           42287309240000 : API NUMBER
UWI .           42287309240000 : UNIQUE WELL ID
SLAT.WGS84       30.2175747671 : SURFACE LATITUDE
SLON.WGS84      -96.9733709603 : SURFACE LONGITUDE
~Curve Information -----------------------------------------
DEPT    .FT    : DEPTH FEET
CALDED  .IN    : CALIPER FROM DENSITY LOG
CALRED  .IN    : CALIPER FROM RESISTIVITY LOG [DEPTH ADJ. TO GRR.]
CALWS   .IN    : CALIPER [CALDED]
CILDED  .MMHO  : CONDUCTIVITY FROM RESISTIVITY LOG
CONDWS  .MMHO  : CONDUCTIVITY [1000/DRESWS]
DCORWS  .G/C3  : DENSITY CORRECTION [DRHOED]
DENWS   .G/C3  : BULK DENSITY [M=2.65 F=1.0] [RHOBED]
DPHILSED.V/V   : DENSITY POROSITY [M=2.71 F=1.0] FROM DENSITY [DEPTH ADJ. TO GRR.]
DPHISSED.V/V   : DENSITY POROSITY [M=2.65 F=1.0] FROM DENSITY [DEPTH ADJ. TO GRR.]
DPOWS   .V/V   : DENSITY POROSITY [M=2.65 F=1.0] [DPHISSED]
DRESWS  .OHMM  : DEEP RESISTIVITY [ILDED]
DRHOED  .G/C3  : DENSITY CORRECTION FROM DENSITY LOG[DEPTH ADJ. TO GRR.]
DTED    .US/F  : DELTA TIME FROM SONIC LOG
DTWS    .US/F  : DELTA TIME [DTED]
GRDED   .GAPI  : GAMMA RAY FROM DENSITY LOG[DEPTH ADJ. TO GRR.]
GRNED   .GAPI  : GAMMA RAY FROM NEUTRON LOG [DEPTH ADJ. TO GRR.]
GRRED   .GAPI  : GAMMA RAY FROM RESISTIVITY LOG
GRWS    .GAPI  : GAMMA RAY [GRRED,SPLICED GRNED RESCALE AT 3554 AND GRDED+30 AT 7689']
ILDED   .OHMM  : INDUCTION LOG DEEP RESISTIVITY
ILMED   .OHMM  : INDUCTION LOG MEDIUM RESISTIVITY
MRESWS  .OHMM  : MEDIUM RESISTIVITY [ILMED]
NEUTED  .NAPI  : NEUTRON FROM NEUTRON LOG[DEPTH ADJ. TO GRR.]
NEUTWS  .NAPI  : NEUTRON [NEUTED]
NPHILSED.V/V   : NEUTRON POROSITY LIMESTONE FROM DENSITY LOG [DEPTH ADJ. TO GRR.]
NPHISSED.V/V   : NEUTRON POROSITY SANDSTONE FROM DENSITY LOG [DEPTH ADJ. TO GRR.]
NPOWS   .V/V   : NEUTRON POROSITY SANDSTONE [NPHISSED]
RHOBED  .G/C3  : BULK DENSITY FROM DENSITY LOG [DEPTH ADJ. TO GRR.]
SFLUED  .OHMM  : SPHERICALLY FOCUSED LOG RESISTIVITY
SPRED   .MV    : SPONTANEOUS POTENTIAL FROM RESISTIVITY LOG
SPWS    .MV    : SPONTANEOUS POTENTIAL [BASELINE 0 MV] [SPRED]
SRESWS  .OHMM  : SHALLOW RESISTIVITY [SFLUED]
TENDED  .LBF   : TENSION FROM DENSITY LOG [DEPTH ADJ. TO GRR.]
TENRED  .LBF   : TENSION FROM RESISTIVITY LOG
~Params ----------------------------------------------------
PD  .                      GL : PERMANENT DATUM
EPD .FT                   452 : ELEVATION PERMANENT DATUM
LMF .                      KB : LOG MEASURED FROM
DAPD.FT                    15 : FEET ABOVE PERMANENT DATUM
DMF .                      KB : DRILLING MEASURED FROM
EKB .FT                   467 : KELLY BUSHING
EDF .FT                   466 : DRILLING FLOOR
EGL .FT                   452 : GROUND LEVEL
DATE.                05/05/81 : RUN DATE
RUN .                       1 : RUN NUMBER
DD  .FT                  7755 : DEPTH DRILLER
DL  .FT                  7737 : DEPTH LOGGER
BLI .FT                  7730 : BOTTOM LOG INTERVAL
TLI .FT                  3566 : TOP LOG INTERVAL
CS  .IN                 9.625 : CASING SIZE
CBD .FT                  3545 : CASING BOTTOM DRILLER
CBL .FT                  3566 : CASING BOTTOM LOGGER
BS  .IN                   7.5 : BIT SIZE
BSD .FT                  7755 : BIT SIZE AT DEPTH
DFT .                BENX KCL : DRILLING FLUID TYPE
DFD .                     9.8 : DRILLING FLUID DENSITY
DFV .                      45 : DRILLING FLUID VISCOSITY
DFPH.                      11 : DRILLING FLUID PH
DFL .                      12 : DRILLING FLUID LOSS
MSS .                FLOWLINE : MUD SAMPLE SOURCE
RMS .OHMM                0.51 : RESISTIVITY MUD SAMPLE
MST .DEGF                  75 : MUD SAMPLE TEMPERATURE
RMF .OHMM                0.86 : RESISTIVITY MUD FILTRATE SAMPLE
MFST.DEGF                  75 : MUD FILTRATE SAMPLE TEMPERATURE
RMC .OHMM                0.76 : RESISTIVITY MUD CAKE
MCST.DEGF                  75 : MUD CAKE SAMPLE TEMPERATURE
MFSS.                       M : MUD FILTRATE SAMPLE SOURCE
MCSS.                       C : MUD CAKE SAMPLE SOURCE
RMB .OHMM                 0.2 : RESISTIVITY MUD AT BHT
TCS .HRS                 1700 : TIME CIRCULATED STOPPED
TLAB.HRS                  100 : TIME LOGGER AT BOTTOM
LUN .                    8173 : LOGGING UNIT NUMBER
LUL .                VICTORIA : LOGGING UNIT LOCATION
ENGI.                   ADAMS : RECORDING ENGINEER
WITN. WILLIAMS YOUNG MCCARTHY : WITNESSED BY
CLNT.                 A2DTECH : CLIENT CODE
ORIG.          1" 2" 5" PRINT : ORIGIN OF DATA
UWI .          42287309240000 : UNIQUE WELL ID
DICO.  A2D Technologies, Inc. : DIGITIZING COMPANY
~Other -----------------------------------------------------
~ASCII -----------------------------------------------------
# ...
 6900.00000   10.63870   10.67220   10.67220  136.63500  136.88880    0.01110    2.65240    0.03590    -999.25    0.03370    7.30520    0.01110   65.48040   65.48040   36.39640    -999.25   42.02920   42.02920    7.30520    7.09360    7.09360    -999.25    -999.25    0.06240    -999.25    0.06240    2.65240    6.24290   -5.93660   -4.12010    6.24290 2779.24680 3103.78030
 6950.00000   10.99990   10.89830   10.89830  100.42160  103.40940    0.00850    2.63720    0.04350    -999.25    0.04260    9.67030    0.00850   63.22580   63.22580   39.06000    -999.25   37.43070   37.43070    9.67030    8.70840    8.70840    -999.25    -999.25    0.04910    -999.25    0.04910    2.63720    8.72220   -3.34230   -1.10230    8.72220 2822.64360 3137.22920
 7000.00000   11.18490   10.54320   10.54320  117.65770  115.08540    0.00430    2.58860    0.07130    -999.25    0.07100    8.68920    0.00430   65.28490   65.28490   50.36880    -999.25   33.60190   33.60190    8.68920    8.60640    8.60640    -999.25    -999.25    0.09410    -999.25    0.09410    2.58860    7.30250   -5.37500   -3.03220    7.30250 2847.84110 3128.06540
 7050.00000   10.37200   10.28490   10.28490   66.20830   66.50090    0.04220    2.65320    0.03410    -999.25    0.03320   15.03740    0.04220   57.40890   57.40890   24.96780    -999.25   24.72580   24.72580   15.03740   15.84850   15.84850    -999.25    -999.25    0.04770    -999.25    0.04770    2.65320   16.81990   -9.47110   -7.30980   16.81990 2821.64010 3153.23610
 7100.00000   11.09700   10.20390   10.20390  112.06490  112.50620    0.02190    2.57200    0.08080    -999.25    0.08070    8.88840    0.02190   57.58840   57.58840   50.03850    -999.25   41.56030   41.56030    8.88840   10.15400   10.15400    -999.25    -999.25    0.08560    -999.25    0.08560    2.57200    7.14630   -7.24150   -5.26170    7.14630 2855.01710 3166.91360
 7150.00000   10.96610   10.68950   10.68950  130.19000  131.91570    0.00760    2.62070    0.05260    -999.25    0.05220    7.58060    0.00760   62.62790   62.62790   35.56410    -999.25   28.74540   28.74540    7.58060    7.67550    7.67550    -999.25    -999.25    0.07590    -999.25    0.07590    2.62070    8.30060   -9.66300   -7.86470    8.30060 2861.83620 3195.86500
 7200.00000   10.71970   10.06390   10.06390  298.98110  292.56020   -0.05530    2.23970    0.29210    -999.25    0.27500    3.41810   -0.05530   65.02300   65.02300   59.40950    -999.25   51.97890   51.97890    3.41810    4.16760    4.16760    -999.25    -999.25    0.25530    -999.25    0.25530    2.23970    5.36660   -1.96290   -0.34610    5.36660 2834.82790 3214.59470
 7250.00000   10.56110    9.99380    9.99380  182.45860  181.66620    0.00830    2.62420    0.05100    -999.25    0.05020    5.50460    0.00830   66.55340   66.55340   47.82900    -999.25   40.61320   40.61320    5.50460    5.86900    5.86900    -999.25    -999.25    0.10320    -999.25    0.10320    2.62420    6.15960   -6.10290   -2.51500    6.15960 2879.89220 3202.13430
 7300.00000   10.38900   10.36960   10.36960  185.24160  183.10660    0.01870    2.60930    0.05950    -999.25    0.05890    5.46130    0.01870   66.15280   66.15280   31.20690    -999.25   26.35910   26.35910    5.46130    5.61140    5.61140    -999.25    -999.25    0.09160    -999.25    0.09160    2.60930    5.95450   -8.88800   -4.43580    5.95450 2893.48970 3208.79490
 7350.00000   10.78630   10.54540   10.54540  161.68630  151.71050    0.00380    2.61760    0.05510    -999.25    0.05400    6.59150    0.00380   64.69580   64.69580   38.38210    -999.25   33.72770   33.72770    6.59150    6.78990    6.78990    -999.25    -999.25    0.08360    -999.25    0.08360    2.61760    7.48560   -9.33560   -3.67790    7.48560 2907.86940 3236.46530
 7400.00000    9.87850    9.63520    9.63520  179.19280  181.06430    0.00750    2.59930    0.06450    -999.25    0.06470    5.52290    0.00750   68.25220   68.25220   33.21330    -999.25   31.24850   31.24850    5.52290    5.59190    5.59190    -999.25    -999.25    0.08590    -999.25    0.08590    2.59930    5.74120  -16.59280   -7.26350    5.74120 2925.23740 3251.03340
 7450.00000   11.25850    9.27140    9.27140  142.27390  135.76260    0.14700    2.02610    0.39520    -999.25    0.39990    7.36580    0.14700   62.22870   62.22870   62.43950    -999.25   39.84990   39.84990    7.36580    8.05800    8.05800    -999.25    -999.25    0.08550    -999.25    0.08550    2.02610    9.97150  -21.63340  -13.19590    9.97150 2942.33640 3268.55320
 7500.00000   11.56060    9.01440    9.01440  113.58400  114.81850    0.13490    2.11860    0.33950    -999.25    0.34580    8.70940    0.13490   71.32600   71.32600   71.48630    -999.25   62.88960   62.88960    8.70940    8.84930    8.84930    -999.25    -999.25    0.10970    -999.25    0.10970    2.11860    8.53930  -22.53010  -17.76820    8.53930 3012.44850 3286.25810
 7550.00000   10.25260    8.93860    8.93860   75.60210   76.82560    0.04170    1.73050    0.57130    -999.25    0.57280   13.01650    0.04170   64.05880   64.05880   39.10520    -999.25   34.26660   34.26660   13.01650   12.54340   12.54340    -999.25    -999.25    0.11320    -999.25    0.11320    1.73050   11.85470  -26.24570  -25.15930   11.85470 3001.38940 3302.84640
 7600.00000    8.81380    8.58030    8.58030  136.53110  135.81420   -0.00350    2.48240    0.13320    -999.25    0.13310    7.36300   -0.00350   93.12740   93.12740   99.77970    -999.25   89.72810   89.72810    7.36300    6.86200    6.86200    -999.25    -999.25    0.22860    -999.25    0.22860    2.48240   11.90700    2.38980   -0.12590   11.90700 2990.61690 3299.10600
 7650.00000    8.71490    8.54860    8.54860   42.54620   43.50130   -0.00230    2.48530    0.13120    -999.25    0.13140   22.98780   -0.00230   84.05530   84.05530  104.09470    -999.25   77.67510   77.67510   22.98780   26.51180   26.51180    -999.25    -999.25    0.22030    -999.25    0.22030    2.48530   44.27380    0.79900   -1.71670   44.27380 2953.53300 3335.83200
 7700.00000    8.55930    8.38990    8.38990   88.55610   83.08480    0.07610    2.73510   -0.01450    -999.25   -0.01470   12.03590    0.07610    -999.25    -999.25   40.54310    -999.25    -999.25   40.54310   12.03590   11.96000   11.96000    -999.25    -999.25    0.07360    -999.25    0.07360    2.73510   18.67470    0.91280   -1.60290   18.67470 2999.42190 3321.89500
 7750.00000    -999.25    -999.25    -999.25    -999.25    -999.25    -999.25    -999.25    -999.25    -999.25    -999.25    -999.25    -999.25    -999.25    -999.25    -999.25    -999.25    -999.25    -999.25    -999.25    -999.25    -999.25    -999.25    -999.25    -999.25    -999.25    -999.25    -999.25    -999.25    -999.25    -999.25    -999.25 2339.73710 2436.37480
