~Version ---------------------------------------------------
VERS.      2.0 : CWLS log ASCII Standard -VERSION 2.0
WRAP.      YES : Multiple lines per depth step
CREA. 09/17/18 : LAS Creation Date
~Well ------------------------------------------------------
STRT.FT                 1100.0 : START DEPTH
STOP.FT                 9550.0 : STOP DEPTH
STEP.FT               50.00000 : STEP LENGTH
NULL.                  -999.25 : NULL VALUE
COMP.     BURK ROYALTY COMPANY : COMPANY
WELL.             KING UNIT #1 : WELL
FLD .               JACQUELINE : FIELD
LOC .                          : LOCATION
CNTY.                 ATASCOSA : COUNTY
STAT.                    TEXAS : STATE
CTRY. UNITED STATES OF AMERICA : COUNTRY
SRVC.             Schlumberger : SERVICE COMPANY
DATE.              17-Aug-1994 : LOGDATE
API .           42013340230000 : API NUMBER
UWI .           42013340230000 : UNIQUE WELL ID
SLAT.WGS84         28.87747446 : SURFACE LATITUDE
SLON.WGS84      -98.2411771051 : SURFACE LONGITUDE
~Curve Information -----------------------------------------
DEPT    .FT    : DEPTH FEET
CALWS   .IN    : CALIPER [DCALRED+BIT]
CONDWS  .MMHO  : DEEP CONDUCTIVITY [1000/DRESWS]
DCALRED .IN    : DIFFERENTIAL CALIPER FROM PISFL-LDT-CNL LOG
DCORWS  .G/C3  : DENSITY CORRECTION [DRHOED]
DENWS   .G/C3  : BULK DENSITY [CALC. FROM DPOLSWS]
DPOLSWS .V/V   : DENSITY POROSITY (LS) [M=2.71 F=1.00] [PHNDLSED]
DRESWS  .OHMM  : DEEP RESISTIVITY [IDERED]
DRHOED  .G/C3  : DENSITY CORRECTION  FROM PISFL-LDT-CNL LOG
GRRED   .GAPI  : GAMMA RAY  FROM PISFL-LDT-CNL LOG
GRWS    .GAPI  : GAMMA RAY [GRRED]
IDERED  .OHMM  : INDUCTION DEEP ENHANCED RESOLUTION PHASE RESISTIVITY
IMERED  .OHMM  : INDUCTION MEDIUM ENHANCED RESOLUTION PHASE RESISTIVITY
MRESWS  .OHMM  : MEDIUM RESISTIVITY [IMERED]
NPHILSED.V/V   : NEUTRON POROSITY LIMESTONE  FROM PISFL-LDT-CNL LOG
NPOLSWS .V/V   : NEUTRON POROSITY LIMESTONE [NPHILSED]
PEFED   .B/E   : PHOTOELECTRIC FACTOR  FROM PISFL-LDT-CNL LOG
PEFWS   .B/E   : PHOTOELECTRIC FACTOR [PEFED]
DPHILSED.V/V   : DENSITY POROSITY (LS)  FROM PISFL-LDT-CNL LOG
SFLUED  .OHMM  : SPHERICALLY FOCUSED LOG RESISTIVITY
SPRED   .MV    : SPONTANEOUS POTENTIAL  FROM PISFL-LDT-CNL LOG
SPWS    .MV    : SPONTANEOUS POTENTIAL [BASELINE 0 MV] [SPRED]
SRESWS  .OHMM  : SHALLOW RESISTIVITY [SFLUED]
TENRED  .LBF   : TENSION  FROM PISFL-LDT-CNL LOG
~Params ----------------------------------------------------
PD  .                     GL : PERMANENT DATUM
EPD .FT                  279 : ELEVATION PERMANENT DATUM
LMF .                     KB : LOG MEASURED FROM
DAPD.FT                 14.4 : FEET ABOVE PERMANENT DATUM
DMF .                     KB : DRILLING MEASURED FROM
EKB .FT                293.4 : KELLY BUSHING
EDF .FT                292.4 : DRILLING FLOOR
EGL .FT                  279 : GROUND LEVEL
DATE.               08/17/94 : RUN DATE
RUN .                      1 : RUN NUMBER
DD  .FT                 9532 : DEPTH DRILLER
DL  .FT                 9524 : DEPTH LOGGER
BLI .FT                 9515 : BOTTOM LOG INTERVAL
TLI .FT                 1095 : TOP LOG INTERVAL
CS  .IN                8.625 : CASING SIZE
CBD .FT                 1095 : CASING BOTTOM DRILLER
CBL .FT                 1100 : CASING BOTTOM LOGGER
BS  .IN                7.875 : BIT SIZE
BSD .FT                 9532 : BIT SIZE AT DEPTH
DFT .         LIGNOSULFONATE : DRILLING FLUID TYPE
DFD .                   10.3 : DRILLING FLUID DENSITY
DFV .                     41 : DRILLING FLUID VISCOSITY
DFPH.                    8.5 : DRILLING FLUID PH
DFL .                    7.6 : DRILLING FLUID LOSS
MSS .               FLOWLINE : MUD SAMPLE SOURCE
RMS .OHMM              3.123 : RESISTIVITY MUD SAMPLE
MST .FT                   75 : MUD SAMPLE TEMPERATURE
RMF .OHMM              2.469 : RESISTIVITY MUD FILTRATE SAMPLE
MFST.FT                   75 : MUD FILTRATE SAMPLE TEMPERATURE
RMC .OHMM               1.98 : RESISTIVITY MUD CAKE
MCST.FT                   75 : MUD CAKE SAMPLE TEMPERATURE
MFSS.               MEASURED : MUD FILTRATE SAMPLE SOURCE
MCSS.               MEASURED : MUD CAKE SAMPLE SOURCE
RMB .OHMM              1.266 : RESISTIVITY MUD AT BHT
TCS .HRS                  30 : TIME CURCULATED STOPPED
TLAB.HRS                 830 : TIME LOGGER AT BOTTOM
LUN .                   2017 : LOGGING UNIT NUMBER
LUL .               VICTORIA : LOGGING UNIT LOCATION
ENGI.         DAVID BUMBAUGH : RECORDING ENGINEER
WITN.            JACK AUSTIN : WITNESSED BY
CLNT.                A2DTECH : CLIENT CODE
ORIG.           5" 10" PRINT : ORIGIN OF DATA
UWI .         42013340230000 : UNIQUE WELL ID
DICO. A2D Technologies, Inc. : DIGITIZING COMPANY
~Other -----------------------------------------------------
PISFL-LDT-CNL LOGGED I COMBO.
GAPS ON NEUTRON/DENSITY DUE TO INTERVALS NOT RECORDED ON LOG IMAGE.
~ASCII -----------------------------------------------------
# ...
 2650.00000   11.96790  300.65240    2.09290    -999.25    -999.25    -999.25    3.32610    -999.25   77.02700   77.02700    3.32610    3.06360    3.06360    -999.25    -999.25    -999.25    -999.25    -999.25    3.83300  -14.19160  -10.64110    3.83300 1657.47190
 2700.00000   11.39960  267.47980    1.52460    -999.25    -999.25    -999.25    3.73860    -999.25   71.20860   71.20860    3.73860    3.37200    3.37200    -999.25    -999.25    -999.25    -999.25    -999.25    3.84330  -20.36140  -17.02170    3.84330 1690.16300
 2750.00000   11.70520  593.75370    1.83020    -999.25    -999.25    -999.25    1.68420    -999.25   89.41460   89.41460    1.68420    1.71930    1.71930    -999.25    -999.25    -999.25    -999.25    -999.25    1.78530  -11.05110   -7.92220    1.78530 1754.03520
 2800.00000   11.04090  711.13640    1.16590    -999.25    -999.25    -999.25    1.40620    -999.25   90.09010   90.09010    1.40620    1.36090    1.36090    -999.25    -999.25    -999.25    -999.25    -999.25    1.37590  -10.75000   -7.83190    1.37590 1791.74480
 2850.00000   11.81820  681.24530    1.94320    -999.25    -999.25    -999.25    1.46790    -999.25   86.78560   86.78560    1.46790    1.45790    1.45790    -999.25    -999.25    -999.25    -999.25    -999.25    1.52370  -10.15090   -7.52330    1.52370 1781.55330
 2900.00000    9.42660   73.98090   -0.44840    -999.25    -999.25    -999.25   13.51700    -999.25   51.35140   51.35140   13.51700   12.05800   12.05800    -999.25    -999.25    -999.25    -999.25    -999.25   12.78510  -20.65940  -19.57170   12.78510 1778.46980
 2950.00000    9.66570   39.99650   -0.20930    -999.25    -999.25    -999.25   25.00220    -999.25   44.14490   44.14490   25.00220   19.26740   19.26740    -999.25    -999.25    -999.25    -999.25    -999.25   20.20540  -16.15620  -16.60840   20.20540 1840.02100
 3000.00000   11.05350  258.45800    1.17850    -999.25    -999.25    -999.25    3.86910    -999.25   81.98200   81.98200    3.86910    3.56030    3.56030    -999.25    -999.25    -999.25    -999.25    -999.25    3.83300   -9.24880  -11.24100    3.83300 1805.22850
 3050.00000    9.84540   30.52940   -0.02960    -999.25    -999.25    -999.25   32.75530    -999.25   33.10770   33.10770   32.75530   26.69340   26.69340    -999.25    -999.25    -999.25    -999.25    -999.25   26.40760  -15.25390  -18.78600   26.40760 1806.71360
 3100.00000   11.06120  220.67260    1.18620    -999.25    -999.25    -999.25    4.53160    -999.25   90.76580   90.76580    4.53160    4.31870    4.31870    -999.25    -999.25    -999.25    -999.25    -999.25    4.52140   -7.74720  -12.81920    4.52140 1864.45190
 3150.00000   11.91640  171.02500    2.04140    -999.25    -999.25    -999.25    5.84710    -999.25   80.28340   80.28340    5.84710    4.82670    4.82670    -999.25    -999.25    -999.25    -999.25    -999.25    5.67490   -5.94590  -12.55780    5.67490 1831.23320
 3200.00000    9.81510   24.46440   -0.05990    -999.25    -999.25    -999.25   40.87570    -999.25   38.28830   38.28830   40.87570   28.39680   28.39680    -999.25    -999.25    -999.25    -999.25    -999.25   28.80530  -16.15670  -23.07650   28.80530 1874.90840
 3250.00000    9.91500   54.11870    0.04000    -999.25    -999.25    -999.25   18.47790    -999.25   64.63960   64.63960   18.47790   17.31900   17.31900    -999.25    -999.25    -999.25    -999.25    -999.25   17.34870   -9.85010  -16.89370   17.34870 1870.09270
 3300.00000   10.14410   54.06870    0.26910    -999.25    -999.25    -999.25   18.49500    -999.25   47.43330   47.43330   18.49500   17.67250   17.67250    -999.25    -999.25    -999.25    -999.25    -999.25   17.25210   -8.34830  -15.51570   17.25210 1899.87370
 3350.00000   10.59510   24.29610    0.72010    -999.25    -999.25    -999.25   41.15880    -999.25   28.15320   28.15320   41.15880   27.43740   27.43740    -999.25    -999.25    -999.25    -999.25    -999.25   28.02250  -14.05480  -21.34600   28.02250 1982.30300
 3400.00000   11.11420   18.16320    1.23920    -999.25    -999.25    -999.25   55.05630    -999.25   32.65730   32.65730   55.05630   30.83900   30.83900    -999.25    -999.25    -999.25    -999.25    -999.25   33.74700  -12.25430  -19.66930   33.74700 1965.65550
 3450.00000   10.35330   67.65720    0.47830    -999.25    -999.25    -999.25   14.78040    -999.25   77.02670   77.02670   14.78040   13.51680   13.51680    -999.25    -999.25    -999.25    -999.25    -999.25   15.71760  -10.45020  -17.73820   15.71760 1992.86080
 3500.00000    9.90490   44.79280    0.02990    -999.25    -999.25    -999.25   22.32500    -999.25   55.07790   55.07790   22.32500   18.16520   18.16520    -999.25    -999.25    -999.25    -999.25    -999.25   19.72650  -13.45350  -20.18750   19.72650 2029.64210
 3550.00000   10.20380  102.00750    0.32880    -999.25    -999.25    -999.25    9.80320    -999.25   95.04430   95.04430    9.80320    8.03540    8.03540    -999.25    -999.25    -999.25    -999.25    -999.25    9.36860  -11.05150  -17.23140    9.36860 1993.89310
 3600.00000    9.90490   39.78820    0.02990    -999.25    -999.25    -999.25   25.13310    -999.25   77.70420   77.70420   25.13310   22.60870   22.60870    -999.25    -999.25    -999.25    -999.25    -999.25   22.42640  -18.25880  -23.88460   22.42640 1939.49260
 3650.00000    9.63600   29.65560   -0.23900    -999.25    -999.25    -999.25   33.72040    -999.25   63.51730   63.51730   33.72040   31.26510   31.26510    -999.25    -999.25    -999.25    -999.25    -999.25   31.28600  -17.95720  -23.02900   31.28600 1981.32210
 3700.00000   10.41310  137.33250    0.53810    -999.25    -999.25    -999.25    7.28160    -999.25  105.18130  105.18130    7.28160    7.28160    7.28160    -999.25    -999.25    -999.25    -999.25    -999.25    7.52510  -11.95220  -16.46990    7.52510 1984.81530
 3750.00000   10.44280   72.96930    0.56780    -999.25    -999.25    -999.25   13.70440    -999.25   66.44140   66.44140   13.70440   12.53270   12.53270    -999.25    -999.25    -999.25    -999.25    -999.25   14.17570  -16.15620  -20.11990   14.17570 1988.72200
 3800.00000   10.98280  100.12320    1.10780    -999.25    -999.25    -999.25    9.98770    -999.25   62.61260   62.61260    9.98770    9.43110    9.43110    -999.25    -999.25    -999.25    -999.25    -999.25    9.54580  -19.45950  -22.86910    9.54580 2019.66690
 3850.00000   11.13060   72.46590    1.25560    -999.25    -999.25    -999.25   13.79960    -999.25   57.20720   57.20720   13.79960   12.36170   12.36170    -999.25    -999.25    -999.25    -999.25    -999.25   12.43800  -20.66270  -23.51830   12.43800 2117.86330
 3900.00000   10.53080  109.59020    0.65580    -999.25    -999.25    -999.25    9.12490    -999.25   61.21990   61.21990    9.12490    9.18780    9.18780    -999.25    -999.25    -999.25    -999.25    -999.25    9.84300  -23.96400  -26.26550    9.84300 2082.67480
 3950.00000    9.84520  394.30620   -0.02980    -999.25    -999.25    -999.25    2.53610    -999.25   93.52410   93.52410    2.53610    2.49830    2.49830    -999.25    -999.25    -999.25    -999.25    -999.25    2.38370  -10.92360  -12.67110    2.38370 2108.77200
 4000.00000    9.24900  139.68630   -0.62600    -999.25    -999.25    -999.25    7.15890    -999.25   60.76860   60.76860    7.15890    7.21230    7.21230    -999.25    -999.25    -999.25    -999.25    -999.25    8.51800  -30.57060  -31.62990    8.51800 2194.46460
 4050.00000    9.84510   71.02930   -0.02990    -999.25    -999.25    -999.25   14.07870    -999.25   55.11940   55.11940   14.07870   11.85250   11.85250    -999.25    -999.25    -999.25    -999.25    -999.25   14.20790  -14.95500  -15.02750   14.20790 2166.86770
 4100.00000   10.70950  422.40430    0.83450    -999.25    -999.25    -999.25    2.36740    -999.25   96.91610   96.91610    2.36740    2.39060    2.39060    -999.25    -999.25    -999.25    -999.25    -999.25    2.33520   -3.47570   -2.56150    2.33520 2189.86820
 4150.00000    9.87500  337.97490    0.00000    -999.25    -999.25    -999.25    2.95880    -999.25   99.16830   99.16830    2.95880    3.07520    3.07520    -999.25    -999.25    -999.25    -999.25    -999.25    2.87050  -15.54860  -13.64760    2.87050 2213.60300
