~Version ---------------------------------------------------
VERS. 2.0 : CWLS log ASCII Standard -VERSION 2.0
WRAP. YES : MULTIPLE LINES PER DEPTH STEP
~Well ------------------------------------------------------
STRT.FT                        2500.0 : START DEPTH
STOP.FT                       18000.0 : STOP DEPTH
STEP.FT                      50.00000 : STEP LENGTH
NULL.                         -999.25 : NULL VALUE
COMP. UNION PACIFIC RESOURCES COMPANY : COMPANY
WELL.       UPR T-BAR-X KING COBRA #1 : WELL
FLD .                         WILDCAT : FIELD
LOC .                                 : LOCATION
CNTY.                            LEON : COUNTY
STAT.                           TEXAS : STATE
CTRY.        UNITED STATES OF AMERICA : COUNTRY
SRVC.                    Schlumberger : SERVICE COMPANY
DATE.                     05-Nov-1997 : LOGDATE
API .                  42289312660000 : API NUMBER
UWI .                  42289312660000 : UNIQUE WELL ID
SLAT.WGS84              31.2008912115 : SURFACE LATITUDE
SLON.WGS84             -96.2874133979 : SURFACE LONGITUDE
~Curve Information -----------------------------------------
DEPT    .FT    : DEPTH FEET
AT10ED  .OHMM  : 10 INCH RESISTIVITY TWO FOOT RESOLUTION FROM AIT LOG
AT20ED  .OHMM  : 20 INCH RESISTIVITY TWO FOOT RESOLUTION FROM AIT LOG
AT30ED  .OHMM  : 30 INCH RESISTIVITY TWO FOOT RESOLUTION FROM AIT LOG
AT60ED  .OHMM  : 60 INCH RESISTIVITY TWO FOOT RESOLUTION FROM AIT LOG
AT90ED  .OHMM  : 90 INCH RESISTIVITY TWO FOOT RESOLUTION FROM AIT LOG
CALDED  .IN    : CALIPER FROM DENSITY LOG [DEP ADJ TO GRRED]
CALRED  .IN    : CALIPER FROM RESISTIVITY LOG
CALWS   .IN    : CALIPER [2484 CALICAL 15888 CALRED]
CGRDED  .GAPI  : GAMMA RAY FROM DENSITY LOG [DEP ADJ TO GRRED]
CONDWS  .MMHO  : CONDUCTIVITY [1000/DRESWS]
DCALED  .IN    : DIFFERENTIAL CALIPER FROM DENSITY LOG
DCORWS  .G/C3  : DENSITY CORRECTION [2484 DRHOED 9946 DRHED 15888.5 DRHOED]
DENWS   .G/C3  : BULK DENSITY [M=2.71 F=1.0] [CALCULATED FROM DPOWS]
DPHILSED.V/V   : DENSITY POROSITY [M=2.71 F=1.0] FROM DENSITY LOG [DEP ADJ TO GRRED]
DPOLSED .V/V   : DENSITY POROSITY HIGH RESOLUTION [M=2.71 F=1.0] FROM DENSITY LOG
DPOWS   .V/V   : DENSITY POROSITY [M=2.71 F=1.0] [2484 DPHILSED 9942 DPOLSED 15888 DPHILSED]
DRESWS  .OHMM  : DEEP RESISTIVITY [A2484 AT90ED 9948.5 IDPHED 15892 LLDED]
DRHED   .G/C3  : DENSITY CORRECTION
DRHOED  .G/C3  : DENSITY CORRECTION FROM DENSITY LOG [DEP ADJ TO GRRED]
DTCOED  .US/F  : DELTA TIME COMPRESSIONAL FROM SONIC LOG [DEP ADJ TO GRRED]
DTED    .US/F  : DELTA TIME FROM SONIC LOG
DTLED   .US/F  : DELTA TIME LONG SPACING FROM SONIC LOG
DTLFED  .US/F  : DELTA TIME LONG SPACING FAR DETECTOR FROM SONIC LOG
DTLNED  .US/F  : DELTA TIME LONG SPACING NEAR DETECTOR FROM SONIC LOG
DTSMED  .US/F  : DELTA TIME SHEAR WAVE FROM SONIC LOG [DEP ADJ TO GRRED]
DTSWS   .US/F  : DELTA TIME SHEAR [DTSMED]
DTWS    .US/F  : DELTA TIME [2484 DTLNED 10155.5 DTLFED 10297.5 DTLNED 10506.5 DTLFED 10628.5 DTLNED 10694 DTLFED 10859 DTLNED 11620 DTLFED 13285.5 DTLNED 14723 DTLFED 15057 DTLNED 15798 DTLFED 15889.5 DTED 15912.5 DTCOED]
GRRED   .GAPI  : GAMMA RAY FROM RESISTIVITY LOG
GRSED   .GAPI  : GAMMA RAY FROM SONIC LOG [DEP ADJ TO GRRED]
GRWS    .GAPI  : GAMMA RAY [2484 GRRED 9881.5 GRREDNRM 9946 GRRED 15728.5 GRSEDNRM 15878 CGRDED 16070 GRRED]
IDPHED  .OHMM  : INDUCTION DEEP PHASE RESISTIVITY
IMPHED  .OHMM  : INDUCTION MEDIUM PHASE RESISTIVITY
LLDED   .OHMM  : LATEROLOG DEEP RESISTIVITY
LLSED   .OHMM  : LATEROLOG SHALLOW RESISTIVITY
MRESWS  .OHMM  : MEDIUM RESISTIVITY [2484 AT30ED 9949.5 IMPHED]
NPHILSED.V/V   : NEUTRON POROSITY LIMESTONE FROM DENSITY LOG [DEP ADJ TO GRRED]
NPOWS   .V/V   : NEUTRON POROSITY LIMESTONE [2484 NPHILSED 15780.5 NPHILNRM 15883.5 NPHILSED]
PEFED   .B/E   : PHOTOELECTRIC FACTOR FROM DENSITY LOG
PEFLED  .B/E   : PHOTOELECTRIC FACTOR FROM DENSITY LOG
PEFWS   .B/E   : PHOTOELECTRIC FACTOR [2484 PEFED 9952.5 PEFLED]
RESED   .OHMM  : SYNTHETIC RESISTIVITY
SFLUED  .OHMM  : SPHERICALLY FOCUSED LOG RESISTIVITY
SPHILSED.V/V   : SONIC POROSITY FROM SONIC LOG [DEP ADJ TO GRRED]
SPOWS   .V/V   : SONIC POROSITY [CAL FR DTWS; M= 47.6, F=189]
SPRED   .MV    : SPONTANEOUS POTENTIAL FROM RESISTIVITY LOG [SHIFTS ARE REMOVED]
SPWS    .MV    : SPONTANEOUS POTENTIAL [BASELINE 0 MV] [SPRED]
SRESWS  .OHMM  : SHALLOW RESISTIVITY [2484 AT10ED 9945.5 SFLUED 15891.5 LLSED]
TENDED  .LBF   : TENSION FROM DENSITY LOG [DEP ADJ TO GRRED]
TENRED  .LBF   : TENSION FROM RESISTIVITY LOG
~Params ----------------------------------------------------
PD  .                     GL : PERMANENT DATUM
EPD .FT                  348 : ELEVATION PERMANENT DATUM
LMF .                     KB : LOG MEASURED FROM
DAPD.FT                   28 : FEET ABOVE PERMANENT DATUM
DMF .                     KB : DRILLING MEASURED FROM
EKB .FT                  376 : KELLY BUSHING
EDF .FT                  374 : DRILLING FLOOR
EGL .FT                  348 : GROUND LEVEL
DATE.               11/05/97 : RUN DATE
RUN .                      3 : RUN NUMBER
DD  .FT                18038 : DEPTH DRILLER
DL  .FT                18024 : DEPTH LOGGER
BLI .FT                 1800 : BOTTOM LOG INTERVAL
TLI .FT                15888 : TOP LOG INTERVAL
CS  .IN                7.625 : CASING SIZE
CBD .FT                15888 : CASING BOTTOM DRILLER
CBL .FT                15888 : CASING BOTTOM LOGGER
BS  .IN                    6 : BIT SIZE
BSD .FT                18038 : BIT SIZE AT DEPTH
DFT .                POLYMER : DRILLING FLUID TYPE
DFD .                   18.2 : DRILLING FLUID DENSITY
DFV .                     40 : DRILLING FLUID VISCOSITY
DFPH.                      9 : DRILLING FLUID PH
DFL .                    5.6 : DRILLING FLUID LOSS
MSS .       CIRCULATION TANK : MUD SAMPLE SOURCE
RMS .OHMM               1.14 : RESISTIVITY MUD SAMPLE
MST .DEGF                 90 : MUD SAMPLE TEMPERATURE
RMF .OHMM              0.969 : RESISTIVITY MUD FILTRATE SAMPLE
MFST.DEGF                 90 : MUD FILTRATE SAMPLE TEMPERATURE
RMC .OHMM              1.311 : RESISTIVITY MUD CAKE
MCST.DEGF                 90 : MUD CAKE SAMPLE TEMPERATURE
MFSS.             CALCULATED : MUD FILTRATE SAMPLE SOURCE
MCSS.             CALCULATED : MUD CAKE SAMPLE SOURCE
RMB .OHMM              0.278 : RESISTIVITY MUD AT BHT
TCS .HRS                2200 : TIME CIRCULATED STOPPED
TLAB.HRS                 445 : TIME LOGGER AT BOTTOM
LUN .                   8400 : LOGGING UNIT NUMBER
LUL .                   6450 : LOGGING UNIT LOCATION
ENGI.                SKRBICH : RECORDING ENGINEER
WITN.          BLANKE WEAVER : WITNESSED BY
CLNT.                A2DTECH : CLIENT CODE
ORIG.         1" 2" 5" PRINT : ORIGIN OF DATA
UWI .         42289312660000 : UNIQUE WELL ID
DICO. A2D Technologies, Inc. : DIGITIZING COMPANY
~Other -----------------------------------------------------
~ASCII -----------------------------------------------------
# ...
 8500.00000   14.36550   37.02620   36.67140   48.66930   50.06990    -999.25    -999.25   12.35840    -999.25   19.97210    0.10840    0.01230    2.63170    0.04580    -999.25    0.04580   50.06990    -999.25    0.01230    -999.25    -999.25    -999.25    -999.25    -999.25    -999.25    -999.25    -999.25   24.29470    -999.25   24.29470    -999.25    -999.25    -999.25    -999.25   36.67140    0.02600    0.02600    6.12120    -999.25    6.12120    6.12120    -999.25    -999.25    -999.25  -69.80020  -47.56230   14.36550    -999.25 3338.11180
 8550.00000   29.18260  221.00940  174.21900   90.99810   54.50010    -999.25    -999.25   12.38110    -999.25   18.34860    0.13110    0.00060    2.70760    0.00140    -999.25    0.00140   54.50010    -999.25    0.00060    -999.25    -999.25    -999.25    -999.25    -999.25    -999.25    -999.25    -999.25   17.83800    -999.25   17.83800    -999.25    -999.25    -999.25    -999.25  174.21900    0.00150    0.00150    5.39610    -999.25    5.39610    5.39610    -999.25    -999.25    -999.25  -78.25150  -57.87740   29.18260    -999.25 3388.24760
 8600.00000   10.97030   13.38580    9.70900    7.36470    6.23600    -999.25    -999.25   12.15220    -999.25  160.35920   -0.09780    0.01830    2.58140    0.07520    -999.25    0.07520    6.23600    -999.25    0.01830    -999.25    -999.25    -999.25    -999.25    -999.25    -999.25    -999.25    -999.25   14.75500    -999.25   14.75500    -999.25    -999.25    -999.25    -999.25    9.70900    0.05720    0.05720    6.64310    -999.25    6.64310    6.64310    -999.25    -999.25    -999.25 -116.69800  -98.18780   10.97030    -999.25 3389.92850
 8650.00000   29.31360   99.77180   68.76640   60.52710   57.27450    -999.25    -999.25   12.16510    -999.25   17.45980   -0.08490    0.00990    2.71740   -0.00430    -999.25   -0.00430   57.27450    -999.25    0.00990    -999.25    -999.25    -999.25    -999.25    -999.25    -999.25    -999.25    -999.25   31.33570    -999.25   31.33570    -999.25    -999.25    -999.25    -999.25   68.76640    0.00640    0.00640    5.19590    -999.25    5.19590    5.19590    -999.25    -999.25    -999.25  -52.98680  -36.34050   29.31360    -999.25 3417.69600
 8700.00000   19.28620   59.71500   90.74750  110.86870   90.08150    -999.25    -999.25   12.18710    -999.25   11.10110   -0.06290    0.00340    2.69580    0.00830    -999.25    0.00830   90.08150    -999.25    0.00340    -999.25    -999.25    -999.25    -999.25    -999.25    -999.25    -999.25    -999.25   26.59250    -999.25   26.59250    -999.25    -999.25    -999.25    -999.25   90.74750    0.00540    0.00540    5.63190    -999.25    5.63190    5.63190    -999.25    -999.25    -999.25  -82.99230  -68.20990   19.28620    -999.25 3425.15410
 8750.00000   14.47160   47.28730   44.08140   40.89200   39.49870    -999.25    -999.25   12.16030    -999.25   25.31730   -0.08970    0.01150    2.70790    0.00120    -999.25    0.00120   39.49870    -999.25    0.01150    -999.25    -999.25    -999.25    -999.25    -999.25    -999.25    -999.25    -999.25   34.60760    -999.25   34.60760    -999.25    -999.25    -999.25    -999.25   44.08140    0.01510    0.01510    5.38180    -999.25    5.38180    5.38180    -999.25    -999.25    -999.25  -44.78870  -31.87020   14.47160    -999.25 3404.21510
 8800.00000   11.19020   20.45620   20.10440   18.17930   17.17640    -999.25    -999.25   12.13810    -999.25   58.21940   -0.11190    0.00200    2.68550    0.01430    -999.25    0.01430   17.17640    -999.25    0.00200    -999.25    -999.25    -999.25    -999.25    -999.25    -999.25    -999.25    -999.25   42.42220    -999.25   42.42220    -999.25    -999.25    -999.25    -999.25   20.10440    0.02520    0.02520    5.67320    -999.25    5.67320    5.67320    -999.25    -999.25    -999.25  -46.23090  -35.17620   11.19020    -999.25 3414.57760
 8850.00000    7.90300    9.53630    9.74530   10.30040   11.34540    -999.25    -999.25   12.18630    -999.25   88.14140   -0.06370    0.01400    2.68540    0.01440    -999.25    0.01440   11.34540    -999.25    0.01400    -999.25    -999.25    -999.25    -999.25    -999.25    -999.25    -999.25    -999.25   40.43780    -999.25   40.43780    -999.25    -999.25    -999.25    -999.25    9.74530    0.07220    0.07220    4.90450    -999.25    4.90450    4.90450    -999.25    -999.25    -999.25  -38.20500  -29.01420    7.90300    -999.25 3470.03440
 8900.00000    2.48860    3.81270    3.00490    2.60760    2.54990    -999.25    -999.25   12.64870    -999.25  392.17220    0.39870    0.06450    2.30560    0.23650    -999.25    0.23650    2.54990    -999.25    0.06450    -999.25    -999.25    -999.25    -999.25    -999.25    -999.25    -999.25    -999.25   58.05420    -999.25   58.05420    -999.25    -999.25    -999.25    -999.25    3.00490    0.22960    0.22960    6.10830    -999.25    6.10830    6.10830    -999.25    -999.25    -999.25  -25.71350  -18.38660    2.48860    -999.25 3440.19190
 8950.00000    9.75380   26.12210   19.56870   18.24340   16.77220    -999.25    -999.25   12.21590    -999.25   59.62250   -0.03410    0.00450    2.71720   -0.00420    -999.25   -0.00420   16.77220    -999.25    0.00450    -999.25    -999.25    -999.25    -999.25    -999.25    -999.25    -999.25    -999.25   38.82100    -999.25   38.82100    -999.25    -999.25    -999.25    -999.25   19.56870    0.03120    0.03120    5.37020    -999.25    5.37020    5.37020    -999.25    -999.25    -999.25  -18.91790  -13.45490    9.75380    -999.25 3473.58890
 9000.00000    2.31980    2.39190    2.52300    2.83840    2.94610    -999.25    -999.25   13.96000    -999.25  339.43180    1.71000    0.11790    2.44610    0.15430    -999.25    0.15430    2.94610    -999.25    0.11790    -999.25    -999.25    -999.25    -999.25    -999.25    -999.25    -999.25    -999.25   70.22230    -999.25   70.22230    -999.25    -999.25    -999.25    -999.25    2.52300    0.27090    0.27090    6.11490    -999.25    6.11490    6.11490    -999.25    -999.25    -999.25  -12.97260   -9.37350    2.31980    -999.25 3451.33200
 9050.00000    1.71240    2.42320    2.60560    2.78300    2.84000    -999.25    -999.25   15.99720    -999.25  352.11270    3.74720    0.08490    2.30510    0.23680    -999.25    0.23680    2.84000    -999.25    0.08490    -999.25    -999.25    -999.25    -999.25    -999.25    -999.25    -999.25    -999.25   70.67020    -999.25   70.67020    -999.25    -999.25    -999.25    -999.25    2.60560    0.32230    0.32230    5.87090    -999.25    5.87090    5.87090    -999.25    -999.25    -999.25  -14.93640  -12.02190    1.71240    -999.25 3471.20800
 9100.00000    9.52310   12.01690    8.40460    7.60970    7.17190    -999.25    -999.25   12.29180    -999.25  139.43310    0.04180   -0.00210    2.70010    0.00580    -999.25    0.00580    7.17190    -999.25   -0.00210    -999.25    -999.25    -999.25    -999.25    -999.25    -999.25    -999.25    -999.25   52.34430    -999.25   52.34430    -999.25    -999.25    -999.25    -999.25    8.40460    0.03660    0.03660    5.04110    -999.25    5.04110    5.04110    -999.25    -999.25    -999.25  -13.41740  -11.13840    9.52310    -999.25 3469.61990
 9150.00000    7.06240   11.17250   10.13910    9.05310    9.00580    -999.25    -999.25   12.37000    -999.25  111.03960    0.12000    0.00650    2.68910    0.01220    -999.25    0.01220    9.00580    -999.25    0.00650    -999.25    -999.25    -999.25    -999.25    -999.25    -999.25    -999.25    -999.25   43.17690    -999.25   43.17690    -999.25    -999.25    -999.25    -999.25   10.13910    0.09530    0.09530    5.05850    -999.25    5.05850    5.05850    -999.25    -999.25    -999.25   -9.38980   -7.74630    7.06240    -999.25 3460.92750
 9200.00000    2.14730    3.34340    2.83540    2.57810    2.26720    -999.25    -999.25   13.40260    -999.25  441.07270    1.15260    0.02710    2.29940    0.24010    -999.25    0.24010    2.26720    -999.25    0.02710    -999.25    -999.25    -999.25    -999.25    -999.25    -999.25    -999.25    -999.25   52.05400    -999.25   52.05400    -999.25    -999.25    -999.25    -999.25    2.83540    0.19000    0.19000    6.03050    -999.25    6.03050    6.03050    -999.25    -999.25    -999.25   -5.90290   -4.51840    2.14730    -999.25 3482.99760
