~Version ---------------------------------------------------
VERS. 2.0 : CWLS log ASCII Standard -VERSION 2.0
WRAP.  NO : ONE LINE PER DEPTH STEP
~Well ------------------------------------------------------
STRT.F                    1650.0 : START DEPTH
STOP.F                    8150.0 : STOP DEPTH
STEP.F                  50.00000 : STEP LENGTH
NULL.                    -999.25 : NULL VALUE
COMP. CHAMPLIN PETROLEUM COMPANY : COMPANY
WELL. STEDMAN RANCH BETTY ANN #1 : WELL
FLD .                    WILDCAT : FIELD
LOC .                            : LOCATION
CNTY.                     DIMMIT : COUNTY
STAT.                      TEXAS : STATE
CTRY.   UNITED STATES OF AMERICA : COUNTRY
SRVC.               Schlumberger : SERVICE COMPANY
DATE.                02-May-1978 : LOGDATE
API .             42127316900000 : API NUMBER
UWI .             42127316900000 : UNIQUE WELL ID
SLAT.WGS84         28.2409522221 : SURFACE LATITUDE
SLON.WGS84        -99.9298835912 : SURFACE LONGITUDE
~Curve Information -----------------------------------------
DEPT.F                 : 
CALD.IN   45 280 60 00 : CALIPER FDC LOG
GRD .GAPI 45 310 01 00 : GAMMA RAY FROM DENSITY LOG
CORR.G/C3 45 356 01 00 : DENSITY CORRECTION
RHOB.G/C3 45 350 01 00 : BULK DENSITY
NPHI.DEC  42 890 03 00 : NEUTRON POROSITY SANDSTONE(1606-5820) LIMESTONE (5820-8152)
DPHI.DEC  45 890 12 00 : DENSITY POROSITY SANDSTONE(1612-5836) LIMESTONE (5836-8167)
SPR .MV   07 010 01 00 : SPONTANEOUS POTENTIAL FROM RES.
DT  .US/F 60 520 00 00 : INTERVAL TRANSIT TIME
LL8 .OHMM 07 220 08 00 : LATEROLOG-8 RES.
ILD .OHMM 07 120 46 00 : INDUCTION LOG DEEP
ILM .OHMM 07 120 44 00 : INDUCTION LOG MEDIUM
~Params ----------------------------------------------------
PD  .                     GL : PERMANENT DATUM
EPD .FT                  821 : ELEVATION PERMANENT DATUM
LMF .                     KB : LOG MEASURED FROM
DAPD.FT                  9.7 : FEET ABOVE PERMANENT DATUM
DMF .                     KB : DRILLING MEASURED FROM
EKB .FT                830.7 : KELLY BUSHING
EDF .FT                829.7 : DRILLING FLOOR
EGL .FT                821.0 : GROUND LEVEL
DATE.               05/02/78 : RUN DATE
RUN .                      1 : RUN NUMBER
DD  .FT                 8186 : DEPTH DRILLER
DL  .FT                 8167 : DEPTH LOGGER
BLI .FT                 8166 : BOTTOM LOG INTERVAL
TLI .FT                 1612 : TOP LOG INTERVAL
CS  .IN                8.625 : CASING SIZE
CBD .FT                 1610 : CASING BOTTOM DRILLER
CBL .FT                 1612 : CASING BOTTOM LOGGER
BS  .IN                7.875 : BIT SIZE
BSD .FT                 8186 : BIT SIZE AT DEPTH
DFT .   SPER GEL  SALT WATER : DRILLING FLUID TYPE
DFD .                    9.5 : DRILLING FLUID DENSITY
DFV .                     45 : DRILLING FLUID VISCOSITY
DFPH.                    8.5 : DRILLING FLUID PH
MSS .               FLOWLINE : MUD SAMPLE SOURCE
RMS .OHMM              0.456 : RESISTIVITY MUD SAMPLE
MST .FT                   86 : MUD SAMPLE TEMPERATURE
RMF .OHMM                378 : RESISTIVITY MUD FILTRATE SAMPLE
MFST.FT                   86 : MUD FILTRATE SAMPLE TEMPERATURE
RMC .OHMM               0.41 : RESISTIVITY MUD CAKE
MCST.FT                   86 : MUD CAKE SAMPLE TEMPERATURE
MFSS.                      M : MUD FILTRATE SAMPLE SOURCE
MCSS.                      C : MUD CAKE SAMPLE SOURCE
RMB .OHMM               0.24 : RESISTIVITY MUD AT BHT
TCS .HRS                 100 : TIME CURCULATED STOPPED
TLAB.HRS                 700 : TIME LOGGER AT BOTTOM
LUN .                   7769 : LOGGING UNIT NUMBER
LUL .                 LAREDO : LOGGING UNIT LOCATION
ENGI.                  FOGAL : RECORDING ENGINEER
WITN.                 PONDER : WITNESSED BY
CLNT.                A2DTECH : CLIENT CODE
ORIG.               5" PRINT : ORIGIN OF DATA
UWI .         42127316900000 : UNIQUE WELL ID
DICO. A2D Technologies, Inc. : DIGITIZING COMPANY
~Other -----------------------------------------------------
~ASCII -----------------------------------------------------
 1650.00000    9.72940   59.54650    0.07750    2.31410    0.34850    0.22730  -30.55510   94.39620    5.39090    5.15890    4.92050
 1700.00000    9.80330   85.18110    0.06270    2.43450    0.32840    0.16950  -26.59360   91.82700    6.05540    5.36050    4.77860
 1750.00000    9.06590   74.27300    0.08550    2.38120    0.31540    0.18310  -26.59360   89.87640    5.97420    5.73170    6.11110
 1800.00000    8.89790   51.07120    0.06330    2.26660    0.31100    0.24720  -22.09470   89.89530    4.94430    4.55910    4.72920
 1850.00000    8.66040   53.31710    0.04920    2.28050    0.32060    0.23010  -19.65210   91.19170    5.32690    4.67020    4.93450
 1900.00000    8.39360   59.60960    0.07210    2.28050    0.32010    0.22770  -21.61160   89.21340    4.89350    4.61190    5.11100
 1950.00000    9.49890   95.08880    0.00120    2.42350    0.30390    0.14320  -30.07450   85.22950    7.42960    7.23740    6.85120
 2000.00000   10.60410   97.33260    0.01740    2.45930    0.36360    0.13120  -29.58170   91.67470    7.40210    6.51070    6.12460
 2050.00000   14.59850  102.54220    0.14370    2.35980    0.32370    0.18690  -29.94640   90.16570    4.90560    4.58810    4.28220
 2100.00000   13.98010  101.41260    0.09490    2.25990    0.33370    0.21770  -28.69890   94.14180    3.79070    3.59340    3.34100
 2150.00000   11.23110  100.71210    0.22270    2.29600    0.35600    0.18530  -28.57540   95.23360    4.04760    3.83120    3.50400
 2200.00000   12.56750   74.25600    0.18590    2.14050    0.33750    0.30120  -28.25530   89.44250    4.80540    4.24970    3.75270
 2250.00000   13.66640   86.72750    0.19750    2.08570    0.35170    0.28450  -27.97980   84.83410    6.82080    4.97760    4.55070
 2300.00000   12.08840   95.98210    0.17690    2.24080    0.29740    0.22480  -27.42990   96.61390    2.91110    3.09020    3.01960
 2350.00000   15.81150   99.91370    0.15950    1.99650    0.38980    0.41170  -26.88600  110.27230    2.33680    2.18470    1.85360
 2400.00000   10.95040   75.88810    0.04680    2.53630    0.24640    0.07800  -28.41560   91.21760    4.64810    4.64200    4.12240
 2450.00000    9.77450   46.98660    0.03680    2.43000    0.20590    0.13560  -41.53390   74.21820   10.29820    9.65890    8.68120
 2500.00000   10.97020   41.51790    0.02710    2.56260    0.16940    0.07460  -33.16730   74.64090   10.19220    9.99570    9.23730
 2550.00000   10.44030   43.05120    0.02980    2.56800    0.11520    0.06070  -35.68930   69.45580   14.32370   13.60110   13.64840
 2600.00000   10.43650   64.43450    0.02780    2.59240    0.19600    0.05730  -28.88190   75.24000    9.29660    8.58920    8.11670
 2650.00000    9.81260   53.79700    0.03710    2.37390    0.22250    0.18110  -33.26340   77.54370    7.79080    7.33910    7.07520
 2700.00000   10.43370   66.81730    0.02760    2.58040    0.19790    0.05290  -28.19200   74.65070   17.00560   10.16020   11.28550
 2750.00000    9.73870   59.21270    0.01300    2.58340    0.16140    0.06020  -29.20240   75.62880    9.17370    9.25230    8.32480
 2800.00000    9.43470   43.66620    0.00780    2.53020    0.19610    0.07220  -33.43680   85.43160    6.75860    5.83770    7.01070
 2850.00000   10.56100   71.09660    0.01010    2.60230    0.20970    0.04160  -28.44170   81.52640    6.78030    5.88800    6.33760
 2900.00000   10.83140   76.33930    0.01190    2.62100    0.22420    0.03340  -28.98740   78.87260    7.55760    7.03320    6.66890
 2950.00000   10.10700   72.26360    0.02460    2.62220    0.22560    0.02250  -31.64460   78.25120    7.94680    6.19030    5.83470
 3000.00000    9.57860   65.44030    0.01690    2.58920    0.21940    0.06620  -29.14960   79.93980    8.34270    6.87150    7.03440
 3050.00000    9.97690   79.01790    0.01790    2.58610    0.21260    0.04690  -28.49470   76.86120    8.61440    8.04110    7.39760
 3100.00000   10.25830   75.63240    0.02560    2.58800    0.23320    0.06260  -28.71490   80.38900    7.01590    6.30660    6.08850
 3150.00000   12.11920   81.71770    0.18790    2.27260    0.32110    0.26560  -28.12900   81.03790    6.64470    5.27840    4.65200
 3200.00000   13.41070   78.72020    0.12820    2.02310    0.34670    0.36560  -28.14300   91.01800    3.94710    3.90200    3.72740
 3250.00000   11.74410   78.27300    0.24650    2.28130    0.30030    0.26920  -29.09630   88.42310    4.33160    4.06690    4.18420
 3300.00000    7.67660   78.51900    0.05310    2.40470    0.28970    0.22780  -28.79730   81.15340    7.14030    5.13540    4.95070
 3350.00000   14.38290   77.27470    0.17400    2.08300    0.34460    0.36080  -27.96500   90.68820    4.04760    3.33960    3.21950
 3400.00000   12.99410   85.54070    0.19340    2.21020    0.33900    0.26930  -27.96730   93.21360    3.78600    3.49130    2.96490
 3450.00000   10.99100   81.77920    0.12230    2.40740    0.28190    0.19500  -28.29040   93.41320    4.31550    4.29030    4.20490
 3500.00000    9.88890   71.32510    0.02500    2.56950    0.20410    0.11950  -27.69670   84.03910    6.00020    6.47290    4.23720
 3550.00000   10.07760   68.00600    0.20580    2.60030    0.22580    0.05290  -27.24930   81.76500    6.02780    5.55470    5.82180
 3600.00000   10.61940   76.05150    0.03390    2.48190    0.26070    0.13080  -26.97590   83.14170    6.16730    4.99630    5.24030
 3650.00000   12.79560   82.81210    0.21690    2.20280    0.35300    0.25160  -27.58960   88.82240    5.19450    4.31550    4.25810
 3700.00000   12.73610   83.15900    0.16000    2.25270    0.30740    0.23290  -27.98810   81.76120    6.25230    5.89130    5.67950
 3750.00000   11.21640  110.78090    0.17590    2.34410    0.34590    0.21350  -27.90530   90.51900    4.05590    3.52550    3.97410
 3800.00000   10.63290   65.62500    0.01340    2.53770    0.18410    0.08110  -28.90670   74.87880    7.09800    8.01720    7.26480
 3850.00000    8.85710   58.40230    0.12160    2.45630    0.21710    0.13970  -38.86010   67.96320   29.75800   13.57600   13.08780
 3900.00000    8.09820   29.53360    0.07850    2.42160    0.18410    0.15100  -58.81540   71.15740   12.06260    7.82480   10.24080
 3950.00000    9.72210   47.76790    0.04870    2.42760    0.19610    0.15840  -30.90100   79.03690    8.27620    6.11110    6.89080
 4000.00000   10.89090   77.89770    0.21470    2.13360    0.33440    0.26840  -26.94950   76.79270    8.04270    4.72920    5.13540
 4050.00000    9.77980  106.69640    0.08350    2.00050    0.38410    0.28410  -25.11510   99.20950    4.07530    3.57750    3.61590
 4100.00000   14.74010   81.48630    0.11240    2.00350    0.42300    0.46030  -25.16790  125.32150    3.55120    3.29400    3.16030
 4150.00000   10.25590   68.60120    0.10250    2.22280    0.25930    0.20930  -27.01200   78.24350   10.43920    8.24280    9.27350
 4200.00000    8.81530   70.08930    0.01270    2.54570    0.22430    0.10510  -35.89040   72.07250   10.79660    7.14030    7.75350
 4250.00000    8.12060   34.33340    0.09520    2.44540    0.21930    0.14880  -51.91670   49.50100    6.57550    5.13230    6.02780
 4300.00000    8.79660   63.02290   -0.00310    2.51690    0.22740    0.10480  -34.10180   75.35810    6.95430    6.05540    6.60640
 4350.00000   13.38180   83.78270    0.08050    1.73640    0.39250    0.52760  -24.75230   98.38560    3.35390    3.04740    2.58440
 4400.00000   11.02500  137.95160    0.05190    2.49230    0.25670    0.12250  -26.09730   82.90200    6.85850    6.35270    6.10150
 4450.00000   15.92190   83.29410    0.08740    1.86370    0.39180    0.49070  -25.34310  101.20910    2.76490    2.69300    2.53260
 4500.00000    9.49220   61.77430    0.03690    2.31630    0.22070    0.16380  -26.21990   78.03920    7.47470    7.80410   12.03240
 4550.00000   12.51740   79.39770    0.16370    2.06730    0.39550    0.36250  -23.15740   96.97340    3.50030    3.26400    3.08960
 4600.00000    9.48210   82.03980    0.14600    2.44040    0.24540    0.14810  -22.80880   81.98060    6.05540    5.58220    5.26130
 4650.00000   10.75170   77.58910    0.18090    2.36000    0.26060    0.16280  -21.83010   76.04790    8.26670    5.52270    5.20040
