~Version ---------------------------------------------------
VERS. 2.0 : CWLS log ASCII Standard -VERSION 2.0
WRAP. YES : Multiple lines per depth step
~Well ------------------------------------------------------
STRT.FT                   2500.0 : START DEPTH
STOP.FT                  17250.0 : STOP DEPTH
STEP.FT                 50.00000 : STEP LENGTH
NULL.                    -999.25 : NULL VALUE
COMP. CHAMPLIN PETROLEUM COMPANY : COMPANY
WELL.    FRIAR RANCH GAS UNIT #1 : WELL
FLD .                    WILDCAT : FIELD
LOC .                            : LOCATION
CNTY.                    DE WITT : COUNTY
STAT.                      TEXAS : STATE
CTRY.   UNITED STATES OF AMERICA : COUNTRY
SRVC.                    Unknown : SERVICE COMPANY
DATE.                27-Nov-1979 : LOGDATE
API .             42123309830000 : API NUMBER
UWI .             42123309830000 : UNIQUE WELL ID
SLAT.WGS84           29.12059862 : SURFACE LATITUDE
SLON.WGS84          -97.21043026 : SURFACE LONGITUDE
~Curve Information -----------------------------------------
DEPT    .FT    : DEPTH FEET
ACED    .US/F  : DELTA TIME (ACOUSTIC) FROM SONIC LOG [DEP ADJ TO DTED]
CALDED  .IN    : CALIPER FROM DENSITY LOG [DEP ADJ TO GRRED]
CALRED  .IN    : CALIPER FROM RESISTIVITY LOG
CALWS   .IN    : CALIPER [CALDED]
CONDWS  .MMHO  : CONDUCTIVITY [1000/DRESWS]
CORRED  .G/C3  : DENSITY CORRECTION FROM DENSITY LOG
DCORWS  .G/C3  : DENSITY CORRECTION [CORRED]
DENWS   .G/C3  : BULK DENSITY [M=2.71 F=1.0] [RHOBED]
DPHILSED.V/V   : DENSITY POROSITY [M=2.71 F=1.0] FROM DENSITY LOG [DEP ADJ TO GRRED]
DPHISSED.V/V   : DENSITY POROSITY [M=2.65 F=1.0][7100-10800F M=2.68] FROM DENSITY LOG
DPOLSWS .V/V   : DENSITY POROSITY [M=2.71 F=1.0] [CAL FR DENWS]
DRESWS  .OHMM  : DEEP RESISTIVITY [ILDED]
DTED    .US/F  : DELTA TIME FROM SONIC LOG
DTWS    .US/F  : DELTA TIME [2490 DTED 15878 ACED]
GRDED   .GAPI  : GAMMA RAY FROM DENSITY LOG [DEP ADJ TO GRRED]
GRRED   .GAPI  : GAMMA RAY FROM RESISTIVITY LOG
GRWS    .GAPI  : GAMMA RAY [2490 GRDED 17231 GRRED]
ILDED   .OHMM  : INDUCTION LOG DEEP RESISTIVITY
ILMED   .OHMM  : INDUCTION LOG MEDIUM RESISTIVITY
MRESWS  .OHMM  : MEDIUM RESISTIVITY [ILMED]
NPHILSED.V/V   : NEUTRON POROSITY LIMESTONE FROM DENSITY LOG [DEP ADJ TO GRRED]
NPHISSED.V/V   : NEUTRON POROSITY SANDSTONE FROM DENSITY LOG
NPOLSWS .V/V   : NEUTRON POROSITY LIMESTONE [2490 NPOLSCAL 14943 NPHILSED] [NPHISSED WAS CONVERTED TO NPOLSCAL USING POWERLOG MODULE]
RHOBED  .G/C3  : BULK DENSITY FROM DENSITY LOG [DEP ADJ TO GRRED]
SFLED   .OHMM  : SPHERICALLY FOCUSED LOG RESISTIVITY
SPHILSED.V/V   : SONIC POROSITY FROM SONIC LOG [DEP ADJ TO DTED] [LIMESTONE M=47.5, F=189]
SPOWS   .V/V   : SONIC POROSITY [CAL FR DTWS] [LIMESTONE M=47.5, F=189]
SPRED   .MV    : SPONTANEOUS POTENTIAL FROM RESISTIVITY LOG [SHIFTS ARE REMOVED]
SPWS    .MV    : SPONTANEOUS POTENTIAL [BASELINE 0 MV] [SPRED]
SRESWS  .OHMM  : SHALLOW RESISTIVITY [SFLED]
~Params ----------------------------------------------------
PD  .                     GL : PERMANENT DATUM
EPD .FT                223.8 : ELEVATION PERMANENT DATUM
LMF .                     KB : LOG MEASURED FROM
DAPD.FT                   26 : FEET ABOVE PERMANENT DATUM
DMF .                     KB : DRILLING MEASURED FROM
EKB .FT                249.8 : KELLY BUSHING
EDF .FT                248.8 : DRILLING FLOOR
EGL .FT                223.8 : GROUND LEVEL
DATE.               11/27/79 : RUN DATE
RUN .                      1 : RUN NUMBER
DD  .FT                17252 : DEPTH DRILLER
DL  .FT                17259 : DEPTH LOGGER
BLI .FT                17258 : BOTTOM LOG INTERVAL
TLI .FT                15013 : TOP LOG INTERVAL
CS  .IN                    7 : CASING SIZE
CBD .FT                15015 : CASING BOTTOM DRILLER
CBL .FT                15018 : CASING BOTTOM LOGGER
BS  .IN                5.875 : BIT SIZE
BSD .FT                17252 : BIT SIZE AT DEPTH
DFT .               OIL FAZE : DRILLING FLUID TYPE
DFD .                   12.8 : DRILLING FLUID DENSITY
DFV .                     45 : DRILLING FLUID VISCOSITY
DFL .                   13.6 : DRILLING FLUID LOSS
TCS .HRS                 545 : TIME CIRCULATED STOPPED
TLAB.HRS                1500 : TIME LOGGER AT BOTTOM
LUN .                   8011 : LOGGING UNIT NUMBER
LUL .                   VICT : LOGGING UNIT LOCATION
ENGI.                   SHEA : RECORDING ENGINEER
WITN.            BLANKENSHIP : WITNESSED BY
CLNT.                A2DTECH : CLIENT CODE
ORIG.            1" 5" PRINT : ORIGIN OF DATA
UWI .         42123309830000 : UNIQUE WELL ID
DICO. A2D Technologies, Inc. : DIGITIZING COMPANY
~Other -----------------------------------------------------
~ASCII -----------------------------------------------------
 2500.00000    -999.25    -999.25    -999.25    -999.25    -999.25    -999.25    -999.25    -999.25    -999.25    -999.25    -999.25    -999.25    -999.25    -999.25   45.59130    -999.25    -999.25    -999.25    -999.25    -999.25    -999.25    0.59040    -999.25    -999.25    -999.25    -999.25    -999.25    -999.25    -999.25    -999.25
 2550.00000    -999.25   16.62650    -999.25   16.62650  605.69350    0.01460    0.01460    2.11090    -999.25    0.32860    0.35040    1.65100  119.23550  119.23550   95.85320    -999.25   95.85320    1.65100    1.47170    1.47170    -999.25    0.37200    0.32860    2.11090    1.54050    -999.25    0.50700  -23.86720   -1.40600    1.54050
 2600.00000    -999.25   18.32110    -999.25   18.32110  630.04030    0.01420    0.01420    2.07480    -999.25    0.35160    0.37150    1.58720  124.38440  124.38440   90.49430    -999.25   90.49430    1.58720    1.48520    1.48520    -999.25    0.36350    0.32000    2.07480    1.43940    -999.25    0.54340  -26.46380   -4.26390    1.43940
 2650.00000    -999.25   17.95900    -999.25   17.95900  580.34940    0.03830    0.03830    2.13890    -999.25    0.30860    0.33400    1.72310  119.61720  119.61720   71.23340    -999.25   71.23340    1.72310    1.63560    1.63560    -999.25    0.26220    0.21820    2.13890    1.56850    -999.25    0.50970  -39.21230  -17.27370    1.56850
 2700.00000    -999.25   19.47990    -999.25   19.47990  627.27390    0.01890    0.01890    2.15700    -999.25    0.30080    0.32340    1.59420  116.75040  116.75040   86.69680    -999.25   86.69680    1.59420    1.51460    1.51460    -999.25    0.36270    0.31920    2.15700    1.50580    -999.25    0.48940  -29.27740   -7.60010    1.50580
 2750.00000    -999.25   19.44410    -999.25   19.44410  403.42100    0.01670    0.01670    2.14970    -999.25    0.30140    0.32770    2.47880  107.25330  107.25330   68.41450    -999.25   68.41450    2.47880    2.28380    2.28380    -999.25    0.28080    0.23680    2.14970    1.98700    -999.25    0.42230  -26.40000   -4.98390    1.98700
 2800.00000    -999.25   19.12180    -999.25   19.12180  621.07940    0.00280    0.00280    2.04090    -999.25    0.36990    0.39130    1.61010  119.94550  119.94550  124.44850    -999.25  124.44850    1.61010    1.52260    1.52260    -999.25    0.41270    0.37010    2.04090    1.42070    -999.25    0.51200  -23.97820   -2.82340    1.42070
 2850.00000    -999.25   18.13260    -999.25   18.13260  925.75450    0.02510    0.02510    2.09050    -999.25    0.34120    0.36230    1.08020  128.26690  128.26690  125.09070    -999.25  125.09070    1.08020    1.04570    1.04570    -999.25    0.46190    0.42020    2.09050    1.03260    -999.25    0.57080  -22.73820   -1.84470    1.03260
 2900.00000    -999.25   17.08630    -999.25   17.08630  605.47340   -0.00380   -0.00380    2.19510    -999.25    0.28280    0.30110    1.65160  102.97430  102.97430   80.80810    -999.25   80.80810    1.65160    1.54730    1.54730    -999.25    0.36950    0.32610    2.19510    1.47080    -999.25    0.39200  -30.88120  -10.25570    1.47080
 2950.00000    -999.25   15.33260    -999.25   15.33260  727.21980    0.02500    0.02500    2.13260    -999.25    0.31370    0.33770    1.37510  138.92640  138.92640   68.88710    -999.25   68.88710    1.37510    1.68310    1.68310    -999.25    0.29410    0.25010    2.13260    2.29410    -999.25    0.64610  -72.23190  -51.94210    2.29410
 3000.00000    -999.25   14.20610    -999.25   14.20610  777.48400    0.02430    0.02430    2.14190    -999.25    0.31150    0.33220    1.28620  121.90420  121.90420   63.96890    -999.25   63.96890    1.28620    1.71620    1.71620    -999.25    0.36040    0.31690    2.14190    2.17400    -999.25    0.52580  -67.44090  -47.48690    2.17400
 3050.00000    -999.25   15.64160    -999.25   15.64160  796.36860    0.01730    0.01730    2.19240    -999.25    0.27860    0.30270    1.25570  118.83050  118.83050   68.34990    -999.25   68.34990    1.25570    1.33290    1.33290    -999.25    0.41460    0.37200    2.19240    1.37560    -999.25    0.50410  -28.46220   -8.84400    1.37560
 3100.00000    -999.25   16.97480    -999.25   16.97480  707.91450    0.02730    0.02730    2.23820    -999.25    0.25360    0.27590    1.41260  114.77650  114.77650   80.82860    -999.25   80.82860    1.41260    1.58370    1.58370    -999.25    0.35990    0.31640    2.23820    1.76920    -999.25    0.47550  -24.61820   -5.33570    1.76920
 3150.00000    -999.25   18.31180    -999.25   18.31180 1002.30530    0.00120    0.00120    2.04780    -999.25    0.36670    0.38730    0.99770  137.13330  137.13330  104.57990    -999.25  104.57990    0.99770    0.91550    0.91550    -999.25    0.44500    0.40320    2.04780    0.85720    -999.25    0.63350  -20.39650   -1.44980    0.85720
 3200.00000    -999.25   17.71030    -999.25   17.71030  871.99160    0.01870    0.01870    2.20460    -999.25    0.27070    0.29560    1.14680  131.44910  131.44910   84.73620    -999.25   84.73620    1.14680    1.17830    1.17830    -999.25    0.37690    0.33360    2.20460    1.06010    -999.25    0.59330  -23.87640   -5.26540    1.06010
 3250.00000    -999.25   17.84540    -999.25   17.84540 1223.84050    0.00240    0.00240    2.12330    -999.25    0.31800    0.34310    0.81710  162.53240  162.53240  146.58000    -999.25  146.58000    0.81710    0.75580    0.75580    -999.25    0.49360    0.45190    2.12330    0.82600    -999.25    0.81290  -19.89340   -1.51120    0.82600
 3300.00000    -999.25   18.87790    -999.25   18.87790 1314.40590    0.01320    0.01320    2.13030    -999.25    0.31580    0.33900    0.76080  155.20580  155.20580  164.97780    -999.25  164.97780    0.76080    0.73470    0.73470    -999.25    0.47550    0.43380    2.13030    0.82730    -999.25    0.76120  -19.89250   -1.66170    0.82730
 3350.00000    -999.25   19.05630    -999.25   19.05630  895.09480    0.01410    0.01410    2.24610    -999.25    0.24520    0.27130    1.11720  142.48090  142.48090   98.56390    -999.25   98.56390    1.11720    1.07350    1.07350    -999.25    0.37560    0.33230    2.24610    1.25540    -999.25    0.67120  -22.21390   -4.13450    1.25540
 3400.00000    -999.25   19.28340    -999.25   19.28340  673.85450    0.02560    0.02560    2.15260    -999.25    0.30310    0.32600    1.48400  116.52160  116.52160   95.80750    -999.25   95.80750    1.48400    1.45030    1.45030    -999.25    0.32080    0.27690    2.15260    1.56100    -999.25    0.48780  -27.35990   -9.43190    1.56100
 3450.00000    -999.25   15.88750    -999.25   15.88750 1162.79060    0.00590    0.00590    2.13780    -999.25    0.31100    0.33460    0.86000  155.64390  155.64390  103.06140    -999.25  103.06140    0.86000    0.82270    0.82270    -999.25    0.45180    0.41010    2.13780    0.96670    -999.25    0.76430  -20.63360   -2.83200    0.96670
 3500.00000    -999.25   15.12610    -999.25   15.12610  999.50030    0.01570    0.01570    2.17860    -999.25    0.28310    0.31080    1.00050  146.79330  146.79330  109.36860    -999.25  109.36860    1.00050    0.96950    0.96950    -999.25    0.43620    0.39410    2.17860    1.05610    -999.25    0.70170  -20.60190   -2.92600    1.05610
 3550.00000    -999.25   15.66480    -999.25   15.66480  854.48180    0.02300    0.02300    2.24930    -999.25    0.24380    0.26940    1.17030  124.44060  124.44060   97.62500    -999.25   97.62500    1.17030    1.09870    1.09870    -999.25    0.36040    0.31690    2.24930    1.24860    -999.25    0.54370  -21.28640   -3.73620    1.24860
 3600.00000    -999.25   15.85010    -999.25   15.85010 1213.59230    0.03360    0.03360    2.19370    -999.25    0.27660    0.30190    0.82400  143.81900  143.81900  102.72540    -999.25  102.72540    0.82400    0.81990    0.81990    -999.25    0.49300    0.45130    2.19370    0.91300    -999.25    0.68070  -20.68630   -3.26170    0.91300
 3650.00000    -999.25   16.03650    -999.25   16.03650 1315.09730    0.01550    0.01550    2.15340    -999.25    0.30220    0.32550    0.76040  152.42020  152.42020   94.01890    -999.25   94.01890    0.76040    0.73460    0.73460    -999.25    0.47080    0.42910    2.15340    0.81850    -999.25    0.74150  -20.17130   -2.87240    0.81850
