~Version ---------------------------------------------------
VERS. 2.0 : CWLS log ASCII Standard -VERSION 2.0
WRAP.  NO : ONE LINE PER DEPTH STEP
~Well ------------------------------------------------------
STRT.F                   300.0 : START DEPTH
STOP.F                 14600.0 : STOP DEPTH
STEP.F                50.00000 : STEP LENGTH
NULL.                  -999.25 : NULL VALUE
COMP.        SHELL OIL COMPANY : COMPANY
WELL. E D HAY ETAL GAS UNIT #1 : WELL
FLD .              BUCHEL AREA : FIELD
LOC .                          : LOCATION
CNTY.                  DE WITT : COUNTY
STAT.                    TEXAS : STATE
CTRY. UNITED STATES OF AMERICA : COUNTRY
SRVC.             Schlumberger : SERVICE COMPANY
DATE.              26-Dec-1976 : LOGDATE
API .           42123303590000 : API NUMBER
UWI .           42123303590000 : UNIQUE WELL ID
SLAT.WGS84       29.0604728181 : SURFACE LATITUDE
SLON.WGS84        -97.48437084 : SURFACE LONGITUDE
~Curve Information -----------------------------------------
DEPT.F                 : 
DT  .US/F 60 500 00 00 : DELTA-T (INTERVAL TRANSIT TIME)
GRD .GAPI 45 310 01 00 : GAMMA RAY FROM DENSITY LOG
CORR.G/C3 45 356 01 00 : DENSITY CORRECTION
CALD.IN   45 280 60 00 : CALIPER FROM DENSITY LOG
RHOB.G/C3 45 350 01 00 : BULK DENSITY
ILD .OHMM 07 120 46 00 : INDUCTION DEEP RESISTIVITY
ILM .OHMM 07 120 44 00 : INDUCTION MEDIUM RESISTIVITY
LL8 .OHMM 07 220 08 00 : LATEROLOG 8
SPR .MV   07 010 01 00 : SPONTANEOUS POTENTIAL FROM RESISTIVITY LOG
~Params ----------------------------------------------------
PD  .                     GL : PERMANENT DATUM
EPD .FT                  372 : ELEVATION PERMANENT DATUM
LMF .                     KB : LOG MEASURED FROM
DAPD.FT                   28 : FEET ABOVE PERMANENT DATUM
DMF .                     KB : DRILLING MEASURED FROM
EKB .FT                  400 : KELLY BUSHING
EDF .FT                  399 : DRILLING FLOOR
EGL .FT                  372 : GROUND LEVEL
DATE.               12/26/76 : RUN DATE
RUN .                      2 : RUN NUMBER
DD  .FT                14600 : DEPTH DRILLER
DL  .FT                14609 : DEPTH LOGGER
BLI .FT                14603 : BOTTOM LOG INTERVAL
TLI .FT                 2336 : TOP LOG INTERVAL
CS  .IN                10.75 : CASING SIZE
CBD .FT                 2332 : CASING BOTTOM DRILLER
CBL .FT                 2336 : CASING BOTTOM LOGGER
BS  .IN                 8.75 : BIT SIZE
BSD .FT                14600 : BIT SIZE AT DEPTH
DFT .             IMCO GELEX : DRILLING FLUID TYPE
DFD .                   10.5 : DRILLING FLUID DENSITY
DFV .                     38 : DRILLING FLUID VISCOSITY
DFPH.                      9 : DRILLING FLUID PH
DFL .                      6 : DRILLING FLUID LOSS
MSS .               CIRC PIT : MUD SAMPLE SOURCE
RMS .OHMM               2.13 : RESISTIVITY MUD SAMPLE
MST .DEGF                 73 : MUD SAMPLE TEMPERATURE
RMF .OHMM               1.53 : RESISTIVITY MUD FILTRATE SAMPLE
MFST.DEGF                 75 : MUD FILTRATE SAMPLE TEMPERATURE
RMC .OHMM               3.19 : RESISTIVITY MUD CAKE
MCST.DEGF                 73 : MUD CAKE SAMPLE TEMPERATURE
MFSS.                      M : MUD FILTRATE SAMPLE SOURCE
MCSS.                      C : MUD CAKE SAMPLE SOURCE
RMB .OHMM               0.58 : RESISTIVITY MUD AT BHT
TCS .HRS                   5 : TIME CIRCULATED STOPPED
TLAB.HRS                1200 : TIME LOGGER AT BOTTOM
LUN .                   7685 : LOGGING UNIT NUMBER
LUL .                   VICT : LOGGING UNIT LOCATION
CLNT.                A2DTECH : CLIENT CODE
ORIG.            2" 5" PRINT : ORIGIN OF DATA
UWI .         42123303590000 : UNIQUE WELL ID
DICO. A2D Technologies, Inc. : DIGITIZING COMPANY
~Other -----------------------------------------------------
~ASCII -----------------------------------------------------
  300.00000    -999.25   31.44790    -999.25    -999.25    -999.25    4.39040    3.80230    5.04420  -33.61020
  350.00000    -999.25   31.09780    -999.25    -999.25    -999.25    8.87480    8.14660   10.11870  -32.17960
  400.00000    -999.25   33.88590    -999.25    -999.25    -999.25    3.94430    3.72420    4.55790  -35.25960
  450.00000    -999.25   34.17480    -999.25    -999.25    -999.25    3.61600    3.40190    4.26110  -35.76070
  500.00000    -999.25   34.00730    -999.25    -999.25    -999.25    5.28250    4.67620    5.56940  -30.44740
  550.00000    -999.25   29.92170    -999.25    -999.25    -999.25    8.79380    6.89130    8.30450  -37.54850
  600.00000    -999.25   42.49410    -999.25    -999.25    -999.25    2.89310    2.82370    3.55220  -32.97880
  650.00000    -999.25   37.76120    -999.25    -999.25    -999.25    2.76560    2.65380    3.50650  -36.75770
  700.00000    -999.25   44.45090    -999.25    -999.25    -999.25    4.16110    4.03350    4.80060  -30.38250
  750.00000    -999.25   30.64160    -999.25    -999.25    -999.25   13.28410   10.21600   11.84100  -40.32260
  800.00000    -999.25   33.11900    -999.25    -999.25    -999.25   24.73420   19.64710   23.80850  -40.10730
  850.00000    -999.25   41.10970    -999.25    -999.25    -999.25    3.35440    3.09480    3.98480  -33.98400
  900.00000    -999.25   43.50460    -999.25    -999.25    -999.25    3.29820    3.11500    3.88150  -32.68070
  950.00000    -999.25   46.06500    -999.25    -999.25    -999.25    2.96890    2.91510    3.61610  -33.14640
 1000.00000    -999.25   34.48310    -999.25    -999.25    -999.25    8.27300    7.56440    7.29160  -38.20430
 1050.00000    -999.25   49.27560    -999.25    -999.25    -999.25    3.05570    2.94520    3.84990  -30.31690
 1100.00000    -999.25   46.39200    -999.25    -999.25    -999.25    2.37270    2.31730    3.33110  -29.01770
 1150.00000    -999.25   53.53780    -999.25    -999.25    -999.25    5.08830    4.99180    5.79050  -33.01800
 1200.00000    -999.25   43.50990    -999.25    -999.25    -999.25    2.89410    2.87740    3.59210  -29.40250
 1250.00000    -999.25   43.05200    -999.25    -999.25    -999.25    1.97590    1.94110    2.80050  -27.86910
 1300.00000    -999.25   46.80460    -999.25    -999.25    -999.25    2.31090    2.25210    3.19990  -27.53510
 1350.00000    -999.25   32.67100    -999.25    -999.25    -999.25    5.59060    5.19890    5.70690  -35.32550
 1400.00000    -999.25   35.99840    -999.25    -999.25    -999.25    3.77970    3.65600    4.55010  -30.41930
 1450.00000    -999.25   32.86560    -999.25    -999.25    -999.25    5.96520    5.61650    6.63950  -35.49200
 1500.00000    -999.25   51.71180    -999.25    -999.25    -999.25    3.12270    3.03130    3.56210  -28.04430
 1550.00000    -999.25   39.67980    -999.25    -999.25    -999.25    1.95470    1.88060    3.06510  -25.53010
 1600.00000    -999.25   52.58770    -999.25    -999.25    -999.25    2.50810    2.43060    3.27900  -27.31910
 1650.00000    -999.25   47.08880    -999.25    -999.25    -999.25    2.21150    2.29100    3.02430  -23.63300
 1700.00000    -999.25   49.26090    -999.25    -999.25    -999.25    2.13800    2.13980    3.20050  -31.64090
 1750.00000    -999.25   56.18120    -999.25    -999.25    -999.25    2.95220    3.02040    4.03470  -37.83370
 1800.00000    -999.25   38.09600    -999.25    -999.25    -999.25    2.12730    2.17200    3.00490  -27.43960
 1850.00000    -999.25   43.82210    -999.25    -999.25    -999.25    2.47520    2.56770    3.23130  -28.21080
 1900.00000    -999.25   39.18380    -999.25    -999.25    -999.25    2.58570    2.68190    4.05860  -39.79610
 1950.00000    -999.25   69.03660    -999.25    -999.25    -999.25    2.29050    2.37660    3.36480  -27.68860
 2000.00000    -999.25   47.09760    -999.25    -999.25    -999.25    2.00410    2.10140    3.23470  -33.07490
 2050.00000    -999.25   55.29840    -999.25    -999.25    -999.25    1.98090    2.04400    2.92680  -24.85210
 2100.00000    -999.25   53.15450    -999.25    -999.25    -999.25    1.35380    1.41290    2.17680  -24.86700
 2150.00000    -999.25   49.37110    -999.25    -999.25    -999.25    1.88910    1.97510    2.44200  -25.93550
 2200.00000    -999.25   51.51510    -999.25    -999.25    -999.25    1.53920    1.61750    2.36220  -27.49820
 2250.00000    -999.25   53.15160    -999.25    -999.25    -999.25    1.34430    1.40690    2.35420  -31.54220
 2300.00000    -999.25   48.79700    -999.25    -999.25    -999.25    1.13970    1.21900    2.01660  -34.28580
 2350.00000  205.55760   92.08750    0.08260   10.52570    1.91290    1.00850    0.96920    1.44590  -47.51590
 2400.00000  184.64000   94.33140    0.08030    9.75380    1.90620    0.81500    0.77830    1.21010  -39.17090
 2450.00000  136.00730   78.20380    0.01620   10.27640    2.11040    1.09160    1.13120    1.53430  -50.89910
 2500.00000  156.29670   84.02490    0.06160   11.47880    2.12140    1.21200    1.15720    1.52250  -40.48850
 2550.00000  155.53030   85.57910    0.06790   11.54220    2.10240    0.87290    0.84450    1.23820  -39.50770
 2600.00000  146.75160   89.67270    0.05600   11.26570    2.16830    1.12860    1.07550    1.58690  -45.49590
 2650.00000  129.14370   70.85570   -0.00810   11.07230    2.09790    1.31950    1.69410    2.49460  -75.45770
 2700.00000  160.52000  104.07250    0.08140   11.56340    2.12720    0.58620    0.56900    0.96140  -34.76160
 2750.00000  147.01450   91.43590    0.06160   13.44710    2.13700    0.66450    0.68930    1.00310  -36.66400
 2800.00000  136.10140   86.79970    0.05430   16.10010    2.11390    0.80700    0.87950    1.14960  -37.12830
 2850.00000  160.08080   92.80500    0.09170   15.21700    2.19390    0.85360    0.80770    0.98530  -41.74580
 2900.00000  159.13120   86.32640    0.07050   13.07510    2.21190    0.82540    0.79440    1.18680  -37.05830
 2950.00000  166.96130   87.76910    0.04510   15.15170    2.13540    0.66030    0.68530    1.05940  -34.62210
 3000.00000  166.96650   81.81770    0.07950   16.11760    2.13990    0.73590    0.75730    1.01570  -34.75710
 3050.00000  136.48400   83.05270    0.06410   16.13920    2.15260    0.78320    0.80620    1.16700  -36.16350
 3100.00000  139.14740   86.31900    0.05510   13.65340    2.10960    0.76690    0.73020    1.01390  -36.24360
 3150.00000  157.88380   84.81720    0.08430   12.33260    2.19810    0.79390    0.75620    1.08030  -36.31180
 3200.00000  157.29300   80.91330    0.09800   10.51580    2.16980    0.81660    0.85720    1.17350  -36.31150
 3250.00000  142.29380   67.56620    0.05230    9.97750    2.18310    1.02400    0.97290    1.62500  -38.15660
 3300.00000  138.25960   85.13010    0.04110    9.68110    2.17950    1.00810    1.07770    1.57040  -46.33200
 3350.00000  142.30430   90.17370    0.06140    9.95140    2.15330    0.75210    0.78200    1.15220  -38.58430
 3400.00000  137.20530   81.08150    0.02410    9.87690    2.08320    0.82820    1.00310    2.12030  -64.43480
 3450.00000  119.55020   60.02450    0.00770    9.40370    2.09610    0.77800    0.98970    2.26400 -106.18730
 3500.00000  133.20680   76.52720    0.01400    9.41770    2.14150    0.94030    1.08220    1.74400  -66.63380
 3550.00000  130.72870   77.57350    0.07990    9.73430    2.18580    0.73170    0.76020    1.09920  -45.94360
 3600.00000  123.07150   64.79700    0.01300    9.25320    2.08290    0.69670    0.91650    1.18480  -87.17020
 3650.00000  152.97270   85.06520    0.08910    9.45600    2.16160    0.81750    0.85790    1.18520  -42.91870
 3700.00000  127.07300   69.36360    0.02360    9.30820    2.15840    0.78970    0.99200    1.58730  -73.63310
 3750.00000  166.20480   84.09100    0.05070    9.27390    2.03410    0.59390    0.61430    0.91440  -37.83040
 3800.00000  116.50590   52.83140    0.02530    9.36750    2.14480    0.77470    1.01980    1.89140  -92.24280
 3850.00000  130.44050   69.94280    0.05840    9.11950    2.22550    0.90940    1.11700    1.78880  -93.93800
 3900.00000  130.68350   55.43850   -0.00150    9.19050    2.09000    0.66680    0.91180    1.78610  -92.18070
