~Version ---------------------------------------------------
VERS.      2.0 : CWLS log ASCII Standard -VERSION 2.0
WRAP.      YES : Multiple lines per depth step
CREA. 10/16/20 : LAS Creation Date
~Well ------------------------------------------------------
STRT.FT                   3800.0 : START DEPTH
STOP.FT                   8250.0 : STOP DEPTH
STEP.FT                 50.00000 : STEP LENGTH
NULL.                    -999.25 : NULL VALUE
COMP. CHAMPLIN PETROLEUM COMPANY : COMPANY
WELL.        EMAGENE R. PITTS #1 : WELL
FLD .                   GIDDINGS : FIELD
LOC .                            : LOCATION
CNTY.                   BURLESON : COUNTY
STAT.                      TEXAS : STATE
CTRY.   UNITED STATES OF AMERICA : COUNTRY
SRVC.               Schlumberger : SERVICE COMPANY
DATE.                03-Jul-1980 : LOGDATE
API .             42051307530000 : API NUMBER
UWI .             42051307530000 : UNIQUE WELL ID
SLAT.WGS84         30.4281479846 : SURFACE LATITUDE
SLON.WGS84        -96.7120434342 : SURFACE LONGITUDE
~Curve Information -----------------------------------------
DEPT    .FT    : DEPTH FEET
BITSED  .IN    : BIT SIZE
CALDED  .IN    : CALIPER FROM FDC-CNL LOG [DSH. TO GRRED]
CALSED  .IN    : CALIPER FROM CDL-SONIC LOG [DSH. TO GRRED]
CALWS   .IN    : CALIPER [CALDED]
CONDWS  .MMHO  : CONDUCTIVITY [1000/DRESWS]
DCORWS  .G/C3  : DENSITY CORRECTION [DRHOED]
DENWS   .G/C3  : FORMATION BULK DENSITY [RHOBED]
DPHIED  .V/V   : DENSITY POROSITY FROM CDL-SONIC LOG [DSH. TO GRRED]
DPHISSED.V/V   : DENSITY POROSITY SANDSTONE [M=2.65,F=1.0] FROM FDC-CNL LOG [DSH. TO GRRED]
DPOSSWS .V/V   : DENSITY POROSITY SANDSTONE [CALC. FROM DENWS M=2.65,F=1.0]
DRESWS  .OHMM  : DEEP RESISTIVITY [ILDED]
DRHOED  .G/C3  : DENSITY CORRECTION FROM FDC-CNL LOG [DSH. TO GRRED]
DTED    .US/F  : DELTA TIME FROM DIL-SFL-SONIC LOG
DTWS    .US/F  : COMPRESSIONAL SONIC [DTED]
GRDED   .GAPI  : GAMMA RAY FROM FDC-CNL LOG [DSH. TO GRRED]
GRED    .GAPI  : GAMMA RAY FROM SGR LOG [DSH. TO GRRED]
GRRED   .GAPI  : GAMMA RAY FROM DIL-SFL-SONIC LOG
GRSED   .GAPI  : GAMMA RAY FROM CDL-SONIC LOG [DSH. TO GRRED]
GRWS    .GAPI  : GAMMA RAY [TOP GRRED 8226' GRDED TD]
ILDED   .OHMM  : DEEP INDUCTION RESISTIVITY FROM DIL-SFL-SONIC LOG
ILMED   .OHMM  : MEDIUM INDUCTION RESISTIVITY FROM DIL-SFL-SONIC LOG
MRESWS  .OHMM  : MEDIUM RESISTIVITY [ILMED]
NPHISSED.V/V   : NEUTRON POROSITY SANDSTONE FROM FDC-CNL LOG [DSH. TO GRRED]
NPOSSWS .V/V   : NEUTRON POROSITY SANDSTONE [NPHILSED]
POTAED  .PCT   : POTASSIUM CONCENTRATION FROM SGR LOG [DSH. TO GRRED]
RHOBED  .G/C3  : BULK DENSITY FROM FDC-CNL LOG [DSH. TO GRRED]
SFLUED  .OHMM  : SPHERICALLY FOCUSED LOG RESISTIVITY FROM DIL-SFL-SONIC LOG
SPHIED  .V/V   : SONIC POROSITY FROM CDL-SONIC LOG [DSH. TO GRRED]
SPOLSWS .V/V   : SONIC POROSITY LIMESTONE [CALC. FROM DTWS DTM=56,DTF=189,Cp=1.0 (WYLLIE)]
SPRED   .MV    : SPONTANEOUS POTENTIAL FROM DIL-SFL-SONIC LOG
SPWS    .MV    : SPONTANEOUS POTENTIAL [BASELINE 0MV,SPRED]
SRESWS  .OHMM  : SHALLOW RESISTIVITY [SFLED]
THORED  .PPM   : THORIUM CONCENTRATION FROM SGR LOG [DSH. TO GRRED]
URANED  .PPM   : URANIUM CONCENTRATION FROM SGR LOG [DSH. TO GRRED]
~Params ----------------------------------------------------
PD  .                     GL : PERMANENT DATUM
EPD .FT                  345 : ELEVATION PERMANENT DATUM
LMF .                     KB : LOG MEASURED FROM
DAPD.FT                   16 : FEET ABOVE PERMANENT DATUM
DMF .                     KB : DRILLING MEASURED FROM
EKB .FT                  361 : KELLY BUSHING
EDF .FT                  360 : DRILLING FLOOR
EGL .FT                  345 : GROUND LEVEL
DATE.               07/03/80 : RUN DATE
RUN .                      1 : RUN NUMBER
DD  .FT                 8300 : DEPTH DRILLER
DL  .FT                 8283 : DEPTH LOGGER
BLI .FT                 8276 : BOTTOM LOG INTERVAL
TLI .FT                 3807 : TOP LOG INTERVAL
CS  .IN                9.625 : CASING SIZE
CBD .FT                 3810 : CASING BOTTOM DRILLER
CBL .FT                 3807 : CASING BOTTOM LOGGER
BS  .IN                 8.75 : BIT SIZE
BSD .FT                 8300 : BIT SIZE AT DEPTH
DFT .                   BENX : DRILLING FLUID TYPE
DFD .                    9.3 : DRILLING FLUID DENSITY
DFV .                     48 : DRILLING FLUID VISCOSITY
DFPH.                    9.5 : DRILLING FLUID PH
DFL .                      6 : DRILLING FLUID LOSS
MSS .               MUD TANK : MUD SAMPLE SOURCE
RMS .OHMM               1.69 : RESISTIVITY MUD SAMPLE
MST .DEGF                 85 : MUD SAMPLE TEMPERATURE
RMF .OHMM               1.26 : RESISTIVITY MUD FILTRATE SAMPLE
MFST.DEGF                 85 : MUD FILTRATE SAMPLE TEMPERATURE
RMC .OHMM               2.53 : RESISTIVITY MUD CAKE
MCST.DEGF                 85 : MUD CAKE SAMPLE TEMPERATURE
MFSS.                   CALC : MUD FILTRATE SAMPLE SOURCE
MCSS.                   CALC : MUD CAKE SAMPLE SOURCE
RMB .OHMM              0.736 : RESISTIVITY MUD AT BHT
TCS .HRS                 700 : TIME CIRCULATED STOPPED
TLAB.HRS                1100 : TIME LOGGER AT BOTTOM
LUN .                        : LOGGING UNIT NUMBER
LUL .                BRENHAM : LOGGING UNIT LOCATION
ENGI.              ALEXANDER : RECORDING ENGINEER
WITN.                 SCHELL : WITNESSED BY
CLNT.                A2DTECH : CLIENT CODE
ORIG.          1" 2.5" PRINT : ORIGIN OF DATA
UWI .         42051307530000 : UNIQUE WELL ID
DICO. A2D Technologies, Inc. : DIGITIZING COMPANY
OS  .                        : OTHER SERVICES
PWI .                        : PRIMARY WELL IDENTIFIER
R1  .                        : REMARKS 1
R2  .                        : REMARKS 2
LSRV.                        : LOG MNEMONIC
~Other -----------------------------------------------------
DIL-SFL-SONIC-FDC-CNL-CDL TOOL RUN.
~ASCII -----------------------------------------------------
# ...
 6950.00000    8.75000    9.62870    -999.25    9.62870  448.24960   -0.00440    2.55170    -999.25    0.05900    0.05960    2.23090   -0.00440   87.74300   87.74300   72.44700    -999.25   92.16030    -999.25   92.16030    2.23090    2.37420    2.37420    0.19080    0.19080    -999.25    2.55170    2.77840    -999.25    0.23870   -2.31110   -4.10580    2.77840    -999.25    -999.25
 7000.00000    8.75000   11.56530    -999.25   11.56530  557.38250    0.13850    2.45090    -999.25    0.12100    0.12070    1.79410    0.13850   93.43950   93.43950  110.77290    -999.25  114.56820    -999.25  114.56820    1.79410    1.91170    1.91170    0.26380    0.26380    -999.25    2.45090    2.38650    -999.25    0.28150   -5.60390   -7.26280    2.38650    -999.25    -999.25
 7050.00000    8.75000   12.54740    -999.25   12.54740  633.71360    0.09670    2.51770    -999.25    0.08230    0.08020    1.57800    0.09670   95.54360   95.54360   85.68960    -999.25   92.77400    -999.25   92.77400    1.57800    1.67550    1.67550    0.26700    0.26700    -999.25    2.51770    1.98010    -999.25    0.29730   -7.85670   -9.28150    1.98010    -999.25    -999.25
 7100.00000    8.75000   11.25970    -999.25   11.25970  521.92070    0.08160    2.53180    -999.25    0.07120    0.07160    1.91600    0.08160   92.29730   92.29730   92.12390    -999.25   88.04590    -999.25   88.04590    1.91600    2.03660    2.03660    0.22900    0.22900    -999.25    2.53180    2.42660    -999.25    0.27290   -4.89280   -6.08350    2.42660    -999.25    -999.25
 7150.00000    8.75000   12.07520    -999.25   12.07520  566.60430    0.10080    2.49900    -999.25    0.08720    0.09150    1.76490    0.10080   92.88990   92.88990   88.80320    -999.25   88.68250    -999.25   88.68250    1.76490    1.87360    1.87360    0.28500    0.28500    -999.25    2.49900    2.18000    -999.25    0.27740   -6.24270   -7.19930    2.18000    -999.25    -999.25
 7200.00000    8.75000   12.26950    -999.25   12.26950  540.62820    0.09830    2.52030    -999.25    0.07930    0.07860    1.84970    0.09830   91.40440   91.40440   86.98280    -999.25   93.27850    -999.25   93.27850    1.84970    1.96440    1.96440    0.27390    0.27390    -999.25    2.52030    2.38870    -999.25    0.26620   -4.79430   -5.51680    2.38870    -999.25    -999.25
 7250.00000    8.75000   12.47070    -999.25   12.47070  542.79980    0.08050    2.49520    -999.25    0.09410    0.09380    1.84230    0.08050   92.10580   92.10580   83.07780    -999.25   83.14310    -999.25   83.14310    1.84230    1.95590    1.95590    0.27150    0.27150    -999.25    2.49520    2.35960    -999.25    0.27150   -4.28220   -4.77060    2.35960    -999.25    -999.25
 7300.00000    8.75000   12.26890   12.27740   12.26890  507.09940    0.07080    2.51740    0.11350    0.07900    0.08040    1.97200    0.07080   91.94110   91.94110   83.54180   85.65210   86.91750   84.19170   86.91750    1.97200    2.09390    2.09390    0.26640    0.26640    -999.25    2.51740    2.36380    0.29970    0.27020   -2.75050   -3.00480    2.36380    -999.25    -999.25
 7350.00000    8.75000   12.23110   12.17650   12.23110  544.69200    0.12020    2.51190    0.11780    0.08550    0.08370    1.83590    0.12020   92.65430   92.65430   86.83210   83.02470   74.31070   85.16520   74.31070    1.83590    1.94880    1.94880    0.26630    0.26630    2.25960    2.51190    2.23620    0.30530    0.27560   -2.07340   -2.09360    2.23620   53.50870   10.09410
 7400.00000    8.75000   10.60200   10.57550   10.60200  176.36370   -0.00460    2.60410    0.06380    0.02760    0.02780    5.67010   -0.00460   65.34610   65.34610   34.45030   51.45310   34.62370   33.89790   34.62370    5.67010    6.01960    6.01960    0.08020    0.08020    0.93910    2.60410    7.45850    0.11740    0.07030   -7.83200   -8.35430    7.45850   47.69820    9.73770
 7450.00000    8.75000   10.67270   10.63140   10.67270  301.01440   -0.00120    2.59470    0.07280    0.03800    0.03350    3.32210   -0.00120   74.21270   74.21270   61.11160   69.08810   68.92520   61.41100   68.92520    3.32210    3.89880    3.89880    0.10030    0.10030    1.60650    2.59470    4.08630    0.19900    0.13690    0.73580   -0.58930    4.08630   49.01960   10.24630
 7500.00000    8.75000   10.43420   10.40320   10.43420  117.50610   -0.00290    2.60560    0.06210    0.02880    0.02690    8.51020   -0.00290   62.98120   62.98120   28.19170   50.24220   28.57660   28.06800   28.57660    8.51020    9.03500    9.03500    0.05820    0.05820    1.16940    2.60560   10.31590    0.08920    0.05250   -5.93930   -8.06710   10.31590   47.24310    9.27760
 7550.00000    8.75000   10.85240   10.83550   10.85240  156.61710   -0.00380    2.60080    0.06200    0.02980    0.02980    6.38500   -0.00380   65.48520   65.48520   29.22250   49.31890   35.20420   29.72610   35.20420    6.38500    6.77790    6.77790    0.07120    0.07120    1.22400    2.60080    7.11290    0.10990    0.07130   -4.83760   -7.76820    7.11290   50.95650    9.37710
 7600.00000    8.75000   11.22090   11.20880   11.22090  179.55260    0.05140    2.57630    0.07770    0.04310    0.04470    5.56940    0.05140   65.28340   65.28340   31.18370   55.50700   35.42420   31.52000   35.42420    5.56940    5.91340    5.91340    0.11210    0.11210    1.36010    2.57630    9.37820    0.12680    0.06980   -7.19000  -10.92340    9.37820   46.63120   10.03350
 7650.00000    8.75000   10.85090   10.77560   10.85090  106.70190    0.19660    2.65730    0.03520    0.00470   -0.00440    9.37190    0.19660   64.33300   64.33300   33.40540   46.56980   28.94730   32.02940   28.94730    9.37190   10.45310   10.45310    0.06100    0.06100    1.21540    2.65730    8.67610    0.10500    0.06270   -9.23100  -13.76720    8.67610   47.80850    9.57360
 7700.00000    8.75000   16.35820   16.58230   16.35820   44.08800    0.02620    1.51320    0.70550    0.69410    0.68900   22.68190    0.02620   65.59660   65.59660   46.00420   46.95500   44.98180   43.35370   44.98180   22.68190   24.71830   24.71830    0.11650    0.11650    1.19240    1.51320   26.74480    0.12600    0.07220   -9.62380  -14.96280   26.74480   45.39440    8.94870
 7750.00000    8.75000    8.79670    8.81230    8.79670   58.90290   -0.00060    2.54010    0.10610    0.06930    0.06660   16.97710   -0.00060   66.24490   66.24490   48.39460   49.95610   38.14260   47.15580   38.14260   16.97710   19.91720   19.91720    0.07920    0.07920    1.04710    2.54010   68.14030    0.11970    0.07700   -1.58520   -7.72690   68.14030   47.33620   10.09350
 7800.00000    8.75000    8.63620    8.66340    8.63620   37.46170   -0.00290    2.52200    0.10900    0.07600    0.07760   26.69390   -0.00290   64.19200   64.19200   27.46910   47.34000   22.74760   26.34600   22.74760   26.69390   28.57490   28.57490    0.10830    0.10830    0.74020    2.52200   45.54960    0.09470    0.06160   -1.29280   -8.23730   45.54960   47.07530    9.37520
 7850.00000    8.75000    8.84450    8.83730    8.84450   31.16020   -0.00350    2.53550    0.10200    0.06830    0.06940   32.09220   -0.00350   63.90570   63.90570   22.42040   39.88630   21.02880   22.20450   21.02880   32.09220   39.45370   39.45370    0.08510    0.08510    1.19040    2.53550   46.68740    0.10050    0.05940   -7.34130   -9.78080   46.68740   43.25820    8.53840
 7900.00000    8.75000   13.30300   13.25520   13.30300  365.55050    0.05610    2.45680    0.13630    0.12850    0.11710    2.73560    0.05610  100.49250  100.49250   97.93520   90.67010  104.18290   96.67940  104.18290    2.73560    2.01250    2.01250    0.34680    0.34680    2.08310    2.45680    2.58460    0.36530    0.33450   -3.13780  -10.22490    2.58460   57.13730   11.05050
 7950.00000    8.75000   11.04690   11.02290   11.04690  419.86820    0.03450    2.52640    0.11200    0.07740    0.07490    2.38170    0.03450   94.94810   94.94810   91.36950   84.90640  100.61670   90.99170  100.61670    2.38170    2.52820    2.52820    0.28420    0.28420    2.35910    2.52640    3.65180    0.32190    0.29280    8.16260   -4.61530    3.65180   51.34790   12.07130
