~Version ---------------------------------------------------
VERS. 2.0 : CWLS log ASCII Standard -VERSION 2.0
WRAP. YES : MULTIPLE LINES PER DEPTH STEP
~Well ------------------------------------------------------
STRT.FT                    1650.0 : START DEPTH
STOP.FT                    9350.0 : STOP DEPTH
STEP.FT                  50.00000 : STEP LENGTH
NULL.                     -999.25 : NULL VALUE
COMP. ASAMERA- TARINA OIL COMPANY : COMPANY
WELL.        BRISCOE RANCH #13-93 : WELL
FLD .                 CATARINA SW : FIELD
LOC .                             : LOCATION
CNTY.                      DIMMIT : COUNTY
STAT.                       TEXAS : STATE
CTRY.    UNITED STATES OF AMERICA : COUNTRY
SRVC.                Schlumberger : SERVICE COMPANY
DATE.                 16-Apr-1977 : LOGDATE
API .              42127311860000 : API NUMBER
UWI .              42127311860000 : UNIQUE WELL ID
SLAT.WGS84          28.3043808828 : SURFACE LATITUDE
SLON.WGS84         -99.7817592367 : SURFACE LONGITUDE
~Curve Information -----------------------------------------
DEPT  .FT    : DEPTH FEET
CALDED.IN    : CALIPER FROM DENSITY LOG
CALWS .IN    : CALIPER [CALDED]
CONDWS.MMHO  : CONDUCTIVITY [1000/DRESWS]
CORRED.G/C3  : DENSITY CORRECTION FROM DENSITY LOG
DCORWS.G/C3  : DENSITY CORRECTION [CORRED]
DENWS .G/C3  : BULK DENSITY [M=N/A F=N/A] [RHOBED]
DPHIED.V/V   : DENSITY POROSITY [M=N/A F=N/A] FROM DENSITY LOG
DPOWS .V/V   : DENSITY POROSITY [M=N/A F=N/A] [DPHIED]
DRESWS.OHMM  : DEEP RESISTIVITY [ILDED]
DTED  .US/F  : DELTA TIME FROM SONIC LOG
DTWS  .US/F  : DELTA TIME [DTED]
GRDED .GAPI  : GAMMA RAY FROM DENSITY LOG [DEPTH ADJ TO GRR]
GRRED .GAPI  : GAMMA RAY FROM RESISTIVITY LOG
GRWS  .GAPI  : GAMMA RAY [GRDED]
ILDED .OHMM  : INDUCTION LOG DEEP RESISTIVITY
ILMED .OHMM  : INDUCTION LOG MEDIUM RESISTIVITY
LL8ED .OHMM  : 8 INCH LATEROLOG RESISTIVITY
MRESWS.OHMM  : MEDIUM RESISTIVITY [ILMED]
NPHIED.V/V   : NEUTRON POROSITY FROM DENSITY LOG
NPOWS .V/V   : NEUTRON POROSITY [NPHIED]
RHOBED.G/C3  : BULK DENSITY FROM DENSITY LOG
SPRED .MV    : SPONTANEOUS POTENTIAL FROM RESISTIVITY LOG SHIFTED
SPWS  .MV    : SPONTANEOUS POTENTIAL [SHIFTED/BASELINE 0 MV] [SPRED]
SRESWS.OHMM  : SHALLOW RESISTIVITY [LL8ED]
~Params ----------------------------------------------------
PD  .                     GL : PERMANENT DATUM
EPD .F                636.13 : ELEVATION PERMANENT DATUM
LMF .                     KB : LOG MEASURED FROM
DAPD.F                 13.13 : FEET ABOVE PERMANENT DATUM
DMF .                     KB : DRILLING MEASURED FROM
EKB .F                   649 : KELLING BUSHING
EDF .F                 647.5 : DRILLING FLOOR
EGL .F                636.13 : GROUND LEVEL
DATE.              4-15-1977 : RUN DATE
RUN .                      2 : RUN NUMBER
DD  .F                  9370 : DEPTH DRILLER
DL  .F                  9374 : DEPTH LOGGER
BLI .F                  9368 : BOTTOM LOG INTERVAL
TLI .F                  4400 : TOP LOG INTERVAL
CS  .IN                8.625 : CASING SIZE
CBD .F                  1600 : CASING BOTTOM DRILLER
BS  .IN                7.875 : BIT SIZE
BSD .F                  9370 : BIT SIZE AT DEPTH
DFT .       CALCIUM CHLORIDE : DRILLING FLUID TYPE
DFD .                   10.2 : DRILLING FLUID DENSITY
DFV .                     37 : DRILLING FLUID VISCOSITY
DFPH.                     10 : DRILLING FLUID PH
DFL .                      6 : DRILLING FLUID LOSS
MSS .                    PIT : MUD SAMPLE SOURCE
RMS .OHMM               0.07 : RESISTIVITY MUD SAMPLE
MST .F                    70 : MUD SAMPLE TEMPERATURE
RMF .OHMM              0.057 : RESISTIVITY MUD FILTRATE SAMPLE
MFST.F                    70 : MUD FILTRATE SAMPLE TEMPERATURE
RMB .OHMM              0.026 : RESISTIVITY MUD AT BHT
TCS .HRS                1300 : TIME CURCULATED STOPPED
TLAB.HRS                1900 : TIME LOGGER AT BOTTOM
LUN .                   7734 : LOGGING UNIT NUMBER
LUL .                 LAREDO : LOGGING UNIT LOCATION
ENGI.                HARTLEY : RECORDING ENGINEER
WITN.                  LYONS : WITNESSED BY
CLNT.                A2DTECH : CLIENT CODE
ORIG.          1" 2.5" PRINT : ORIGIN OF DATA
UWI .         42127311860000 : UNIQUE WELL ID
DICO. A2D Technologies, Inc. : DIGITIZING COMPANY
~Other -----------------------------------------------------
~ASCII -----------------------------------------------------
# ...
 6000.00000   12.51850   12.51850  188.26720   -0.01480   -0.01480    2.28300    0.23990    0.23990    5.31160  104.87900  104.87900   27.32340   25.19890   27.32340    5.31160    5.57380    1.58750    5.57380    0.37470    0.37470    2.28300   -0.13990    2.95760    1.58750
 6050.00000   11.59400   11.59400  247.13330    0.01480    0.01480    2.50920    0.10520    0.10520    4.04640   72.14360   72.14360   27.53640   26.43870   27.53640    4.04640    2.52750    3.91580    2.52750    0.27350    0.27350    2.50920   -6.67660   -3.37460    3.91580
 6100.00000   11.04560   11.04560  201.84890    0.00520    0.00520    2.47410    0.12120    0.12120    4.95420   81.06950   81.06950   21.59450   25.69980   21.59450    4.95420    3.24250    5.00270    3.24250    0.24380    0.24380    2.47410   -4.63080   -1.12430    5.00270
 6150.00000   11.40240   11.40240  243.67070   -0.00740   -0.00740    2.48340    0.10920    0.10920    4.10390   71.15060   71.15060   27.16960   24.42060   27.16960    4.10390    3.04760    3.86180    3.04760    0.28310    0.28310    2.48340   -6.67660   -2.56350    3.86180
 6200.00000   11.80290   11.80290  232.07780    0.09040    0.09040    2.43010    0.13200    0.13200    4.30890   73.85690   73.85690   26.93860   25.11450   26.93860    4.30890    2.12560    3.57530    2.12560    0.28580    0.28580    2.43010   -7.12570   -2.26480    3.57530
 6250.00000   11.96670   11.96670  247.12100    0.00610    0.00610    2.49940    0.11420    0.11420    4.04660   72.14480   72.14480   24.12050   23.97430   24.12050    4.04660    3.20860    4.02680    3.20860    0.24530    0.24530    2.49940  -10.56890   -4.96030    4.02680
 6300.00000   11.47710   11.47710  242.00180    0.00610    0.00610    2.49870    0.10260    0.10260    4.13220   71.24810   71.24810   23.67750   24.40280   23.67750    4.13220    3.24890    4.08380    3.24890    0.29160    0.29160    2.49870  -12.21560   -5.85920    4.08380
 6350.00000   11.99580   11.99580  209.01700    0.00450    0.00450    2.48530    0.11280    0.11280    4.78430   73.18450   73.18450   24.86340   24.42440   24.86340    4.78430    2.90150    4.68650    2.90150    0.27630    0.27630    2.48530  -14.16170   -7.05750    4.68650
 6400.00000   13.64190   13.64190  339.48940    0.09300    0.09300    2.37160    0.18060    0.18060    2.94560   80.87120   80.87120   25.15380   30.10520   25.15380    2.94560    2.36700    3.42820    2.36700    0.38390    0.38390    2.37160  -15.80840   -7.95640    3.42820
 6450.00000   11.00040   11.00040  202.28170    0.01500    0.01500    2.47560    0.11730    0.11730    4.94360   70.25790   70.25790   26.92900   25.94800   26.92900    4.94360    2.76220    5.29100    2.76220    0.28670    0.28670    2.47560  -16.73690   -8.13710    5.29100
 6500.00000   11.39110   11.39110  166.02750    0.06050    0.06050    2.37360    0.17750    0.17750    6.02310   80.48570   80.48570   27.05690   27.74700   27.05690    6.02310    3.13420    4.17040    3.13420    0.30180    0.30180    2.37360  -19.49800  -10.15040    4.17040
 6550.00000   11.49020   11.49020  397.17210    0.04620    0.04620    2.30950    0.19880    0.19880    2.51780   90.07470   90.07470   30.31070   32.26500   30.31070    2.51780    1.89070    4.22530    1.89070    0.30000    0.30000    2.30950  -19.84940   -9.75410    4.22530
 6600.00000   10.33360   10.33360  165.69180   -0.00870   -0.00870    2.55650    0.06750    0.06750    6.03530   67.08330   67.08330   20.71600   23.94080   20.71600    6.03530    5.12330    7.40320    5.12330    0.20450    0.20450    2.55650  -22.30920  -11.46610    7.40320
 6650.00000   10.45100   10.45100   98.14990   -0.01160   -0.01160    2.58020    0.05900    0.05900   10.18850   61.35500   61.35500   18.55830   30.22000   18.55830   10.18850    6.55070    9.43880    6.55070    0.15090    0.15090    2.58020  -21.15460   -9.56370    9.43880
 6700.00000    9.89000    9.89000   43.68850   -0.01480   -0.01480    2.57830    0.08060    0.08060   22.88930   86.32940   86.32940   14.87750   27.52130   14.87750   22.88930   10.68260   15.54560   10.68260    0.06190    0.06190    2.57830  -17.89160   -5.55290   15.54560
 6750.00000   10.09760   10.09760   57.02650   -0.01160   -0.01160    2.58200    0.07140    0.07140   17.53570    -999.25    -999.25   13.93140   25.31310   13.93140   17.53570    9.88490   17.82310    9.88490    0.07810    0.07810    2.58200  -17.38960   -4.30310   17.82310
 6800.00000    9.85980    9.85980   56.33450    0.00420    0.00420    2.56380    0.07640    0.07640   17.75110    -999.25    -999.25   15.38460   28.55740   15.38460   17.75110    8.31360   16.29170    8.31360    0.07650    0.07650    2.56380  -15.68270   -1.84840   16.29170
 6850.00000    9.97980    9.97980  102.11270   -0.01310   -0.01310    2.58700    0.07420    0.07420    9.79310    -999.25    -999.25   16.13760   28.63150   16.13760    9.79310    7.34020    9.81770    7.34020    0.15610    0.15610    2.58700  -22.40960   -8.79730    9.81770
 6900.00000    9.97990    9.97990  126.59350    0.00200    0.00200    2.57160    0.08340    0.08340    7.89930    -999.25    -999.25   19.53940   24.30490   19.53940    7.89930    5.80130    9.90830    5.80130    0.14810    0.14810    2.57160  -21.70680   -8.35690    9.90830
 6950.00000    9.26670    9.26670   80.09680   -0.02050   -0.02050    2.56490    0.08430    0.08430   12.48490    -999.25    -999.25   17.05660   26.89840   17.05660   12.48490   12.68300   24.32120   12.68300    0.11480    0.11480    2.56490  -20.50200   -7.41450   24.32120
 7000.00000    9.05900    9.05900  100.00000    0.04160    0.04160    2.51650    0.10140    0.10140   10.00000    -999.25    -999.25   17.76810   25.71200   17.76810   10.00000    9.16130   32.50690    9.16130    0.13890    0.13890    2.51650  -19.39800   -6.57290   32.50690
 7050.00000    8.71820    8.71820   77.90530    0.01720    0.01720    2.46960    0.12810    0.12810   12.83610    -999.25    -999.25   11.72630   24.52600   11.72630   12.83610   20.73090  123.31050   20.73090    0.15700    0.15700    2.46960  -14.80420   -2.24150  123.31050
 7100.00000    8.99790    8.99790  107.71920   -0.01720   -0.01720    2.57790    0.06750    0.06750    9.28340    -999.25    -999.25   10.69080   23.28780   10.69080    9.28340    3.42820   47.86300    3.42820    0.04670    0.04670    2.57790  -16.53590   -4.23560   47.86300
 7150.00000    8.76020    8.76020   48.10700   -0.00280   -0.00280    2.61470    0.04110    0.04110   20.78700    -999.25    -999.25   14.03410   24.51120   14.03410   20.78700   15.49090   35.81900   15.49090    0.07940    0.07940    2.61470  -14.05120   -2.01330   35.81900
 7200.00000    8.76110    8.76110   15.15940   -0.01370   -0.01370    2.60710    0.05860    0.05860   65.96550    -999.25    -999.25    9.30880   25.56350    9.30880   65.96550   59.25650   48.81900   59.25650    0.04320    0.04320    2.60710  -16.68670   -4.40270   48.81900
 7250.00000    8.53860    8.53860    0.89510   -0.02200   -0.02200    2.55440    0.08560    0.08560 1117.18690    -999.25    -999.25    9.60030   25.87370    9.60030 1117.18690    6.21720   19.57900    6.21720    0.03160    0.03160    2.55440  -17.74100   -5.09920   19.57900
 7300.00000    8.70180    8.70180    4.23160   -0.00510   -0.00510    2.58640    0.07020    0.07020  236.31660    -999.25    -999.25    9.78270   29.70720    9.78270  236.31660  299.21150  123.58870  299.21150    0.08180    0.08180    2.58640  -13.57450   -0.57500  123.58870
 7350.00000    8.46350    8.46350   30.33220   -0.00510   -0.00510    2.56710    0.07630    0.07630   32.96830    -999.25    -999.25   10.22130   29.18350   10.22130   32.96830   71.07280   61.29500   71.07280    0.06480    0.06480    2.56710  -15.03010   -1.67280   61.29500
 7400.00000    8.52290    8.52290   35.33390   -0.01400   -0.01400    2.56850    0.07820    0.07820   28.30140    -999.25    -999.25   11.84850   20.00180   11.84850   28.30140   40.77520   26.25200   40.77520    0.06450    0.06450    2.56850  -19.69940   -5.98430   26.25200
