~Version ---------------------------------------------------
VERS.      2.0 : CWLS log ASCII Standard -VERSION 2.0
WRAP.      YES : Multiple lines per depth step
CREA. 07/19/18 : LAS Creation Date
~Well ------------------------------------------------------
STRT.FT                           3800.0 : START DEPTH
STOP.FT                          13600.0 : STOP DEPTH
STEP.FT                         50.00000 : STEP LENGTH
NULL.                            -999.25 : NULL VALUE
COMP. TEXSTAR NORTH AMERICA INCORPORATED : COMPANY
WELL.                  BERRY GAS UNIT #1 : WELL
FLD .                 SW KENEDY PROSPECT : FIELD
LOC .                                    : LOCATION
CNTY.                             KARNES : COUNTY
STAT.                              TEXAS : STATE
CTRY.           UNITED STATES OF AMERICA : COUNTRY
SRVC.                       Schlumberger : SERVICE COMPANY
DATE.                        16-Mar-1988 : LOGDATE
API .                     42255311960000 : API NUMBER
UWI .                     42255311960000 : UNIQUE WELL ID
SLAT.WGS84                 28.7645998907 : SURFACE LATITUDE
SLON.WGS84                -97.8956197689 : SURFACE LONGITUDE
~Curve Information -----------------------------------------
DEPT    .FT    : DEPTH FEET
CALWS   .IN    : CALIPER [DCALDED+BIT]
CONDWS  .MMHO  : DEEP CONDUCTIVITY [1000/DRESWS]
DCALDED .IN    : DIFFERENTIAL CALIPER FROM LDT-CNT LOG [DSH. TO RESISTIVITY]
DCORWS  .G/C3  : DENSITY CORRECTION [DRHOED]
DENWS   .G/C3  : BULK DENSITY [CALC. FROM DPOLSWS]
DPHILSED.V/V   : DENSITY POROSITY (LS) [M=2.71 F=1.00] FROM LDT-CNT LOG [DSH. TO RESISTIVITY]
DPOLSWS .V/V   : DENSITY POROSITY (LS) [M=2.71 F=1.00] [DPHILSED]
DRESWS  .OHMM  : DEEP RESISTIVITY [ILDED]
DRHOED  .G/C3  : DENSITY CORRECTION FROM LDT-CNT LOG [DSH. TO RESISTIVITY]
DTED    .US/F  : DELTA TIME FROM DISFL-SONIC LOG [DSH. TO RES LOG]
DTLED   .US/F  : DELTA TIME LONG SPACING FROM DISFL-SONIC LOG [DSH. TO RESISTIVITY]
DTWS    .US/F  : DELTA TIME COMPRESSIONAL [DTED]
GRDED   .GAPI  : GAMMA RAY FROM LDT-CNT LOG [DSH. TO RESISTIVITY]
GRRED   .GAPI  : GAMMA RAY FROM DISFL-SONIC LOG [DSH. TO RESISTIVITY]
GRWS    .GAPI  : GAMMA RAY [GRRED]
ILDED   .OHMM  : DEEP INDUCTION RESISTIVITY
ILMED   .OHMM  : MEDIUM INDUCTION RESISTIVITY
MRESWS  .OHMM  : MEDIUM RESISTIVITY [ILMED]
NPHILSED.V/V   : NEUTRON POROSITY LIMESTONE FROM LDT-CNT LOG [DSH. TO RESISTIVITY]
NPOLSWS .V/V   : NEUTRON POROSITY LIMESTONE [NPHILSED]
PEFED   .B/E   : PHOTOELECTRIC FACTOR FROM LDT-CNT LOG [DSH. TO RESISTIVITY]
PEFWS   .B/E   : PHOTOELECTRIC FACTOR [PEFED]
SFLUED  .OHMM  : SPHERICALLY FOCUSED LOG RESISTIVITY
SPHILSED.V/V   : SONIC POROSITY (LS) FROM DISFL-SONIC LOG [DSH. TO RESISTIVITY]
SPOLSWS .V/V   : SONIC POROSITY (LS) [SPHILSED]
SPRED   .MV    : SPONTANEOUS POTENTIAL FROM DISFL-SONIC LOG
SPWS    .MV    : SPONTANEOUS POTENTIAL [BASELINE 0 MV] [SPRED]
SRESWS  .OHMM  : SHALLOW RESISTIVITY [SFLUED]
TENDED  .LBF   : TENSION FROM LDT-CNT LOG [DSH. TO RES LOG]
TENRED  .LBF   : TENSION FROM DISFL-SONIC LOG
~Params ----------------------------------------------------
PD  .                     GL : PERMANENT DATUM
EPD .FT                399.7 : ELEVATION PERMANENT DATUM
LMF .                     KB : LOG MEASURED FROM
DAPD.FT                   13 : FEET ABOVE PERMANENT DATUM
DMF .                     KB : DRILLING MEASURED FROM
EKB .FT                412.7 : KELLY BUSHING
EDF .FT                411.7 : DRILLING FLOOR
EGL .FT                399.7 : GROUND LEVEL
DATE.               03/16/88 : RUN DATE
RUN .                      1 : RUN NUMBER
DD  .FT                13841 : DEPTH DRILLER
DL  .FT                13632 : DEPTH LOGGER
BLI .FT                13626 : BOTTOM LOG INTERVAL
TLI .FT                 3814 : TOP LOG INTERVAL
CS  .IN                8.625 : CASING SIZE
CBD .FT                 3815 : CASING BOTTOM DRILLER
CBL .FT                 3814 : CASING BOTTOM LOGGER
BS  .IN                  8.5 : BIT SIZE
BSD .FT                13841 : BIT SIZE AT DEPTH
DFT .              DURA HOLE : DRILLING FLUID TYPE
DFD .                   11.1 : DRILLING FLUID DENSITY
DFV .                     46 : DRILLING FLUID VISCOSITY
DFPH.                   10.5 : DRILLING FLUID PH
DFL .                      6 : DRILLING FLUID LOSS
MSS .               MUD TNAK : MUD SAMPLE SOURCE
RMS .OHMM              0.601 : RESISTIVITY MUD SAMPLE
MST .DEGF                110 : MUD SAMPLE TEMPERATURE
RMF .OHMM               0.81 : RESISTIVITY MUD FILTRATE SAMPLE
MFST.DEGF                 89 : MUD FILTRATE SAMPLE TEMPERATURE
RMC .OHMM                0.9 : RESISTIVITY MUD CAKE
MCST.DEGF                110 : MUD CAKE SAMPLE TEMPERATURE
MFSS.                   MEAS : MUD FILTRATE SAMPLE SOURCE
MCSS.                   CALC : MUD CAKE SAMPLE SOURCE
RMB .OHMM              0.236 : RESISTIVITY MUD AT BHT
TCS .HRS                2100 : TIME CIRCULATED STOPPED
TLAB.HRS                 612 : TIME LOGGER AT BOTTOM
LUN .                   8268 : LOGGING UNIT NUMBER
LUL .             PLEASANTON : LOGGING UNIT LOCATION
ENGI.                  WILKE : RECORDING ENGINEER
WITN.  REQUAETH  NOVAK GIBBS : WITNESSED BY
CLNT.                A2DTECH : CLIENT CODE
ORIG.               5" PRINT : ORIGIN OF DATA
UWI .         42255311960000 : UNIQUE WELL ID
DICO. A2D Technologies, Inc. : DIGITIZING COMPANY
~Other -----------------------------------------------------
GRDED GAPS 12180-12250' DUE TO STICKING TOOL.
LDT-CNT PULLED TIGHT AT SEVERAL DEPTHS FROM AROUND 13000' UP. THIS MAY AFFECT LOG QUALITY.
~ASCII -----------------------------------------------------
# ...
 7400.00000    -999.25  414.85170    -999.25    -999.25    -999.25    -999.25    -999.25    2.41050    -999.25   88.74030    -999.25   88.74030    -999.25  100.37720  100.37720    2.41050    2.38360    2.38360    -999.25    -999.25    -999.25    -999.25    2.60180    0.26650    0.26650   -9.42380   -7.75160    2.60180    -999.25 2599.67410
 7450.00000    -999.25  507.84620    -999.25    -999.25    -999.25    -999.25    -999.25    1.96910    -999.25   91.76140    -999.25   91.76140    -999.25   94.60280   94.60280    1.96910    1.90760    1.90760    -999.25    -999.25    -999.25    -999.25    2.12600    0.27500    0.27500   -7.03070   -6.05560    2.12600    -999.25 2639.68510
 7500.00000    -999.25  561.38780    -999.25    -999.25    -999.25    -999.25    -999.25    1.78130    -999.25   92.39920    -999.25   92.39920    -999.25   88.91630   88.91630    1.78130    1.73020    1.73020    -999.25    -999.25    -999.25    -999.25    2.06690    0.27820    0.27820   -9.23120   -8.95310    2.06690    -999.25 2646.67430
 7550.00000    -999.25  485.88500    -999.25    -999.25    -999.25    -999.25    -999.25    2.05810    -999.25   85.69020    -999.25   85.69020    -999.25   83.62090   83.62090    2.05810    2.18480    2.18480    -999.25    -999.25    -999.25    -999.25    2.44070    0.24940    0.24940   -4.53200   -4.95100    2.44070    -999.25 2665.17970
 7600.00000    -999.25  347.04150    -999.25    -999.25    -999.25    -999.25    -999.25    2.88150    -999.25   81.63360    -999.25   81.63360    -999.25   67.79050   67.79050    2.88150    2.97860    2.97860    -999.25    -999.25    -999.25    -999.25    3.81500    0.23220    0.23220  -28.10890  -29.18020    3.81500    -999.25 2683.10210
 7650.00000    -999.25  471.63140    -999.25    -999.25    -999.25    -999.25    -999.25    2.12030    -999.25   89.15970    -999.25   89.15970    -999.25   87.63030   87.63030    2.12030    2.08830    2.08830    -999.25    -999.25    -999.25    -999.25    2.33610    0.26760    0.26760   -8.77580  -10.17150    2.33610    -999.25 2655.89210
 7700.00000    -999.25  302.13310    -999.25    -999.25    -999.25    -999.25    -999.25    3.30980    -999.25   78.67830    -999.25   78.67830    -999.25   84.97660   84.97660    3.30980    3.50360    3.50360    -999.25    -999.25    -999.25    -999.25    3.66230    0.21790    0.21790  -13.02880  -14.74890    3.66230    -999.25 2684.71410
 7750.00000    -999.25  438.13530    -999.25    -999.25    -999.25    -999.25    -999.25    2.28240    -999.25   88.59840    -999.25   88.59840    -999.25  100.29240  100.29240    2.28240    2.21880    2.21880    -999.25    -999.25    -999.25    -999.25    2.56670    0.26000    0.26000   -7.33460   -9.37900    2.56670    -999.25 2764.81740
 7800.00000    -999.25  925.84020    -999.25    -999.25    -999.25    -999.25    -999.25    1.08010    -999.25  102.61780    -999.25  102.61780    -999.25   86.00130   86.00130    1.08010    1.00000    1.00000    -999.25    -999.25    -999.25    -999.25    1.27110    0.31360    0.31360  -13.05930  -15.42810    1.27110    -999.25 2751.97710
 7850.00000    -999.25  459.57990    -999.25    -999.25    -999.25    -999.25    -999.25    2.17590    -999.25   87.26290    -999.25   87.26290    -999.25  101.45050  101.45050    2.17590    2.13630    2.13630    -999.25    -999.25    -999.25    -999.25    2.51070    0.25460    0.25460   -5.68790   -8.38110    2.51070    -999.25 2759.64720
 7900.00000    -999.25  458.10620    -999.25    -999.25    -999.25    -999.25    -999.25    2.18290    -999.25   80.91090    -999.25   80.91090    -999.25  100.24920  100.24920    2.18290    2.34180    2.34180    -999.25    -999.25    -999.25    -999.25    2.51190    0.23310    0.23310   -5.17580   -8.19330    2.51190    -999.25 2808.17240
 7950.00000    -999.25  314.95070    -999.25    -999.25    -999.25    -999.25    -999.25    3.17510    -999.25   81.80700    -999.25   81.80700    -999.25   73.73280   73.73280    3.17510    3.07520    3.07520    -999.25    -999.25    -999.25    -999.25    3.56970    0.23510    0.23510  -12.98930  -16.33120    3.56970    -999.25 2791.44820
 8000.00000    -999.25  326.43470    -999.25    -999.25    -999.25    -999.25    -999.25    3.06340    -999.25   74.94510    -999.25   74.94510    -999.25   98.44740   98.44740    3.06340    3.09920    3.09920    -999.25    -999.25    -999.25    -999.25    3.85840    0.20380    0.20380  -17.76390  -21.43020    3.85840    -999.25 2843.83690
 8050.00000    -999.25  552.08970    -999.25    -999.25    -999.25    -999.25    -999.25    1.81130    -999.25   92.99910    -999.25   92.99910    -999.25   99.33670   99.33670    1.81130    1.76690    1.76690    -999.25    -999.25    -999.25    -999.25    2.04110    0.28220    0.28220   -3.78270   -7.77330    2.04110    -999.25 2866.24880
 8100.00000    -999.25  318.03580    -999.25    -999.25    -999.25    -999.25    -999.25    3.14430    -999.25   80.80040    -999.25   80.80040    -999.25   44.01780   44.01780    3.14430    4.02080    4.02080    -999.25    -999.25    -999.25    -999.25    6.42250    0.22850    0.22850  -50.36200  -54.27730    6.42250    -999.25 2819.62400
 8150.00000    -999.25  269.87640    -999.25    -999.25    -999.25    -999.25    -999.25    3.70540    -999.25   76.64200    -999.25   76.64200    -999.25   69.78550   69.78550    3.70540    3.64740    3.64740    -999.25    -999.25    -999.25    -999.25    4.73900    0.20510    0.20510  -16.84840  -20.25520    4.73900    -999.25 2766.27150
 8200.00000    -999.25  537.34550    -999.25    -999.25    -999.25    -999.25    -999.25    1.86100    -999.25   85.34010    -999.25   85.34010    -999.25  101.53400  101.53400    1.86100    1.80820    1.80820    -999.25    -999.25    -999.25    -999.25    2.13290    0.24720    0.24720   -7.91500  -10.81340    2.13290    -999.25 2774.02390
 8250.00000    -999.25  341.84530    -999.25    -999.25    -999.25    -999.25    -999.25    2.92530    -999.25   83.02810    -999.25   83.02810    -999.25   59.84600   59.84600    2.92530    3.04370    3.04370    -999.25    -999.25    -999.25    -999.25    3.24360    0.22970    0.22970  -14.24250  -16.63250    3.24360    -999.25 2940.60740
 8300.00000    -999.25  226.62890    -999.25    -999.25    -999.25    -999.25    -999.25    4.41250    -999.25   69.64140    -999.25   69.64140    -999.25   79.55610   79.55610    4.41250    4.79550    4.79550    -999.25    -999.25    -999.25    -999.25    8.34930    0.17520    0.17520  -19.62920  -21.51070    8.34930    -999.25 2950.03170
 8350.00000    -999.25  470.83200    -999.25    -999.25    -999.25    -999.25    -999.25    2.12390    -999.25   69.54430    -999.25   69.54430    -999.25   95.88490   95.88490    2.12390    2.03710    2.03710    -999.25    -999.25    -999.25    -999.25    2.36080    0.15130    0.15130   -7.01780   -8.39090    2.36080    -999.25 2864.39360
 8400.00000    -999.25  345.86520    -999.25    -999.25    -999.25    -999.25    -999.25    2.89130    -999.25   74.61470    -999.25   74.61470    -999.25   86.84920   86.84920    2.89130    2.74970    2.74970    -999.25    -999.25    -999.25    -999.25    3.04060    0.19610    0.19610   -9.74310  -10.60780    3.04060    -999.25 2844.00830
 8450.00000    -999.25  926.87000    -999.25    -999.25    -999.25    -999.25    -999.25    1.07890    -999.25   95.26250    -999.25   95.26250    -999.25   78.97110   78.97110    1.07890    1.02810    1.02810    -999.25    -999.25    -999.25    -999.25    1.34400    0.29050    0.29050  -12.74640  -13.10260    1.34400    -999.25 2937.88480
 8500.00000    -999.25  984.73660    -999.25    -999.25    -999.25    -999.25    -999.25    1.01550    -999.25  103.70490    -999.25  103.70490    -999.25   72.77760   72.77760    1.01550    0.91940    0.91940    -999.25    -999.25    -999.25    -999.25    1.09610    0.32040    0.32040  -16.13810  -15.98590    1.09610    -999.25 2925.45290
 8550.00000    -999.25 1054.18510    -999.25    -999.25    -999.25    -999.25    -999.25    0.94860    -999.25  100.66360    -999.25  100.66360    -999.25   83.88360   83.88360    0.94860    0.89140    0.89140    -999.25    -999.25    -999.25    -999.25    1.10300    0.31130    0.31130  -15.69380  -15.03320    1.10300    -999.25 2987.18290
