~Version ---------------------------------------------------
VERS.      2.0 : CWLS log ASCII Standard -VERSION 2.0
WRAP.      YES : Multiple lines per depth step
CREA. 03/04/13 : LAS Creation Date
~Well ------------------------------------------------------
STRT.FT                 1400.0 : START DEPTH
STOP.FT                10150.0 : STOP DEPTH
STEP.FT               50.00000 : STEP LENGTH
NULL.                  -999.25 : NULL VALUE
COMP.     TXO PRODUCTION CORP. : COMPANY
WELL.               GUEST A #1 : WELL
FLD .               BEAR GRASS : FIELD
LOC .                          : LOCATION
CNTY.                     LEON : COUNTY
STAT.                    TEXAS : STATE
CTRY. UNITED STATES OF AMERICA : COUNTRY
SRVC.            Dresser Atlas : SERVICE COMPANY
DATE.              30-Oct-1981 : LOGDATE
API .           42289304700000 : API NUMBER
UWI .           42289304700000 : UNIQUE WELL ID
SLAT.WGS84        31.355337108 : SURFACE LATITUDE
SLON.WGS84       -96.287476523 : SURFACE LONGITUDE
~Curve Information -----------------------------------------
DEPT    .FT    : DEPTH FEET
ACED    .US/F  : ACOUSTIC FROM SONIC LOG
CALDED  .IN    : CALIPER FROM DENSITY LOG
CALSED  .IN    : CALIPER FROM SONIC LOG [ADJ. TO CALDED]
CALWS   .IN    : CALIPER [CALSED]
CNLSED  .V/V   : COMPENSATED NEUTRON POROSITY LIME FROM DENSITY LOG
CONDWS  .MMHO  : CONDUCTIVITY [1000/DRESWS]
CORRED  .G/C3  : DENSITY CORRECTION FROM DENSITY LOG
DCORWS  .G/C3  : DENSITY CORRECTION [CORRED]
DENED   .G/C3  : COMPENSATED BULK DENSITY FROM DENSITY LOG
DENWS   .G/C3  : FORMATION BULK DENSITY [DENED]
DPOWS   .V/V   : DENSITY POROSITY LIME [PORDLSED]
DRESWS  .OHMM  : DEEP RESISTIVITY [RILDED]
DTWS    .US/F  : COMPRESSIONAL SONIC [ACED]
GR1ED   .GAPI  : GAMMA RAY FROM CBL LOG [ADJ. TO GRDED]
GRDED   .GAPI  : GAMMA RAY FROM DENSITY LOG
GRED    .GAPI  : GAMMA RAY FROM CBL LOG [ADJ. TO GRDED]
GRSED   .GAPI  : GAMMA RAY FROM SONIC LOG [ADJ. TO GRDED]
GRWS    .GAPI  : GAMMA RAY [GRED SPL. TO GRDED 2138'- 2296' & 10100.5-10122']
MRESWS  .OHMM  : MEDIUM RESISTIVITY [RILMED]
NPOWS   .V/V   : NEUTRON POROSITY LIME [CNLSED]
PORDLSED.V/V   : DENSITY POROSITY LIME [M=2.71, F=1.0] FROM DENSITY LOG
RFOCED  .OHMM  : SHALLOW FOCUSED RESISTIVITY FROM RESISTIVITY LOG
RILDED  .OHMM  : DEEP INDUCTION RESISTIVITY FROM RESISTIVITY LOG
RILMED  .OHMM  : MEDIUM INDUCTION RESISTIVITY FROM RESISITIVITY LOG
SPRED   .MV    : SPONTANEOUS POTENTIAL FROM RESISTIVITY LOG
SPSED   .MV    : SPONTANEOUS POTENTIAL FROM SONIC LOG [ADJ. TO SPRED]
SPWS    .MV    : SPONATNEOUS POTENTIAL [BASELINE 0 MV, SPRED]
SRESWS  .OHMM  : SHALLOW RESISTIVITY [RFOCED]
TENDED  .LBF   : TENSION FROM DENSITY LOG
TENRED  .LBF   : TENSION FROM RESISTIVITY LOG
TENSED  .LBF   : TENSION FROM SONIC LOG
~Params ----------------------------------------------------
PD  .                     GL : PERMANENT DATUM
EPD .FT                  418 : ELEVATION PERMANENT DATUM
LMF .                     KB : LOG MEASURED FROM
DAPD.FT                   23 : FEET ABOVE PERMANENT DATUM
DMF .                     KB : DRILLING MEASURED FROM
EKB .FT                  441 : KELLY BUSHING
EDF .FT                  440 : DRILLING FLOOR
EGL .FT                  418 : GROUND LEVEL
DATE.               10/30/81 : RUN DATE
RUN .                      2 : RUN NUMBER
DD  .FT                10174 : DEPTH DRILLER
DL  .FT                10156 : DEPTH LOGGER
BLI .FT                10154 : BOTTOM LOG INTERVAL
TLI .FT                 9800 : TOP LOG INTERVAL
CS  .IN                8.625 : CASING SIZE
CBD .FT                 1350 : CASING BOTTOM DRILLER
BS  .IN                7.875 : BIT SIZE
BSD .FT                10174 : BIT SIZE AT DEPTH
DFT .                  LIGNO : DRILLING FLUID TYPE
DFD .                     10 : DRILLING FLUID DENSITY
DFPH.                     10 : DRILLING FLUID PH
DFL .                   10.5 : DRILLING FLUID LOSS
MSS .               FLOWLINE : MUD SAMPLE SOURCE
RMS .OHMM               1.48 : RESISTIVITY MUD SAMPLE
MST .DEGF                 90 : MUD SAMPLE TEMPERATURE
RMF .OHMM               1.11 : RESISTIVITY MUD FILTRATE SAMPLE
MFST.DEGF                 90 : MUD FILTRATE SAMPLE TEMPERATURE
RMC .OHMM               1.85 : RESISTIVITY MUD CAKE
MCST.DEGF                 90 : MUD CAKE SAMPLE TEMPERATURE
MFSS.                      C : MUD FILTRATE SAMPLE SOURCE
MCSS.                      C : MUD CAKE SAMPLE SOURCE
RMB .OHMM               0.51 : RESISTIVITY MUD AT BHT
TCS .HRS                 600 : TIME CIRCULATED STOPPED
LUN .                   6335 : LOGGING UNIT NUMBER
LUL .                  TYLER : LOGGING UNIT LOCATION
ENGI.                  BANKS : RECORDING ENGINEER
WITN.                  WYNNE : WITNESSED BY
CLNT.                A2DTECH : CLIENT CODE
ORIG.            2" 5" PRINT : ORIGIN OF DATA
UWI .         42289304700000 : UNIQUE WELL ID
DICO. A2D Technologies, Inc. : DIGITIZING COMPANY
~Other -----------------------------------------------------
TOOL RUN: CBL-DIL-SFL-CNFD-SONIC
~ASCII -----------------------------------------------------
# ...
 3700.00000    -999.25    -999.25    -999.25    -999.25    -999.25  638.77360    -999.25    -999.25    -999.25    -999.25    -999.25    1.56550    -999.25    -999.25    -999.25    -999.25    -999.25    -999.25    1.70370    -999.25    -999.25    2.15000    1.56550    1.70370  -72.08600    -999.25   -2.74470    2.15000    -999.25   -5.72040    -999.25
 3750.00000    -999.25    -999.25    -999.25    -999.25    -999.25  516.74250    -999.25    -999.25    -999.25    -999.25    -999.25    1.93520    -999.25    -999.25    -999.25    -999.25    -999.25    -999.25    2.00340    -999.25    -999.25    2.40550    1.93520    2.00340  -72.20790    -999.25   -3.10560    2.40550    -999.25   -3.13990    -999.25
 3800.00000    -999.25    -999.25    -999.25    -999.25    -999.25  783.26940    -999.25    -999.25    -999.25    -999.25    -999.25    1.27670    -999.25    -999.25    -999.25    -999.25    -999.25    -999.25    1.34360    -999.25    -999.25    1.93260    1.27670    1.34360  -70.61700    -999.25   -1.86110    1.93260    -999.25   -0.55930    -999.25
 3850.00000    -999.25    -999.25    -999.25    -999.25    -999.25  819.06790    -999.25    -999.25    -999.25    -999.25    -999.25    1.22090    -999.25    -999.25    -999.25    -999.25    -999.25    -999.25    1.29090    -999.25    -999.25    1.80010    1.22090    1.29090  -73.33550    -999.25   -4.88800    1.80010    -999.25    2.02130    -999.25
 3900.00000    -999.25    -999.25    -999.25    -999.25    -999.25  844.95140    -999.25    -999.25    -999.25    -999.25    -999.25    1.18350    -999.25    -999.25    -999.25    -999.25    -999.25    -999.25    1.24050    -999.25    -999.25    1.75110    1.18350    1.24050  -72.49350    -999.25   -4.25150    1.75110    -999.25   -0.10940    -999.25
 3950.00000    -999.25    -999.25    -999.25    -999.25    -999.25  967.11800    -999.25    -999.25    -999.25    -999.25    -999.25    1.03400    -999.25    -999.25    -999.25    -999.25    -999.25    -999.25    1.08090    -999.25    -999.25    1.63990    1.03400    1.08090  -71.47210    -999.25   -3.43550    1.63990    -999.25   10.64670    -999.25
 4000.00000  116.40070   14.22280   13.19750   13.19750    0.25860  908.18270    0.20950    0.20950    2.31900    2.31900    0.22650    1.10110  116.40070    -999.25   95.34620    -999.25   81.40130   95.34620    1.15230    0.25860    0.22650    1.66360    1.10110    1.15230  -71.72590  -59.12070   -3.89480    1.66360    5.68170    9.63570    5.16390
 4050.00000  113.42320   15.07720   14.53450   14.53450    0.25300  937.55860    0.13640    0.13640    2.30260    2.30260    0.23820    1.06660  113.42320    -999.25   91.22350    -999.25   79.41060   91.22350    1.12140    0.25300    0.23820    1.64670    1.06660    1.12140  -69.95420  -58.77860   -2.25650    1.64670   -0.90320    4.29680    1.88150
 4100.00000  103.14240   13.37260   13.10140   13.10140    0.22690  811.22740    0.16170    0.16170    2.31220    2.31220    0.23270    1.23270  103.14240    -999.25  103.04010    -999.25   92.20200  103.04010    1.30650    0.22690    0.23270    1.89110    1.23270    1.30650  -69.77880  -59.98730   -1.90760    1.89110   -0.24960    0.78120    3.68810
 4150.00000   97.72710   12.11550   11.78930   11.78930    0.19280  543.74420    0.05760    0.05760    2.45290    2.45290    0.14930    1.83910   97.72710    -999.25  101.07890    -999.25   87.83410  101.07890    1.95240    0.19280    0.14930    2.29320    1.83910    1.95240  -71.25310  -60.49410   -3.20830    2.29320   -0.35490   -2.73450    1.34560
 4200.00000   88.48470   12.02230    9.85350    9.85350    0.15630  350.36090    0.02050    0.02050    2.52110    2.52110    0.11030    2.85420   88.48470    -999.25   77.11850    -999.25   71.58310   77.11850    3.14110    0.15630    0.11030    3.17780    2.85420    3.14110  -74.23430  -61.95650   -6.01590    3.17780    1.81670   -6.25010   -2.24850
 4250.00000  102.77750   13.34120   12.83270   12.83270    0.20700  589.17100    0.13120    0.13120    2.48070    2.48070    0.13350    1.69730  102.77750    -999.25   99.16320    -999.25   92.39540   99.16320    1.83700    0.20700    0.13350    2.16010    1.69730    1.83700  -72.97210  -61.86160   -4.58020    2.16010    2.75980   -9.76570    1.01360
 4300.00000   97.64790   14.18780   13.22130   13.22130    0.20970  629.16820    0.07260    0.07260    2.44950    2.44950    0.15090    1.58940   97.64790    -999.25   93.33470    -999.25   80.40270   93.33470    1.73240    0.20970    0.15090    2.24120    1.58940    1.73240  -72.51050  -64.24500   -4.13480    2.24120    0.98660    9.55540    2.08260
 4350.00000   91.06250   12.87160   10.82370   10.82370    0.17210  434.34830    0.02060    0.02060    2.52130    2.52130    0.11040    2.30230   91.06250    -999.25   80.03090    -999.25   71.48360   80.03090    2.47970    0.17210    0.11040    2.97730    2.30230    2.47970  -72.00050  -63.14800   -3.97850    2.97730    2.80680  -11.06020    3.06790
 4400.00000   90.42910   12.15370   11.25430   11.25430    0.18700  695.36190    0.02600    0.02600    2.35070    2.35070    0.21090    1.43810   90.42910    -999.25   66.65130    -999.25   66.07720   66.65130    1.61580    0.18700    0.21090    2.22210    1.43810    1.61580  -68.77360  -61.54900   -1.10530    2.22210    2.18850   -3.72960    2.26250
 4450.00000   79.97990   11.47460   10.83700   10.83700    0.11900  283.48690    0.00770    0.00770    2.52970    2.52970    0.10420    3.52750   79.97990    -999.25   51.40030    -999.25   50.82020   51.40030    3.72950    0.11900    0.10420    3.66350    3.52750    3.72950  -75.08390  -65.15990   -5.25420    3.66350    2.64980   -7.18240    5.26740
 4500.00000   75.74510   11.34410   11.24160   11.24160    0.09950  335.52540    0.01420    0.01420    2.53130    2.53130    0.10500    2.98040   75.74510    -999.25   37.35800    -999.25   41.47560   37.35800    3.41480    0.09950    0.10500    3.59390    2.98040    3.41480  -75.51420  -65.45110   -7.03820    3.59390   -0.48030    6.51430    6.16970
 4550.00000   77.86500   11.40360   11.37690   11.37690    0.10860  306.54160    0.00340    0.00340    2.52980    2.52980    0.10870    3.26220   77.86500    -999.25   50.75360    -999.25   49.10870   50.75360    3.59980    0.10860    0.10870    3.78380    3.26220    3.59980  -72.76070  -65.37070   -4.17910    3.78380   -1.06880    6.96810    6.01380
 4600.00000   80.48120   10.89630   11.03320   11.03320    0.11470  266.70220   -0.00700   -0.00700    2.53990    2.53990    0.09860    3.74950   80.48120    -999.25   58.55140    -999.25   55.99270   58.55140    4.10670    0.11470    0.09860    4.09310    3.74950    4.10670  -73.19980  -64.53280   -4.09430    4.09310    1.91690    8.12120    8.48270
 4650.00000   73.82950   10.38630   10.29320   10.29320    0.10950  278.28020   -0.01050   -0.01050    2.52500    2.52500    0.10970    3.59350   73.82950    -999.25   38.03300    -999.25   38.82340   38.03300    3.94060    0.10950    0.10970    3.90120    3.59350    3.94060  -86.17460  -73.64570  -16.54510    3.90120    1.17880   -1.32380    3.82170
 4700.00000   77.73100   10.24710   10.10950   10.10950    0.10390  359.10510   -0.01330   -0.01330    2.51270    2.51270    0.11560    2.78470   77.73100    -999.25   65.14970    -999.25   63.07230   65.14970    3.16070    0.10390    0.11560    5.60770    2.78470    3.16070  -76.26990  -65.68520   -6.11650    5.60770    4.09100   -3.80210   -3.32790
 4750.00000   71.17090   10.23970    9.92610    9.92610    0.09150  219.19730   -0.00490   -0.00490    2.51470    2.51470    0.11310    4.56210   71.17090    -999.25   25.67240    -999.25   32.67490   25.67240    5.15910    0.09150    0.11310    5.83110    4.56210    5.15910  -98.32420  -85.15320  -29.96500    5.83110    5.15430    0.80640    5.78670
 4800.00000   85.01500   13.13850   13.50400   13.50400    0.21300  453.74110    0.20090    0.20090    2.34950    2.34950    0.20390    2.20390   85.01500    -999.25   71.75220    -999.25   72.74720   71.75220    2.42330    0.21300    0.20390    2.16670    2.20390    2.42330  -70.54170  -60.26020   -3.71540    2.16670    1.19130    5.41480    5.05660
