~Version ---------------------------------------------------
VERS. 2.0 : CWLS log ASCII Standard -VERSION 2.0
WRAP. YES : Multiple lines per depth step
~Well ------------------------------------------------------
STRT.FT                  300.0 : START DEPTH
STOP.FT                24000.0 : STOP DEPTH
STEP.FT               50.00000 : STEP LENGTH
NULL.                  -999.25 : NULL VALUE
COMP.       PLACID OIL COMPANY : COMPANY
WELL.                PEELER #1 : WELL
FLD .                  WILDCAT : FIELD
LOC .                          : LOCATION
CNTY.                MC MULLEN : COUNTY
STAT.                    TEXAS : STATE
CTRY. UNITED STATES OF AMERICA : COUNTRY
SRVC.             Schlumberger : SERVICE COMPANY
DATE.              01-Jan-1984 : LOGDATE
API .           42311317850000 : API NUMBER
UWI .           42311317850000 : UNIQUE WELL ID
SLAT.WGS84       28.5959255047 : SURFACE LATITUDE
SLON.WGS84      -98.4401225914 : SURFACE LONGITUDE
~Curve Information -----------------------------------------
DEPT  .FT    : 
CALDED.IN    : CALIPER FROM DENSITY LOG (ADJ TO RES.)
CALWS .IN    : CALIPER (CALDED)
CILDED.MMHO  : CONDUCTIVITY FROM LOG
CONDWS.MMHO  : CONDUCTIVITY (1000/DRESws)
DCORWS.G/C3  : DENSITY CORRECTION (DRHOED)
DENWS .G/C3  : BULK DENSITY  (FROM DPOws LS)
DPHIED.V/V   : DENSITY POROSITY  (ADJ TO RES.)
DPOWS .V/V   : DENSITY POROSITY (M=2.71 F=1 DPHIED)
DRESWS.OHMM  : DEEP RESISTIVITY (ILDED)
DRHOED.G/C3  : DENSITY CORRECTION (ADJ TO RES.)
DTED  .US/F  : DELTA TIME
DTWS  .US/F  : DELTA TIME  (DTED)
GRWS  .GAPI  : GAMMA RAY (GRRED)
GRRED .GAPI  : GAMMA RAY FROM RESISTIVITY LOG
ILDED .OHMM  : DEEP INDUCTION RESISTIVITY
ILMED .OHMM  : MEDIUM INDUCTION RESISTIVITY
MRESWS.OHMM  : MEDIUM RESISTIVITY (ILMED)
NPHIED.V/V   : NEUTRON POROSITY (ADJ TO RES.)
NPOWS .V/V   : NEUTRON POROSITY LIMESTONE (NPHIED)
RHOBED.G/C3  : BULK DENSITY (ADJ TO RES.)
SFLAED.OHMM  : SPHERICALLY FOCUSED RESISTIVITY
SPWS  .MV    : SPONTANEOUS POTENTIAL BASELINE 0 MV (SPRED)
SPRED .MV    : SPONTANEOUS POTENTIAL FROM RESISTIVITY
SRESWS.OHMM  : SHALLOW RESISTIVITY (SFLAED)
~Params ----------------------------------------------------
PD  .                     GL : PERMANENT DATUM
EPD .F                   336 : ELEVATION PERMANENT DATUM
LMF .                     KB : LOG MEASURED FROM
DMF .                     KB : DRILLING MEASURED FROM
EKB .F                   368 : KELLING BUSHING
EDF .F                   367 : DRILLING FLOOR
EGL .F                   336 : GROUND LEVEL
DATE.               1-1-1984 : RUN DATE
RUN .                      7 : RUN NUMBER
DD  .F                 24031 : DEPTH DRILLER
DL  .F                 24037 : DEPTH LOGGER
BLI .F                 24030 : BOTTOM LOG INTERVAL
TLI .F                 21000 : TOP LOG INTERVAL
CS  .IN                8.625 : CASING SIZE
CBD .F                 19500 : CASING BOTTOM DRILLER
CBL .F                 19500 : CASING BOTTOM LOGGER
BS  .IN                  7.5 : BIT SIZE
BSD .F                 24031 : BIT SIZE AT DEPTH
DFT .               INVERMUL : DRILLING FLUID TYPE
DFV .                     83 : DRILLING FLUID VISCOSITY
TCS .HRS                 800 : TIME CURCULATED STOPPED
TLAB.HRS                 200 : TIME LOGGER AT BOTTOM
LUL .               EDINBURG : LOGGING UNIT LOCATION
ENGI.              NEWMISTER : RECORDING ENGINEER
WITN.                   LONG : WITNESSED BY
CLNT.                A2DTECH : CLIENT CODE
ORIG.            1",5" PRINT : ORIGIN OF DATA
UWI .         42311317850000 : UNIQUE WELL ID
DICO. A2D Technologies, Inc. : DIGITIZING COMPANY
~Other -----------------------------------------------------
~ASCII -----------------------------------------------------
# ...
 22050.00000    -999.25    -999.25    -999.25  184.09430   -0.02400    2.63680    0.04280    0.04280    5.43200   -0.02400   65.46700   65.46700   34.22900   34.22900    5.43200    -999.25    -999.25    0.13600    0.13600    2.61000    -999.25    -999.25    -999.25    -999.25
 22100.00000    -999.25    -999.25    -999.25   26.11650   -0.00500    2.22300    0.28480    0.28480   38.29000   -0.00500   67.57900   67.57900    9.21000    9.21000   38.29000    -999.25    -999.25    0.02000    0.02000    2.14300    -999.25    -999.25    -999.25    -999.25
 22150.00000    -999.25    -999.25    -999.25  130.36110   -0.02600    2.58910    0.07070    0.07070    7.67100   -0.02600   57.95600   57.95600   21.86100   21.86100    7.67100    -999.25    -999.25    0.14200    0.14200    2.43100    -999.25    -999.25    -999.25    -999.25
 22200.00000    -999.25    -999.25    -999.25   43.43290   -0.01300    2.44050    0.15760    0.15760   23.02400   -0.01300   60.53400   60.53400   17.85800   17.85800   23.02400    -999.25    -999.25    0.01400    0.01400    2.47200    -999.25    -999.25    -999.25    -999.25
 22250.00000    -999.25    -999.25    -999.25   32.62320   -0.02500    2.31720    0.22970    0.22970   30.65300   -0.02500   62.52800   62.52800   13.42400   13.42400   30.65300    -999.25    -999.25    0.03300    0.03300    2.29300    -999.25    -999.25    -999.25    -999.25
 22300.00000    -999.25    -999.25    -999.25  165.86500   -0.02100    2.73990   -0.01750   -0.01750    6.02900   -0.02100   55.28600   55.28600   27.54200   27.54200    6.02900    -999.25    -999.25    0.11000    0.11000    2.87000    -999.25    -999.25    -999.25    -999.25
 22350.00000    -999.25    -999.25    -999.25  184.09430    0.10500    2.54550    0.09620    0.09620    5.43200    0.10500   65.15700   65.15700   16.30900   16.30900    5.43200    -999.25    -999.25   -0.01500   -0.01500    2.70000    -999.25    -999.25    -999.25    -999.25
 22400.00000    -999.25    -999.25    -999.25    0.74690   -0.03800    2.07540    0.37110    0.37110 1338.79300   -0.03800   67.41700   67.41700   10.21300   10.21300 1338.79300    -999.25    -999.25   -0.02300   -0.02300    2.07700    -999.25    -999.25    -999.25    -999.25
 22450.00000    -999.25    -999.25    -999.25  107.72380   -0.03900    2.60650    0.06050    0.06050    9.28300   -0.03900   60.48200   60.48200   28.32800   28.32800    9.28300    -999.25    -999.25    0.06800    0.06800    2.60800    -999.25    -999.25    -999.25    -999.25
 22500.00000    -999.25    -999.25    -999.25    0.64770    0.01500    2.22230    0.28520    0.28520 1543.84590    0.01500   68.27400   68.27400    4.85900    4.85900 1543.84590    -999.25    -999.25   -0.01900   -0.01900    2.12800    -999.25    -999.25    -999.25    -999.25
 22550.00000    -999.25    -999.25    -999.25    4.56590    0.00300    2.15840    0.32260    0.32260  219.01700    0.00300   58.67300   58.67300    5.34300    5.34300  219.01700    -999.25    -999.25   -0.02400   -0.02400    2.15500    -999.25    -999.25    -999.25    -999.25
 22600.00000    -999.25    -999.25    -999.25   11.67640   -0.01000    2.43980    0.15800    0.15800   85.64300   -0.01000   64.30600   64.30600   13.39100   13.39100   85.64300    -999.25    -999.25   -0.00900   -0.00900    2.38500    -999.25    -999.25    -999.25    -999.25
 22650.00000    -999.25    -999.25    -999.25   33.37560   -0.00800    2.61710    0.05430    0.05430   29.96200   -0.00800   65.89300   65.89300   13.98800   13.98800   29.96200    -999.25    -999.25    0.03700    0.03700    2.69500    -999.25    -999.25    -999.25    -999.25
 22700.00000    -999.25    -999.25    -999.25   72.89160   -0.02900    2.85960   -0.08750   -0.08750   13.71900   -0.02900   51.47000   51.47000    8.45600    8.45600   13.71900    -999.25    -999.25    0.03200    0.03200    2.85400    -999.25    -999.25    -999.25    -999.25
 22750.00000    -999.25    -999.25    -999.25   88.73900    0.00000    2.80130   -0.05340   -0.05340   11.26900    0.00000   62.87300   62.87300   33.33900   33.33900   11.26900    -999.25    -999.25    0.08400    0.08400    2.79400    -999.25    -999.25    -999.25    -999.25
 22800.00000    -999.25    -999.25    -999.25   88.14460   -0.01600    2.96970   -0.15190   -0.15190   11.34500   -0.01600   51.93600   51.93600    6.91000    6.91000   11.34500    -999.25    -999.25   -0.00500   -0.00500    2.97200    -999.25    -999.25    -999.25    -999.25
 22850.00000    -999.25    -999.25    -999.25   88.20680   -0.01100    2.91880   -0.12210   -0.12210   11.33700   -0.01100   51.12300   51.12300    9.12800    9.12800   11.33700    -999.25    -999.25    0.05200    0.05200    2.89500    -999.25    -999.25    -999.25    -999.25
 22900.00000    -999.25    -999.25    -999.25  121.37390   -0.00100    2.90290   -0.11280   -0.11280    8.23900   -0.00100   53.38500   53.38500   21.34500   21.34500    8.23900    -999.25    -999.25    0.01800    0.01800    2.91500    -999.25    -999.25    -999.25    -999.25
 22950.00000    -999.25    -999.25    -999.25  132.43280    0.00600    2.87780   -0.09810   -0.09810    7.55100    0.00600   57.01400   57.01400   18.67100   18.67100    7.55100    -999.25    -999.25    0.02200    0.02200    2.89800    -999.25    -999.25    -999.25    -999.25
 23000.00000    -999.25    -999.25    -999.25   20.78350   -0.00700    2.93250   -0.13010   -0.13010   48.11500   -0.00700   50.20300   50.20300   11.38700   11.38700   48.11500    -999.25    -999.25   -0.00200   -0.00200    2.93300    -999.25    -999.25    -999.25    -999.25
 23050.00000    -999.25    -999.25    -999.25   16.09500    0.02600    2.79000   -0.04680   -0.04680   62.13100    0.02600   48.82900   48.82900   20.38000   20.38000   62.13100    -999.25    -999.25    0.00600    0.00600    2.79500    -999.25    -999.25    -999.25    -999.25
 23100.00000    -999.25    -999.25    -999.25   37.45600    0.00200    2.88610   -0.10300   -0.10300   26.69800    0.00200   50.07500   50.07500   12.85500   12.85500   26.69800    -999.25    -999.25    0.00300    0.00300    2.88800    -999.25    -999.25    -999.25    -999.25
 23150.00000    -999.25    -999.25    -999.25   22.03370   -0.01000    2.97110   -0.15270   -0.15270   45.38500   -0.01000   53.11600   53.11600   11.30000   11.30000   45.38500    -999.25    -999.25   -0.00100   -0.00100    2.98900    -999.25    -999.25    -999.25    -999.25
 23200.00000    -999.25    -999.25    -999.25   16.43360    0.04200    2.94150   -0.13540   -0.13540   60.85100    0.04200   49.21000   49.21000   18.28200   18.28200   60.85100    -999.25    -999.25    0.00300    0.00300    2.95800    -999.25    -999.25    -999.25    -999.25
 23250.00000    -999.25    -999.25    -999.25   22.89740    0.00300    2.76570   -0.03260   -0.03260   43.67300    0.00300   47.63600   47.63600   19.04900   19.04900   43.67300    -999.25    -999.25    0.01400    0.01400    2.77300    -999.25    -999.25    -999.25    -999.25
 23300.00000    -999.25    -999.25    -999.25   10.80940    0.04200    3.02570   -0.18460   -0.18460   92.51200    0.04200   51.96800   51.96800   15.68200   15.68200   92.51200    -999.25    -999.25    0.00000    0.00000    3.02500    -999.25    -999.25    -999.25    -999.25
 23350.00000    -999.25    -999.25    -999.25   25.11300   -0.00100    2.92480   -0.12560   -0.12560   39.82000   -0.00100   52.40100   52.40100   18.80400   18.80400   39.82000    -999.25    -999.25    0.01000    0.01000    2.92900    -999.25    -999.25    -999.25    -999.25
 23400.00000    -999.25    -999.25    -999.25   11.56460    0.00800    2.97620   -0.15570   -0.15570   86.47100    0.00800   50.67600   50.67600   12.57600   12.57600   86.47100    -999.25    -999.25   -0.00500   -0.00500    2.97300    -999.25    -999.25    -999.25    -999.25
 23450.00000    -999.25    -999.25    -999.25    2.82130   -0.01000    2.74970   -0.02320   -0.02320  354.44700   -0.01000   47.93900   47.93900    9.55100    9.55100  354.44700    -999.25    -999.25    0.00100    0.00100    2.75200    -999.25    -999.25    -999.25    -999.25
