~Version ---------------------------------------------------
VERS. 2.0 : CWLS log ASCII Standard -VERSION 2.0
WRAP.  NO : ONE LINE PER DEPTH STEP
~Well ------------------------------------------------------
STRT.F                    3800.0 : START DEPTH
STOP.F                    8500.0 : STOP DEPTH
STEP.F                  50.00000 : STEP LENGTH
NULL.                    -999.25 : NULL VALUE
COMP. CHAMPLIN PETROLEUM COMPANY : COMPANY
WELL.     MARYANN ZGABAY UNIT #1 : WELL
FLD .                   GIDDINGS : FIELD
LOC .                            : LOCATION
CNTY.                   BURLESON : COUNTY
STAT.                      TEXAS : STATE
CTRY.   UNITED STATES OF AMERICA : COUNTRY
SRVC.               Schlumberger : SERVICE COMPANY
DATE.                22-Jun-1980 : LOGDATE
API .             42051306560000 : API NUMBER
UWI .             42051306560000 : UNIQUE WELL ID
SLAT.WGS84         30.3487905786 : SURFACE LATITUDE
SLON.WGS84        -96.7442146113 : SURFACE LONGITUDE
~Curve Information -----------------------------------------
DEPT   .F                 : 
ILD    .OHMM 07 120 46 00 : INDUCTION DEEP RESISTIVITY
ILM    .OHMM 07 120 44 00 : INDUCTION MEDIUM RESISTIVITY
SFLU   .OHMM 07 220 01 00 : SHALLOW FOCUSED RESISTIVITY (UNAVERAGED)
SPR    .MV   07 010 01 00 : SPONTANEOUS POTENTIAL FROM RESISTIVITY LOG
GRR    .GAPI 07 310 01 00 : GAMMA RAY FROM RESISTIVITY LOG
DT     .US/F 60 500 00 00 : DELTA-T (INTERVAL TRANSIT TIME)
CALS   .IN   60 280 50 00 : CALIPER FROM SONIC LOG
DPHI_1 .DEC  45 890 00 00 : DENSITY POROSITY
GRS    .GAPI 60 310 01 00 : GAMMA RAY FROM SONIC LOG
SPHI   .DEC  60 890 00 00 : SONIC POROSITY
DPHI_SS.DEC  45 890 12 00 : DENSITY POROSITY SANDSTONE
NPHI_LS.DEC  42 890 01 00 : NEUTRON POROSITY LIMESTONE
DPHI_LS.DEC  45 890 10 00 : DENSITY POROSITY LIMESTONE
GRD    .GAPI 45 310 01 00 : GAMMA RAY FROM DENSITY LOG
CALD   .IN   45 280 60 00 : CALIPER FROM DENSITY LOG
RHOB   .G/C3 45 350 01 00 : BULK DENSITY
DRHO   .G/C3 45 356 01 00 : BULK DENSITY CORRECTION
NPHI_SS.DEC  42 890 03 00 : NEUTRON POROSITY SANDSTONE
~Params ----------------------------------------------------
PD  .                     GL : PERMANENT DATUM
EPD .FT                  279 : ELEVATION PERMANENT DATUM
LMF .                     KB : LOG MEASURED FROM
DAPD.FT                 16.3 : FEET ABOVE PERMANENT DATUM
DMF .                     KB : DRILLING MEASURED FROM
EKB .FT                295.3 : KELLY BUSHING
EDF .FT                294.3 : DRILLING FLOOR
EGL .FT                  279 : GROUND LEVEL
DATE.                6-22-80 : RUN DATE
RUN .                      1 : RUN NUMBER
DD  .FT                 8522 : DEPTH DRILLER
DL  .FT                 8523 : DEPTH LOGGER
BLI .FT                 8516 : BOTTOM LOG INTERVAL
TLI .FT                 3796 : TOP LOG INTERVAL
CS  .IN                9.625 : CASING SIZE
CBD .FT                 3784 : CASING BOTTOM DRILLER
CBL .FT                 3796 : CASING BOTTOM LOGGER
BS  .IN                 8.75 : BIT SIZE
BSD .FT                 8522 : BIT SIZE AT DEPTH
DFT .                 BEN-EX : DRILLING FLUID TYPE
DFD .                    9.5 : DRILLING FLUID DENSITY
DFV .                     44 : DRILLING FLUID VISCOSITY
DFPH.                    9.5 : DRILLING FLUID PH
DFL .                    6.6 : DRILLING FLUID LOSS
MSS .               MUD TANK : MUD SAMPLE SOURCE
RMS .OHMM               2.06 : RESISTIVITY MUD SAMPLE
MST .DEGF                 94 : MUD SAMPLE TEMPERATURE
RMF .OHMM               1.52 : RESISTIVITY MUD FILTRATE SAMPLE
MFST.DEGF                 94 : MUD FILTRATE SAMPLE TEMPERATURE
RMC .OHMM               3.04 : RESISTIVITY MUD CAKE
MCST.DEGF                 94 : MUD CAKE SAMPLE TEMPERATURE
MFSS.                      C : MUD FILTRATE SAMPLE SOURCE
MCSS.                      C : MUD CAKE SAMPLE SOURCE
RMB .OHMM              0.988 : RESISTIVITY MUD AT BHT
TCS .HRS                 300 : TIME CIRCULATED STOPPED
TLAB.HRS                1000 : TIME LOGGER AT BOTTOM
LUN .                   7750 : LOGGING UNIT NUMBER
LUL .                BRENHAM : LOGGING UNIT LOCATION
ENGI.            KRONEBITTER : RECORDING ENGINEER
WITN.             PRESTRIDGE : WITNESSED BY
CLNT.                A2DTECH : CLIENT CODE
ORIG.          1" 2.5" PRINT : ORIGIN OF DATA
UWI .         42051306560000 : UNIQUE WELL ID
DICO. A2D Technologies, Inc. : DIGITIZING COMPANY
~Other -----------------------------------------------------
~ASCII -----------------------------------------------------
# ...
 5750.00000    2.23520    2.10190    3.96650   -9.73370   44.86720   94.16170    -999.25    -999.25    -999.25    -999.25    -999.25    0.30870    0.24260   61.94600    9.66180    2.34030    0.16150    -999.25
 5800.00000    1.02770    1.03950    3.13490   -2.78110   39.73210  108.08530    -999.25    -999.25    -999.25    -999.25    -999.25    0.34990    0.20210   89.38050   11.26460    2.36010    0.02430    -999.25
 5850.00000    1.17250    1.17750    3.24490   -5.24650   39.06160  103.89220    -999.25    -999.25    -999.25    -999.25    -999.25    0.35790    0.17100   82.30090   11.98520    2.40250    0.05260    -999.25
 5900.00000    1.35630    1.31550    3.29890   -2.48420   38.83930  101.49700    -999.25    -999.25    -999.25    -999.25    -999.25    0.35820    0.17680   78.76430   12.61760    2.41070    0.05970    -999.25
 5950.00000    1.04210    1.03240    3.20040    4.61540   42.93180  105.98710    -999.25    -999.25    -999.25    -999.25    -999.25    0.31180    0.19000   87.33460   11.98530    2.39840    0.04300    -999.25
 6000.00000    1.50530    1.50410    2.73000    4.02370   48.81200   94.46270    -999.25    -999.25    -999.25    -999.25    -999.25    0.30160    0.15710   87.24620   11.83490    2.45680    0.03760    -999.25
 6050.00000    1.67000    1.68800    3.07770    1.65680   42.70890   90.86830    -999.25    -999.25    -999.25    -999.25    -999.25    0.26360    0.19550   87.16810   11.45590    2.37280    0.08480    -999.25
 6100.00000    1.64690    1.64170    3.40640    2.84260   45.85500   93.41320    -999.25    -999.25    -999.25    -999.25    -999.25    0.28590    0.26160   87.61060   13.13790    2.28870    0.13200    -999.25
 6150.00000    1.81490    1.78400    3.64450    7.57400   39.28570   88.32340    -999.25    -999.25    -999.25    -999.25    -999.25    0.26760    0.16560   75.14710   10.60300    2.42630    0.10690    -999.25
 6200.00000    1.35630    1.39040    3.45360    1.85600   44.19200   94.61080    -999.25    -999.25    -999.25    -999.25    -999.25    0.30760    0.27350   99.11430   12.80580    2.22620    0.07010    -999.25
 6250.00000    1.32840    1.38070    3.11430  -62.98660   39.28570   97.00740    -999.25    -999.25    -999.25    -999.25    -999.25    0.31900    0.23930   98.89360   13.99510    2.30210    0.07520    -999.25
 6300.00000    1.45370    1.42930    3.09190  -62.24850   46.87500   97.30730    -999.25    -999.25    -999.25    -999.25    -999.25    0.33020    0.22770   97.34570   13.92160    2.32690    0.07520    -999.25
 6350.00000    1.31310    1.30640    3.17860  -57.21820   58.48210   97.60480    -999.25    -999.25    -999.25    -999.25    -999.25    0.29800    0.21920  114.52870   12.37420    2.37650    0.10940    -999.25
 6400.00000    1.47390    1.53920    3.75210  -66.38930   47.61810   91.91620    -999.25    -999.25    -999.25    -999.25    -999.25    0.31050    0.18570   87.16810   13.47060    2.37620    0.10250    -999.25
 6450.00000    1.23030    1.21560    2.97310  -60.91600   48.73490   99.70250    -999.25    -999.25    -999.25    -999.25    -999.25    0.31320    0.17900   94.91150   13.38240    2.41050    0.05240    -999.25
 6500.00000    1.55560    1.61410    3.59990  -55.44290   56.24890   95.50700    -999.25    -999.25    -999.25    -999.25    -999.25    0.30340    0.13480  115.92920   12.35290    2.49400    0.05680    -999.25
 6550.00000    1.90610    1.92990    3.71210  -53.70480   50.27940   89.32210    -999.25    -999.25    -999.25    -999.25    -999.25    0.28090    0.16160  107.07960   11.05880    2.44720    0.11780    -999.25
 6600.00000    2.03970    2.09920    4.17210  -56.03550   37.05610   86.23000    -999.25    -999.25    -999.25    -999.25    -999.25    0.22410    0.10540   87.16890   11.57700    2.52980    0.15860    -999.25
 6650.00000    1.92530    1.94540    4.58530  -57.81060   39.51150   88.32460    -999.25    -999.25    -999.25    -999.25    -999.25    0.26930    0.15090   84.73450   12.92650    2.44870    0.15660    -999.25
 6700.00000    1.55340    1.54850    3.50170  -56.92280   40.18150   95.80590    -999.25    -999.25    -999.25    -999.25    -999.25    0.31200    0.16220   90.70690   14.42160    2.43010    0.13640    -999.25
 6750.00000    1.69950    1.74170    3.83100  -57.21970   39.36020   92.06420    -999.25    -999.25    -999.25    -999.25    -999.25    0.28260    0.15280   90.70760   14.52450    2.43680    0.13350    -999.25
 6800.00000    1.82610    1.93200    3.31670  -55.54250   37.94500   89.82230    -999.25    -999.25    -999.25    -999.25    -999.25    0.29380    0.15710   71.82710   12.19610    2.43600    0.18120    -999.25
 6850.00000    3.90170    4.10530    8.25350  -50.01980   21.42860   70.35930    -999.25    -999.25    -999.25    -999.25    -999.25    0.12690    0.06340   50.93920    9.80510    2.60660    0.00850    -999.25
 6900.00000    7.55850    7.49210   11.98970  -53.66740   18.30500   68.86030    -999.25    -999.25    -999.25    -999.25    -999.25    0.08800    0.05540   33.62830    9.42650    2.60420    0.00270    -999.25
 6950.00000    2.77900    2.74900    3.19350  -48.44210   46.94890   86.52740    -999.25    -999.25    -999.25    -999.25    -999.25    0.23410    0.05850   75.22230    9.41180    2.60270    0.00170    -999.25
 7000.00000    2.92990    2.99420    7.60590  -48.04670   31.69280   81.13770    -999.25    -999.25    -999.25    -999.25    -999.25    0.20480    0.19460   71.68110   10.37250    2.44490   -0.00660    -999.25
 7050.00000    2.19610    2.12830    4.55390  -47.75150   43.30360   86.72620    -999.25    -999.25    -999.25    -999.25    -999.25    0.24350    0.09690   82.07690   11.47060    2.54090    0.15310    -999.25
 7100.00000    2.23160    2.25610    4.49180  -45.08880   38.83640   85.71320    -999.25    -999.25    -999.25    -999.25    -999.25    0.22660    0.09430   83.19220   11.08820    2.54610    0.10990    -999.25
 7150.00000    3.14810    3.09190    4.81290  -39.31920   39.21180   81.13770    -999.25    -999.25    -999.25    -999.25    -999.25    0.16830    0.07770   75.22120   10.39480    2.58410    0.00290    -999.25
 7200.00000    2.10480    2.07200    4.13380  -43.01560   35.71610   87.97920    -999.25    -999.25    -999.25    -999.25    -999.25    0.22480    0.10270   83.81200   11.62140    2.53870    0.12910    -999.25
 7250.00000    2.59290    2.61910    5.64260  -35.76920   37.72320   81.73560    -999.25    -999.25    -999.25    -999.25    -999.25    0.19020    0.07770   73.82070    9.90690    2.58480    0.01940    -999.25
 7300.00000    1.88410    1.92100    4.36870  -42.13210   53.12320   89.51920    -999.25    -999.25    -999.25    -999.25    -999.25    0.24880    0.07920   97.17420   12.51010    2.57360    0.17920    -999.25
 7350.00000    1.81310    1.77820    4.04880  -37.39450   45.75890   91.01870    -999.25    -999.25    -999.25    -999.25    -999.25    0.23040    0.09090   97.12420   12.91170    2.55850    0.14550    -999.25
 7400.00000    2.21910    2.15520    4.24970  -32.95970   43.30360   88.02390    -999.25    -999.25    -999.25    -999.25    -999.25    0.26570    0.09640   95.13270   11.32050    2.55060    0.08040    -999.25
 7450.00000    1.93570    1.90260    3.83980  -36.73800   45.68450   92.18340    -999.25    -999.25    -999.25    -999.25    -999.25    0.28180    0.08930  103.31910   12.97060    2.56100    0.13350    -999.25
 7500.00000    2.64140    2.65550    4.68170  -27.04140   36.60710   81.13770    -999.25    -999.25    -999.25    -999.25    -999.25    0.18290    0.07200   74.28880   10.04960    2.58630    0.00660    -999.25
 7550.00000    8.29980    8.52480    8.51070  -38.33370   15.17860   64.37320   11.36870    0.18260   24.99190    0.08730    -999.25    0.06320    0.08080   24.77880   11.27940    2.44790    0.22640    -999.25
 7600.00000    6.93240    7.28800    7.80900  -27.93070   16.51570   65.01890   11.00490    0.05190   31.34190    0.10410    -999.25    0.06790    0.06190   31.41600   10.94120    2.61610   -0.00960    -999.25
 7650.00000    6.63540    6.94420   30.07340  -27.28720    9.37660   58.83230   12.05700    0.36130   40.29780    0.13290    -999.25    0.04990    0.36610   41.81100   12.01460    2.08850    0.10180    -999.25
