~Version ---------------------------------------------------
VERS. 2.0 : CWLS log ASCII Standard -VERSION 2.0
WRAP.  NO : ONE LINE PER DEPTH STEP
~Well ------------------------------------------------------
STRT.F                   2500.0 : START DEPTH
STOP.F                  11600.0 : STOP DEPTH
STEP.F                 50.00000 : STEP LENGTH
NULL.                   -999.25 : NULL VALUE
COMP. MATADOR OPERATING COMPANY : COMPANY
WELL.                 AUTREY #2 : WELL
FLD .              BALD PRAIRIE : FIELD
LOC .                           : LOCATION
CNTY.                 ROBERTSON : COUNTY
STAT.                     TEXAS : STATE
CTRY.  UNITED STATES OF AMERICA : COUNTRY
SRVC.                           : SERVICE COMPANY
DATE.                           : LOGDATE
API .            42395307330000 : API NUMBER
UWI .            42395307330000 : UNIQUE WELL ID
SLAT.WGS84        31.1144734373 : SURFACE LATITUDE
SLON.WGS84       -96.5293981383 : SURFACE LONGITUDE
~Curve Information -----------------------------------------
DEPT.F                 : 
GRD .GAPI 45 310 01 00 : GAMMA RAY FROM DENSITY LOG
TEND.LB   45 635 01 00 : TENSION FROM DENSITY LOG
CHTD.LB   45 635 01 00 : CH-TENSION FROM DENSITY LOG
SPR .MV   07 010 01 00 : SPONTANEOUS POTENTIAL
ILD .OHMM 07 120 46 00 : INDUCTION LOG DEEP
ILM .OHMM 07 120 44 00 : INDUCTION LOG MEDIUM
DFL .OHMM 07 220 01 00 : DIGITAL FOCUSED LATEROLOG
DCAL.IN   07 280 30 00 : DIFFERENTIAL CALIPER
DRHO.G/C3 45 356 01 00 : DENSITY CORRECTION
DPHI.DEC  45 890 10 00 : DENSITY POROSITY LIMESTONE
NPHI.DEC  42 890 01 00 : NEUTRON POROSITY LIMESTONE
PE  .B/E  45 358 01 00 : PHOTOELECTRIC FACTOR
~Params ----------------------------------------------------
EKB .F                 498.0 : Kelly bushing
EGL .F                 481.0 : Ground level
EDF .F                 497.0 : Drilling floor
EPD .F                 481.0 : Permanent datum
TD  .F               11628.0 : Total depth
DATE.            09-JUN-2002 : Date logged
CLNT.                A2DTECH : Client Code
SL  .  2205' FNL & 2156' FNL : Surface Location
PD  .                     GL : Permanent Datum
LMF .                     KB : Log Measured From
DMF .                     KB : Drilling Measured From
DAPD.F                    17 : Feet Above Permanent Datum
DD  .F                 11620 : Depth driller
DL  .F                 11628 : Depth logger
BLI .F                 11616 : Bottom log interval
TLI .F                  2516 : Top log interval
CS1 .IN                9.625 : Casing size
CBD1.         9.625" @ 2516' : Casing driller 1
CBL1.F                  2516 : Casing logger 1
BS1 .IN                7.875 : Bit size
BSD1.F                 11620 : Depth drilled with bit1
DFT .              WATERBASE : Type fluid in hole
DFD .                   10.2 : Density
DFV .                     37 : Viscosity
DFPH.                   10.3 : pH
DFL .                   16.8 : Fluid loss
MSS .               MUD TANK : Source of sample
RMS .OHMM               1.18 : Rm
RMF .OHMM               0.96 : Rmf
RMC .OHMM               1.69 : Rmc
MFSS.                   MEAS : Source Rmf.
MCSS.                   MEAS : Source Rmc.
RMB .OHMM              0.464 : Rm. at BHT
BHT .F                   234 : BHT.
TCS .HRS                2130 : Time Circ. stopped
TLAB.HRS                 330 : Time logger at bottom
LUN .                   9103 : Logging unit number
LUL .                 KLOGRE : Logging unit location
ENGI.               P. EYLEY : Recorded By
WITN.             JIM EWBANK : Witnessed by
ORIG.               5" PRINT : Origin of data
UWI .         42395307330000 : Unique Well ID
DICO. A2D TECHNOLOGIES, INC. : Digitizing Company
~Other -----------------------------------------------------
~ASCII -----------------------------------------------------
 2500.00000   57.94430    -999.25    -999.25    -999.25    -999.25    -999.25    -999.25    -999.25    -999.25    -999.25    -999.25    -999.25
 2550.00000   69.39290 1747.69020 1420.94890  -62.09100    1.05660    1.08990    1.13060    4.36750    -999.25    -999.25    -999.25    -999.25
 2600.00000   64.25230 1810.02250 1360.90220  -65.83520    2.08840    1.89800    1.90480    5.48190    -999.25    -999.25    -999.25    -999.25
 2650.00000   71.26170 1840.96180 1390.97740  -64.27460    1.30440    1.25450    1.16660    8.04220    -999.25    -999.25    -999.25    -999.25
 2700.00000   70.79360 1810.10270 1390.97730  -63.33960    1.42870    1.30220    1.42230    7.98190    -999.25    -999.25    -999.25    -999.25
 2750.00000   57.47600 1809.94230 1330.82700  -62.09050    0.99270    0.92520    1.08440    7.89160    -999.25    -999.25    -999.25    -999.25
 2800.00000   79.43930 1874.10610 1330.82700  -62.40250    0.89460    0.87480    0.97690    7.68070    -999.25    -999.25    -999.25    -999.25
 2850.00000   64.71960 1872.81360 1390.74620  -62.14230    0.92130    0.88030    0.99750    7.78600    -999.25    -999.25    -999.25    -999.25
 2900.00000   75.93540 1903.50610 1421.05320  -62.44290    0.85570    0.79630    0.94680    6.84390    -999.25    -999.25    -999.25    -999.25
 2950.00000   82.94450 1903.42690 1390.97740  -62.29220    1.03490    1.02360    1.15850    4.00600    -999.25    -999.25    -999.25    -999.25
 3000.00000   83.74810 1959.89120 1421.05260  -62.14140    1.38480    1.37210    1.30840    2.68070    -999.25    -999.25    -999.25    -999.25
 3050.00000   90.74670 1939.91820 1361.00620  -61.23680    0.98240    1.00240    1.14240    5.87350    -999.25    -999.25    -999.25    -999.25
 3100.00000  115.70740 1973.22190 1390.97740  -61.46510    0.86710    0.87480    0.96680    7.40960    -999.25    -999.25    -999.25    -999.25
 3150.00000   92.37930 1975.37770 1330.82700  -63.33850    1.24790    1.24320    1.40750    7.92170    -999.25    -999.25    -999.25    -999.25
 3200.00000  105.21040 1994.20640 1300.75180  -63.65050    1.38480    1.41000    1.44370    8.16270    -999.25    -999.25    -999.25    -999.25
 3250.00000  102.41000 2028.09080 1361.00450  -63.33850    1.14820    1.15450    1.24790    8.13250    -999.25    -999.25    -999.25    -999.25
 3300.00000   97.27840 2028.16970 1421.13100  -63.96100    1.38120    1.40120    1.55270    6.50590    -999.25    -999.25    -999.25    -999.25
 3350.00000   62.51940 2057.53050 1391.00320  -72.69890    3.91930    3.99050    3.87860    4.81930    -999.25    -999.25    -999.25    -999.25
 3400.00000   72.08400 2090.28960 1451.05110  -65.21060    2.94430    3.10410    3.75940    3.37360    -999.25    -999.25    -999.25    -999.25
 3450.00000   69.98460 2121.60080 1451.12780 -101.09260    1.99300    2.19760    3.38810    2.56010    -999.25    -999.25    -999.25    -999.25
 3500.00000   80.24960 2214.95360 1421.12960  -79.12880    2.53190    2.56440    2.61210    3.76510    -999.25    -999.25    -999.25    -999.25
 3550.00000  103.34350 2183.80050 1481.20300  -62.92940    1.60200    1.63940    1.75920    4.81940    -999.25    -999.25    -999.25    -999.25
 3600.00000  102.87730 2152.67480 1390.97740  -62.92830    1.34220    1.37210    1.45880    6.11450    -999.25    -999.25    -999.25    -999.25
 3650.00000   92.84600 2121.49540 1390.97740  -62.30530    1.27420    1.28860    1.39930    6.80720    -999.25    -999.25    -999.25    -999.25
 3700.00000   90.04570 2152.83500 1390.97740  -62.61660    1.21280    1.22290    1.37050    6.98800    -999.25    -999.25    -999.25    -999.25
 3750.00000   91.91290 2183.80100 1390.97750  -61.37070    1.10160    1.14190    1.30100    6.86750    -999.25    -999.25    -999.25    -999.25
 3800.00000  102.17650 2183.80080 1421.00050  -61.99320    1.09010    1.11300    1.24790    6.95780    -999.25    -999.25    -999.25    -999.25
 3850.00000  100.54430 2246.21070 1390.97740  -62.92830    1.38790    1.40110    1.56900    5.81330    -999.25    -999.25    -999.25    -999.25
 3900.00000   91.44630 2214.95340 1511.20070  -61.37180    1.42870    1.44580    1.65280    4.84940    -999.25    -999.25    -999.25    -999.25
 3950.00000   85.84660 2246.10180 1390.92530  -61.05920    1.42870    1.41590    1.67000    3.61450    -999.25    -999.25    -999.25    -999.25
 4000.00000   96.11240 2308.30370 1421.05260  -61.37020    1.39930    1.41590    1.60190    3.58440    -999.25    -999.25    -999.25    -999.25
 4050.00000   95.87870 2277.25850 1421.18250  -60.12430    1.34220    1.37540    1.58540    2.62040    -999.25    -999.25    -999.25    -999.25
 4100.00000   87.48060 2262.24150 1451.12830  -60.43690    1.31460    1.35490    1.55270    2.34940    -999.25    -999.25    -999.25    -999.25
 4150.00000   95.41210 2273.42580 1421.05270  -59.50230    1.17430    1.19760    1.37050    2.16870    -999.25    -999.25    -999.25    -999.25
 4200.00000   83.28130 2355.71700 1451.12780  -59.81310    1.70510    1.72210    1.93180    3.37350    -999.25    -999.25    -999.25    -999.25
 4250.00000   47.35610 2370.71610 1466.16530  -71.33980    2.83880    2.91520    2.86850    3.49400    -999.25    -999.25    -999.25    -999.25
 4300.00000   43.62340 2401.84250 1450.94470  -62.80490    2.72310    2.82510    2.99040    3.37350    -999.25    -999.25    -999.25    -999.25
 4350.00000   41.52510 2433.12990 1481.33070  -63.71950    3.96010    4.00530    4.25940    3.16270    -999.25    -999.25    -999.25    -999.25
 4400.00000   45.72400 2464.22710 1481.20300  -91.15850    4.58100    4.66890    5.81950    3.64460    -999.25    -999.25    -999.25    -999.25
 4450.00000   29.39350 2428.03270 1421.15580  -90.03090    4.87610    4.86850    7.09130    3.94580    -999.25    -999.25    -999.25    -999.25
 4500.00000   27.06120 2456.75320 1452.29770  -95.32430    4.49770    4.47670    7.01580    7.25790    -999.25    -999.25    -999.25    -999.25
 4550.00000  104.97680 2396.05470 1422.27150  -62.77490    1.14240    1.13940    1.33480    8.35750    -999.25    -999.25    -999.25    -999.25
 4600.00000  108.24510 2456.75270 1422.32240  -59.72850    1.03740    1.03760    1.29820   10.26420    -999.25    -999.25    -999.25    -999.25
 4650.00000   87.95780 2456.68460 1396.40840  -60.33180    1.08160    1.07880    1.30720    9.85560    -999.25    -999.25    -999.25    -999.25
 4700.00000  101.21030 2487.32670 1452.54100  -59.12570    1.17920    1.16030    1.49590    9.20490    -999.25    -999.25    -999.25    -999.25
 4750.00000   95.53710 2517.39920 1394.81790  -60.93510    1.27580    1.30840    1.61700    8.32720    -999.25    -999.25    -999.25    -999.25
 4800.00000   98.60100 2472.00590 1301.65920  -60.33130    2.12900    2.11450    2.31260    5.60350    -999.25    -999.25    -999.25    -999.25
 4850.00000   88.72940 2547.65450 1422.27090  -59.12520    3.19630    3.18300    4.25580    3.93900    -999.25    -999.25    -999.25    -999.25
 4900.00000  110.96800 2608.49760 1453.51750  -60.63350    2.51520    2.57670    3.66410    3.90870    -999.25    -999.25    -999.25    -999.25
 4950.00000   69.56210 2559.25170 1542.98610  -60.32230    1.15140    1.13640    1.76750    5.54300    -999.25    -999.25    -999.25    -999.25
 5000.00000   53.02130 2578.01340 1452.43750  -60.50330    2.88020    2.58510    2.81630    2.81920    -999.25    -999.25    -999.25    -999.25
 5050.00000   21.29810 2689.42820 1452.48860  -66.96830    9.25100    9.07420    9.77710    2.06260    -999.25    -999.25    -999.25    -999.25
 5100.00000   25.49020 2674.10420 1482.70650  -58.82350    7.83030    7.70660    8.37570    2.57700    -999.25    -999.25    -999.25    -999.25
 5150.00000   38.51960 2669.14480 1417.39280  -58.22020    4.14740    4.08570    4.58110    3.48500    -999.25    -999.25    -999.25    -999.25
 5200.00000   16.76740 2729.95170 1452.40990  -80.54300   12.78660   12.65940   17.11840    2.05400    -999.25    -999.25    -999.25    -999.25
 5250.00000   19.48680 2786.96830 1482.65450  -84.46460   16.69040   16.99210   23.00630    2.27440    -999.25    -999.25    -999.25    -999.25
