~Version ---------------------------------------------------
VERS.      2.0 : CWLS log ASCII Standard -VERSION 2.0
WRAP.      YES : Multiple lines per depth step
CREA. 08/30/12 : LAS Creation Date
~Well ------------------------------------------------------
STRT.FT                   3750.0 : START DEPTH
STOP.FT                   8250.0 : STOP DEPTH
STEP.FT                 50.00000 : STEP LENGTH
NULL.                    -999.25 : NULL VALUE
COMP. CHAMPLIN PETROLEUM COMPANY : COMPANY
WELL.    EBERHARDT WILLIE F.  #1 : WELL
FLD .                   GIDDINGS : FIELD
LOC .                            : LOCATION
CNTY.                   BURLESON : COUNTY
STAT.                      TEXAS : STATE
CTRY.   UNITED STATES OF AMERICA : COUNTRY
SRVC.               Schlumberger : SERVICE COMPANY
DATE.                17-Sep-1980 : LOGDATE
API .             42051309370000 : API NUMBER
UWI .             42051309370000 : UNIQUE WELL ID
SLAT.WGS84         30.4181083894 : SURFACE LATITUDE
SLON.WGS84        -96.7334542825 : SURFACE LONGITUDE
~Curve Information -----------------------------------------
DEPT    .FT                                                                                  : DEPTH FEET
CALWS   .IN                                                                                  : CALIPER [DCALED+BITS]
CONDWS  .MMHO                                                                                : CONDUCTIVITY [1000/DRESWS]
DCALED  .IN                                                                                  : DIFFERENTIAL CALIPER FROM DIL-SFL-CNFD LOG
DCORWS  .G/C3                                                                                : DENSITY CORRECTION [DRHOED]
DENWS   .G/C3                    :   FORMATION BULK DENSITY [CALCULATED FROM DPOWS, M:2.71,F : 1.0]
DPHILSED.V/V                                        :   DENSITY POROSITY LIMESTONE [M:2.71,F : 1.0]FROM DIL-SFL-CNFD LOG
DPHISSED.V/V                                        :   DENSITY POROSITY SANDSTONE [M:2.65,F : 1.0] FROM DIL-SFL-CNFD LOG
DPOWS   .V/V :   DENSITY POROSITY LIMESTONE[DPHISSED CONVERTED TO LIMESTONE MATRIX, M:2.71,F : 1.0, SPL TO DPHILSED @ 6475']
DRESWS  .OHMM                                                                                : DEEP RESISTIVITY [ILDED]
DRHOED  .G/C3                                                                                : DENSITY CORRECTION FROM DIL-SFL-CNFD LOG
GRRED   .GAPI                                                                                : GAMMA RAY FROM DIL-SFL-CNFD LOG
GRWS    .GAPI                                                                                : GAMMA RAY [GRRED]
ILDED   .OHMM                                                                                : INDUCTION LOG DEEP FROM DIL-SFL-CNFD LOG
ILMED   .OHMM                                                                                : INDUCTION LOG MEDIUM FROM DIL-SFL-CNFD LOG
MRESWS  .OHMM                                                                                : MEDIUM RESISTIVITY [ILMED]
NPHILSED.V/V                                                                                 : NEUTRON POROSITY LIMESTONE FROM DIL-SFL-CNFD LOG
NPHISSED.V/V                                                                                 : NEUTRON POROSITY SANDSTONE FROM DIL-SFL-CNFD LOG
NPOWS   .V/V                                                                                 : NEUTRON POROSITY LIMESTONE[NPHISSED MATRIX CONVERSION FOR LIMESTONE, SPL. TO NPHILSED @ 6475']
SFLUED  .OHMM                                                                                : SPHERICALLY FOCUSED LOG UNAVERAGED RESISTIVITY FROM DIL-SFL-CNFD LOG
SPRED   .MV                                                                                  : SPONTANEOUS POTENTIAL FROM DIL-SFL-CNFD LOG
SPWS    .MV                                                                                  : SPONTANEOUS POTENTIAL [BASELINE, 0 MV, SPRED]
SRESWS  .OHMM                                                                                : SHALLOW RESISTIVITY [SFLUED]
~Params ----------------------------------------------------
PD  .                     GL : PERMANENT DATUM
EPD .FT                  392 : ELEVATION PERMANENT DATUM
LMF .                     KB : LOG MEASURED FROM
DAPD.FT                   14 : FEET ABOVE PERMANENT DATUM
DMF .                     KB : DRILLING MEASURED FROM
EKB .FT                  406 : KELLY BUSHING
EDF .FT                  405 : DRILLING FLOOR
EGL .FT                  392 : GROUND LEVEL
DATE.               09/17/80 : RUN DATE
RUN .                      1 : RUN NUMBER
DD  .FT                 8233 : DEPTH DRILLER
DL  .FT                 8271 : DEPTH LOGGER
BLI .FT                 8265 : BOTTOM LOG INTERVAL
TLI .FT                 3747 : TOP LOG INTERVAL
CS  .IN                9.625 : CASING SIZE
CBD .FT                 3749 : CASING BOTTOM DRILLER
CBL .FT                 3747 : CASING BOTTOM LOGGER
BS  .IN                 8.75 : BIT SIZE
BSD .FT                 8233 : BIT SIZE AT DEPTH
DFT .                  BENEX : DRILLING FLUID TYPE
DFD .                    9.4 : DRILLING FLUID DENSITY
DFV .                     45 : DRILLING FLUID VISCOSITY
DFPH.                      9 : DRILLING FLUID PH
DFL .                    6.4 : DRILLING FLUID LOSS
MSS .                   TANK : MUD SAMPLE SOURCE
RMS .OHMM               1.38 : RESISTIVITY MUD SAMPLE
MST .DEGF                104 : MUD SAMPLE TEMPERATURE
RMF .OHMM               1.04 : RESISTIVITY MUD FILTRATE SAMPLE
MFST.DEGF                104 : MUD FILTRATE SAMPLE TEMPERATURE
RMC .OHMM               2.08 : RESISTIVITY MUD CAKE
MCST.DEGF                104 : MUD CAKE SAMPLE TEMPERATURE
MFSS.                      M : MUD FILTRATE SAMPLE SOURCE
MCSS.                      C : MUD CAKE SAMPLE SOURCE
RMB .OHMM               0.73 : RESISTIVITY MUD AT BHT
TCS .HRS                2300 : TIME CIRCULATED STOPPED
TLAB.HRS                 630 : TIME LOGGER AT BOTTOM
LUN .                   8101 : LOGGING UNIT NUMBER
LUL .                BRENHAM : LOGGING UNIT LOCATION
ENGI.        WYATT GILLILAND : RECORDING ENGINEER
WITN.                CAMERON : WITNESSED BY
CLNT.                A2DTECH : CLIENT CODE
ORIG.            2" 5" PRINT : ORIGIN OF DATA
UWI .         42051309370000 : UNIQUE WELL ID
DICO. A2D Technologies, Inc. : DIGITIZING COMPANY
~Other -----------------------------------------------------
~ASCII -----------------------------------------------------
# ...
 6950.00000   11.73890  495.31920    2.98890    0.05190    2.45350    0.15000    -999.25    0.15000    2.01890    0.05190   94.65230   94.65230    2.01890    2.08680    2.08680    0.21140    -999.25    0.21140    2.33000   -0.57680  -10.54010    2.33000
 7000.00000   14.41300  636.01090    5.66300    0.13440    2.48630    0.13080    -999.25    0.13080    1.57230    0.13440  105.94180  105.94180    1.57230    1.60200    1.60200    0.27930    -999.25    0.27930    1.84390   -2.98650  -13.34760    1.84390
 7050.00000   13.81800  566.41180    5.06800    0.15620    2.52690    0.10710    -999.25    0.10710    1.76550    0.15620  100.20000  100.20000    1.76550    1.75470    1.75470    0.26120    -999.25    0.26120    1.99540   -7.13750  -17.89630    1.99540
 7100.00000   12.26820  529.54880    3.51820    0.15850    2.53640    0.10150    -999.25    0.10150    1.88840    0.15850  113.58660  113.58660    1.88840    1.97840    1.97840    0.27000    -999.25    0.27000    2.19540   -2.23390  -13.39050    2.19540
 7150.00000   12.28680  514.50920    3.53680    0.14490    2.47400    0.13800    -999.25    0.13800    1.94360    0.14490  108.89600  108.89600    1.94360    2.00040    2.00040    0.26540    -999.25    0.26540    2.26240   -0.36730  -11.92160    2.26240
 7200.00000   12.33920  480.07680    3.58920    0.13460    2.50980    0.11710    -999.25    0.11710    2.08300    0.13460  106.76760  106.76760    2.08300    2.10760    2.10760    0.26620    -999.25    0.26620    2.48860   -2.68930  -14.64140    2.48860
 7250.00000   10.21490  200.01200    1.46490    0.00200    2.62330    0.05070    -999.25    0.05070    4.99970    0.00200   44.45170   44.45170    4.99970    4.90610    4.90610    0.09040    -999.25    0.09040    5.67740   -3.31160  -15.66140    5.67740
 7300.00000   10.13690  156.30130    1.38690    0.02140    2.65220    0.03380    -999.25    0.03380    6.39790    0.02140   41.08940   41.08940    6.39790    6.21420    6.21420    0.05780    -999.25    0.05780    8.35920  -10.40460  -23.15210    8.35920
 7350.00000   10.06610  152.90520    1.31610   -0.00100    2.64860    0.03590    -999.25    0.03590    6.54000   -0.00100   47.50160   47.50160    6.54000    6.41880    6.41880    0.05470    -999.25    0.05470   11.84980   -3.38340  -16.52870   11.84980
 7400.00000    9.82930  102.95900    1.07930    0.01200    2.66260    0.02770    -999.25    0.02770    9.71260    0.01200   38.15800   38.15800    9.71260    9.62210    9.62210    0.06500    -999.25    0.06500   11.11120   -5.60770  -19.15070   11.11120
 7450.00000    9.96580  121.84570    1.21580    0.00270    2.62550    0.04940    -999.25    0.04940    8.20710    0.00270   35.28240   35.28240    8.20710    8.35130    8.35130    0.05420    -999.25    0.05420   10.21900   -5.11860  -19.05940   10.21900
 7500.00000    9.80170  144.66960    1.05170    0.00550    2.66130    0.02850    -999.25    0.02850    6.91230    0.00550   40.81070   40.81070    6.91230    6.99530    6.99530    0.04690    -999.25    0.04690    9.02040   -3.88490  -18.22340    9.02040
 7550.00000    9.80470  161.63180    1.05470    0.01870    2.63320    0.04490    -999.25    0.04490    6.18690    0.01870   38.26170   38.26170    6.18690    6.25020    6.25020    0.07390    -999.25    0.07390    7.95940   -8.91630  -23.65260    7.95940
 7600.00000    9.86650  105.08730    1.11650    0.01730    2.62360    0.05050    -999.25    0.05050    9.51590    0.01730   44.25000   44.25000    9.51590    9.76910    9.76910    0.06230    -999.25    0.06230   11.66210   -8.12050  -23.25450   11.66210
 7650.00000    9.85720   74.89350    1.10720    0.03590    2.58650    0.07220    -999.25    0.07220   13.35230    0.03590   53.77260   53.77260   13.35230   15.32420   15.32420    0.06690    -999.25    0.06690   24.25370   -9.30060  -24.83240   24.25370
 7700.00000    9.90260   81.40870    1.15260    0.01010    2.61820    0.05370    -999.25    0.05370   12.28370    0.01010   56.25000   56.25000   12.28370   11.89800   11.89800    0.08480    -999.25    0.08480   23.98100   -4.41470  -20.34420   23.98100
 7750.00000    9.64070   41.85500    0.89070    0.00520    2.57030    0.08170    -999.25    0.08170   23.89200    0.00520   30.75000   30.75000   23.89200   23.40590   23.40590    0.06170    -999.25    0.06170   96.15770  -12.50000  -28.82730   96.15770
 7800.00000   10.63810  157.05000    1.88810    0.17120    2.85840   -0.08680    -999.25   -0.08680    6.36740    0.17120   88.02360   88.02360    6.36740    6.91690    6.91690    0.14160    -999.25    0.14160   13.67350   -7.06800  -23.79300   13.67350
 7850.00000   16.19080  150.83410    7.44080    0.14120    2.35190    0.20940    -999.25    0.20940    6.62980    0.14120  121.95000  121.95000    6.62980    5.48530    5.48530    0.38830    -999.25    0.38830    2.67700   -4.93450  -22.05730    2.67700
 7900.00000   10.90350  282.54170    2.15350    0.09190    2.54190    0.09830    -999.25    0.09830    3.53930    0.09190  138.75000  138.75000    3.53930    3.44310    3.44310    0.27580    -999.25    0.27580    5.05150    1.30000  -16.22050    5.05150
 7950.00000   10.55880  109.29800    1.80880    0.01490    2.49040    0.12840    -999.25    0.12840    9.14930    0.01490  132.60450  132.60450    9.14930    8.91420    8.91420    0.27190    -999.25    0.27190   14.60960    6.90800  -11.01030   14.60960
 8000.00000   13.49830  435.27470    4.74830    0.12000    2.22950    0.28100    -999.25    0.28100    2.29740    0.12000  121.45620  121.45620    2.29740    2.32560    2.32560    0.37370    -999.25    0.37370    3.82990   -2.30000  -20.61600    3.82990
 8050.00000   10.87780  156.13050    2.12780    0.00810    2.62910    0.04730    -999.25    0.04730    6.40490    0.00810   60.67970   60.67970    6.40490    6.29210    6.29210    0.09790    -999.25    0.09790    5.63220    3.10000  -15.61370    5.63220
 8100.00000   10.69600   46.83340    1.94600    0.01990    2.69320    0.00980    -999.25    0.00980   21.35230    0.01990   33.05890   33.05890   21.35230   20.72920   20.72920    0.01550    -999.25    0.01550   32.32330   -5.77270  -24.88420   32.32330
 8150.00000   10.61400   28.26110    1.86400    0.01270    2.69270    0.01010    -999.25    0.01010   35.38430    0.01270   32.99110   32.99110   35.38430   31.34890   31.34890    0.00700    -999.25    0.00700   55.42450   -0.66670  -20.20650   55.42450
 8200.00000    9.73260   18.51400    0.98260    0.01220    2.70640    0.00210    -999.25    0.00210   54.01310    0.01220   24.86250   24.86250   54.01310   41.80220   41.80220    0.00460    -999.25    0.00460   93.96270   -4.50710  -24.49910   93.96270
 8250.00000    8.28790   22.19290   -0.46210    0.20720    2.65840    0.03020    -999.25    0.03020   45.05940    0.20720    -999.25    -999.25   45.05940   36.20860   36.20860    0.04320    -999.25    0.04320  111.63510   14.79510   -5.45020  111.63510
