~Version ---------------------------------------------------
VERS. 2.0 : CWLS log ASCII Standard -VERSION 2.0
WRAP.  NO : ONE LINE PER DEPTH STEP
~Well ------------------------------------------------------
STRT.FT                 3800.0 : START DEPTH
STOP.FT                10100.0 : STOP DEPTH
STEP.FT               50.00000 : STEP LENGTH
NULL.                  -999.25 : NULL VALUE
COMP.   PATTERSON PETROLEUM LP : COMPANY
WELL.           WEIDER UNIT #1 : WELL
FLD .                 GIDDINGS : FIELD
LOC .                          : LOCATION
CNTY.                      LEE : COUNTY
STAT.                    TEXAS : STATE
CTRY. UNITED STATES OF AMERICA : COUNTRY
SRVC.             Baker Hughes : SERVICE COMPANY
DATE.              17-Nov-2000 : LOGDATE
API .           42287325060000 : API NUMBER
UWI .           42287325060000 : UNIQUE WELL ID
SLAT.WGS84        30.109798312 : SURFACE LATITUDE
SLON.WGS84      -96.8938886142 : SURFACE LONGITUDE
~Curve Information -----------------------------------------
DEPT  .FT    : DEPTH FEET
M1R6ED.OHMM  : 60 INCH DOI RESISTIVITY FROM HDI/CD/CN LOG
M1RXED.OHMM  : 120 INCH DOI RESISTIVITY FROM HDI/CD/CN LOG
TENRED.LBF   : TENSION FROM RESISTIVITY LOG
GRRED .GAPI  : GAMMA RAY FROM RESISTIVITY LOG
CALRED.IN    : CALIPER FROM RESISTIVITY LOG
SPRED .MV    : SPONTANEOUS POTENTIAL FROM RESISTIVITY LOG
M1R2ED.OHMM  : 20 INCH DOI RESISTIVITY FROM HDI/CD/CN LOG
M1R3ED.OHMM  : 30 INCH DOI RESISTIVITY FROM HDI/CD/CN LOG
M1R9ED.OHMM  : 90 INCH DOI RESISTIVITY FROM HDI/CD/CN LOG
ZCORED.G/C3  : DENSITY CORRECTION FROM HDI/CD/CN LOG
CNCFED.V/V   : NEUTRON POROSITY LIMESTONE
PEFED .B/E   : PHOTOELECTRIC FACTOR FROM DENSITY LOG
PORZED.V/V   : DENSITY POROSITY FROM HDI/CD/CN LOG
SPWS  .MV    : SPONTANEOUS POTENTIAL [BASELINE 0 MV] [SPRED]
GRWS  .GAPI  : GAMMA RAY [GRRED]
DCORWS.G/C3  : DENSITY CORRECTION [ZCORED]
CALWS .IN    : CALIPER [CALRED]
DRESWS.OHMM  : DEEP RESISTIVITY [M1R9ED]
MRESWS.OHMM  : MEDIUM RESISTIVITY [M1R3ED]
SRESWS.OHMM  : SHALLOW RESISTIVITY [M1R2ED]
CONDWS.MMHO  : CONDUCTIVITY [1000/DRESWS]
NPOWS .V/V   : NEUTRON POROSITY [CNCFED]
PEFWS .B/E   : PHOTOELECTRIC FACTOR [PEFED]
DENWS .G/C3  : BULK DENSITY [M=2.71 F=1.0] [CALCULATED FROM PORDED]
DPOWS .V/V   : DENSITY POROSITY [M=2.71 F=1] [CALCULATED FROM DENWS]
~Params ----------------------------------------------------
PD  .                     GL : PERMANENT DATUM
EPD .FT                  379 : ELEVATION PERMANENT DATUM
LMF .                     KB : LOG MEASURED FROM
DAPD.FT                   20 : FEET ABOVE PERMANENT DATUM
DMF .                     KB : DRILLING MEASURED FROM
EKB .FT                  399 : KELLY BUSHING
EDF .FT                  398 : DRILLING FLOOR
EGL .FT                  379 : GROUND LEVEL
DATE.               11/17/00 : RUN DATE
RUN .                      1 : RUN NUMBER
DD  .FT                10130 : DEPTH DRILLER
DL  .FT                10128 : DEPTH LOGGER
BLI .FT                10120 : BOTTOM LOG INTERVAL
TLI .FT                 3820 : TOP LOG INTERVAL
CS  .IN                8.625 : CASING SIZE
CBD .FT                 3820 : CASING BOTTOM DRILLER
CBL .FT                 3820 : CASING BOTTOM LOGGER
BS  .IN                7.875 : BIT SIZE
BSD .FT                10130 : BIT SIZE AT DEPTH
DFT .                  FRESH : DRILLING FLUID TYPE
DFD .                    9.8 : DRILLING FLUID DENSITY
DFV .                     37 : DRILLING FLUID VISCOSITY
DFPH.                    8.5 : DRILLING FLUID PH
DFL .                    6.8 : DRILLING FLUID LOSS
MSS .               MUD TANK : MUD SAMPLE SOURCE
RMS .OHMM                  3 : RESISTIVITY MUD SAMPLE
MST .FT                   70 : MUD SAMPLE TEMPERATURE
RMF .OHMM                2.7 : RESISTIVITY MUD FILTRATE SAMPLE
MFST.FT                   70 : MUD FILTRATE SAMPLE TEMPERATURE
RMC .OHMM                3.8 : RESISTIVITY MUD CAKE
MCST.FT                   70 : MUD CAKE SAMPLE TEMPERATURE
MFSS.               MEASURED : MUD FILTRATE SAMPLE SOURCE
MCSS.               MEASURED : MUD CAKE SAMPLE SOURCE
RMB .OHMM               0.84 : RESISTIVITY MUD AT BHT
TCS .HRS                   6 : TIME CURCULATED STOPPED
LUN .                HL 6554 : LOGGING UNIT NUMBER
LUL .               VICTORIA : LOGGING UNIT LOCATION
ENGI.                    MAY : RECORDING ENGINEER
WITN.                 NELSON : WITNESSED BY
CLNT.                A2DTECH : CLIENT CODE
ORIG.            1" 5" PRINT : ORIGIN OF DATA
UWI .         42287325060000 : UNIQUE WELL ID
DICO. A2D Technologies, Inc. : DIGITIZING COMPANY
~Other -----------------------------------------------------
ALL LOGS RUN IN COMBO.
LS_2.71 MTRX
~ASCII -----------------------------------------------------
# ...
 6600.00000    1.84250    1.79440  -30.97970   84.31230    8.14560   -3.88220    1.92170    1.86580    1.80130    -999.25    -999.25    -999.25    -999.25   -7.43260   84.31230    -999.25    8.14560    1.80130    1.86580    1.92170  555.15460    -999.25    -999.25    -999.25    -999.25
 6650.00000    2.31860    2.25760  -65.85110   73.66900    7.90420   -1.03720    2.36580    2.31210    2.24980    -999.25    -999.25    -999.25    -999.25   -8.44270   73.66900    -999.25    7.90420    2.24980    2.31210    2.36580  444.48390    -999.25    -999.25    -999.25    -999.25
 6700.00000    2.94150    2.59810  -34.83760   47.67220    7.85800  -10.97970    3.72820    3.34080    2.73940    -999.25    -999.25    -999.25    -999.25  -15.54350   47.67220    -999.25    7.85800    2.73940    3.34080    3.72820  365.04350    -999.25    -999.25    -999.25    -999.25
 6750.00000    1.69080    1.58930  -69.67360   86.28150    7.75370  -13.06000    1.82050    1.72810    1.62420    -999.25    -999.25    -999.25    -999.25  -14.78210   86.28150    -999.25    7.75370    1.62420    1.72810    1.82050  615.68770    -999.25    -999.25    -999.25    -999.25
 6800.00000    2.13180    2.07650    3.92400   83.93150    7.72230   -3.91970    2.21030    2.15130    2.08340    -999.25    -999.25    -999.25    -999.25   -2.80010   83.93150    -999.25    7.72230    2.08340    2.15130    2.21030  479.98460    -999.25    -999.25    -999.25    -999.25
 6850.00000    1.56500    1.53060  -42.15380   93.67020    7.75260   -5.75070    1.62300    1.58610    1.54330    -999.25    -999.25    -999.25    -999.25   -5.31540   93.67020    -999.25    7.75260    1.54330    1.58610    1.62300  647.96220    -999.25    -999.25    -999.25    -999.25
 6900.00000    1.23680    1.20670  -70.21760   88.67420    7.73450   -8.68180    1.30300    1.27340    1.23880    -999.25    -999.25    -999.25    -999.25   -7.26420   88.67420    -999.25    7.73450    1.23880    1.27340    1.30300  807.23280    -999.25    -999.25    -999.25    -999.25
 6950.00000    1.26590    1.23420  -40.78340   89.49690    7.70850   -7.15640    1.28060    1.25100    1.21670    -999.25    -999.25    -999.25    -999.25   -4.73600   89.49690    -999.25    7.70850    1.21670    1.25100    1.28060  821.89530    -999.25    -999.25    -999.25    -999.25
 7000.00000    0.90340    0.85680  -21.00370  106.69210    7.86070   -3.49120    0.92010    0.89630    0.86960    -999.25    -999.25    -999.25    -999.25   -2.10310  106.69210    -999.25    7.86070    0.86960    0.89630    0.92010 1149.95400    -999.25    -999.25    -999.25    -999.25
 7050.00000    1.19630    1.17000  -22.67410  100.78340    7.79840   -4.93160    1.22810    1.19990    1.16730    -999.25    -999.25    -999.25    -999.25   -3.83740  100.78340    -999.25    7.79840    1.16730    1.19990    1.22810  856.67780    -999.25    -999.25    -999.25    -999.25
 7100.00000    2.38390    2.12770  -45.08700  129.71680    7.85490   -6.48470    2.57720    2.43470    2.16250    -999.25    -999.25    -999.25    -999.25   -3.14420  129.71680    -999.25    7.85490    2.16250    2.43470    2.57720  462.42780    -999.25    -999.25    -999.25    -999.25
 7150.00000    1.70940    1.66810  -11.43350   94.85120    7.81590   -9.39350    1.81570    1.75110    1.67710    -999.25    -999.25    -999.25    -999.25   -8.28500   94.85120    -999.25    7.81590    1.67710    1.75110    1.81570  596.26740    -999.25    -999.25    -999.25    -999.25
 7200.00000    1.57750    1.54260  -36.41080   99.25400    7.89800   -4.64460    1.62380    1.58680    1.54380    -999.25    -999.25    -999.25    -999.25   -5.90800   99.25400    -999.25    7.89800    1.54380    1.58680    1.62380  647.75230    -999.25    -999.25    -999.25    -999.25
 7250.00000    1.21060    1.18400  -49.78520  116.95850    7.96750    0.50440    1.26020    1.23080    1.19670    -999.25    -999.25    -999.25    -999.25   -1.20460  116.95850    -999.25    7.96750    1.19670    1.23080    1.26020  835.63130    -999.25    -999.25    -999.25    -999.25
 7300.00000    1.70340    1.65190   -5.61070   98.30430    7.66910   -3.02500    1.80940    1.76250    1.68960    -999.25    -999.25    -999.25    -999.25   -5.17960   98.30430    -999.25    7.66910    1.68960    1.76250    1.80940  591.85610    -999.25    -999.25    -999.25    -999.25
 7350.00000    1.73100    1.64250   -5.92090   87.86940    7.83800   -1.76460    1.74950    1.69310    1.62830    -999.25    -999.25    -999.25    -999.25   -4.36470   87.86940    -999.25    7.83800    1.62830    1.69310    1.74950  614.13750    -999.25    -999.25    -999.25    -999.25
 7400.00000    1.40840    1.37410   -9.69470  110.53570    8.82880   -3.18730    1.47030    1.43270    1.38920    -999.25    -999.25    -999.25    -999.25   -6.23300  110.53570    -999.25    8.82880    1.38920    1.43270    1.47030  719.83870    -999.25    -999.25    -999.25    -999.25
 7450.00000    1.21530    1.18850  -16.89580  117.90470    8.66350    1.03880    1.24050    1.21000    1.17470    -999.25    -999.25    -999.25    -999.25   -2.45250  117.90470    -999.25    8.66350    1.17470    1.21000    1.24050  851.28120    -999.25    -999.25    -999.25    -999.25
 7500.00000    1.66700    1.53270  -68.10780  107.90500    7.96580   -1.06770    1.83480    1.64910    1.60110    -999.25    -999.25    -999.25    -999.25   -5.30590  107.90500    -999.25    7.96580    1.60110    1.64910    1.83480  624.57060    -999.25    -999.25    -999.25    -999.25
 7550.00000    1.60640    1.55430  -18.33260   98.97960    7.44880   -3.76070    1.63030    1.59180    1.54720    -999.25    -999.25    -999.25    -999.25   -7.95510   98.97960    -999.25    7.44880    1.54720    1.59180    1.63030  646.32890    -999.25    -999.25    -999.25    -999.25
 7600.00000    1.52700    1.49260  -51.82160  100.83010    7.60730   -1.72610    1.54380    1.50510    1.46040    -999.25    -999.25    -999.25    -999.25   -4.93680  100.83010    -999.25    7.60730    1.46040    1.50510    1.54380  684.74390    -999.25    -999.25    -999.25    -999.25
 7650.00000    1.53650    1.46730   45.06810  126.33590    8.08770   -0.43070    1.59110    1.55050    1.49900    -999.25    -999.25    -999.25    -999.25   -2.65770  126.33590    -999.25    8.08770    1.49900    1.55050    1.59110  667.11150    -999.25    -999.25    -999.25    -999.25
 7700.00000    1.83660    1.75370  -91.15910  101.66990    7.97390   -0.24630    1.95050    1.82470    1.77280    -999.25    -999.25    -999.25    -999.25   -1.48970  101.66990    -999.25    7.97390    1.77280    1.82470    1.95050  564.07940    -999.25    -999.25    -999.25    -999.25
 7750.00000    1.52860    1.49480  -19.97050  112.91750    7.71470   -0.72270    1.57640    1.54050    1.49890    -999.25    -999.25    -999.25    -999.25   -0.98240  112.91750    -999.25    7.71470    1.49890    1.54050    1.57640  667.15590    -999.25    -999.25    -999.25    -999.25
 7800.00000    1.75830    1.71980    7.76520  108.06730    7.93890   -2.42490    1.79670    1.75580    1.70840    -999.25    -999.25    -999.25    -999.25   -1.89070  108.06730    -999.25    7.93890    1.70840    1.75580    1.79670  585.34300    -999.25    -999.25    -999.25    -999.25
 7850.00000    1.54960    1.51470  -66.65180  132.06870    7.67230   -3.46790    1.65030    1.58620    1.51570    -999.25    -999.25    -999.25    -999.25   -2.66610  132.06870    -999.25    7.67230    1.51570    1.58620    1.65030  659.76120    -999.25    -999.25    -999.25    -999.25
 7900.00000    1.42400    1.39110   17.60890  100.64080    8.39060   -8.39910    1.46300    1.42940    1.39040    -999.25    -999.25    -999.25    -999.25   -7.83990  100.64080    -999.25    8.39060    1.39040    1.42940    1.46300  719.21750    -999.25    -999.25    -999.25    -999.25
 7950.00000    2.00720    1.91810  -41.77450   83.60160    7.52480   -2.75670    2.03780    1.99060    1.88470    -999.25    -999.25    -999.25    -999.25   -2.44020   83.60160    -999.25    7.52480    1.88470    1.99060    2.03780  530.58840    -999.25    -999.25    -999.25    -999.25
