~Version ---------------------------------------------------
VERS. 2.0 : CWLS log ASCII Standard -VERSION 2.0
WRAP. YES : Multiple lines per depth step
~Well ------------------------------------------------------
STRT.FT                   2500.0 : START DEPTH
STOP.FT                  17250.0 : STOP DEPTH
STEP.FT                 50.00000 : STEP LENGTH
NULL.                    -999.25 : NULL VALUE
COMP. CHAMPLIN PETROLEUM COMPANY : COMPANY
WELL.    FRIAR RANCH GAS UNIT #1 : WELL
FLD .                    WILDCAT : FIELD
LOC .                            : LOCATION
CNTY.                    DE WITT : COUNTY
STAT.                      TEXAS : STATE
CTRY.   UNITED STATES OF AMERICA : COUNTRY
SRVC.                    Unknown : SERVICE COMPANY
DATE.                27-Nov-1979 : LOGDATE
API .             42123309830000 : API NUMBER
UWI .             42123309830000 : UNIQUE WELL ID
SLAT.WGS84           29.12059862 : SURFACE LATITUDE
SLON.WGS84          -97.21043026 : SURFACE LONGITUDE
~Curve Information -----------------------------------------
DEPT    .FT    : DEPTH FEET
ACED    .US/F  : DELTA TIME (ACOUSTIC) FROM SONIC LOG [DEP ADJ TO DTED]
CALDED  .IN    : CALIPER FROM DENSITY LOG [DEP ADJ TO GRRED]
CALRED  .IN    : CALIPER FROM RESISTIVITY LOG
CALWS   .IN    : CALIPER [CALDED]
CONDWS  .MMHO  : CONDUCTIVITY [1000/DRESWS]
CORRED  .G/C3  : DENSITY CORRECTION FROM DENSITY LOG
DCORWS  .G/C3  : DENSITY CORRECTION [CORRED]
DENWS   .G/C3  : BULK DENSITY [M=2.71 F=1.0] [RHOBED]
DPHILSED.V/V   : DENSITY POROSITY [M=2.71 F=1.0] FROM DENSITY LOG [DEP ADJ TO GRRED]
DPHISSED.V/V   : DENSITY POROSITY [M=2.65 F=1.0][7100-10800F M=2.68] FROM DENSITY LOG
DPOLSWS .V/V   : DENSITY POROSITY [M=2.71 F=1.0] [CAL FR DENWS]
DRESWS  .OHMM  : DEEP RESISTIVITY [ILDED]
DTED    .US/F  : DELTA TIME FROM SONIC LOG
DTWS    .US/F  : DELTA TIME [2490 DTED 15878 ACED]
GRDED   .GAPI  : GAMMA RAY FROM DENSITY LOG [DEP ADJ TO GRRED]
GRRED   .GAPI  : GAMMA RAY FROM RESISTIVITY LOG
GRWS    .GAPI  : GAMMA RAY [2490 GRDED 17231 GRRED]
ILDED   .OHMM  : INDUCTION LOG DEEP RESISTIVITY
ILMED   .OHMM  : INDUCTION LOG MEDIUM RESISTIVITY
MRESWS  .OHMM  : MEDIUM RESISTIVITY [ILMED]
NPHILSED.V/V   : NEUTRON POROSITY LIMESTONE FROM DENSITY LOG [DEP ADJ TO GRRED]
NPHISSED.V/V   : NEUTRON POROSITY SANDSTONE FROM DENSITY LOG
NPOLSWS .V/V   : NEUTRON POROSITY LIMESTONE [2490 NPOLSCAL 14943 NPHILSED] [NPHISSED WAS CONVERTED TO NPOLSCAL USING POWERLOG MODULE]
RHOBED  .G/C3  : BULK DENSITY FROM DENSITY LOG [DEP ADJ TO GRRED]
SFLED   .OHMM  : SPHERICALLY FOCUSED LOG RESISTIVITY
SPHILSED.V/V   : SONIC POROSITY FROM SONIC LOG [DEP ADJ TO DTED] [LIMESTONE M=47.5, F=189]
SPOWS   .V/V   : SONIC POROSITY [CAL FR DTWS] [LIMESTONE M=47.5, F=189]
SPRED   .MV    : SPONTANEOUS POTENTIAL FROM RESISTIVITY LOG [SHIFTS ARE REMOVED]
SPWS    .MV    : SPONTANEOUS POTENTIAL [BASELINE 0 MV] [SPRED]
SRESWS  .OHMM  : SHALLOW RESISTIVITY [SFLED]
~Params ----------------------------------------------------
PD  .                     GL : PERMANENT DATUM
EPD .FT                223.8 : ELEVATION PERMANENT DATUM
LMF .                     KB : LOG MEASURED FROM
DAPD.FT                   26 : FEET ABOVE PERMANENT DATUM
DMF .                     KB : DRILLING MEASURED FROM
EKB .FT                249.8 : KELLY BUSHING
EDF .FT                248.8 : DRILLING FLOOR
EGL .FT                223.8 : GROUND LEVEL
DATE.               11/27/79 : RUN DATE
RUN .                      1 : RUN NUMBER
DD  .FT                17252 : DEPTH DRILLER
DL  .FT                17259 : DEPTH LOGGER
BLI .FT                17258 : BOTTOM LOG INTERVAL
TLI .FT                15013 : TOP LOG INTERVAL
CS  .IN                    7 : CASING SIZE
CBD .FT                15015 : CASING BOTTOM DRILLER
CBL .FT                15018 : CASING BOTTOM LOGGER
BS  .IN                5.875 : BIT SIZE
BSD .FT                17252 : BIT SIZE AT DEPTH
DFT .               OIL FAZE : DRILLING FLUID TYPE
DFD .                   12.8 : DRILLING FLUID DENSITY
DFV .                     45 : DRILLING FLUID VISCOSITY
DFL .                   13.6 : DRILLING FLUID LOSS
TCS .HRS                 545 : TIME CIRCULATED STOPPED
TLAB.HRS                1500 : TIME LOGGER AT BOTTOM
LUN .                   8011 : LOGGING UNIT NUMBER
LUL .                   VICT : LOGGING UNIT LOCATION
ENGI.                   SHEA : RECORDING ENGINEER
WITN.            BLANKENSHIP : WITNESSED BY
CLNT.                A2DTECH : CLIENT CODE
ORIG.            1" 5" PRINT : ORIGIN OF DATA
UWI .         42123309830000 : UNIQUE WELL ID
DICO. A2D Technologies, Inc. : DIGITIZING COMPANY
~Other -----------------------------------------------------
~ASCII -----------------------------------------------------
# ...
 13300.00000    -999.25   11.64140    -999.25   11.64140  824.87840   -0.04990   -0.04990    2.55500    -999.25    0.05520    0.09060    1.21230   92.73660   92.73660   67.79590    -999.25   67.79590    1.21230    1.12830    1.12830    -999.25    0.25200    0.20810    2.55500    1.44890    -999.25    0.31970  -22.43030   -4.36210    1.44890
 13350.00000    -999.25   11.44540    -999.25   11.44540  678.61020   -0.00180   -0.00180    2.57340    -999.25    0.04610    0.07990    1.47360   90.44200   90.44200   67.78000    -999.25   67.78000    1.47360    1.40060    1.40060    -999.25    0.22330    0.17960    2.57340    1.71830    -999.25    0.30350  -22.53280   -4.42430    1.71830
 13400.00000    -999.25   11.50570    -999.25   11.50570  633.87430   -0.01310   -0.01310    2.60570    -999.25    0.02640    0.06100    1.57760   87.11870   87.11870   74.18930    -999.25   74.18930    1.57760    1.45010    1.45010    -999.25    0.20460    0.16110    2.60570    1.79740    -999.25    0.28000  -22.40860   -4.25990    1.79740
 13450.00000    -999.25   11.38180    -999.25   11.38180  407.24910   -0.00670   -0.00670    2.62560    -999.25    0.01520    0.04940    2.45550   77.79980   77.79980   63.85380    -999.25   63.85380    2.45550    2.26360    2.26360    -999.25    0.17400    0.13100    2.62560    2.85910    -999.25    0.21410  -23.03360   -4.84460    2.85910
 13500.00000    -999.25   11.57020    -999.25   11.57020  252.52530   -0.01460   -0.01460    2.62790    -999.25    0.01170    0.04800    3.96000   72.02070   72.02070   65.16870    -999.25   65.16870    3.96000    3.69300    3.69300    -999.25    0.17890    0.13580    2.62790    4.52050    -999.25    0.17330  -22.94540   -4.71620    4.52050
 13550.00000    -999.25   11.80960    -999.25   11.80960  569.37880   -0.00850   -0.00850    2.55530    -999.25    0.05750    0.09050    1.75630   87.49320   87.49320   88.83370    -999.25   88.83370    1.75630    1.59000    1.59000    -999.25    0.19240    0.14910    2.55530    1.93140    -999.25    0.28260  -21.23950   -2.97000    1.93140
 13600.00000    -999.25   12.30420    -999.25   12.30420  566.41180   -0.00900   -0.00900    2.53390    -999.25    0.07260    0.10300    1.76550   90.01260   90.01260   71.41050    -999.25   71.41050    1.76550    1.49580    1.49580    -999.25    0.24140    0.19750    2.53390    1.94190    -999.25    0.30040  -20.61420   -2.30450    1.94190
 13650.00000    -999.25   12.10980    -999.25   12.10980  766.51850    0.00130    0.00130    2.54370    -999.25    0.06220    0.09730    1.30460   97.85550   97.85550   81.45510    -999.25   81.45510    1.30460    1.18880    1.18880    -999.25    0.22520    0.18150    2.54370    1.28240    -999.25    0.35590  -20.62100   -2.27100    1.28240
 13700.00000    -999.25   10.56450    -999.25   10.56450  683.76070   -0.09780   -0.09780    -999.25    -999.25    -999.25    -999.25    1.46250   91.90840   91.90840   74.21670    -999.25   74.21670    1.46250    1.33780    1.33780    -999.25    -999.25    -999.25    -999.25    1.69500    -999.25    0.31380  -20.97530   -2.58510    1.69500
 13750.00000    -999.25   12.43320    -999.25   12.43320  755.05890   -0.00120   -0.00120    2.56290    -999.25    0.05440    0.08600    1.32440   89.86940   89.86940   76.93750    -999.25   76.93750    1.32440    1.25230    1.25230    -999.25    0.25580    0.21190    2.56290    1.46550    -999.25    0.29940  -21.14250   -2.71200    1.46550
 13800.00000    -999.25   12.26350    -999.25   12.26350  804.82900    0.01860    0.01860    2.57380    -999.25    0.04930    0.07960    1.24250   92.73320   92.73320   82.19140    -999.25   82.19140    1.24250    1.19270    1.19270    -999.25    0.27430    0.23030    2.57380    1.39840    -999.25    0.31970  -20.95300   -2.48200    1.39840
 13850.00000    -999.25   11.98350    -999.25   11.98350  702.93830   -0.00200   -0.00200    2.56140    -999.25    0.05640    0.08690    1.42260   88.75780   88.75780   80.11880    -999.25   80.11880    1.42260    1.37290    1.37290    -999.25    0.23500    0.19120    2.56140    1.62500    -999.25    0.29160  -21.34720   -2.82400    1.62500
 13900.00000    -999.25   12.17750    -999.25   12.17750  655.99580   -0.00850   -0.00850    2.54010    -999.25    0.06680    0.09940    1.52440   85.81410   85.81410   72.78250    -999.25   72.78250    1.52440    1.46880    1.46880    -999.25    0.25170    0.20780    2.54010    1.67160    -999.25    0.27080  -21.55750   -2.98210    1.67160
 13950.00000    -999.25   12.86810    -999.25   12.86810  529.80130   -0.01930   -0.01930    2.50820    -999.25    0.08610    0.11800    1.88750   82.71960   82.71960   63.08570    -999.25   63.08570    1.88750    1.75870    1.75870    -999.25    0.22780    0.18410    2.50820    2.03980    -999.25    0.24890  -21.49530   -2.86770    2.03980
 14000.00000    -999.25   13.24330    -999.25   13.24330  623.20830   -0.01630   -0.01630    2.55110    -999.25    0.06440    0.09290    1.60460   81.99770   81.99770   63.75010    -999.25   63.75010    1.60460    1.53430    1.53430    -999.25    0.23870    0.19490    2.55110    1.98450    -999.25    0.24380  -21.41870   -2.73880    1.98450
 14050.00000    -999.25   13.25100    -999.25   13.25100  789.26600   -0.00910   -0.00910    2.56460    -999.25    0.05340    0.08500    1.26700   90.47630   90.47630   73.12510    -999.25   73.12510    1.26700    1.17140    1.17140    -999.25    0.25020    0.20630    2.56460    1.51850    -999.25    0.30370  -20.55890   -1.82680    1.51850
 14100.00000    -999.25   12.66670    -999.25   12.66670  759.53220   -0.00500   -0.00500    2.57770    -999.25    0.04550    0.07740    1.31660   90.50100   90.50100   70.14740    -999.25   70.14740    1.31660    1.25970    1.25970    -999.25    0.26920    0.22520    2.57770    1.57210    -999.25    0.30390  -20.67590   -1.89160    1.57210
 14150.00000    -999.25   12.05190    -999.25   12.05190  658.45790   -0.01140   -0.01140    2.54910    -999.25    0.06190    0.09410    1.51870   86.76070   86.76070   61.85820    -999.25   61.85820    1.51870    1.43100    1.43100    -999.25    0.24450    0.20060    2.54910    1.75860    -999.25    0.27750  -20.52090   -1.68440    1.75860
 14200.00000    -999.25   12.23990    -999.25   12.23990  844.45190   -0.01570   -0.01570    2.49620    -999.25    0.09450    0.12500    1.18420   94.87400   94.87400   70.17030    -999.25   70.17030    1.18420    1.10220    1.10220    -999.25    0.27010    0.22610    2.49620    1.36160    -999.25    0.33480  -20.48460   -1.59590    1.36160
 14250.00000    -999.25   11.34880    -999.25   11.34880  677.78230   -0.01350   -0.01350    2.54520    -999.25    0.06010    0.09640    1.47540   85.55690   85.55690   70.01510    -999.25   70.01510    1.47540    1.39930    1.39930    -999.25    0.24010    0.19630    2.54520    1.79650    -999.25    0.26900  -21.23630   -2.29540    1.79650
 14300.00000    -999.25   11.37770    -999.25   11.37770  535.13130   -0.00080   -0.00080    2.60210    -999.25    0.03130    0.06310    1.86870   83.42100   83.42100   73.54590    -999.25   73.54590    1.86870    1.78150    1.78150    -999.25    0.21970    0.17600    2.60210    2.11800    -999.25    0.25390  -21.29020   -2.29700    2.11800
 14350.00000    -999.25   11.66600    -999.25   11.66600  638.93680   -0.00390   -0.00390    2.58870    -999.25    0.03500    0.07090    1.56510   86.15380   86.15380   76.45790    -999.25   76.45790    1.56510    1.47830    1.47830    -999.25    0.23040    0.18660    2.58870    1.93570    -999.25    0.27320  -20.56720   -1.52180    1.93570
 14400.00000    -999.25   11.87700    -999.25   11.87700  677.55270   -0.00920   -0.00920    2.57680    -999.25    0.04400    0.07790    1.47590   86.37640   86.37640   74.19030    -999.25   74.19030    1.47590    1.41930    1.41930    -999.25    0.22880    0.18500    2.57680    1.81230    -999.25    0.27470  -21.05860   -1.96100    1.81230
 14450.00000    -999.25   11.86740    -999.25   11.86740  579.87820   -0.00370   -0.00370    2.59170    -999.25    0.03470    0.06920    1.72450   87.45820   87.45820   74.78480    -999.25   74.78480    1.72450    1.60680    1.60680    -999.25    0.22390    0.18020    2.59170    1.88920    -999.25    0.28240  -20.75620   -1.60640    1.88920
