~Version ---------------------------------------------------
VERS. 2.0 : CWLS log ASCII Standard -VERSION 2.0
WRAP.  NO : ONE LINE PER DEPTH STEP
~Well ------------------------------------------------------
STRT.F                     1650.0 : START DEPTH
STOP.F                     9350.0 : STOP DEPTH
STEP.F                   50.00000 : STEP LENGTH
NULL.                     -999.25 : NULL VALUE
COMP. ASAMERA- TARINA OIL COMPANY : COMPANY
WELL.        BRISCOE RANCH #13-93 : WELL
FLD .                 CATARINA SW : FIELD
LOC .                             : LOCATION
CNTY.                      DIMMIT : COUNTY
STAT.                       TEXAS : STATE
CTRY.    UNITED STATES OF AMERICA : COUNTRY
SRVC.                Schlumberger : SERVICE COMPANY
DATE.                 16-Apr-1977 : LOGDATE
API .              42127311860000 : API NUMBER
UWI .              42127311860000 : UNIQUE WELL ID
SLAT.WGS84          28.3043808828 : SURFACE LATITUDE
SLON.WGS84         -99.7817592367 : SURFACE LONGITUDE
~Curve Information -----------------------------------------
DEPT.F                 : 
NPHI.DEC  42 890 00 00 : NEUTRON POROSITY
DPHI.DEC  45 890 00 00 : DENSITY POROSITY
CALD.IN   45 280 60 00 : CALIPER FROM DENSITY LOG
GRD .GAPI 45 310 01 00 : GAMMA RAY FROM DENSITY LOG
CORR.G/C3 45 356 01 00 : DENSITY CORRECTION
RHOB.G/C3 45 350 01 00 : BULK DENSITY
DT  .US/F 60 500 00 00 : DELTA-T (INTERVAL TRANSIT TIME)
SPR .MV   07 010 01 00 : SPONTANEOUS POTENTIAL FROM RESISTIVITY LOG
ILD .OHMM 07 120 46 00 : INDUCTION DEEP RESISTIVITY
ILM .OHMM 07 120 44 00 : INDUCTION MEDIUM RESISTIVITY
LL8 .OHMM 07 220 08 00 : LATEROLOG 8
~Params ----------------------------------------------------
PD  .                     GL : PERMANENT DATUM
EPD .F                636.13 : ELEVATION PERMANENT DATUM
LMF .                     KB : LOG MEASURED FROM
DAPD.F                 13.13 : FEET ABOVE PERMANENT DATUM
DMF .                     KB : DRILLING MEASURED FROM
EKB .F                   649 : KELLING BUSHING
EDF .F                 647.5 : DRILLING FLOOR
EGL .F                636.13 : GROUND LEVEL
DATE.              4-15-1977 : RUN DATE
RUN .                      2 : RUN NUMBER
DD  .F                  9370 : DEPTH DRILLER
DL  .F                  9374 : DEPTH LOGGER
BLI .F                  9368 : BOTTOM LOG INTERVAL
TLI .F                  4400 : TOP LOG INTERVAL
CS  .IN                8.625 : CASING SIZE
CBD .F                  1600 : CASING BOTTOM DRILLER
BS  .IN                7.875 : BIT SIZE
BSD .F                  9370 : BIT SIZE AT DEPTH
DFT .       CALCIUM CHLORIDE : DRILLING FLUID TYPE
DFD .                   10.2 : DRILLING FLUID DENSITY
DFV .                     37 : DRILLING FLUID VISCOSITY
DFPH.                     10 : DRILLING FLUID PH
DFL .                      6 : DRILLING FLUID LOSS
MSS .                    PIT : MUD SAMPLE SOURCE
RMS .OHMM               0.07 : RESISTIVITY MUD SAMPLE
MST .F                    70 : MUD SAMPLE TEMPERATURE
RMF .OHMM              0.057 : RESISTIVITY MUD FILTRATE SAMPLE
MFST.F                    70 : MUD FILTRATE SAMPLE TEMPERATURE
RMB .OHMM              0.026 : RESISTIVITY MUD AT BHT
TCS .HRS                1300 : TIME CURCULATED STOPPED
TLAB.HRS                1900 : TIME LOGGER AT BOTTOM
LUN .                   7734 : LOGGING UNIT NUMBER
LUL .                 LAREDO : LOGGING UNIT LOCATION
ENGI.                HARTLEY : RECORDING ENGINEER
WITN.                  LYONS : WITNESSED BY
CLNT.                A2DTECH : CLIENT CODE
ORIG.          1" 2.5" PRINT : ORIGIN OF DATA
UWI .         42127311860000 : UNIQUE WELL ID
DICO. A2D Technologies, Inc. : DIGITIZING COMPANY
~Other -----------------------------------------------------
~ASCII -----------------------------------------------------
# ...
 4700.00000    0.15000    0.07070   10.68840   23.42180    0.18120    2.47510   91.79640   -6.68170    4.42720    4.52960    5.41460
 4750.00000    0.15030    0.08320   10.11470   23.07640    0.10840    2.47920   67.24970   -9.48420    6.42910    5.68150    7.37500
 4800.00000    0.31230    0.24590   12.85460   23.13450    0.14410    2.15260   95.08840   -6.30630    4.34660    3.58630    5.79940
 4850.00000    0.29260    0.30760   15.68840   27.46520    0.15290    2.10520   83.26520   -7.65770    7.18780   11.21440   12.31600
 4900.00000    0.29780    0.31560   16.17800   23.07690    0.04100    1.93300   81.61680   -6.00600    4.28750    4.22870    6.93310
 4950.00000    0.27370    0.25840   10.62910   24.11240    0.04590    1.96580   77.27550   -7.18220    5.65720    5.35900    6.41210
 5000.00000    0.17420    0.09810   10.04390   15.15710   -0.01200    2.45680   66.64670  -16.81680    7.18270    6.99300    9.57220
 5050.00000    0.13960    0.06510    9.42240   22.58420    0.00060    2.51410   68.64290  -16.91680    5.19550    5.24940    8.99480
 5100.00000    0.15120    0.09630   10.22970   29.53310    0.09040    2.48610   79.22330   -9.10940    4.08090    4.42090    5.10500
 5150.00000    0.17940    0.17870   10.97020   34.46730    0.18250    2.20830   80.42060   -9.30930    5.01880    5.00260    7.98250
 5200.00000    0.23020    0.17710   12.39960   25.73960    0.17820    2.25150   92.09730  -36.63660    3.22280    1.66810    3.51320
 5250.00000    0.18360    0.11320   11.60070   27.66200    0.11760    2.38710   78.02470  -38.40360    4.24970    3.88070    4.97510
 5300.00000    0.17380    0.09390   11.31190   27.39230    0.19880    2.39170   74.73150  -39.15660    5.60370    4.43060    6.12960
 5350.00000    0.21650    0.16700   12.14240   25.73960    0.15900    2.27770   77.42420  -37.50000    4.02100    2.93540    4.64080
 5400.00000    0.24640    0.22700   14.18930   24.54890    0.10150    2.12450   90.29940  -34.43110    2.84570    1.89130    2.34700
 5450.00000    0.18210    0.14290   12.11270   26.18180    0.18710    2.32810   76.77650  -36.45210    5.56560    3.21430    4.18070
 5500.00000    0.23950    0.14620   13.35400   24.26040    0.09610    2.29270   84.31140  -36.67660    2.80660    2.10510    3.07150
 5550.00000    0.23180    0.14060   13.24530   26.18240    0.15160    2.29960   78.57290  -36.40230    3.77850    2.69970    3.20950
 5600.00000    0.21900    0.15630   12.89420   31.51170    0.11980    2.27680   85.80840  -35.02990    2.71870    2.05700    2.70230
 5650.00000    0.17210    0.09630   11.29180   27.21890    0.09960    2.47770   72.73910  -37.05090    4.85140    3.15650    4.25880
 5700.00000    0.21820    0.12320   13.03260   28.46880    0.13310    2.35710   78.09620  -36.67660    3.54420    2.08610    3.38060
 5750.00000    0.16820    0.04310   12.05350   32.05140    0.18570    2.44490   72.73810  -33.90720    4.24920    2.94280    4.31940
 5800.00000    0.14350    0.09000   11.01500   22.58990    0.00230    2.46140   69.76070  -33.53290    4.88540    4.03560    5.59510
 5850.00000    0.18450    0.14000   12.17210   31.80470    0.19010    2.31040   79.28570  -35.70360    3.59400    3.00510    3.57530
 5900.00000    0.18930    0.09210   12.36990   27.43850    0.10950    2.44440   77.50000  -35.77840    3.64520    2.50360    3.87070
 5950.00000    0.21040    0.06330   11.08900   26.33140    0.04590    2.49560   73.63100  -36.75150    3.93520    2.96350    3.80760
 6000.00000    0.19940    0.11430   11.31160   26.12820   -0.01170    2.25780  104.87900  -30.13990    5.31160    5.57380    1.58750
 6050.00000    0.18300    0.06840   11.60830   27.07100    0.00740    2.50720   72.14360  -36.67660    4.04640    2.52750    3.91580
 6100.00000    0.16070    0.08320   11.01480   21.59760    0.00590    2.47260   81.06950  -34.63080    4.95420    3.24250    5.00270
 6150.00000    0.18870    0.07140   11.43030   27.44790   -0.01170    2.48930   71.15060  -36.67660    4.10390    3.04760    3.86180
 6200.00000    0.19400    0.09570   11.81600   26.53090    0.10210    2.43900   73.85690  -37.12570    4.30890    2.12560    3.57530
 6250.00000    0.16260    0.07370   11.97920   24.40830   -0.00220    2.49630   72.14480  -40.56890    4.04660    3.20860    4.02680
 6300.00000    0.19440    0.06840   11.48980   24.85140    0.00720    2.50640   71.24810  -42.21560    4.13220    3.24890    4.08380
 6350.00000    0.18420    0.07520   11.99410   25.73960    0.01110    2.48070   73.18450  -44.16170    4.78430    2.90150    4.68650
 6400.00000    0.24940    0.10800   13.75470   25.04920    0.07580    2.38090   80.87120  -45.80840    2.94560    2.36700    3.42820
 6450.00000    0.18870    0.07820   10.99010   26.92210    0.02100    2.47350   70.25790  -46.73690    4.94360    2.76220    5.29100
 6500.00000    0.20120    0.11830   11.30170   26.03460   -0.01430    2.42560   80.48570  -49.49800    6.02310    3.13420    4.17040
 6550.00000    0.20000    0.13250   11.57860   28.69780   -0.02810    2.38340   90.07470  -49.84940    2.51780    1.89070    4.22530
 6600.00000    0.13510    0.04390   10.33230   21.03890   -0.00740    2.56550   67.08330  -52.30920    6.03530    5.12330    7.40320
 6650.00000    0.10000    0.03510   10.45100   20.33680   -0.00100    2.59150   61.35500  -51.15460   10.18850    6.55070    9.43880
 6700.00000    0.06990    0.07350    9.87730   16.56670   -0.01330    2.58680   86.32940  -47.89160   22.88930   10.68260   15.54560
 6750.00000    0.09660    0.07760   10.15430   16.46900   -0.01140    2.57540    -999.25  -47.38960   17.53570    9.88490   17.82310
 6800.00000    0.08450    0.08980    9.88720   15.08680   -0.00060    2.54960    -999.25  -45.68270   17.75110    8.31360   16.29170
 6850.00000    0.15170    0.06660   10.00590   16.56800   -0.00740    2.59080    -999.25  -52.40960    9.79310    7.34020    9.81770
 6900.00000    0.15270    0.08360   10.00590   20.41420    0.00250    2.58880    -999.25  -51.70680    7.89930    5.80130    9.90830
 6950.00000    0.11170    0.08180    9.26400   16.27170   -0.02370    2.57590    -999.25  -50.50200   12.48490   12.68300   24.32120
 7000.00000    0.08320    0.08000    9.05620   14.20330   -0.01150    2.55210    -999.25  -49.39800   10.00000    9.16130   32.50690
 7050.00000    0.03950    0.05000    8.63660    8.13500   -0.00420    2.50450    -999.25  -44.80420   12.83610   20.73090  123.31050
 7100.00000    0.15800    0.14010    9.05220   14.18420    0.06860    2.45740    -999.25  -46.53590    9.28340    3.42820   47.86300
 7150.00000    0.08470    0.06310    8.75960   13.41140   -0.01270    2.57890    -999.25  -44.05120   20.78700   15.49090   35.81900
 7200.00000    0.04350    0.05330    8.75960    9.46580   -0.00960    2.62400    -999.25  -46.68670   65.96550   59.25650   48.81900
 7250.00000    0.04450    0.10770    8.53710    8.82660   -0.02060    2.59150    -999.25  -47.74100 1117.18690    6.21720   19.57900
 7300.00000    0.08180    0.07020    8.67520   10.20230   -0.00220    2.60720    -999.25  -43.57450  236.31660  299.21150  123.58870
 7350.00000    0.06480    0.07630    8.43320   10.20710   -0.01110    2.61760    -999.25  -45.03010   32.96830   71.07280   61.29500
 7400.00000    0.06490    0.07350    8.52240   12.13020   -0.00780    2.60420    -999.25  -49.69940   28.30140   40.77520   26.25200
 7450.00000    0.08860    0.07470    8.41840   14.64500   -0.00810    2.58110    -999.25  -50.30120   39.75440   42.32740   39.70110
 7500.00000    0.07750    0.09880    8.42840   18.58450   -0.00030    2.53780    -999.25  -50.50200   18.92820  110.68480  119.91970
 7550.00000    0.12050    0.08450    8.21070   16.27220    0.05400    2.56470    -999.25  -52.10840   94.09400 1680.26770  111.66170
 7600.00000    0.12030    0.10840    8.19580   12.81270   -0.00490    2.51290    -999.25  -52.40960   70.69640 1692.22090   73.83030
 7650.00000    0.07790    0.07820    8.52220   11.34080   -0.00490    2.60560    -999.25  -52.76120   46.96010 1697.12650  199.92330
 7700.00000    0.12060    0.13580    8.21560   15.68050    0.00590    2.46590    -999.25  -50.45180   65.95950 1601.06470   82.43830
