~Version ---------------------------------------------------
VERS. 2.0 : CWLS log ASCII Standard -VERSION 2.0
WRAP. YES : Multiple lines per depth step
~Well ------------------------------------------------------
STRT.FT                   3800.0 : START DEPTH
STOP.FT                   8500.0 : STOP DEPTH
STEP.FT                 50.00000 : STEP LENGTH
NULL.                    -999.25 : NULL VALUE
COMP. CHAMPLIN PETROLEUM COMPANY : COMPANY
WELL.          WILLIAM A LANG #1 : WELL
FLD .                   GIDDINGS : FIELD
LOC .                            : LOCATION
CNTY.                   BURLESON : COUNTY
STAT.                      TEXAS : STATE
CTRY.   UNITED STATES OF AMERICA : COUNTRY
SRVC.               Schlumberger : SERVICE COMPANY
DATE.                24-Jul-1980 : LOGDATE
API .             42051308420000 : API NUMBER
UWI .             42051308420000 : UNIQUE WELL ID
SLAT.WGS84         30.3748097121 : SURFACE LATITUDE
SLON.WGS84        -96.7279740326 : SURFACE LONGITUDE
~Curve Information -----------------------------------------
DEPT    .FT    : DEPTH FEET
CALDED  .IN    : CALIPER FROM SIMULTANEOUS CNL-FDC LOG  [ADJ. TO GRRED]
CALWS   .IN    : CALIPER [CALDED]
CONDWS  .MMHO  : CONDUCTIVITY [1000/DRESWS]
DCORWS  .G/C3  : DENSITY CORRECTION [DROHED]
DENWS   .G/C3  : FORMATION BULK DENSITY [RHOBED]
DPHILSED.V/V   : DENSITY POROSITY LIMESTONE [M=2.71 F=1.0] FROM SIMULTANEOUS CNL-FDC LOG  [ADJ. TO GRRED]
DPHISSED.V/V   : DENSITY POROSITY SANDSTONE [M=2.68 F=1.0] FROM SIMULTANEOUS CNL-FDC LOG  [ADJ. TO GRRED]
DPOWS   .V/V   : DENSITY POROSITY LIMESTONE [M=2.71 F=1.0] [CALCULATED FROM DENWS]
DRESWS  .OHMM  : DEEP RESISTIVITY [ILDED]
DRHOED  .G/C3  : BULK DENSITY CORRECTION FROM SIMULTANEOUS CNL-FDC LOG  [ADJ. TO GRRED]
DTED    .US/F  : DELTA-T FROM DIL-SFL-SONIC LOG
DTWS    .US/F  : COMPRESSIONAL SONIC [DTED]
GRDED   .GAPI  : GAMMA RAY FROM SIMULTANEOUS CNL-FDC LOG [ADJ. TO GRRED]
GRRED   .GAPI  : GAMMA RAY FROM DIL-SFL-SONIC LOG
GRWS    .GAPI  : GAMMA RAY [GRRED SPL.TO GRDED @ 8483']
ILDED   .OHMM  : DEEP INDUCTION FROM DIL-SFL-SONIC LOG
ILMED   .OHMM  : MEDIUM INDUCTION FROM DIL-SFL-SONIC LOG
MRESWS  .OHMM  : MEDIUM RESISTIVTY [ILMED]
NPHILSED.V/V   : NEUTRON POROSITY LIMESTONE FROM SIMULTANEOUS CNL-FDC LOG [ADJ. TO GRRED/RHOBED]
NPHISSED.V/V   : NEUTRON POROSITY SANDSTONE FROM SIMULTANEOUS CNL-FDC LOG  [ADJ. TO GRRED/RHOBED]
NPOWS   .V/V   : NEUTRON POROSITY LIMESTONE [NPHISSED MATRIX CONVERTED TO LIMESTONE & SPL. TO NPHILSED @ 6800.5']
RHOBED  .G/C3  : BULK DENSITY FROM SIMULTANEOUS CNL-FDC LOG  [ADJ. TO GRRED]
SFLUED  .OHMM  : SHALLOW FOCUSED RESISTIVITY FROM DIL-SFL-SONIC LOG
SPHILSED.V/V   : SONIC POROSITY LIMESTONE SONIC-DENSITY POROSITY LOG[DTM=47.6.6;DTF=189]
SPRED   .MV    : SPONTANEOUS POTENTIAL FROM DIL-SFL-SONIC LOG
SPWS    .MV    : SPONTANEOUS POTENTIAL [BASELINE 0 MV, SPRED]
SRESWS  .OHMM  : SHALLOW RESISTIVITY [SFLUED]
~Params ----------------------------------------------------
PD  .                     GL : PERMANENT DATUM
EPD .FT                  372 : ELEVATION PERMANENT DATUM
LMF .                     KB : LOG MEASURED FROM
DAPD.FT                   19 : FEET ABOVE PERMANENT DATUM
DMF .                     KB : DRILLING MEASURED FROM
EKB .FT                  391 : KELLY BUSHING
EDF .FT                  390 : DRILLING FLOOR
EGL .FT                  372 : GROUND LEVEL
DATE.               07/24/80 : RUN DATE
RUN .                      1 : RUN NUMBER
DD  .FT                 8548 : DEPTH DRILLER
DL  .FT                 8547 : DEPTH LOGGER
BLI .FT                 8544 : BOTTOM LOG INTERVAL
TLI .FT                 3800 : TOP LOG INTERVAL
CS  .IN                9.625 : CASING SIZE
CBD .FT                 3804 : CASING BOTTOM DRILLER
CBL .FT                 3800 : CASING BOTTOM LOGGER
BS  .IN                 8.75 : BIT SIZE
BSD .FT                 8548 : BIT SIZE AT DEPTH
DFT .                  BEN X : DRILLING FLUID TYPE
DFD .                    9.3 : DRILLING FLUID DENSITY
DFV .                     40 : DRILLING FLUID VISCOSITY
DFPH.                     10 : DRILLING FLUID PH
DFL .                      9 : DRILLING FLUID LOSS
MSS .              CIRC TANK : MUD SAMPLE SOURCE
RMS .OHMM               1.73 : RESISTIVITY MUD SAMPLE
MST .DEGF                 75 : MUD SAMPLE TEMPERATURE
RMF .OHMM                1.3 : RESISTIVITY MUD FILTRATE SAMPLE
MFST.DEGF                 75 : MUD FILTRATE SAMPLE TEMPERATURE
RMC .OHMM                2.6 : RESISTIVITY MUD CAKE
MCST.DEGF                 75 : MUD CAKE SAMPLE TEMPERATURE
MFSS.                      M : MUD FILTRATE SAMPLE SOURCE
MCSS.                      C : MUD CAKE SAMPLE SOURCE
RMB .OHMM              0.705 : RESISTIVITY MUD AT BHT
TCS .HRS                1400 : TIME CIRCULATED STOPPED
TLAB.HRS                2100 : TIME LOGGER AT BOTTOM
LUN .                   8015 : LOGGING UNIT NUMBER
LUL .               VICTORIA : LOGGING UNIT LOCATION
ENGI.         SHEA LANGHAMER : RECORDING ENGINEER
WITN.           DAVID SCHELL : WITNESSED BY
CLNT.                A2DTECH : CLIENT CODE
ORIG.            2" 5" PRINT : ORIGIN OF DATA
UWI .         42051308420000 : UNIQUE WELL ID
DICO. A2D Technologies, Inc. : DIGITIZING COMPANY
~Other -----------------------------------------------------
DENSITY POROSITY READING APPROX 3 UNITS LOW OVER SECTION 7990'- 7950'
~ASCII -----------------------------------------------------
# ...
 6400.00000   16.02800   16.02800  926.61230    0.04220    2.16350    -999.25    0.30520    0.31960    1.07920    0.04220  105.74090  105.74090   80.42630  103.85670  103.85670    1.07920    1.13200    1.13200    -999.25    0.41960    0.37720    2.16350    1.29900    -999.25  -28.97350   -2.48160    1.29900
 6450.00000   12.00900   12.00900  581.36150    0.11250    2.40080    -999.25    0.16590    0.18080    1.72010    0.11250   89.80570   89.80570   87.40230  106.14460  106.14460    1.72010    1.80880    1.80880    -999.25    0.30550    0.26150    2.40080    2.16220    -999.25  -29.59660   -3.82860    2.16220
 6500.00000   10.73120   10.73120  529.94170    0.25180    2.50020    -999.25    0.10730    0.12270    1.88700    0.25180   90.14450   90.14450   82.77540   93.91100   93.91100    1.88700    1.97740    1.97740    -999.25    0.27920    0.23520    2.50020    2.35050    -999.25  -32.08290   -6.39930    2.35050
 6550.00000   10.70180   10.70180  527.64880    0.09780    2.50240    -999.25    0.11020    0.12140    1.89520    0.09780   89.96670   89.96670   84.50550   86.04830   86.04830    1.89520    1.98570    1.98570    -999.25    0.27610    0.23210    2.50240    2.39070    -999.25  -31.86920   -6.27000    2.39070
 6600.00000   12.37090   12.37090  645.28620    0.08450    2.39080    -999.25    0.17130    0.18660    1.54970    0.08450   98.61360   98.61360   80.38070   88.26930   88.26930    1.54970    1.62680    1.62680    -999.25    0.34660    0.30290    2.39080    1.83420    -999.25  -29.76010   -4.24530    1.83420
 6650.00000   12.03240   12.03240  536.56700    0.07210    2.37340    -999.25    0.18150    0.19680    1.86370    0.07210   92.14170   92.14170   90.23180  105.31370  105.31370    1.86370    2.01270    2.01270    -999.25    0.32530    0.28140    2.37340    2.29500    -999.25  -30.69940   -5.26900    2.29500
 6700.00000   13.83640   13.83640  677.23150    0.10040    2.33950    -999.25    0.20290    0.21670    1.47660    0.10040   99.11600   99.11600   75.76140   99.11900   99.11900    1.47660    1.54710    1.54710    -999.25    0.35230    0.30870    2.33950    1.79770    -999.25  -29.67790   -4.33190    1.79770
 6750.00000   12.54440   12.54440  624.57060    0.03860    2.31040    -999.25    0.21830    0.23370    1.60110    0.03860  100.78290  100.78290   86.32730   94.27320   94.27320    1.60110    1.69540    1.69540    -999.25    0.40290    0.36010    2.31040    1.71590    -999.25  -30.17000   -4.90840    1.71590
 6800.00000   12.73650   12.73650  611.99510    0.09760    2.32620    0.22300    -999.25    0.22440    1.63400    0.09760   95.81520   95.81520   79.55540   89.06320   89.06320    1.63400    1.71200    1.71200    -999.25    0.31540    0.29140    2.32620    2.01420    -999.25  -29.71600   -4.53880    2.01420
 6850.00000   10.71390   10.71390  558.62800    0.07150    2.34800    0.21160    -999.25    0.21170    1.79010    0.07150   92.45920   92.45920   72.79800   81.56700   81.56700    1.79010    1.92710    1.92710    0.24340    -999.25    0.24340    2.34800    2.27460    -999.25  -30.70500   -5.61220    2.27460
 6900.00000    9.47610    9.47610  239.73920   -0.00430    2.61010    0.05850    -999.25    0.05840    4.17120   -0.00430   70.43370   70.43370   37.16930   41.05820   41.05820    4.17120    4.40630    4.40630    0.09160    -999.25    0.09160    2.61010    5.46950    -999.25  -36.08940  -11.08100    5.46950
 6950.00000    9.53940    9.53940  201.61290    0.00350    2.60240    0.06250    -999.25    0.06290    4.96000    0.00350   72.13560   72.13560   33.96500   41.16510   41.16510    4.96000    5.13780    5.13780    0.09690    -999.25    0.09690    2.60240    5.51300    -999.25  -38.38590  -13.46190    5.51300
 7000.00000    9.86760    9.86760  397.47210    0.20900    2.62870    0.03810    -999.25    0.04750    2.51590    0.20900   93.31780   93.31780   95.15460  103.08020  103.08020    2.51590    2.72480    2.72480    0.20150    -999.25    0.20150    2.62870    2.70280    -999.25  -29.73660   -4.89700    2.70280
 7050.00000   11.40380   11.40380  569.08720    0.13230    2.40300    0.17950    -999.25    0.17950    1.75720    0.13230   92.39200   92.39200   88.74220   88.55110   88.55110    1.75720    1.92350    1.92350    0.27110    -999.25    0.27110    2.40300    2.25960    -999.25  -28.61020   -3.79420    2.25960
 7100.00000   10.14110   10.14110  355.41650    0.07140    2.56780    0.08570    -999.25    0.08320    2.81360    0.07140   84.07200   84.07200   81.98500   88.72750   88.72750    2.81360    2.97200    2.97200    0.15970    -999.25    0.15970    2.56780    3.60040    -999.25  -30.01340   -5.19740    3.60040
 7150.00000   10.80470   10.80470  397.94660    0.05080    2.52150    0.10880    -999.25    0.11020    2.51290    0.05080   86.07710   86.07710   87.71560   92.23800   92.23800    2.51290    2.63670    2.63670    0.18920    -999.25    0.18920    2.52150    2.97100    -999.25  -30.22320   -5.40720    2.97100
 7200.00000   10.50460   10.50460  339.07500    0.00470    2.58090    0.07500    -999.25    0.07550    2.94920    0.00470   80.82290   80.82290   77.96660   92.48860   92.48860    2.94920    3.13930    3.13930    0.16770    -999.25    0.16770    2.58090    3.75260    -999.25  -30.61380   -5.79780    3.75260
 7250.00000   10.98930   10.98930  383.14180    0.01010    2.55570    0.09290    -999.25    0.09020    2.61000    0.01010   84.03780   84.03780   81.92100   94.32770   94.32770    2.61000    2.75670    2.75670    0.17170    -999.25    0.17170    2.55570    3.24860    -999.25  -30.05460   -5.23860    3.24860
 7300.00000   10.65420   10.65420  342.75920    0.00050    2.59510    0.06710    -999.25    0.06720    2.91750    0.00050   84.95060   84.95060   82.31680   93.74380   93.74380    2.91750    3.07570    3.07570    0.18360    -999.25    0.18360    2.59510    3.63380    -999.25  -29.74790   -4.93190    3.63380
 7350.00000   15.62090   15.62090  597.94310    0.10080    2.47340    0.13870    -999.25    0.13840    1.67240    0.10080   96.50960   96.50960   83.35320   94.58720   94.58720    1.67240    1.75270    1.75270    0.29210    -999.25    0.29210    2.47340    2.04010    -999.25  -30.13800   -5.32200    2.04010
 7400.00000   13.84760   13.84760  512.34760    0.13630    2.45070    0.15100    -999.25    0.15160    1.95180    0.13630   90.85040   90.85040   81.73510   85.01900   85.01900    1.95180    2.07430    2.07430    0.26490    -999.25    0.26490    2.45070    2.51350    -999.25  -30.62680   -5.81080    2.51350
 7450.00000   13.78080   13.78080  518.34960    0.14880    2.47700    0.13630    -999.25    0.13630    1.92920    0.14880   92.65090   92.65090   85.05790   93.00270   93.00270    1.92920    2.05400    2.05400    0.25810    -999.25    0.25810    2.47700    2.45970    -999.25  -30.30230   -5.48630    2.45970
 7500.00000   14.53580   14.53580  524.05410    0.09880    2.41540    0.17300    -999.25    0.17230    1.90820    0.09880   91.55630   91.55630   81.30160   82.55290   82.55290    1.90820    2.01700    2.01700    0.29310    -999.25    0.29310    2.41540    2.41310    0.31070  -29.61150   -4.79550    2.41310
 7550.00000   13.45280   13.45280  538.32900    0.09770    2.48860    0.12840    -999.25    0.12950    1.85760    0.09770   93.13710   93.13710   78.72810   84.30770   84.30770    1.85760    2.00010    2.00010    0.27430    -999.25    0.27430    2.48860    2.36550    0.32130  -27.28990   -2.47390    2.36550
 7600.00000   10.37250   10.37250   72.88420    0.00150    2.47810    0.13670    -999.25    0.13560   13.72040    0.00150   63.32790   63.32790   25.72890   27.66840   27.66840   13.72040   14.54040   14.54040    0.04160    -999.25    0.04160    2.47810   20.98990    0.11220  -40.40490  -16.51270   20.98990
 7650.00000   10.61790   10.61790   76.53390    0.00940    2.60790    0.05940    -999.25    0.05970   13.06610    0.00940   61.14160   61.14160   21.23620   25.85800   25.85800   13.06610   14.52390   14.52390    0.04560    -999.25    0.04560    2.60790   20.51590    0.09470  -43.85550  -20.88710   20.51590
