~Version ---------------------------------------------------
VERS.      2.0 : CWLS log ASCII Standard -VERSION 2.0
WRAP.      YES : Multiple lines per depth step
CREA. 08/18/12 : LAS Creation Date
~Well ------------------------------------------------------
STRT.FT                 2900.0 : START DEPTH
STOP.FT                17850.0 : STOP DEPTH
STEP.FT               50.00000 : STEP LENGTH
NULL.                  -999.25 : NULL VALUE
COMP. AMOCO PRODUCTION COMPANY : COMPANY
WELL.   JIMMY HILL GAS UNIT #1 : WELL
FLD .                  WILDCAT : FIELD
LOC .                          : LOCATION
CNTY.                     LEON : COUNTY
STAT.                    TEXAS : STATE
CTRY. UNITED STATES OF AMERICA : COUNTRY
SRVC.             Schlumberger : SERVICE COMPANY
DATE.              04-Jun-1996 : LOGDATE
API .           42289312310000 : API NUMBER
UWI .           42289312310000 : UNIQUE WELL ID
SLAT.WGS84       31.2538599246 : SURFACE LATITUDE
SLON.WGS84      -96.2196025838 : SURFACE LONGITUDE
~Curve Information -----------------------------------------
DEPT    .FT                                                                                                : DEPTH FEET
AO10ED  .OHMM                                                                                              : ARRAY INDUCTION ONE FOOT RESISTIVITY A10 FROM AIT-PI-DITE-LDT-CNT LOG
AO20ED  .OHMM                                                                                              : ARRAY INDUCTION ONE FOOT RESISTIVITY A20 FROM AIT-PI-DITE-LDT-CNT LOG
AO30ED  .OHMM                                                                                              : ARRAY INDUCTION ONE FOOT RESISTIVITY A30 FROM AIT-PI-DITE-LDT-CNT LOG
AO60ED  .OHMM                                                                                              : ARRAY INDUCTION ONE FOOT RESISTIVITY A60 FROM AIT-PI-DITE-LDT-CNT LOG
AO90ED  .OHMM                                                                                              : ARRAY INDUCTION ONE FOOT RESISTIVITY A90 FROM AIT-PI-DITE-LDT-CNT LOG
CALSED  .IN                                                                                                : CALIPER FROM BCS-CALIPER-GR LOG [ADJ. TO GRRED]
CALWS   .IN                                                                                                : CALIPER [DCALED+BITS]
CONDWS  .MMHO                                                                                              : CONDUCTIVITY [1000/DRESWS]
DCALED  .IN                                                                                                : DIFFERENTIAL CALIPER FROM AIT-PI-DITE-LDT-CNT LOG
DCORWS  .G/C3                                                                                              : DENSITY CORRECTION [DRHED SPL. TO DRHOED @ 10860']
DENWS   .G/C3 :   FORMATION BULK DENSITY [RHOMED, DENWS CALCULATED FROM DPOWS FROM 7004'-10889'] [M:2.71,F : 1.0]
DPHILSED.V/V                                                      :   DENSITY POROSITY LIMESTONE [M:2.71,F : 1.0] FROM AIT-PI-DITE-LDT-CNT LOG
DPOLSED .V/V                                                                                               : DENSITY POROSITY LIMESTONE FROM HOSTILE LDL-CN-GR LOG
DPOWS   .V/V                                                                                               : DENSITY POROSITY [DPHILSED SPL. TO DPOLSED @ 10852']
DRESWS  .OHMM                                                                                              : DEEP RESISTIVITY [AO30ED SPL. TO IDPHED]
DRHED   .G/C3                                                                                              : BULK DENSITY CORRECTION FROM HOSTILE LDL-CN-GR LOG
DRHOED  .G/C3                                                                                              : BULK DENSITY CORRECTION FROM AIT-PI-DITE-LDT-CNT LOG
DTED    .US/F                                                                                              : DELTA T FROM BCS-CALIPER-GR LOG [ADJ. TO GRRED/NPHILSED]
DTLFED  .US/F                                                                                              : DELTA-T LONG SPACING FAR FROM AIT-PI-DITE-LDT-CNT-PI-LSS-GR LOG
DTLNED  .US/F                                                                                              : DELTA-T LONG SPACING NEAR FROM AIT-PI-DITE-LDT-CNT-PI-LSS-GR LOG
DTWS    .US/F                                                                                              : COMPRESSIONAL SONIC [DTED SPL. TO DTLNED @ 10865.5'-15946.5']
GRRED   .GAPI                                                                                              : GAMMA RAY FROM AIT-PI-DITE-LDT-CNT LOG
GRSED   .GAPI                                                                                              : GAMMA RAY FROM BCS-CALIPER-GR-PI-LSS LOG [ADJ. TO GRRED]
GRWS    .GAPI                                                                                              : GAMMA RAY [GRRED]
IDPHED  .OHMM                                                                                              : DEEP INDUCTION PHASOR FROM AIT-PI-DITE-LDT-CNT- PI-LSS-GR LOG
LCALED  .IN                                                                                                : LOWER CALIPER FROM HOSTILE LDL-CN-GR LOG
MRESWS  .OHMM                                                                                              : MEDIUM RESISTIVITY [AO30ED]
NPHILSED.V/V                                                                                               : NEUTRON POROSITY LIMESTONE FROM AIT-PI-DITE-LDT-CNT LOG
NPOWS   .V/V                                                                                               : NEUTRON POROSITY [NPHILSED]
PEFED   .B/E                                                                                               : PHOTOELECTRIC FACTOR FROM AIT-PI-DITE-LDT-CNT LOG
PEFLED  .B/E                                                                                               : HLDT PEF LONG SPACING FROM HOSTILE LDL-CN-GR LOG
PEFSED  .B/E                                                                                               : SHORT SPACED CORRECTED PHOTOELECTRIC FACTOR FROM HOSTILE LDL-CN-GR LOG
PEFWS   .B/E                                                                                               : PHOTOELECTRIC FACTOR [PEFED SPL. TO PEFSED @ 10847.5']
RHOMED  .G/C3                                                                                              : CORRECTED BULK DENSITY FROM HOSTILE LDL-CN-GR LOG
SPRED   .MV                                                                                                : SPONTANEOUS POTENTIAL  FROM AIT-PI-DITE-LDT-CNT LOG
SPWS    .MV                                                                                                : SPONTANEOUS POTENTIAL [BASELINE 0, MV SPRED]
SRESWS  .OHMM                                                                                              : SHALLOW RESISTIVITY [AO10ED]
TENDED  .LBF                                                                                               : DIFFERENTIAL TENSION FROM HOSTILE LDL-CN-GR LOG
TENRED  .LBF                                                                                               : TENSION FROM AIT-PI-DITE-LDT-CNT LOG
TENSED  .LBF                                                                                               : TOTAL TENSION FROM BCS-CALIPER-GR LOG [ADJ. TO GRRED]
~Params ----------------------------------------------------
PD  .                     GL : PERMANENT DATUM
EPD .FT                 3759 : ELEVATION PERMANENT DATUM
LMF .                     KB : LOG MEASURED FROM
DAPD.FT                 37.2 : FEET ABOVE PERMANENT DATUM
DMF .                     KB : DRILLING MEASURED FROM
EKB .FT                 4131 : KELLY BUSHING
EDF .FT                 4121 : DRILLING FLOOR
EGL .FT                 3759 : GROUND LEVEL
DATE.               06/04/96 : RUN DATE
RUN .                      4 : RUN NUMBER
DD  .FT                17800 : DEPTH DRILLER
DL  .FT                17800 : DEPTH LOGGER
BLI .FT                17797 : BOTTOM LOG INTERVAL
TLI .FT                15944 : TOP LOG INTERVAL
CS  .IN                    7 : CASING SIZE
CBD .FT                15950 : CASING BOTTOM DRILLER
CBL .FT                15944 : CASING BOTTOM LOGGER
BS  .IN                5.875 : BIT SIZE
BSD .FT                17800 : BIT SIZE AT DEPTH
DFT .              OIL BASED : DRILLING FLUID TYPE
DFD .                     18 : DRILLING FLUID DENSITY
DFV .                     88 : DRILLING FLUID VISCOSITY
RMC .OHMM      OIL BASED MUD : RESISTIVITY MUD CAKE
MCST.DEGF      OIL BASED MUD : MUD CAKE SAMPLE TEMPERATURE
TCS .HRS                2100 : TIME CIRCULATED STOPPED
TLAB.HRS                1500 : TIME LOGGER AT BOTTOM
LUN .                   2019 : LOGGING UNIT NUMBER
LUL .                  TYLER : LOGGING UNIT LOCATION
ENGI.                 FERRIS : RECORDING ENGINEER
WITN.              MCGINNUSS : WITNESSED BY
CLNT.                A2DTECH : CLIENT CODE
ORIG.               5' PRINT : ORIGIN OF DATA
UWI .         42289312310000 : UNIQUE WELL ID
DICO. A2D Technologies, Inc. : DIGITIZING COMPANY
~Other -----------------------------------------------------
~ASCII -----------------------------------------------------
# ...
 8300.00000   19.43680   38.65320   28.78780   22.15570   19.10840   14.88400   13.56160   52.33300    1.31160    0.01540    2.68730    0.01330    -999.25    0.01330   19.10840    -999.25    0.01540   56.90690    -999.25    -999.25   56.90690   33.47300   34.45680   33.47300    -999.25    -999.25   28.78780    0.02850    0.02850    4.57280    -999.25    -999.25    4.57280    -999.25  -36.97860   -3.25570   19.43680    -999.25 2814.50120 2958.94630
 8350.00000   15.56120   22.70300   22.26710   17.38230   16.81350   14.00950   12.87260   59.47600    0.62260    0.00870    2.67030    0.02320    -999.25    0.02320   16.81350    -999.25    0.00870   57.44160    -999.25    -999.25   57.44160   30.92500   32.98480   30.92500    -999.25    -999.25   22.26710    0.03400    0.03400    4.65000    -999.25    -999.25    4.65000    -999.25  -38.83870   -5.25420   15.56120    -999.25 2832.74950 2921.99900
 8400.00000   11.33280   21.04190   15.48260   13.94240   10.38150   15.94760   13.33790   96.32520    1.08790   -0.01050    2.42150    0.16870    -999.25    0.16870   10.38150    -999.25   -0.01050   61.70410    -999.25    -999.25   61.70410   30.64510   31.55830   30.64510    -999.25    -999.25   15.48260    0.07260    0.07260    4.86200    -999.25    -999.25    4.86200    -999.25  -39.51020   -6.06400   11.33280    -999.25 2868.15650 2985.74760
 8450.00000   13.52840   19.11660   13.80120   13.42650   12.71370   15.81560   13.05030   78.65530    0.80030    0.01010    2.60600    0.06080    -999.25    0.06080   12.71370    -999.25    0.01010   57.74000    -999.25    -999.25   57.74000   35.20510   36.29950   35.20510    -999.25    -999.25   13.80120    0.02720    0.02720    4.58320    -999.25    -999.25    4.58320    -999.25  -41.30290   -8.71320   13.52840    -999.25 2866.02270 2952.87920
 8500.00000   33.61360  107.94220   80.83260   67.58600   65.68840   16.69970   12.92730   15.22340    0.67730    0.00710    2.66230    0.02790    -999.25    0.02790   65.68840    -999.25    0.00710   51.88390    -999.25    -999.25   51.88390   38.81070   38.06070   38.81070    -999.25    -999.25   80.83260    0.00080    0.00080    4.77180    -999.25    -999.25    4.77180    -999.25  -59.42850  -27.70250   33.61360    -999.25 2881.97440 2937.80540
 8550.00000  623.60140  511.73680  324.77660  279.44400  207.81940   15.41310   13.21100    4.81190    0.96100    0.01470    2.66930    0.02380    -999.25    0.02380  207.81940    -999.25    0.01470   50.64560    -999.25    -999.25   50.64560   27.67280   26.40750   27.67280    -999.25    -999.25  324.77660    0.00350    0.00350    4.96360    -999.25    -999.25    4.96360    -999.25  -37.31990   -6.45770  623.60140    -999.25 2925.01810 2963.42040
 8600.00000   23.27000   26.88860   22.27160   22.55930   20.96800   15.91750   13.58620   47.69170    1.33620    0.00410    2.64640    0.03720    -999.25    0.03720   20.96800    -999.25    0.00410   57.15810    -999.25    -999.25   57.15810   30.09310   33.21630   30.09310    -999.25    -999.25   22.27160    0.02180    0.02180    4.40210    -999.25    -999.25    4.40210    -999.25  -46.24050  -16.24200   23.27000    -999.25 2884.78200 2986.41330
 8650.00000   50.44380   66.56090   49.38410   42.73960   38.82450   18.38280   13.76720   25.75690    1.51720    0.05400    2.69650    0.00790    -999.25    0.00790   38.82450    -999.25    0.05400   53.34310    -999.25    -999.25   53.34310   43.87800   48.89260   43.87800    -999.25    -999.25   49.38410    0.00800    0.00800    5.02470    -999.25    -999.25    5.02470    -999.25  -65.49330  -36.35850   50.44380    -999.25 2940.57450 3023.48270
 8700.00000  556.83420  532.25710  390.55160  258.81140  250.05290   16.45870   13.99120    3.99920    1.74120    0.01470    2.88510   -0.10240    -999.25   -0.10240  250.05290    -999.25    0.01470   51.34400    -999.25    -999.25   51.34400   10.34440   14.14140   10.34440    -999.25    -999.25  390.55160    0.00050    0.00050    5.44720    -999.25    -999.25    5.44720    -999.25  -58.97380  -31.54710  556.83420    -999.25 2943.25490 2979.83590
 8750.00000   16.12780   18.31490   13.48340   11.31930   11.54940   17.01230   13.27970   86.58460    1.02970    0.01790    2.64660    0.03710    -999.25    0.03710   11.54940    -999.25    0.01790   57.91120    -999.25    -999.25   57.91120   65.16520   49.90870   65.16520    -999.25    -999.25   13.48340    0.04350    0.04350    4.62480    -999.25    -999.25    4.62480    -999.25  -36.30040  -11.65630   16.12780    -999.25 2984.98050 3060.89720
 8800.00000  308.06420  481.47480  199.30750   83.76590   98.30510   16.76960   13.26570   10.17240    1.01570    0.00940    2.67000    0.02340    -999.25    0.02340   98.30510    -999.25    0.00940   50.90920    -999.25    -999.25   50.90920   29.20820   22.37260   29.20820    -999.25    -999.25  199.30750    0.00260    0.00260    5.24940    -999.25    -999.25    5.24940    -999.25  -70.41670  -48.55530  308.06420    -999.25 2977.30640 3065.70190
 8850.00000    5.96320    4.84560    4.57400    4.50800    4.33360   16.55440   12.94010  230.75500    0.69010    0.00210    2.57080    0.08140    -999.25    0.08140    4.33360    -999.25    0.00210   56.06190    -999.25    -999.25   56.06190   14.12580   19.60520   14.12580    -999.25    -999.25    4.57400    0.04730    0.04730    4.90570    -999.25    -999.25    4.90570    -999.25 -137.90710 -118.82840    5.96320    -999.25 2980.79640 3016.34470
 8900.00000    7.00630    6.94100    6.54950    6.15050    6.04170   16.64740   13.14050  165.51630    0.89050    0.01510    2.55470    0.09080    -999.25    0.09080    6.04170    -999.25    0.01510   56.79290    -999.25    -999.25   56.79290   36.94200   32.74970   36.94200    -999.25    -999.25    6.54950    0.05070    0.05070    4.82130    -999.25    -999.25    4.82130    -999.25 -133.05060 -116.25500    7.00630    -999.25 3024.74020 3007.61780
 8950.00000   16.46840   16.77240   15.96320   15.42680   15.29250   13.60800   12.56650   65.39150    0.31650    0.01100    2.66380    0.02700    -999.25    0.02700   15.29250    -999.25    0.01100   60.16570    -999.25    -999.25   60.16570   47.23690   46.91790   47.23690    -999.25    -999.25   15.96320    0.05250    0.05250    4.86000    -999.25    -999.25    4.86000    -999.25  -29.82250  -15.04110   16.46840    -999.25 3066.67600 3056.00610
 9000.00000   27.98160   21.29470   18.71860   14.11960   14.10590   13.87700   13.82870   70.89230    1.57870    0.01950    2.66210    0.02800    -999.25    0.02800   14.10590    -999.25    0.01950   60.01760    -999.25    -999.25   60.01760   50.24830   52.03670   50.24830    -999.25    -999.25   18.71860    0.07100    0.07100    4.47090    -999.25    -999.25    4.47090    -999.25  -35.93380  -23.16660   27.98160    -999.25 2757.71680 3065.54710
 9050.00000   22.19520   74.76520   50.08830   50.42240   55.94530   13.66510   13.75370   17.87460    1.50370    0.02350    2.67960    0.01780    -999.25    0.01780   55.94530    -999.25    0.02350   54.36770    -999.25    -999.25   54.36770   47.30570   47.47800   47.30570    -999.25    -999.25   50.08830    0.01340    0.01340    4.93260    -999.25    -999.25    4.93260    -999.25  -42.43880  -31.68580   22.19520    -999.25 3140.15580 3113.60910
 9100.00000    5.39350    8.08290    6.42480    6.58650    6.96500   15.07360   15.12870  143.57500    2.87870    0.05650    2.64950    0.03540    -999.25    0.03540    6.96500    -999.25    0.05650   67.80830    -999.25    -999.25   67.80830   67.37480   68.01220   67.37480    -999.25    -999.25    6.42480    0.14380    0.14380    3.89050    -999.25    -999.25    3.89050    -999.25  -17.43150   -8.69260    5.39350    -999.25 3154.68950 3128.90920
 9150.00000    4.90490    7.53430    8.81840   11.61990   11.23160   15.75950   15.80960   89.03450    3.55960    0.00850    2.65270    0.03350    -999.25    0.03350   11.23160    -999.25    0.00850   62.34490    -999.25    -999.25   62.34490   64.58470   64.87380   64.58470    -999.25    -999.25    8.81840    0.11540    0.11540    4.44580    -999.25    -999.25    4.44580    -999.25  -15.97960   -7.00720    4.90490    -999.25 3126.35840 3157.08010
