~Version ---------------------------------------------------
VERS. 2.0 : CWLS log ASCII Standard -VERSION 2.0
WRAP.  NO : ONE LINE PER DEPTH STEP
~Well ------------------------------------------------------
STRT.FT                   3550.0 : START DEPTH
STOP.FT                   8500.0 : STOP DEPTH
STEP.FT                 50.00000 : STEP LENGTH
NULL.                    -999.25 : NULL VALUE
COMP. CHAMPLIN PETROLEUM COMPANY : COMPANY
WELL.         P RUFFINO III D #1 : WELL
FLD .                     KURTEN : FIELD
LOC .                            : LOCATION
CNTY.                     BRAZOS : COUNTY
STAT.                      TEXAS : STATE
CTRY.   UNITED STATES OF AMERICA : COUNTRY
SRVC.               CRC WIRELINE : SERVICE COMPANY
DATE.                15-Mar-1984 : LOGDATE
API .             42041310960000 : API NUMBER
UWI .             42041310960000 : UNIQUE WELL ID
SLAT.WGS84         30.7427052503 : SURFACE LATITUDE
SLON.WGS84        -96.4033018152 : SURFACE LONGITUDE
~Curve Information -----------------------------------------
DEPT  .FT    : DEPTH FEET
GRWS  .GAPI  : GAMMA RAY [SPL GRRED 7400 GRDED(RESCALED 0/100 TO 0/150)]
SPWS  .MV    : SPONTANEOUS POTENTIAL [BASELINE 0 MV] [SPRED]
DRESWS.OHMM  : DEEP RESISTIVITY [RILDED]
GRRED .GAPI  : GAMMA RAY FROM RESISTIVITY LOG
SPRED .MV    : SPONTANEOUS POTENTIAL FROM RESISTIVITY LOG
RILDED.OHMM  : INDUCTION LOG DEEP RESISTIVITY
RILMED.OHMM  : INDUCTION LOG MEDIUM RESISTIVITY
RLLED .OHMM  : LATEROLOG RESISTIVITY
GRDED .GAPI  : GAMMA RAY FROM DENSITY LOG [DEPTH ADJ TO RES LOG]
NPHIED.V/V   : NEUTRON POROSITY LIMESTONE FROM DENSITY LOG [DEPTH ADJ TO RES LOG]
MRESWS.OHMM  : MEDIUM RESISTIVITY [RILMED]
SRESWS.OHMM  : SHALLOW RESISTIVITY [RLLED]
NPOWS .V/V   : NEUTRON POROSITY [NPHIED]
CONDWS.MMHO  : CONDUCTIVITY [1000/DRESWS]
~Params ----------------------------------------------------
PD  .                     GL : PERMANENT DATUM
EPD .F                   344 : ELEVATION PERMANENT DATUM
LMF .                     KB : LOG MEASURED FROM
DAPD.F                    23 : FEET ABOVE PERMANENT DATUM
DMF .                     KB : DRILLING MEASURED FROM
EKB .F                   368 : KELLING BUSHING
EDF .F                   367 : DRILLING FLOOR
EGL .F                   344 : GROUND LEVEL
DATE.               03/15/84 : RUN DATE
RUN .                      1 : RUN NUMBER
DD  .F                  8650 : DEPTH DRILLER
DL  .F                  8500 : DEPTH LOGGER
BLI .F                  8504 : BOTTOM LOG INTERVAL
TLI .F                  6500 : TOP LOG INTERVAL
CS  .IN                  5.5 : CASING SIZE
BS  .IN                 8.75 : BIT SIZE
BSD .F                  3560 : BIT SIZE AT DEPTH
DFT .            FRESH WATER : DRILLING FLUID TYPE
ENGI.                   DEES : RECORDING ENGINEER
WITN.                 BOOHER : WITNESSED BY
CLNT.                A2DTECH : CLIENT CODE
ORIG.               5" PRINT : ORIGIN OF DATA
UWI .         42041310960000 : UNIQUE WELL ID
DICO. A2D Technologies, Inc. : DIGITIZING COMPANY
~Other -----------------------------------------------------
~ASCII -----------------------------------------------------
# ...
 6000.00000   78.92850   -2.87980    1.52450   78.92850  -55.17780    1.52450    1.60510    1.55680    -999.25    -999.25    1.60510    1.55680    -999.25  655.95280
 6050.00000   78.46850   -2.52720    1.78140   78.46850  -54.68540    1.78140    1.81010    1.74980    -999.25    -999.25    1.81010    1.74980    -999.25  561.35630
 6100.00000   74.34340   -3.14400    1.54410   74.34340  -55.41470    1.54410    1.56940    1.46580    -999.25    -999.25    1.56940    1.46580    -999.25  647.62640
 6150.00000   81.06830   -5.07130    1.45850   81.06830  -57.45450    1.45850    1.53380    1.66920    -999.25    -999.25    1.53380    1.66920    -999.25  685.63590
 6200.00000   91.50050   -3.98580    1.24370   91.50050  -56.48150    1.24370    1.31860    1.31640    -999.25    -999.25    1.31860    1.31640    -999.25  804.05240
 6250.00000   89.33150   -3.01570    1.59870   89.33150  -55.62390    1.59870    1.65710    1.59550    -999.25    -999.25    1.65710    1.59550    -999.25  625.50820
 6300.00000   80.86060   -1.33620    1.49460   80.86060  -53.35180    1.49460    1.51730    1.42870    -999.25    -999.25    1.51730    1.42870    -999.25  669.07530
 6350.00000   82.64170   -4.23580    1.47540   82.64170  -56.37600    1.47540    1.53450    1.36230    -999.25    -999.25    1.53450    1.36230    -999.25  677.78230
 6400.00000   72.49650   -4.84710    1.56940   72.49650  -57.97010    1.56940    1.57670    1.50560    -999.25    -999.25    1.57670    1.50560    -999.25  637.18620
 6450.00000   77.33690   -4.49940    1.37020   77.33690  -58.60530    1.37020    1.39190    1.32750    -999.25    -999.25    1.39190    1.32750    -999.25  729.82040
 6500.00000   78.15630   -4.54610    1.12730   78.15630  -59.63480    1.12730    1.18730    1.22660    -999.25    -999.25    1.18730    1.22660    -999.25  887.07530
 6550.00000   75.40990   -2.51310    2.26890   75.40990  -54.91050    2.26890    2.27750    2.30310   57.97510    0.20910    2.27750    2.30310    0.20910  440.74220
 6600.00000   72.60980   -3.33090    2.48040   72.60980  -55.63910    2.48040    2.41580    2.50730   51.78040    0.16810    2.41580    2.50730    0.16810  403.16080
 6650.00000   77.15200   -2.58370    1.79170   77.15200  -55.11240    1.79170    1.81610    1.91640   55.59140    0.27520    1.81610    1.91640    0.27520  558.12920
 6700.00000   67.83460   -0.33830    2.13680   67.83460  -52.48620    2.13680    2.23100    2.21400   55.29650    0.22920    2.23100    2.21400    0.22920  467.98950
 6750.00000   83.76240   -3.27660    1.52220   83.76240  -54.14150    1.52220    1.56540    1.53870   57.86130    0.30380    1.56540    1.53870    0.30380  656.94390
 6800.00000   80.80910   -4.03150    1.66700   80.80910  -53.61350    1.66700    1.76890    1.70880   56.72690    0.25570    1.76890    1.70880    0.25570  599.88000
 6850.00000   86.03040   -1.69840    1.70300   86.03040  -51.25370    1.70300    1.82800    1.77440   58.39380    0.20420    1.82800    1.77440    0.20420  587.19910
 6900.00000   82.10710   -1.65400    1.73180   82.10710  -51.77980    1.73180    1.82230    1.83050   64.73720    0.25920    1.82230    1.83050    0.25920  577.43390
 6950.00000   78.28220   -2.00950    1.33700   78.28220  -54.48000    1.33700    1.40480    1.54090   55.56720    0.24540    1.40480    1.54090    0.24540  747.94320
 7000.00000   85.49850   -1.46380    1.36580   85.49850  -54.70430    1.36580    1.46090    1.50320   50.78730    0.31720    1.46090    1.50320    0.31720  732.17160
 7050.00000   85.68080   -1.91590    1.40130   85.68080  -55.92650    1.40130    1.47420    1.49180   65.68310    0.31120    1.47420    1.49180    0.31120  713.62310
 7100.00000   81.01430   -1.70480    1.32730   81.01430  -54.90050    1.32730    1.39480    1.49640   61.41460    0.32130    1.39480    1.49640    0.32130  753.40920
 7150.00000   86.38800   -2.12990    1.47100   86.38800  -54.96070    1.47100    1.53460    1.75370   60.33830    0.28980    1.53460    1.75370    0.28980  679.80970
 7200.00000   76.22040   -2.61100    1.35250   76.22040  -55.07680    1.35250    1.40920    1.58950   56.07450    0.32740    1.40920    1.58950    0.32740  739.37160
 7250.00000   64.38010   -0.20400    2.44310   64.38010  -52.30480    2.44310    2.50220    2.82310   51.88700    0.22330    2.50220    2.82310    0.22330  409.31600
 7300.00000   82.44580   -2.79540    2.00200   82.44580  -56.13020    2.00200    2.06890    2.57440   49.39360    0.31030    2.06890    2.57440    0.31030  499.50050
 7350.00000   81.61020   -6.74320    1.59140   81.61020  -61.31200    1.59140    1.60380    1.97540   50.57540    0.34750    1.60380    1.97540    0.34750  628.37750
 7400.00000   41.49580   -3.96340    4.74340   37.70900  -58.10570    4.74340    4.66730    5.09530   27.66390    0.12200    4.66730    5.09530    0.12200  210.81920
 7450.00000   37.42950   -8.99090    5.80240   36.90690  -62.09250    5.80240    5.46580    6.28550   24.95300    0.09520    5.46580    6.28550    0.09520  172.34250
 7500.00000   29.57230    -999.25    -999.25    -999.25    -999.25    -999.25    -999.25    -999.25   19.71490    0.08240    -999.25    -999.25    0.08240    -999.25
 7550.00000   66.32660    -999.25    -999.25    -999.25    -999.25    -999.25    -999.25    -999.25   44.21770    0.14080    -999.25    -999.25    0.14080    -999.25
 7600.00000   48.97810    -999.25    -999.25    -999.25    -999.25    -999.25    -999.25    -999.25   32.65210    0.10160    -999.25    -999.25    0.10160    -999.25
 7650.00000   24.46560    -999.25    -999.25    -999.25    -999.25    -999.25    -999.25    -999.25   16.31040    0.08540    -999.25    -999.25    0.08540    -999.25
 7700.00000   88.79410    -999.25    -999.25    -999.25    -999.25    -999.25    -999.25    -999.25   59.19610    0.39870    -999.25    -999.25    0.39870    -999.25
 7750.00000   73.19740    -999.25    -999.25    -999.25    -999.25    -999.25    -999.25    -999.25   48.79830    0.36630    -999.25    -999.25    0.36630    -999.25
 7800.00000   80.32620    -999.25    -999.25    -999.25    -999.25    -999.25    -999.25    -999.25   53.55080    0.34370    -999.25    -999.25    0.34370    -999.25
 7850.00000   81.10380    -999.25    -999.25    -999.25    -999.25    -999.25    -999.25    -999.25   54.06920    0.43270    -999.25    -999.25    0.43270    -999.25
 7900.00000   82.72400    -999.25    -999.25    -999.25    -999.25    -999.25    -999.25    -999.25   55.14930    0.35520    -999.25    -999.25    0.35520    -999.25
 7950.00000   85.64690    -999.25    -999.25    -999.25    -999.25    -999.25    -999.25    -999.25   57.09790    0.32680    -999.25    -999.25    0.32680    -999.25
 8000.00000   99.56370    -999.25    -999.25    -999.25    -999.25    -999.25    -999.25    -999.25   66.37580    0.34460    -999.25    -999.25    0.34460    -999.25
 8050.00000   96.61150    -999.25    -999.25    -999.25    -999.25    -999.25    -999.25    -999.25   64.40770    0.36180    -999.25    -999.25    0.36180    -999.25
 8100.00000   82.86150    -999.25    -999.25    -999.25    -999.25    -999.25    -999.25    -999.25   55.24100    0.34750    -999.25    -999.25    0.34750    -999.25
 8150.00000   86.32020    -999.25    -999.25    -999.25    -999.25    -999.25    -999.25    -999.25   57.54680    0.49910    -999.25    -999.25    0.49910    -999.25
 8200.00000   43.11510    -999.25    -999.25    -999.25    -999.25    -999.25    -999.25    -999.25   28.74340    0.08470    -999.25    -999.25    0.08470    -999.25
 8250.00000   22.22850    -999.25    -999.25    -999.25    -999.25    -999.25    -999.25    -999.25   14.81900    0.02310    -999.25    -999.25    0.02310    -999.25
 8300.00000   58.14680    -999.25    -999.25    -999.25    -999.25    -999.25    -999.25    -999.25   38.76450    0.08520    -999.25    -999.25    0.08520    -999.25
 8350.00000   25.53180    -999.25    -999.25    -999.25    -999.25    -999.25    -999.25    -999.25   17.02120    0.03120    -999.25    -999.25    0.03120    -999.25
 8400.00000   26.40930    -999.25    -999.25    -999.25    -999.25    -999.25    -999.25    -999.25   17.60620    0.03670    -999.25    -999.25    0.03670    -999.25
