~Version ---------------------------------------------------
VERS. 2.0 : CWLS log ASCII Standard -VERSION 2.0
WRAP.  NO : ONE LINE PER DEPTH STEP
~Well ------------------------------------------------------
STRT.F                    3700.0 : START DEPTH
STOP.F                    8150.0 : STOP DEPTH
STEP.F                  50.00000 : STEP LENGTH
NULL.                    -999.25 : NULL VALUE
COMP. UTAH DELTA PETROLEUM CORP. : COMPANY
WELL.       BILLIG HERBERT W. #1 : WELL
FLD .                   GIDDINGS : FIELD
LOC .                            : LOCATION
CNTY.                   BURLESON : COUNTY
STAT.                      TEXAS : STATE
CTRY.   UNITED STATES OF AMERICA : COUNTRY
SRVC.              Dresser Atlas : SERVICE COMPANY
DATE.                21-May-1981 : LOGDATE
API .             42051315590000 : API NUMBER
UWI .             42051315590000 : UNIQUE WELL ID
SLAT.WGS84         30.4023889735 : SURFACE LATITUDE
SLON.WGS84        -96.7960662616 : SURFACE LONGITUDE
~Curve Information -----------------------------------------
DEPT   .F    0   1   0  0 : 1 MEASURED DEPTH
NPHI_LS.DEC  42 890 01 00 : NEUTRON POROSITY LIMESTONE
SPR    .MV   07 010 01 00 : SPONTANEOUS POTENTIAL FROM RESISTIVITY LOG
SFL    .OHMM 07 220 06 00 : SPHERICALLY FOCUSED LOG
CALR   .IN   07 280 01 00 : CALIPER FROM RESISTIVITY LOG
DPHI_LS.DEC  45 890 10 00 : DENSITY POROSITY LIMESTONE
ILD    .OHMM 07 120 46 00 : INDUCTION DEEP RESISTIVITY
ILM    .OHMM 07 120 44 00 : INDUCTION MEDIUM RESISTIVITY
GR     .GAPI 81 310 01 00 : GAMMA RAY
~Params ----------------------------------------------------
PD  .                     GL : PERMANENT DATUM
EPD .FT                  364 : ELEVATION PERMANENT DATUM
LMF .                     KB : LOG MEASURED FROM
DAPD.FT                   12 : FEET ABOVE PERMANENT DATUM
DMF .                     KB : DRILLING MEASURED FROM
EKB .FT                  376 : KELLY BUSHING
EDF .FT                  375 : DRILLING FLOOR
EGL .FT                  364 : GROUND LEVEL
DATE.               05/21/81 : RUN DATE
RUN .                      1 : RUN NUMBER
DD  .FT                 8259 : DEPTH DRILLER
DL  .FT                 8142 : DEPTH LOGGER
BLI .FT                 8140 : BOTTOM LOG INTERVAL
TLI .FT                 3700 : TOP LOG INTERVAL
CS  .IN                8.625 : CASING SIZE
CBD .FT                 3700 : CASING BOTTOM DRILLER
CBL .FT                 3700 : CASING BOTTOM LOGGER
BS  .IN                7.875 : BIT SIZE
BSD .FT                 8259 : BIT SIZE AT DEPTH
DFT .        PRISPAC LIGNITE : DRILLING FLUID TYPE
DFD .                    9.3 : DRILLING FLUID DENSITY
DFV .                     39 : DRILLING FLUID VISCOSITY
DFPH.                     10 : DRILLING FLUID PH
DFL .                    4.8 : DRILLING FLUID LOSS
MSS .               FLOWLINE : MUD SAMPLE SOURCE
RMS .OHMM               0.78 : RESISTIVITY MUD SAMPLE
MST .DEGF                 75 : MUD SAMPLE TEMPERATURE
RMF .OHMM                0.6 : RESISTIVITY MUD FILTRATE SAMPLE
MFST.DEGF                 75 : MUD FILTRATE SAMPLE TEMPERATURE
RMC .OHMM              0.975 : RESISTIVITY MUD CAKE
MCST.DEGF                 75 : MUD CAKE SAMPLE TEMPERATURE
MFSS.                   MEAS : MUD FILTRATE SAMPLE SOURCE
MCSS.                   MEAS : MUD CAKE SAMPLE SOURCE
RMB .OHMM               0.35 : RESISTIVITY MUD AT BHT
TCS .HRS                   5 : TIME CIRCULATED STOPPED
LUN .                   6105 : LOGGING UNIT NUMBER
LUL .                    VIC : LOGGING UNIT LOCATION
ENGI.             MONTGOMERY : RECORDING ENGINEER
WITN.                  WOODS : WITNESSED BY
CLNT.                A2DTECH : CLIENT CODE
ORIG.            2" 5" PRINT : ORIGIN OF DATA
UWI .         42051315590000 : UNIQUE WELL ID
DICO. A2D Technologies, Inc. : DIGITIZING COMPANY
~Other -----------------------------------------------------
~ASCII -----------------------------------------------------
 3700.00000    0.34130   -1.48020    0.30350    8.05520    0.34190    -999.25    -999.25    -999.25
 3750.00000    0.24360  -27.79160    9.97930    7.85410    0.16800    5.73720    6.90950    -999.25
 3800.00000    0.33400  -18.58970    2.34040    7.81520    0.32580    1.44590    1.34590    -999.25
 3850.00000    0.28850  -30.57820    4.64670    7.93810    0.26940    3.48420    4.09280    -999.25
 3900.00000    0.25760  -29.23360    4.11690    7.88730    0.22010    3.47270    4.10920    -999.25
 3950.00000    0.26920  -21.75130    2.85010    8.50500    0.23780    2.34110    2.53620    -999.25
 4000.00000    0.24520  -24.76560    2.79700    7.99950    0.19560    2.46130    2.71950    -999.25
 4050.00000    0.21970  -22.56760    2.80630    7.97070    0.19570    2.11920    2.27260    -999.25
 4100.00000    0.20240  -26.59950    3.05550    8.02000    0.16600    2.46230    2.80560    -999.25
 4150.00000    0.21720  -23.17560    2.48900    8.04670    0.18100    2.22220    2.44170    -999.25
 4200.00000    0.20150  -19.84270    2.21190    7.99890    0.14970    2.03050    2.18210    -999.25
 4250.00000    0.22160  -17.21050    1.85460    9.47690    0.15890    1.58260    1.62350    -999.25
 4300.00000    0.22220  -17.77960    1.83350    8.70020    0.13790    1.68450    1.83960    -999.25
 4350.00000    0.23190  -16.46950    1.49840    9.43560    0.14760    1.43460    1.55160    -999.25
 4400.00000    0.27500  -16.03430    1.51510   10.32530    0.14870    1.29310    1.33510    -999.25
 4450.00000    0.26910  -18.09360    1.43220   10.39630    0.14700    1.46970    1.62210    -999.25
 4500.00000    0.26340  -16.71850    1.49470   10.40160    0.15580    1.26210    1.31380    -999.25
 4550.00000    0.30870  -18.09960    1.44750    9.41380    0.16080    1.31650    1.41170    -999.25
 4600.00000    0.29290  -15.31820    1.67560    9.09970    0.21260    1.34390    1.46630    -999.25
 4650.00000    0.30710  -13.35900    1.22080    8.87610    0.28020    1.06530    1.09370    -999.25
 4700.00000    0.30450  -15.26460    1.44550    8.98180    0.27960    1.19890    1.30400    -999.25
 4750.00000    0.22530  -75.00830    2.68430    9.02030    0.22380    1.62120    2.11510    -999.25
 4800.00000    0.32140  -61.96970    1.60150    8.78600    0.22820    1.03590    1.05440    -999.25
 4850.00000    0.21210  -69.31070    2.03540    8.85820    0.15630    2.02190    2.15920    -999.25
 4900.00000    0.23510  -66.33050    1.96550    8.53450    0.19320    1.51720    1.75020    -999.25
 4950.00000    0.17980  -66.72400    1.71120    8.67960    0.22290    1.68620    1.99660    -999.25
 5000.00000    0.26130  -63.39570    1.57180    8.47020    0.20650    1.12300    1.21190    -999.25
 5050.00000    0.27610  -61.42140    1.15620    8.99840    0.22300    0.98900    1.01510    -999.25
 5100.00000    0.27250  -62.04250    1.05820   10.29270    0.21560    1.04990    1.10440    -999.25
 5150.00000    0.33000  -60.26730    1.13010   10.64730    0.20220    0.97330    0.99930    -999.25
 5200.00000    0.32180  -61.48500    1.07320   10.51570    0.21670    1.08190    1.11010    -999.25
 5250.00000    0.34780  -60.64430    1.06360   10.16670    0.20040    1.06060    1.13320    -999.25
 5300.00000    0.31640  -59.02990    1.59640    8.51880    0.24960    1.04620    1.19510    -999.25
 5350.00000    0.29010  -61.49210    1.36760    8.87120    0.23420    1.33510    1.49000    -999.25
 5400.00000    0.30840  -57.41850    1.27340    8.54390    0.28620    1.06040    1.14070    -999.25
 5450.00000    0.31220  -58.27420    1.71950    8.42100    0.25070    1.23370    1.40590    -999.25
 5500.00000    0.30590  -58.48860    1.34180    8.77420    0.33130    1.08440    1.11280    -999.25
 5550.00000    0.27280  -57.23660    1.59700    9.38520    0.25150    1.36860    1.53590    -999.25
 5600.00000    0.29980  -57.15440    1.25070    9.70020    0.28160    1.12560    1.22450    -999.25
 5650.00000    0.28930  -59.93080    1.35580   10.23080    0.29260    1.07170    1.12700    -999.25
 5700.00000    0.27910  -58.20870    1.29960    9.47120    0.28460    0.98430    0.98360    -999.25
 5750.00000    0.22890  -60.61690    1.87320    8.89350    0.18170    1.53890    1.71680    -999.25
 5800.00000    0.20270  -62.56630    1.90880    9.09200    0.17500    1.61150    1.77080    -999.25
 5850.00000    0.20900  -60.74970    1.78620    9.51040    0.17270    1.44290    1.56120    -999.25
 5900.00000    0.23890  -61.72220    1.53950    9.29200    0.24030    1.25550    1.29580    -999.25
 5950.00000    0.26240  -61.96770    1.51990   10.35090    0.22280    1.18630    1.16510    -999.25
 6000.00000    0.25040  -60.50680    1.42270   10.94780    0.23910    1.10620    1.08320    -999.25
 6050.00000    0.24220  -58.50510    1.68920   10.60950    0.19750    1.29840    1.25810    -999.25
 6100.00000    0.23760  -62.07830    1.65990   10.83640    0.20180    1.20570    1.19240    -999.25
 6150.00000    0.18170  -62.21470    1.87090   10.26550    0.18330    1.75230    1.68560   49.05450
 6200.00000    0.12100  -65.42150    2.91210    8.34110    0.09570    2.28470    2.50470   45.75750
 6250.00000    0.12290  -60.54100    3.74450    8.26150    0.07390    2.43980    2.77960   54.86330
 6300.00000    0.19910  -57.31030    2.24500    8.55640    0.14100    1.43620    1.51640   67.07750
 6350.00000    0.16240  -57.17080    2.40270    8.73030    0.10820    1.92060    2.03260    -999.25
 6400.00000    0.16760  -58.97800    2.32900    8.87380    0.14230    1.86430    2.09330   80.06370
 6450.00000    0.16900  -58.81150    2.50290    8.48810    0.11660    1.77550    1.97090   69.30880
 6500.00000    0.17900  -58.44800    2.35360    8.57620    0.14950    1.74250    1.85010   73.74910
 6550.00000    0.18000  -57.56370    2.06040    8.54820    0.17940    1.63340    1.69400    -999.25
 6600.00000    0.18690  -57.23740    2.09560    8.71930    0.17690    1.67660    1.76040   70.72770
 6650.00000    0.21150  -58.00050    2.34940    9.80300    0.16120    1.50430    1.46490   77.50110
 6700.00000    0.19620  -58.94900    2.97720    8.67340    0.14360    1.65200    1.68900   73.04030
 6750.00000    0.08900  -63.12030    6.61180    8.96620    0.07130    3.86700    4.16810   53.37510
 6800.00000    0.06430  -65.12590    5.93690    8.42770    0.07220    4.22440    4.81590   37.52580
 6850.00000    0.03930  -77.48400   11.43620    8.40900    0.05430    5.57730    6.90670   37.77920
 6900.00000    0.04450  -71.81730    7.88200    8.34130    0.05350    4.74410    6.34710   41.32710
 6950.00000    0.04560  -76.46280    6.56360    8.34520    0.05990    5.40370    6.53030   34.66080
 7000.00000    0.06610  -64.19150    5.35120    8.61370    0.05500    3.63460    4.04980   43.37620
 7050.00000    0.04010  -70.50610    8.87230    8.40720    0.05530    5.93660    8.42780   41.69140
 7100.00000    0.07980  -65.47680    5.89920    8.51240    0.08190    2.90180    3.37190   41.40060
 7150.00000    0.07470  -67.15650    5.31630    8.58700    0.07000    3.21050    3.88540   37.94190
 7200.00000    0.05600  -67.58060    8.03790    8.45190    0.05550    4.63950    6.08890   41.47070
 7250.00000    0.07360  -71.61260    3.51820    8.39310    0.06500    4.09830    4.03860   41.92930
 7300.00000    0.06390  -78.30210   10.34500    8.40960    0.06400    6.00540    8.62820   53.83340
 7350.00000    0.06380  -80.46300   11.87540    8.41950    0.02250    5.11780    6.68090   40.87660
 7400.00000    0.08190  -76.67620    9.53960    8.40850    0.05360    5.71340    6.92620   44.37270
 7450.00000    0.25570  -63.09590    2.63450    8.54990    0.17190    1.27580    1.20230    -999.25
 7500.00000    0.19830  -16.97150    5.84680    9.85980    0.09280    3.09420    3.38350   82.09870
 7550.00000    0.17760  -26.92010   39.32440    8.58150    0.11300   10.88210   19.82620   77.85910
 7600.00000    0.26680  -28.54130    9.06780    8.96160    0.28030    2.94780    3.02270   71.64220
 7650.00000    0.07680  -24.28600    5.96510   10.36000    0.09110    3.65210    4.02280   55.80690
