~Version ---------------------------------------------------
VERS. 2.0 : CWLS log ASCII Standard -VERSION 2.0
WRAP.  NO : ONE LINE PER DEPTH STEP
~Well ------------------------------------------------------
STRT.F                  3000.0 : START DEPTH
STOP.F                  8000.0 : STOP DEPTH
STEP.F                50.00000 : STEP LENGTH
NULL.                  -999.25 : NULL VALUE
COMP.       INEXCO OIL COMPANY : COMPANY
WELL.            R.H. SEALE #2 : WELL
FLD .                 BENCHLEY : FIELD
LOC .                          : LOCATION
CNTY.                   BRAZOS : COUNTY
STAT.                    TEXAS : STATE
CTRY. UNITED STATES OF AMERICA : COUNTRY
SRVC.            Dresser Atlas : SERVICE COMPANY
DATE.              05-Jul-1981 : LOGDATE
API .           42041305800000 : API NUMBER
UWI .           42041305800000 : UNIQUE WELL ID
SLAT.WGS84       30.7355557676 : SURFACE LATITUDE
SLON.WGS84      -96.4656633753 : SURFACE LONGITUDE
~Curve Information -----------------------------------------
DEPT.F                 : 
GRR .GAPI 07 310 01 00 : GAMMA RAY FROM RES. LOG.
RFOC.OHMM 07 220 04 00 : RESISTIVITY FOCUSED LOG
RILD.OHMM 11 120 46 00 : INDUCTION LOG DEEP RESISTIVITY
RILM.OHMM 07 120 44 00 : INDUCTION LOG MEDIUM RESISTIVITY
SPR .MV   07 010 01 00 : SPONTANEOUS POTENTIAL FROM RES.
AC  .US/F 60 520 00 00 : ACOUSTIC
CALR.IN   07 280 01 00 : CALIPER FROM RESISTIVITY
~Params ----------------------------------------------------
PD  .                     GL : PERMANENT DATUM
EPD .FT                325.4 : ELEVATION PERMANENT DATUM
LMF .                     KB : LOG MEASURED FROM
DAPD.FT                   10 : FEET ABOVE PERMANENT DATUM
DMF .                     KB : DRILLING MEASURED FROM
EKB .FT                335.4 : KELLY BUSHING
EDF .FT                334.2 : DRILLING FLOOR
EGL .FT                325.4 : GROUND LEVEL
DATE.               07/05/81 : RUN DATE
RUN .                      1 : RUN NUMBER
DD  .FT                 8019 : DEPTH DRILLER
DL  .FT                 8018 : DEPTH LOGGER
BLI .FT                 8015 : BOTTOM LOG INTERVAL
TLI .FT                 3105 : TOP LOG INTERVAL
CS  .IN                8.625 : CASING SIZE
CBL .FT                 3005 : CASING BOTTOM LOGGER
BS  .IN                7.875 : BIT SIZE
BSD .FT                 8019 : BIT SIZE AT DEPTH
DFD .                    9.5 : DRILLING FLUID DENSITY
DFV .                     35 : DRILLING FLUID VISCOSITY
DFPH.                      5 : DRILLING FLUID PH
DFL .                     11 : DRILLING FLUID LOSS
MSS .                    PIT : MUD SAMPLE SOURCE
RMS .OHMM                2.2 : RESISTIVITY MUD SAMPLE
MST .DEGF                 75 : MUD SAMPLE TEMPERATURE
RMF .OHMM               1.87 : RESISTIVITY MUD FILTRATE SAMPLE
MFST.DEGF                 75 : MUD FILTRATE SAMPLE TEMPERATURE
RMC .OHMM               1.25 : RESISTIVITY MUD CAKE
MCST.DEGF                 75 : MUD CAKE SAMPLE TEMPERATURE
MFSS.                   CALC : MUD FILTRATE SAMPLE SOURCE
MCSS.                   CALC : MUD CAKE SAMPLE SOURCE
CLNT.                A2DTECH : CLIENT CODE
ORIG.               1" PRINT : ORIGIN OF DATA
UWI .         42041305800000 : UNIQUE WELL ID
DICO. A2D Technologies, Inc. : DIGITIZING COMPANY
~Other -----------------------------------------------------
~ASCII -----------------------------------------------------
 3000.00000  212.11640    -999.25    -999.25    -999.25    -999.25    -999.25    -999.25
 3050.00000  247.37510    9.96800    8.86330   14.82510  -39.85540  108.77720    9.73500
 3100.00000  220.26140    3.54810    2.97110    3.21360  -16.83690  140.00990   13.19500
 3150.00000  204.52800    6.99960    6.97730   11.11140  -26.30530  127.85870   11.98320
 3200.00000  149.74300    6.48080    5.14750    7.76270  -55.24290  109.62110   12.18680
 3250.00000   96.27280    3.01970    2.80910    4.06940  -23.93570  113.06380   10.25960
 3300.00000   81.49460    3.24890    3.26920    3.89040  -19.60050  103.60540   11.34240
 3350.00000  119.70080    6.10260    5.33740    7.48660  -37.49620  102.19300    9.93170
 3400.00000   73.15230    2.97130    2.59330    2.79760  -18.38830  107.21290    9.89710
 3450.00000   70.85910    4.17380    3.06330    3.53990  -22.96520  102.36700   10.03930
 3500.00000   75.10010    4.12740    3.11920    3.87590  -25.61820  102.06440    8.90960
 3550.00000   93.16040    2.54410    2.02920    2.13830   -6.75020  115.39760    9.71960
 3600.00000   73.57930    3.70820    2.59780    3.01090  -14.51850   95.81620    9.40090
 3650.00000   78.60980    2.94190    2.22060    2.39900   -7.79050  102.78210    9.52470
 3700.00000   81.77010    2.88790    2.26040    2.47230   -8.77000  101.84200    9.40020
 3750.00000   75.99130    2.72020    2.04070    2.37120  -11.47500  105.52130    9.83120
 3800.00000   78.48000    2.90290    2.11210    2.38220  -10.40400  100.16640    9.88580
 3850.00000   75.19420    3.02320    2.26640    2.53250  -10.45580   98.59640    9.83320
 3900.00000   75.09340    2.96970    2.44860    2.71770   -8.12440   97.26270    9.89890
 3950.00000   81.51800    2.63890    1.78940    1.94130   -7.95470  100.03640   10.51880
 4000.00000   82.59120    2.25920    1.43080    1.54790   -7.76300  107.19880   10.61210
 4050.00000   73.04490    2.80800    1.84400    2.07020   -8.57660   88.09200   10.66070
 4100.00000   80.08330    2.23780    1.42020    1.55900   -8.35370  107.93170   10.65440
 4150.00000   83.51220    2.07410    1.38380    1.51630   -9.94150  104.26240   10.19160
 4200.00000   93.14200    2.10600    1.27770    1.35810   -9.24620  109.26820   10.30430
 4250.00000   93.48490    2.40340    1.56850    1.83080   -5.54060  101.97020    9.72190
 4300.00000   88.65470    2.47510    1.69930    1.76720   -8.06170   97.63420   10.04020
 4350.00000   77.84100    2.14740    1.44270    1.50990   -6.72060   95.04880    9.91300
 4400.00000   81.06050    1.84070    0.97370    1.07560   -5.48800  108.39900   10.44280
 4450.00000   75.98460    1.68000    0.79130    0.86100   -7.57910  116.20390   10.62990
 4500.00000   75.91490    2.19240    1.33750    1.50470   -9.49860  103.70060    9.85580
 4550.00000   64.26820    2.87420    2.35090    2.62000  -12.20840   96.07260    9.18300
 4600.00000   72.59780    2.44180    1.59750    1.74540  -13.94960  103.48640    9.61450
 4650.00000   78.11360    1.97640    1.09230    1.23220  -13.46060  114.17480   10.38200
 4700.00000   77.08720    1.90360    1.10030    1.19330  -14.67990  113.50160   10.58450
 4750.00000   78.44190    1.85710    1.09280    1.20450  -19.44420  113.35220   10.70610
 4800.00000   72.41670    1.76880    0.95010    1.04970  -14.58200  112.85480   11.19620
 4850.00000   69.32690    1.93790    1.19330    1.26320  -20.97000  107.50100   10.75090
 4900.00000   74.44350    1.72890    0.81270    0.91080  -13.15540  117.70310   10.81220
 4950.00000   72.76400    2.20460    1.49970    1.70850  -16.20110  104.31050   10.54530
 5000.00000   70.83480    2.12750    1.56930    1.79490  -14.59680  107.17690    9.94220
 5050.00000   68.80510    2.33780    1.60110    1.77660  -13.42590   99.54350    9.54680
 5100.00000   74.74690    2.34810    1.63690    1.85270  -12.25160  102.64090    9.43640
 5150.00000   90.43950    1.91790    0.88790    0.99980   -7.02390  105.20340    9.63480
 5200.00000   79.31620    2.00490    1.36080    1.51160  -15.74580   95.50700    9.41570
 5250.00000   75.02260    1.95820    1.29170    1.38560   -9.86820   97.18070   10.70500
 5300.00000   88.35560    1.86400    1.04570    1.12340  -10.22600  103.59590    9.85880
 5350.00000   82.83380    1.72050    0.87630    0.96140   -8.61290  106.40910   10.71400
 5400.00000   91.14470    1.59770    0.80840    0.89500  -10.43300  112.63170   10.33310
 5450.00000   83.45840    2.25820    1.40110    1.56870  -41.03160   89.18910    9.69750
 5500.00000   78.05470    2.18720    1.40360    1.56720  -38.25580   95.86540   10.99530
 5550.00000   75.36850    2.16270    1.56820    1.74930  -36.73230   93.10110    9.58790
 5600.00000   72.48030    2.20440    1.46020    1.62850  -35.81550   96.86840   10.70340
 5650.00000   75.33250    2.00900    1.27310    1.42500  -37.68050  100.28270   11.31240
 5700.00000   86.91050    2.01860    1.11710    1.23040  -35.78420  109.27010   11.05890
 5750.00000   82.56130    2.09700    1.34260    1.49630  -39.31700   98.23320   11.13240
 5800.00000   72.59770    2.01850    1.02640    1.15070  -36.24920   96.52140   10.67950
 5850.00000   78.19890    2.00410    1.20550    1.32710  -37.20640  101.53800   11.51570
 5900.00000   72.77850    2.15110    1.38150    1.52350  -36.92950   97.45860   10.86640
 5950.00000   73.39040    1.97040    1.15000    1.24840  -39.59240  101.12830   11.04530
 6000.00000   79.94470    1.82420    0.85900    1.00430  -33.69310  105.99970   11.34680
 6050.00000   51.41230    3.25190    2.50670    2.93640  -30.18950   79.91270    8.83540
 6100.00000   63.06960    3.09250    2.53180    2.81530  -32.72990   79.53090    9.02500
 6150.00000   76.41510    2.61970    1.74560    1.98510  -33.43620   88.42770    9.58720
 6200.00000   76.76040    2.76670    1.98150    2.31040  -31.59660  109.06620    9.25870
 6250.00000   75.52680    2.85130    1.96880    2.29460  -31.20340   87.11920    9.26750
 6300.00000   69.34440    3.26890    2.54620    3.00100  -31.52100  103.53670    8.69540
 6350.00000   81.86330    2.34500    1.32180    1.46080  -31.90170   96.22810   10.30240
 6400.00000   73.62430    2.42380    1.38220    1.58650  -31.24860   94.03780   10.15540
 6450.00000   81.24950    2.26970    1.57930    1.81780  -30.02190   93.76970    9.98980
 6500.00000   77.52810    2.29230    1.34100    1.53010  -30.69440   95.76140   10.89330
 6550.00000   78.11610    2.51490    1.66370    1.83790  -30.82080   90.62470   10.47420
 6600.00000   81.24410    2.18150    1.31620    1.46130  -31.48950   96.21880   11.64250
 6650.00000   73.38520    2.13120    1.22240    1.37820  -31.40710   97.60620   11.69420
 6700.00000   78.85240    2.27870    1.39610    1.57950  -29.41940   96.10510   11.43590
 6750.00000   74.59680    2.27690    1.39890    1.60100  -27.86990   94.67710   11.74390
 6800.00000   79.67120    2.23900    1.33600    1.52970  -27.70530   95.74990   10.94100
 6850.00000   76.13320    2.20670    1.30860    1.53110  -26.69450   95.97040   11.06380
 6900.00000   72.58960    2.27540    1.41260    1.60780  -24.29250   93.33000   10.93240
 6950.00000   61.30160    2.81170    2.15330    2.45900  -18.49310   85.66030    9.42760
 7000.00000   76.53550    2.86280    1.85090    2.09900  -19.78200   87.96210    9.58210
 7050.00000   76.69140    2.25110    1.32880    1.47330  -23.61300   91.23700   10.13830
 7100.00000   28.99770    6.23320    4.91810    6.35580  -19.40560   66.86500    8.74510
 7150.00000   36.53120    5.15610    4.44020    5.46600  -10.43200   70.34070    8.81200
 7200.00000   42.55150    5.60700    4.61640    5.05770   -4.11750   69.72590    8.59960
 7250.00000   29.20610   10.00800   11.78390   16.23430  -27.45100   64.16140    8.50080
 7300.00000   88.93000    2.73220    1.45940    1.61420   -9.41700   96.95670    9.72440
 7350.00000   92.90610    2.04880    1.24940    1.35240  -17.38420  101.34180    9.62660
 7400.00000   93.59580    3.42350    2.94340    2.21920  -15.23250   96.74290    9.25870
 7450.00000   95.66500    2.37940    1.42010    1.59660  -14.05940   97.69140    9.39690
