~Version ---------------------------------------------------
VERS. 2.0 : CWLS log ASCII Standard -VERSION 2.0
WRAP. YES : MULTIPLE LINES PER DEPTH STEP
~Well ------------------------------------------------------
STRT.FT                   3500.0 : START DEPTH
STOP.FT                  16150.0 : STOP DEPTH
STEP.FT                 50.00000 : STEP LENGTH
NULL.                    -999.25 : NULL VALUE
COMP. CHEYENNE PETROLEUM COMPANY : COMPANY
WELL.              RUBY YOUNG #1 : WELL
FLD .                    WILDCAT : FIELD
LOC .                            : LOCATION
CNTY.                     KARNES : COUNTY
STAT.                      TEXAS : STATE
CTRY.   UNITED STATES OF AMERICA : COUNTRY
SRVC.               Schlumberger : SERVICE COMPANY
DATE.                06-Jan-1997 : LOGDATE
API .             42255313650000 : API NUMBER
UWI .             42255313650000 : UNIQUE WELL ID
SLAT.WGS84         28.8201979392 : SURFACE LATITUDE
SLON.WGS84        -97.8404688792 : SURFACE LONGITUDE
~Curve Information -----------------------------------------
DEPT    .FT    : DEPTH FEET
ASFLED  .OHMM  : AMPLIFIED SPHERICALLY FOCUSED LOG RESISTIVITY
CALWS   .IN    : CALIPER [DCALRED+9.875]<15054>[DCALRED+6.5]
CONDWS  .MMHO  : CONDUCTIVITY [1000/DRESWS]
DCALRED .IN    : DIFFERENTIAL CALIPER FROM RESISTIVITY LOG
DCORWS  .G/C3  : DENSITY CORRECTION [DRHOED]
DENWS   .G/C3  : BULK DENSITY [M=2.71 F=1.0] [CALCULATED FROM DPOWS]
DPHILSED.V/V   : DENSITY POROSITY LIMESTONE[M=2.71 F=1.0] FROM COMPOSITE RES. LOG
DPOWS   .V/V   : DENSITY POROSITY [DPHILSED]
DRESWS  .OHMM  : DEEP RESISTIVITY [IDPHED]
DRHOED  .G/C3  : DENSITY CORRECTION FROM COMPOSITE RES. LOG
DTLFED  .US/F  : DELTA TIME LONG SPACING FAR DETECTOR COMPOSITE RES. LOG
DTLNED  .US/F  : DELTA TIME LONG SPACING NEAR DETECTOR COMPOSITE RES. LOG
DTWS    .US/F  : DELTA TIME [DTLFED]
GRRED   .GAPI  : GAMMA RAY FROM RESISTIVITY LOG
GRWS    .GAPI  : GAMMA RAY [GRRED]
IDPHED  .OHMM  : INDUCTION DEEP PHASE RESISTIVITY
IMPHED  .OHMM  : INDUCTION MEDIUM PHASE RESISTIVITY
MRESWS  .OHMM  : MEDIUM RESISTIVITY [IMPHED]
NPHILSED.V/V   : NEUTRON POROSITY LIMESTONE FROM COMPOSITE RES. LOG
NPOWS   .V/V   : NEUTRON POROSITY LIMESTONE [NPHILSED]
SFLUED  .OHMM  : SPHERICALLY FOCUSED LOG RESISTIVITY
SPRED   .MV    : SPONTANEOUS POTENTIAL FROM RESISTIVITY LOG
SPWS    .MV    : SPONTANEOUS POTENTIAL [BASELINE 0 MV] [SPRED]
SRESWS  .OHMM  : SHALLOW RESISTIVITY [ASFLED], SPLICED WITH [SFLUED] AT 12400'
TENRED  .LBF   : TENSION FROM RESISTIVITY LOG
~Params ----------------------------------------------------
PD  .                     GL : PERMANENT DATUM
EPD .FT                258.6 : ELEVATION PERMANENT DATUM
LMF .                     KB : LOG MEASURED FROM
DAPD.FT                   25 : FEET ABOVE PERMANENT DATUM
DMF .                     KB : DRILLING MEASURED FROM
EKB .FT                284.5 : KELLY BUSHING
EDF .FT                283.6 : DRILLING FLOOR
EGL .FT                258.6 : GROUND LEVEL
DATE.               01/06/97 : RUN DATE
RUN .                      2 : RUN NUMBER
DD  .FT                16145 : DEPTH DRILLER
DL  .FT                16144 : DEPTH LOGGER
BLI .FT                16142 : BOTTOM LOG INTERVAL
TLI .FT                15080 : TOP LOG INTERVAL
CS  .IN                7.625 : CASING SIZE
CBD .FT                15084 : CASING BOTTOM DRILLER
CBL .FT                15080 : CASING BOTTOM LOGGER
BS  .IN                  6.5 : BIT SIZE
BSD .FT                16145 : BIT SIZE AT DEPTH
DFT .              LIG DESCO : DRILLING FLUID TYPE
DFD .                   15.9 : DRILLING FLUID DENSITY
DFV .                     47 : DRILLING FLUID VISCOSITY
DFPH.                   10.3 : DRILLING FLUID PH
DFL .                    5.2 : DRILLING FLUID LOSS
MSS .                MUD PIT : MUD SAMPLE SOURCE
RMS .OHMM                0.6 : RESISTIVITY MUD SAMPLE
MST .DEGF                 75 : MUD SAMPLE TEMPERATURE
RMF .OHMM                0.5 : RESISTIVITY MUD FILTRATE SAMPLE
MFST.DEGF                 75 : MUD FILTRATE SAMPLE TEMPERATURE
RMC .OHMM               0.92 : RESISTIVITY MUD CAKE
MCST.DEGF                 75 : MUD CAKE SAMPLE TEMPERATURE
MFSS.               MEASURED : MUD FILTRATE SAMPLE SOURCE
MCSS.             CALCULATED : MUD CAKE SAMPLE SOURCE
RMB .OHMM               0.13 : RESISTIVITY MUD AT BHT
TCS .HRS                   0 : TIME CIRCULATED STOPPED
TLAB.HRS                1530 : TIME LOGGER AT BOTTOM
LUN .                   2020 : LOGGING UNIT NUMBER
LUL .               VICTORIA : LOGGING UNIT LOCATION
ENGI.                  NAHRI : RECORDING ENGINEER
WITN.    ZAUNBRECHER BRANDON : WITNESSED BY
CLNT.                A2DTECH : CLIENT CODE
ORIG.               5" PRINT : ORIGIN OF DATA
UWI .         42255313650000 : UNIQUE WELL ID
DICO. A2D Technologies, Inc. : DIGITIZING COMPANY
~Other -----------------------------------------------------
MUD WEIGHT USED 9.6 TO 18.8 WHILE DRILLING
~ASCII -----------------------------------------------------
# ...
 10500.00000    2.39720    -999.25  417.77550    -999.25    -999.25    -999.25    -999.25    -999.25    2.39360    -999.25   86.16690   86.94110   86.16690   67.81050   67.81050    2.39360    2.27950    2.27950    -999.25    -999.25    2.50160    -999.25    -999.25    2.39720 4049.39890
 10550.00000    1.86310    -999.25  504.13990    -999.25    -999.25    -999.25    -999.25    -999.25    1.98360    -999.25   96.80160   97.42680   96.80160   54.50180   54.50180    1.98360    1.72510    1.72510    -999.25    -999.25    -999.25    -999.25    -999.25    1.86310 4056.79080
 10600.00000    1.86840    -999.25  539.61550    -999.25    -999.25    -999.25    -999.25    -999.25    1.85320    -999.25   90.67580   93.82240   90.67580   71.64110   71.64110    1.85320    1.75580    1.75580    -999.25    -999.25    -999.25    -999.25    -999.25    1.86840 3957.78810
 10650.00000    1.88680    -999.25  515.58890    -999.25    -999.25    -999.25    -999.25    -999.25    1.93950    -999.25   92.76980   92.35400   92.76980   59.11210   59.11210    1.93950    1.79250    1.79250    -999.25    -999.25    -999.25    -999.25    -999.25    1.88680 3923.91260
 10700.00000    1.92090    -999.25  512.61650    -999.25    -999.25    -999.25    -999.25    -999.25    1.95080    -999.25   94.61390   92.40790   94.61390   56.01800   56.01800    1.95080    1.69400    1.69400    -999.25    -999.25    -999.25    -999.25    -999.25    1.92090 4017.00510
 10750.00000    2.00680    -999.25  485.67280    -999.25    -999.25    -999.25    -999.25    -999.25    2.05900    -999.25   88.52110   89.76820   88.52110   60.97330   60.97330    2.05900    1.94370    1.94370    -999.25    -999.25    -999.25    -999.25    -999.25    2.00680 4097.26860
 10800.00000    2.79000    -999.25  364.92320    -999.25    -999.25    -999.25    -999.25    -999.25    2.74030    -999.25   84.55870   85.34610   84.55870   60.46650   60.46650    2.74030    2.86410    2.86410    -999.25    -999.25    2.95850    -999.25    -999.25    2.79000 4084.45190
 10850.00000    2.43750    -999.25  440.30890    -999.25    -999.25    -999.25    -999.25    -999.25    2.27110    -999.25   88.30950   88.79090   88.30950   60.91420   60.91420    2.27110    2.39310    2.39310    -999.25    -999.25    2.22150    -999.25    -999.25    2.43750 4104.16650
 10900.00000    2.32820    -999.25  419.23930    -999.25    -999.25    -999.25    -999.25    -999.25    2.38530    -999.25   89.90240   89.37190   89.90240   59.62070   59.62070    2.38530    2.22110    2.22110    -999.25    -999.25    2.50090    -999.25    -999.25    2.32820 4111.59180
 10950.00000    2.63220    -999.25  438.27930    -999.25    -999.25    -999.25    -999.25    -999.25    2.28170    -999.25   94.28230   90.40960   94.28230   57.92930   57.92930    2.28170    2.36720    2.36720    -999.25    -999.25    2.57300    -999.25    -999.25    2.63220 4103.00440
 11000.00000    2.85630    -999.25  388.89700    -999.25    -999.25    -999.25    -999.25    -999.25    2.57140    -999.25   88.87790   88.76290   88.87790   59.96820   59.96820    2.57140    2.22260    2.22260    -999.25    -999.25    2.81660    -999.25    -999.25    2.85630 4080.07370
 11050.00000    1.88950    -999.25  502.96190    -999.25    -999.25    -999.25    -999.25    -999.25    1.98820    -999.25   93.93430   93.26660   93.93430   55.09910   55.09910    1.98820    1.67530    1.67530    -999.25    -999.25    -999.25    -999.25    -999.25    1.88950 4146.69730
 11100.00000    1.92830    -999.25  498.60040    -999.25    -999.25    -999.25    -999.25    -999.25    2.00560    -999.25   93.25360   92.56440   93.25360   64.85980   64.85980    2.00560    1.87060    1.87060    -999.25    -999.25    2.08510    -999.25    -999.25    1.92830 4141.37160
 11150.00000    1.88350    -999.25  593.88170    -999.25    -999.25    -999.25    -999.25    -999.25    1.68380    -999.25   92.08090   92.75940   92.08090   51.51040   51.51040    1.68380    1.59890    1.59890    -999.25    -999.25    -999.25    -999.25    -999.25    1.88350 4126.60690
 11200.00000    1.82540    -999.25  567.08570    -999.25    -999.25    -999.25    -999.25    -999.25    1.76340    -999.25   97.12230   97.96850   97.12230   59.46770   59.46770    1.76340    1.55740    1.55740    -999.25    -999.25    -999.25    -999.25    -999.25    1.82540 4126.58740
 11250.00000    2.62750    -999.25  409.77840    -999.25    -999.25    -999.25    -999.25    -999.25    2.44030    -999.25   89.93820   88.97310   89.93820   64.64280   64.64280    2.44030    2.56420    2.56420    -999.25    -999.25    2.72590    -999.25    -999.25    2.62750 4222.92580
 11300.00000    2.27180    -999.25  426.89580    -999.25    -999.25    -999.25    -999.25    -999.25    2.34250    -999.25   92.49160   88.04850   92.49160   52.48980   52.48980    2.34250    1.99690    1.99690    -999.25    -999.25    2.30170    -999.25    -999.25    2.27180 4220.66550
 11350.00000    3.22340    -999.25  292.42410    -999.25    -999.25    -999.25    -999.25    -999.25    3.41970    -999.25   90.09660   90.40400   90.09660   74.07400   74.07400    3.41970    2.53760    2.53760    -999.25    -999.25    2.88240    -999.25    -999.25    3.22340 4238.88820
 11400.00000    2.78180    -999.25  361.44700    -999.25    -999.25    -999.25    -999.25    -999.25    2.76670    -999.25   85.17460   85.91170   85.17460   62.46780   62.46780    2.76670    2.58810    2.58810    -999.25    -999.25    2.88180    -999.25    -999.25    2.78180 4186.46680
 11450.00000    2.55270    -999.25  381.42960    -999.25    -999.25    -999.25    -999.25    -999.25    2.62170    -999.25   87.28900   86.79700   87.28900   60.54170   60.54170    2.62170    2.42140    2.42140    -999.25    -999.25    2.71380    -999.25    -999.25    2.55270 4177.87400
 11500.00000    2.79940    -999.25  349.72480    -999.25    -999.25    -999.25    -999.25    -999.25    2.85940    -999.25   85.26290   85.48430   85.26290   65.05060   65.05060    2.85940    2.73610    2.73610    -999.25    -999.25    2.94740    -999.25    -999.25    2.79940 4275.06880
 11550.00000    1.93260    -999.25  459.89390    -999.25    -999.25    -999.25    -999.25    -999.25    2.17440    -999.25   90.89400   91.13040   90.89400   59.85000   59.85000    2.17440    1.97550    1.97550    -999.25    -999.25    2.23270    -999.25    -999.25    1.93260 4236.70900
 11600.00000    2.61160    -999.25  350.81270    -999.25    -999.25    -999.25    -999.25    -999.25    2.85050    -999.25   83.94610   85.41880   83.94610   56.36480   56.36480    2.85050    2.71060    2.71060    -999.25    -999.25    2.93000    -999.25    -999.25    2.61160 4337.79300
 11650.00000    2.24110    -999.25  433.51780    -999.25    -999.25    -999.25    -999.25    -999.25    2.30670    -999.25   88.36120   89.17320   88.36120   52.27530   52.27530    2.30670    2.17040    2.17040    -999.25    -999.25    2.39970    -999.25    -999.25    2.24110 4313.91600
 11700.00000    3.18760    -999.25  315.85680    -999.25    -999.25    -999.25    -999.25    -999.25    3.16600    -999.25   80.80250   82.82800   80.80250   52.78320   52.78320    3.16600    3.34530    3.34530    -999.25    -999.25    3.47700    -999.25    -999.25    3.18760 4356.45020
 11750.00000    3.10770    -999.25  337.90820    -999.25    -999.25    -999.25    -999.25    -999.25    2.95940    -999.25   84.92050   84.36430   84.92050   59.72410   59.72410    2.95940    3.18540    3.18540    -999.25    -999.25    3.26250    -999.25    -999.25    3.10770 4356.23930
 11800.00000    2.33300    -999.25  460.60160    -999.25    -999.25    -999.25    -999.25    -999.25    2.17110    -999.25   89.94300   90.84550   89.94300   62.37320   62.37320    2.17110    2.08700    2.08700    -999.25    -999.25    2.32250    -999.25    -999.25    2.33300 4342.63820
 11850.00000    2.09280    -999.25  458.80780    -999.25    -999.25    -999.25    -999.25    -999.25    2.17960    -999.25   92.32210   91.63810   92.32210   50.42600   50.42600    2.17960    2.02410    2.02410    -999.25    -999.25    2.09390    -999.25    -999.25    2.09280 4413.91850
