~Version ---------------------------------------------------
VERS. 2.0 : CWLS log ASCII Standard -VERSION 2.0
WRAP. YES : MULTIPLE LINES PER DEPTH STEP
~Well ------------------------------------------------------
STRT.FT                 2500.0 : START DEPTH
STOP.FT                 7750.0 : STOP DEPTH
STEP.FT               50.00000 : STEP LENGTH
NULL.                  -999.25 : NULL VALUE
COMP.   CITIES SERVICE COMPANY : COMPANY
WELL.              GALIPP A #1 : WELL
FLD .                  WILDCAT : FIELD
LOC .                          : LOCATION
CNTY.                      LEE : COUNTY
STAT.                    TEXAS : STATE
CTRY. UNITED STATES OF AMERICA : COUNTRY
SRVC.             Schlumberger : SERVICE COMPANY
DATE.              05-May-1981 : LOGDATE
API .           42287309240000 : API NUMBER
UWI .           42287309240000 : UNIQUE WELL ID
SLAT.WGS84       30.2175747671 : SURFACE LATITUDE
SLON.WGS84      -96.9733709603 : SURFACE LONGITUDE
~Curve Information -----------------------------------------
DEPT    .FT    : DEPTH FEET
CALDED  .IN    : CALIPER FROM DENSITY LOG
CALRED  .IN    : CALIPER FROM RESISTIVITY LOG [DEPTH ADJ. TO GRR.]
CALWS   .IN    : CALIPER [CALDED]
CILDED  .MMHO  : CONDUCTIVITY FROM RESISTIVITY LOG
CONDWS  .MMHO  : CONDUCTIVITY [1000/DRESWS]
DCORWS  .G/C3  : DENSITY CORRECTION [DRHOED]
DENWS   .G/C3  : BULK DENSITY [M=2.65 F=1.0] [RHOBED]
DPHILSED.V/V   : DENSITY POROSITY [M=2.71 F=1.0] FROM DENSITY [DEPTH ADJ. TO GRR.]
DPHISSED.V/V   : DENSITY POROSITY [M=2.65 F=1.0] FROM DENSITY [DEPTH ADJ. TO GRR.]
DPOWS   .V/V   : DENSITY POROSITY [M=2.65 F=1.0] [DPHISSED]
DRESWS  .OHMM  : DEEP RESISTIVITY [ILDED]
DRHOED  .G/C3  : DENSITY CORRECTION FROM DENSITY LOG[DEPTH ADJ. TO GRR.]
DTED    .US/F  : DELTA TIME FROM SONIC LOG
DTWS    .US/F  : DELTA TIME [DTED]
GRDED   .GAPI  : GAMMA RAY FROM DENSITY LOG[DEPTH ADJ. TO GRR.]
GRNED   .GAPI  : GAMMA RAY FROM NEUTRON LOG [DEPTH ADJ. TO GRR.]
GRRED   .GAPI  : GAMMA RAY FROM RESISTIVITY LOG
GRWS    .GAPI  : GAMMA RAY [GRRED,SPLICED GRNED RESCALE AT 3554 AND GRDED+30 AT 7689']
ILDED   .OHMM  : INDUCTION LOG DEEP RESISTIVITY
ILMED   .OHMM  : INDUCTION LOG MEDIUM RESISTIVITY
MRESWS  .OHMM  : MEDIUM RESISTIVITY [ILMED]
NEUTED  .NAPI  : NEUTRON FROM NEUTRON LOG[DEPTH ADJ. TO GRR.]
NEUTWS  .NAPI  : NEUTRON [NEUTED]
NPHILSED.V/V   : NEUTRON POROSITY LIMESTONE FROM DENSITY LOG [DEPTH ADJ. TO GRR.]
NPHISSED.V/V   : NEUTRON POROSITY SANDSTONE FROM DENSITY LOG [DEPTH ADJ. TO GRR.]
NPOWS   .V/V   : NEUTRON POROSITY SANDSTONE [NPHISSED]
RHOBED  .G/C3  : BULK DENSITY FROM DENSITY LOG [DEPTH ADJ. TO GRR.]
SFLUED  .OHMM  : SPHERICALLY FOCUSED LOG RESISTIVITY
SPRED   .MV    : SPONTANEOUS POTENTIAL FROM RESISTIVITY LOG
SPWS    .MV    : SPONTANEOUS POTENTIAL [BASELINE 0 MV] [SPRED]
SRESWS  .OHMM  : SHALLOW RESISTIVITY [SFLUED]
TENDED  .LBF   : TENSION FROM DENSITY LOG [DEPTH ADJ. TO GRR.]
TENRED  .LBF   : TENSION FROM RESISTIVITY LOG
~Params ----------------------------------------------------
PD  .                      GL : PERMANENT DATUM
EPD .FT                   452 : ELEVATION PERMANENT DATUM
LMF .                      KB : LOG MEASURED FROM
DAPD.FT                    15 : FEET ABOVE PERMANENT DATUM
DMF .                      KB : DRILLING MEASURED FROM
EKB .FT                   467 : KELLY BUSHING
EDF .FT                   466 : DRILLING FLOOR
EGL .FT                   452 : GROUND LEVEL
DATE.                05/05/81 : RUN DATE
RUN .                       1 : RUN NUMBER
DD  .FT                  7755 : DEPTH DRILLER
DL  .FT                  7737 : DEPTH LOGGER
BLI .FT                  7730 : BOTTOM LOG INTERVAL
TLI .FT                  3566 : TOP LOG INTERVAL
CS  .IN                 9.625 : CASING SIZE
CBD .FT                  3545 : CASING BOTTOM DRILLER
CBL .FT                  3566 : CASING BOTTOM LOGGER
BS  .IN                   7.5 : BIT SIZE
BSD .FT                  7755 : BIT SIZE AT DEPTH
DFT .                BENX KCL : DRILLING FLUID TYPE
DFD .                     9.8 : DRILLING FLUID DENSITY
DFV .                      45 : DRILLING FLUID VISCOSITY
DFPH.                      11 : DRILLING FLUID PH
DFL .                      12 : DRILLING FLUID LOSS
MSS .                FLOWLINE : MUD SAMPLE SOURCE
RMS .OHMM                0.51 : RESISTIVITY MUD SAMPLE
MST .DEGF                  75 : MUD SAMPLE TEMPERATURE
RMF .OHMM                0.86 : RESISTIVITY MUD FILTRATE SAMPLE
MFST.DEGF                  75 : MUD FILTRATE SAMPLE TEMPERATURE
RMC .OHMM                0.76 : RESISTIVITY MUD CAKE
MCST.DEGF                  75 : MUD CAKE SAMPLE TEMPERATURE
MFSS.                       M : MUD FILTRATE SAMPLE SOURCE
MCSS.                       C : MUD CAKE SAMPLE SOURCE
RMB .OHMM                 0.2 : RESISTIVITY MUD AT BHT
TCS .HRS                 1700 : TIME CIRCULATED STOPPED
TLAB.HRS                  100 : TIME LOGGER AT BOTTOM
LUN .                    8173 : LOGGING UNIT NUMBER
LUL .                VICTORIA : LOGGING UNIT LOCATION
ENGI.                   ADAMS : RECORDING ENGINEER
WITN. WILLIAMS YOUNG MCCARTHY : WITNESSED BY
CLNT.                 A2DTECH : CLIENT CODE
ORIG.          1" 2" 5" PRINT : ORIGIN OF DATA
UWI .          42287309240000 : UNIQUE WELL ID
DICO.  A2D Technologies, Inc. : DIGITIZING COMPANY
~Other -----------------------------------------------------
~ASCII -----------------------------------------------------
# ...
 3600.00000   11.61520   11.04550   11.04550  139.29080  143.48850    0.05020    2.21310    -999.25    0.26620    0.29060    6.96920    0.05020  109.40190  109.40190   86.09600    -999.25   88.86800   88.86800    6.96920    6.71950    6.71950    -999.25    -999.25    -999.25    0.46340    0.46340    2.21310    7.35180  -16.64820  -12.61810    7.35180 1775.99990 2060.52540
 3650.00000   12.02400   11.51700   11.51700  236.59400  236.02160    0.08700    2.29370    -999.25    0.21690    0.24350    4.23690    0.08700  104.34110  104.34110   78.90920    -999.25   74.18650   74.18650    4.23690    3.82670    3.82670    -999.25    -999.25    -999.25    0.41150    0.41150    2.29370    2.91420  -13.04130   -3.73220    2.91420 1773.72750 2062.43160
 3700.00000   10.25170    9.24610    9.24610  253.19430  249.23980    0.05830    2.37090    -999.25    0.16920    0.19830    4.01220    0.05830   92.68260   92.68260   84.32860    -999.25   78.87300   78.87300    4.01220    3.96600    3.96600    -999.25    -999.25    -999.25    0.41220    0.41220    2.37090    3.44310  -17.08030   -6.21900    3.44310 1820.30830 2071.70390
 3750.00000    9.81370   10.33640   10.33640  333.23030  334.12410    0.16250    2.44040    -999.25    0.12760    0.15770    2.99290    0.16250  103.61420  103.61420   98.03260    -999.25   88.80800   88.80800    2.99290    2.81110    2.81110    -999.25    -999.25    -999.25    0.38010    0.38010    2.44040    2.90040  -14.55480   -2.14130    2.90040 1793.32760 2066.23220
 3800.00000    8.18580    8.38300    8.38300  212.90910  208.52880    0.01190    2.19230    -999.25    0.27750    0.30270    4.79550    0.01190   99.38800   99.38800   71.81800    -999.25   75.38900   75.38900    4.79550    5.27250    5.27250    -999.25    -999.25    -999.25    0.34170    0.34170    2.19230    5.36530  -16.53510   -3.89410    5.36530 1823.37670 2095.30880
 3850.00000    9.40090    9.39510    9.39510  216.33710  214.44500    0.02260    2.14170    -999.25    0.30770    0.33230    4.66320    0.02260  101.66580  101.66580   54.95380    -999.25   58.50540   58.50540    4.66320    5.34940    5.34940    -999.25    -999.25    -999.25    0.34020    0.34020    2.14170    5.83050  -18.46030   -6.86460    5.83050 1829.93030 2074.56640
 3900.00000    -999.25    9.90170    9.90170  358.45840  361.89920    -999.25    -999.25    -999.25    -999.25    -999.25    2.76320    -999.25  106.46800  106.46800    -999.25    -999.25   98.60790   98.60790    2.76320    2.82060    2.82060    -999.25    -999.25    -999.25    -999.25    -999.25    -999.25    3.18700  -14.69380   -3.42380    3.18700    -999.25 2121.89920
 3950.00000    -999.25    8.19700    8.19700  208.30390  206.74830    -999.25    -999.25    -999.25    -999.25    -999.25    4.83680    -999.25   99.03150   99.03150    -999.25    -999.25   95.52140   95.52140    4.83680    5.25510    5.25510    -999.25    -999.25    -999.25    -999.25    -999.25    -999.25    5.54210  -17.86180   -2.49700    5.54210    -999.25 2138.56810
 4000.00000    -999.25    8.63950    8.63950  195.91770  197.56210    -999.25    -999.25    -999.25    -999.25    -999.25    5.06170    -999.25   96.13460   96.13460    -999.25    -999.25   68.22510   68.22510    5.06170    5.69470    5.69470    -999.25    -999.25    -999.25    -999.25    -999.25    -999.25    5.97550  -17.31920   -3.29680    5.97550    -999.25 2158.78960
 4050.00000    -999.25    9.00460    9.00460  223.60580  220.44880    -999.25    -999.25    -999.25    -999.25    -999.25    4.53620    -999.25   97.55520   97.55520    -999.25    -999.25   82.72430   82.72430    4.53620    4.76080    4.76080    -999.25    -999.25    -999.25    -999.25    -999.25    -999.25    4.87180  -21.22640   -8.95570    4.87180    -999.25 2163.91850
 4100.00000    -999.25    8.36840    8.36840  270.61720  272.47210    -999.25    -999.25    -999.25    -999.25    -999.25    3.67010    -999.25  101.09080  101.09080    -999.25    -999.25   92.51610   92.51610    3.67010    3.96750    3.96750    -999.25    -999.25    -999.25    -999.25    -999.25    -999.25    4.01100  -19.26950   -8.75040    4.01100    -999.25 2184.11620
 4150.00000    -999.25    8.37530    8.37530  297.53230  293.10900    -999.25    -999.25    -999.25    -999.25    -999.25    3.41170    -999.25   90.60900   90.60900    -999.25    -999.25   67.82530   67.82530    3.41170    4.06690    4.06690    -999.25    -999.25    -999.25    -999.25    -999.25    -999.25    5.17010  -23.23550  -11.59100    5.17010    -999.25 2220.32250
 4200.00000    -999.25    8.21730    8.21730  258.33710  255.38220    -999.25    -999.25    -999.25    -999.25    -999.25    3.91570    -999.25   96.35160   96.35160    -999.25    -999.25   77.71070   77.71070    3.91570    4.42790    4.42790    -999.25    -999.25    -999.25    -999.25    -999.25    -999.25    5.01780  -27.45940  -15.26480    5.01780    -999.25 2211.50460
 4250.00000    -999.25    8.91270    8.91270  280.26070  278.13320    -999.25    -999.25    -999.25    -999.25    -999.25    3.59540    -999.25   97.60730   97.60730    -999.25    -999.25   94.69510   94.69510    3.59540    3.64590    3.64590    -999.25    -999.25    -999.25    -999.25    -999.25    -999.25    4.19650  -17.13500   -5.14530    4.19650    -999.25 2230.20900
 4300.00000    -999.25    9.10870    9.10870  340.86560  340.76190    -999.25    -999.25    -999.25    -999.25    -999.25    2.93460    -999.25   98.24470   98.24470    -999.25    -999.25   92.68830   92.68830    2.93460    2.97180    2.97180    -999.25    -999.25    -999.25    -999.25    -999.25    -999.25    3.33420  -11.39390    0.39090    3.33420    -999.25 2304.32910
 4350.00000    -999.25    8.36030    8.36030  300.73510  302.03270    -999.25    -999.25    -999.25    -999.25    -999.25    3.31090    -999.25   97.42130   97.42130    -999.25    -999.25   94.67270   94.67270    3.31090    3.56400    3.56400    -999.25    -999.25    -999.25    -999.25    -999.25    -999.25    4.10190  -20.71480   -9.13490    4.10190    -999.25 2263.11400
 4400.00000    -999.25    9.90100    9.90100  392.87920  393.29820    -999.25    -999.25    -999.25    -999.25    -999.25    2.54260    -999.25   98.77740   98.77740    -999.25    -999.25   99.13340   99.13340    2.54260    2.57470    2.57470    -999.25    -999.25    -999.25    -999.25    -999.25    -999.25    2.91460  -10.30860   -0.33330    2.91460    -999.25 2344.97020
 4450.00000    -999.25    9.88060    9.88060  384.11910  385.03000    -999.25    -999.25    -999.25    -999.25    -999.25    2.59720    -999.25   98.88420   98.88420    -999.25    -999.25  106.51860  106.51860    2.59720    2.62970    2.62970    -999.25    -999.25    -999.25    -999.25    -999.25    -999.25    2.43340   -9.36440   -1.53790    2.43340    -999.25 2346.20730
 4500.00000    -999.25   10.72450   10.72450  481.77710  498.35540    -999.25    -999.25    -999.25    -999.25    -999.25    2.00660    -999.25  101.47230  101.47230    -999.25    -999.25  105.10780  105.10780    2.00660    2.03260    2.03260    -999.25    -999.25    -999.25    -999.25    -999.25    -999.25    2.07040   -6.23200   -0.47210    2.07040    -999.25 2352.48020
 4550.00000    -999.25   10.90930   10.90930  588.80020  583.49870    -999.25    -999.25    -999.25    -999.25    -999.25    1.71380    -999.25  101.86360  101.86360    -999.25    -999.25  101.40810  101.40810    1.71380    1.73610    1.73610    -999.25    -999.25    -999.25    -999.25    -999.25    -999.25    1.84960   -4.56970    1.78430    1.84960    -999.25 2355.46240
 4600.00000    -999.25   11.46460   11.46460  450.76030  454.81420    -999.25    -999.25    -999.25    -999.25    -999.25    2.19870    -999.25   95.97660   95.97660    -999.25    -999.25   89.58140   89.58140    2.19870    2.22640    2.22640    -999.25    -999.25    -999.25    -999.25    -999.25    -999.25    2.25840   -7.03120   -0.74970    2.25840    -999.25 2362.50560
 4650.00000    -999.25   12.32610   12.32610  612.49830  608.30950    -999.25    -999.25    -999.25    -999.25    -999.25    1.64390    -999.25  104.53940  104.53940    -999.25    -999.25   93.74570   93.74570    1.64390    1.66460    1.66460    -999.25    -999.25    -999.25    -999.25    -999.25    -999.25    1.78820   -6.05120   -0.21730    1.78820    -999.25 2390.49190
