~Version ---------------------------------------------------
VERS. 2.0 : CWLS log ASCII Standard -VERSION 2.0
WRAP. YES : MULTIPLE LINES PER DEPTH STEP
~Well ------------------------------------------------------
STRT.FT                        2500.0 : START DEPTH
STOP.FT                       18000.0 : STOP DEPTH
STEP.FT                      50.00000 : STEP LENGTH
NULL.                         -999.25 : NULL VALUE
COMP. UNION PACIFIC RESOURCES COMPANY : COMPANY
WELL.       UPR T-BAR-X KING COBRA #1 : WELL
FLD .                         WILDCAT : FIELD
LOC .                                 : LOCATION
CNTY.                            LEON : COUNTY
STAT.                           TEXAS : STATE
CTRY.        UNITED STATES OF AMERICA : COUNTRY
SRVC.                    Schlumberger : SERVICE COMPANY
DATE.                     05-Nov-1997 : LOGDATE
API .                  42289312660000 : API NUMBER
UWI .                  42289312660000 : UNIQUE WELL ID
SLAT.WGS84              31.2008912115 : SURFACE LATITUDE
SLON.WGS84             -96.2874133979 : SURFACE LONGITUDE
~Curve Information -----------------------------------------
DEPT    .FT    : DEPTH FEET
AT10ED  .OHMM  : 10 INCH RESISTIVITY TWO FOOT RESOLUTION FROM AIT LOG
AT20ED  .OHMM  : 20 INCH RESISTIVITY TWO FOOT RESOLUTION FROM AIT LOG
AT30ED  .OHMM  : 30 INCH RESISTIVITY TWO FOOT RESOLUTION FROM AIT LOG
AT60ED  .OHMM  : 60 INCH RESISTIVITY TWO FOOT RESOLUTION FROM AIT LOG
AT90ED  .OHMM  : 90 INCH RESISTIVITY TWO FOOT RESOLUTION FROM AIT LOG
CALDED  .IN    : CALIPER FROM DENSITY LOG [DEP ADJ TO GRRED]
CALRED  .IN    : CALIPER FROM RESISTIVITY LOG
CALWS   .IN    : CALIPER [2484 CALICAL 15888 CALRED]
CGRDED  .GAPI  : GAMMA RAY FROM DENSITY LOG [DEP ADJ TO GRRED]
CONDWS  .MMHO  : CONDUCTIVITY [1000/DRESWS]
DCALED  .IN    : DIFFERENTIAL CALIPER FROM DENSITY LOG
DCORWS  .G/C3  : DENSITY CORRECTION [2484 DRHOED 9946 DRHED 15888.5 DRHOED]
DENWS   .G/C3  : BULK DENSITY [M=2.71 F=1.0] [CALCULATED FROM DPOWS]
DPHILSED.V/V   : DENSITY POROSITY [M=2.71 F=1.0] FROM DENSITY LOG [DEP ADJ TO GRRED]
DPOLSED .V/V   : DENSITY POROSITY HIGH RESOLUTION [M=2.71 F=1.0] FROM DENSITY LOG
DPOWS   .V/V   : DENSITY POROSITY [M=2.71 F=1.0] [2484 DPHILSED 9942 DPOLSED 15888 DPHILSED]
DRESWS  .OHMM  : DEEP RESISTIVITY [A2484 AT90ED 9948.5 IDPHED 15892 LLDED]
DRHED   .G/C3  : DENSITY CORRECTION
DRHOED  .G/C3  : DENSITY CORRECTION FROM DENSITY LOG [DEP ADJ TO GRRED]
DTCOED  .US/F  : DELTA TIME COMPRESSIONAL FROM SONIC LOG [DEP ADJ TO GRRED]
DTED    .US/F  : DELTA TIME FROM SONIC LOG
DTLED   .US/F  : DELTA TIME LONG SPACING FROM SONIC LOG
DTLFED  .US/F  : DELTA TIME LONG SPACING FAR DETECTOR FROM SONIC LOG
DTLNED  .US/F  : DELTA TIME LONG SPACING NEAR DETECTOR FROM SONIC LOG
DTSMED  .US/F  : DELTA TIME SHEAR WAVE FROM SONIC LOG [DEP ADJ TO GRRED]
DTSWS   .US/F  : DELTA TIME SHEAR [DTSMED]
DTWS    .US/F  : DELTA TIME [2484 DTLNED 10155.5 DTLFED 10297.5 DTLNED 10506.5 DTLFED 10628.5 DTLNED 10694 DTLFED 10859 DTLNED 11620 DTLFED 13285.5 DTLNED 14723 DTLFED 15057 DTLNED 15798 DTLFED 15889.5 DTED 15912.5 DTCOED]
GRRED   .GAPI  : GAMMA RAY FROM RESISTIVITY LOG
GRSED   .GAPI  : GAMMA RAY FROM SONIC LOG [DEP ADJ TO GRRED]
GRWS    .GAPI  : GAMMA RAY [2484 GRRED 9881.5 GRREDNRM 9946 GRRED 15728.5 GRSEDNRM 15878 CGRDED 16070 GRRED]
IDPHED  .OHMM  : INDUCTION DEEP PHASE RESISTIVITY
IMPHED  .OHMM  : INDUCTION MEDIUM PHASE RESISTIVITY
LLDED   .OHMM  : LATEROLOG DEEP RESISTIVITY
LLSED   .OHMM  : LATEROLOG SHALLOW RESISTIVITY
MRESWS  .OHMM  : MEDIUM RESISTIVITY [2484 AT30ED 9949.5 IMPHED]
NPHILSED.V/V   : NEUTRON POROSITY LIMESTONE FROM DENSITY LOG [DEP ADJ TO GRRED]
NPOWS   .V/V   : NEUTRON POROSITY LIMESTONE [2484 NPHILSED 15780.5 NPHILNRM 15883.5 NPHILSED]
PEFED   .B/E   : PHOTOELECTRIC FACTOR FROM DENSITY LOG
PEFLED  .B/E   : PHOTOELECTRIC FACTOR FROM DENSITY LOG
PEFWS   .B/E   : PHOTOELECTRIC FACTOR [2484 PEFED 9952.5 PEFLED]
RESED   .OHMM  : SYNTHETIC RESISTIVITY
SFLUED  .OHMM  : SPHERICALLY FOCUSED LOG RESISTIVITY
SPHILSED.V/V   : SONIC POROSITY FROM SONIC LOG [DEP ADJ TO GRRED]
SPOWS   .V/V   : SONIC POROSITY [CAL FR DTWS; M= 47.6, F=189]
SPRED   .MV    : SPONTANEOUS POTENTIAL FROM RESISTIVITY LOG [SHIFTS ARE REMOVED]
SPWS    .MV    : SPONTANEOUS POTENTIAL [BASELINE 0 MV] [SPRED]
SRESWS  .OHMM  : SHALLOW RESISTIVITY [2484 AT10ED 9945.5 SFLUED 15891.5 LLSED]
TENDED  .LBF   : TENSION FROM DENSITY LOG [DEP ADJ TO GRRED]
TENRED  .LBF   : TENSION FROM RESISTIVITY LOG
~Params ----------------------------------------------------
PD  .                     GL : PERMANENT DATUM
EPD .FT                  348 : ELEVATION PERMANENT DATUM
LMF .                     KB : LOG MEASURED FROM
DAPD.FT                   28 : FEET ABOVE PERMANENT DATUM
DMF .                     KB : DRILLING MEASURED FROM
EKB .FT                  376 : KELLY BUSHING
EDF .FT                  374 : DRILLING FLOOR
EGL .FT                  348 : GROUND LEVEL
DATE.               11/05/97 : RUN DATE
RUN .                      3 : RUN NUMBER
DD  .FT                18038 : DEPTH DRILLER
DL  .FT                18024 : DEPTH LOGGER
BLI .FT                 1800 : BOTTOM LOG INTERVAL
TLI .FT                15888 : TOP LOG INTERVAL
CS  .IN                7.625 : CASING SIZE
CBD .FT                15888 : CASING BOTTOM DRILLER
CBL .FT                15888 : CASING BOTTOM LOGGER
BS  .IN                    6 : BIT SIZE
BSD .FT                18038 : BIT SIZE AT DEPTH
DFT .                POLYMER : DRILLING FLUID TYPE
DFD .                   18.2 : DRILLING FLUID DENSITY
DFV .                     40 : DRILLING FLUID VISCOSITY
DFPH.                      9 : DRILLING FLUID PH
DFL .                    5.6 : DRILLING FLUID LOSS
MSS .       CIRCULATION TANK : MUD SAMPLE SOURCE
RMS .OHMM               1.14 : RESISTIVITY MUD SAMPLE
MST .DEGF                 90 : MUD SAMPLE TEMPERATURE
RMF .OHMM              0.969 : RESISTIVITY MUD FILTRATE SAMPLE
MFST.DEGF                 90 : MUD FILTRATE SAMPLE TEMPERATURE
RMC .OHMM              1.311 : RESISTIVITY MUD CAKE
MCST.DEGF                 90 : MUD CAKE SAMPLE TEMPERATURE
MFSS.             CALCULATED : MUD FILTRATE SAMPLE SOURCE
MCSS.             CALCULATED : MUD CAKE SAMPLE SOURCE
RMB .OHMM              0.278 : RESISTIVITY MUD AT BHT
TCS .HRS                2200 : TIME CIRCULATED STOPPED
TLAB.HRS                 445 : TIME LOGGER AT BOTTOM
LUN .                   8400 : LOGGING UNIT NUMBER
LUL .                   6450 : LOGGING UNIT LOCATION
ENGI.                SKRBICH : RECORDING ENGINEER
WITN.          BLANKE WEAVER : WITNESSED BY
CLNT.                A2DTECH : CLIENT CODE
ORIG.         1" 2" 5" PRINT : ORIGIN OF DATA
UWI .         42289312660000 : UNIQUE WELL ID
DICO. A2D Technologies, Inc. : DIGITIZING COMPANY
~Other -----------------------------------------------------
~ASCII -----------------------------------------------------
# ...
 16750.00000    -999.25    -999.25    -999.25    -999.25    -999.25    5.63060    5.71270    5.71270    5.66260    3.74560    -999.25   -0.09170    2.71000    0.00000    -999.25    0.00000  266.97710    -999.25   -0.09170   51.76620   50.81970   50.44160    -999.25    -999.25   94.90920   94.90920   51.76620   12.62000   13.32190   12.62000    -999.25    -999.25  266.97710  201.47330    -999.25    0.00210    0.00210    -999.25    -999.25    -999.25    -999.25    -999.25    0.03080    0.02950    -999.25    -999.25  201.47330 5188.22750 6151.86770
 16800.00000    -999.25    -999.25    -999.25    -999.25    -999.25    5.63110    5.61420    5.61420    4.02480    3.30610    -999.25   -0.07600    2.70400    0.00350    -999.25    0.00350  302.47190    -999.25   -0.07600   49.12980   49.61160   49.28480    -999.25    -999.25   93.00170   93.00170   49.12980    5.61260    5.47260    5.61260    -999.25    -999.25  302.47190  292.33520    -999.25    0.00340    0.00340    -999.25    -999.25    -999.25    -999.25    -999.25    0.01210    0.01080    -999.25    -999.25  292.33520 5066.73930 6099.58060
 16850.00000    -999.25    -999.25    -999.25    -999.25    -999.25    5.63090    5.61300    5.61300    1.52810    3.02760    -999.25   -0.07850    2.75940   -0.02890    -999.25   -0.02890  330.29050    -999.25   -0.07850   53.28950   51.28110   50.87140    -999.25    -999.25   95.88920   95.88920   53.28950    4.07850    5.57190    4.07850    -999.25    -999.25  330.29050  343.38110    -999.25    0.00260    0.00260    -999.25    -999.25    -999.25    -999.25    -999.25    0.04150    0.04020    -999.25    -999.25  343.38110 5068.82320 6302.23050
 16900.00000    -999.25    -999.25    -999.25    -999.25    -999.25    5.70740    5.67410    5.67410    7.44320    2.84620    -999.25   -0.07790    2.72500   -0.00880    -999.25   -0.00880  351.34630    -999.25   -0.07790   48.53550   49.49330   48.93770    -999.25    -999.25   93.15190   93.15190   48.53550   11.00640    9.41300   11.00640    -999.25    -999.25  351.34630  371.56370    -999.25    0.00360    0.00360    -999.25    -999.25    -999.25    -999.25    -999.25    0.00880    0.00660    -999.25    -999.25  371.56370 5131.75200 6444.78610
 16950.00000    -999.25    -999.25    -999.25    -999.25    -999.25    6.03880    6.01950    6.01950    8.29970    3.67980    -999.25   -0.05090    2.69220    0.01040    -999.25    0.01040  271.75240    -999.25   -0.05090   52.01030   48.70250   48.37750    -999.25    -999.25   93.68840   93.68840   52.01030   13.82840   15.19200   13.82840    -999.25    -999.25  271.75240  300.00520    -999.25    0.00320    0.00320    -999.25    -999.25    -999.25    -999.25    -999.25    0.03280    0.03120    -999.25    -999.25  300.00520 5095.87990 6302.60990
 17000.00000    -999.25    -999.25    -999.25    -999.25    -999.25    5.63460    5.60730    5.60730    2.45230    3.34360    -999.25   -0.05650    2.73020   -0.01180    -999.25   -0.01180  299.07660    -999.25   -0.05650   49.78630   49.54520   49.21830    -999.25    -999.25   95.60450   95.60450   49.78630    6.48650    5.81260    6.48650    -999.25    -999.25  299.07660  248.03540    -999.25    0.00510    0.00510    -999.25    -999.25    -999.25    -999.25    -999.25    0.01820    0.01550    -999.25    -999.25  248.03540 5122.82470 6047.58740
 17050.00000    -999.25    -999.25    -999.25    -999.25    -999.25    5.62980    5.60820    5.60820    5.65010    2.98540    -999.25   -0.08200    2.76510   -0.03220    -999.25   -0.03220  334.96260    -999.25   -0.08200   47.95520   48.41490   48.09230    -999.25    -999.25   92.48070   92.48070   47.95520    7.68370    7.77200    7.68370    -999.25    -999.25  334.96260  342.59250    -999.25    0.00150    0.00150    -999.25    -999.25    -999.25    -999.25    -999.25    0.00480    0.00250    -999.25    -999.25  342.59250 5160.10210 6066.14160
 17100.00000    -999.25    -999.25    -999.25    -999.25    -999.25    5.69830    5.69340    5.69340    5.88490    2.63580    -999.25   -0.08200    2.71340   -0.00200    -999.25   -0.00200  379.39140    -999.25   -0.08200   47.95590   48.84690   48.52340    -999.25    -999.25   92.02260   92.02260   47.95590    7.23990    7.87600    7.23990    -999.25    -999.25  379.39140  360.52410    -999.25    0.00290    0.00290    -999.25    -999.25    -999.25    -999.25    -999.25    0.00410    0.00250    -999.25    -999.25  360.52410 5229.21580 6378.98140
 17150.00000    -999.25    -999.25    -999.25    -999.25    -999.25    6.04300    6.04410    6.04410    4.46500    2.72190    -999.25   -0.04520    2.71120   -0.00070    -999.25   -0.00070  367.38460    -999.25   -0.04520   48.39660   49.43410   49.09650    -999.25    -999.25   93.99570   93.99570   48.39660    8.88280    8.55460    8.88280    -999.25    -999.25  367.38460  378.21130    -999.25    0.00160    0.00160    -999.25    -999.25    -999.25    -999.25    -999.25    0.00860    0.00560    -999.25    -999.25  378.21130 5249.15770 6588.12500
 17200.00000    -999.25    -999.25    -999.25    -999.25    -999.25    6.04470    6.06350    6.06350    6.44610    3.18600    -999.25   -0.05290    2.70710    0.00170    -999.25    0.00170  313.87180    -999.25   -0.05290   48.74750   49.17250   48.84660    -999.25    -999.25   93.36670   93.36670   48.74750   10.41410   14.66160   10.41410    -999.25    -999.25  313.87180  306.16480    -999.25    0.00210    0.00210    -999.25    -999.25    -999.25    -999.25    -999.25    0.01180    0.00810    -999.25    -999.25  306.16480 5309.06050 6359.97270
 17250.00000    -999.25    -999.25    -999.25    -999.25    -999.25    6.02880    6.01120    6.01120    9.10050    2.63850    -999.25   -0.05220    2.69510    0.00870    -999.25    0.00870  379.00030    -999.25   -0.05220   49.40080   49.66710   49.34550    -999.25    -999.25   93.76000   93.76000   49.40080   19.52900   18.16910   19.52900    -999.25    -999.25  379.00030  387.33110    -999.25    0.00230    0.00230    -999.25    -999.25    -999.25    -999.25    -999.25    0.01400    0.01270    -999.25    -999.25  387.33110 5368.73680 6177.76120
 17300.00000    -999.25    -999.25    -999.25    -999.25    -999.25    5.60800    5.58360    5.58360   18.15430    4.29460    -999.25   -0.07230    2.73150   -0.01260    -999.25   -0.01260  232.84930    -999.25   -0.07230   52.00970   52.61240   52.17130    -999.25    -999.25   91.67090   91.67090   52.00970   25.84790   26.27530   25.84790    -999.25    -999.25  232.84930  248.37290    -999.25    0.00590    0.00590    -999.25    -999.25    -999.25    -999.25    -999.25    0.03230    0.03120    -999.25    -999.25  248.37290 5311.81740 6243.91500
 17350.00000    -999.25    -999.25    -999.25    -999.25    -999.25    5.57100    5.54850    5.54850    8.25760    2.51040    -999.25   -0.09330    2.76300   -0.03100    -999.25   -0.03100  398.33640    -999.25   -0.09330   48.21400   48.61230   48.46750    -999.25    -999.25   91.18690   91.18690   48.21400   16.66670   18.08510   16.66670    -999.25    -999.25  398.33640  391.27150    -999.25    0.00150    0.00150    -999.25    -999.25    -999.25    -999.25    -999.25    0.00620    0.00430    -999.25    -999.25  391.27150 5353.92240 6452.85300
 17400.00000    -999.25    -999.25    -999.25    -999.25    -999.25    5.78620    5.81860    5.81860    9.09130    2.74880    -999.25   -0.06630    2.72620   -0.00950    -999.25   -0.00950  363.78990    -999.25   -0.06630   48.64560   50.57650   50.11680    -999.25    -999.25   93.07690   93.07690   48.64560   13.36810   15.20720   13.36810    -999.25    -999.25  363.78990  355.86610    -999.25    0.00180    0.00180    -999.25    -999.25    -999.25    -999.25    -999.25    0.00880    0.00740    -999.25    -999.25  355.86610 5385.88130 7000.91460
 17450.00000    -999.25    -999.25    -999.25    -999.25    -999.25    5.98690    5.92900    5.92900   12.69230    2.72980    -999.25   -0.05510    2.71260   -0.00150    -999.25   -0.00150  366.32670    -999.25   -0.05510   49.34750   50.30290   49.86870    -999.25    -999.25   93.02420   93.02420   49.34750   19.51970   19.70790   19.51970    -999.25    -999.25  366.32670  357.70950    -999.25    0.00800    0.00800    -999.25    -999.25    -999.25    -999.25    -999.25    0.01610    0.01240    -999.25    -999.25  357.70950 5352.21880 6785.41110
