~Version ---------------------------------------------------
VERS. 2.0 : CWLS log ASCII Standard -VERSION 2.0
WRAP. YES : Multiple lines per depth step
~Well ------------------------------------------------------
STRT.ft                   4000.0 : START DEPTH
STOP.ft                   7650.0 : STOP DEPTH
STEP.ft                 50.00000 : STEP LENGTH
NULL.                    -999.25 : NULL VALUE
COMP. CHAMPLIN PETROLEUM COMPANY : COMPANY
WELL.          DOROTHY FRENCH #1 : WELL
FLD .                   GIDDINGS : FIELD
LOC .                            : LOCATION
CNTY.                   BURLESON : COUNTY
STAT.                      TEXAS : STATE
CTRY.   UNITED STATES OF AMERICA : COUNTRY
SRVC.               Schlumberger : SERVICE COMPANY
DATE.                12-Jul-1980 : LOGDATE
API .             42051307360000 : API NUMBER
UWI .             42051307360000 : UNIQUE WELL ID
SLAT.WGS84         30.5639824886 : SURFACE LATITUDE
SLON.WGS84        -96.6621011132 : SURFACE LONGITUDE
~Curve Information -----------------------------------------
DEPT    .ft    : Depth Curve
CALDED  .IN    : CALIPER FROM CNFD LOG [ADJ. TO GRRED]
CALWS   .IN    : CALIPER [CALDED]
CONDWS  .MMHO  : CONDUCTIVITY [1000/DRESWS]
DCORWS  .G/C3  : DENSITY CORRECTION [DRHOED]
DENWS   .G/C3  : FORMATION BULK DENSITY [RHOBED]
DPHILSED.V/V   : DENSITY POROSITY LIMESTONE [M=2.71, F=1.0] FROM CNFD LOG [ADJ. TO GRRED]
DPOWS   .V/V   : DENSITY POROSITY LIMESTONE [CALCULATED FROM DENWS]
DRESWS  .OHMM  : DEEP RESISTIVITY [ILDED]
DRHOED  .G/C3  : BULK DENSITY CORRECTION FROM CNFD LOG [ADJ. TO GRRED]
DTED    .US/F  : DELTA-T FROM DI-SFL-SONIC LOG [ADJ. TO GRRED]
DTWS    .US/F  : COMPRESSIONAL SONIC [DTED]
GRDED   .GAPI  : GAMMA RAY FROM CNFD LOG [ADJ. TO GRRED]
GRRED   .GAPI  : GAMMA RAY FROM DISFL-SONIC LOG
GRWS    .GAPI  : GAMMA RAY [GRRED SPL. TO GRDED @7646.5' ]
ILDED   .OHMM  : DEEP INDUCTION RESISTIVITY FROM DISFL-SONIC LOG
ILMED   .OHMM  : MEDIUM INDUCTION RESISTIVITY FROM DISFL-SONIC LOG
MRESWS  .OHMM  : MEDIUM RESISTIVITY [ILMED]
NPHILSED.V/V   : NEUTRON POROSITY LIMESTONE FROM CNFD LOG [ADJ. TO GRRED]
NPOWS   .V/V   : NEUTRON POROSITY LIMESTONE [NPHILSED]
RHOBED  .G/C3  : BULK DENSITY FROM CNFD LOG [ADJ. TO GRRED]
SFLUED  .OHMM  : SHALLOW FOCUSED RESISTIVITY FROM DISFL-SONIC LOG
SPHILSED.V/V   : SONIC POROSITY LIMESTONE [DTM=50 ,DTF=189] FROM FDC-BCS LOG [ADJ. TO GRRED]
SPOWS   .V/V   : SONIC POROSITY LIMESTONE [SPHILSED]
SPRED   .MV    : SPONTANEOUS POTENTIAL FROM DISFL-SONIC LOG
SPWS    .MV    : SPONTANEOUS POTENTIAL [BASELINE  0 MV, SPRED]
SRESWS  .OHMM  : SHALLOW RESISTIVITY [SFLUED]
~Params ----------------------------------------------------
PD  .                     GL : PERMANENT DATUM
EPD .FT                  406 : ELEVATION PERMANENT DATUM
LMF .                     KB : LOG MEASURED FROM
DAPD.FT                   18 : FEET ABOVE PERMANENT DATUM
DMF .                     KB : DRILLING MEASURED FROM
EKB .FT                  424 : KELLY BUSHING
EDF .FT                  423 : DRILLING FLOOR
EGL .FT                  406 : GROUND LEVEL
DATE.               07/12/80 : RUN DATE
RUN .                      1 : RUN NUMBER
DD  .FT                 7700 : DEPTH DRILLER
DL  .FT                 7682 : DEPTH LOGGER
BLI .FT                 7675 : BOTTOM LOG INTERVAL
TLI .FT                 3989 : TOP LOG INTERVAL
CS  .IN                9.625 : CASING SIZE
CBD .FT                 3990 : CASING BOTTOM DRILLER
CBL .FT                 3989 : CASING BOTTOM LOGGER
BS  .IN                 8.75 : BIT SIZE
BSD .FT                 7700 : BIT SIZE AT DEPTH
DFT .             BEN EX GEL : DRILLING FLUID TYPE
DFD .                    9.5 : DRILLING FLUID DENSITY
DFV .                     51 : DRILLING FLUID VISCOSITY
DFPH.                    9.5 : DRILLING FLUID PH
DFL .                      7 : DRILLING FLUID LOSS
MSS .               FLOWLINE : MUD SAMPLE SOURCE
RMS .OHMM                2.1 : RESISTIVITY MUD SAMPLE
MST .DEGF                 80 : MUD SAMPLE TEMPERATURE
RMF .OHMM               1.96 : RESISTIVITY MUD FILTRATE SAMPLE
MFST.DEGF                 75 : MUD FILTRATE SAMPLE TEMPERATURE
RMC .OHMM               3.15 : RESISTIVITY MUD CAKE
MCST.DEGF                 80 : MUD CAKE SAMPLE TEMPERATURE
MFSS.                      M : MUD FILTRATE SAMPLE SOURCE
MCSS.                      C : MUD CAKE SAMPLE SOURCE
RMB .OHMM               0.91 : RESISTIVITY MUD AT BHT
TCS .HRS                1730 : TIME CIRCULATED STOPPED
TLAB.HRS                2230 : TIME LOGGER AT BOTTOM
LUN .                   8096 : LOGGING UNIT NUMBER
LUL .                BRENHAM : LOGGING UNIT LOCATION
ENGI.               HENDRICK : RECORDING ENGINEER
WITN.                 SCHELL : WITNESSED BY
CLNT.                A2DTECH : CLIENT CODE
ORIG.          1" 2.5" PRINT : ORIGIN OF DATA
UWI .         42051307360000 : UNIQUE WELL ID
DICO. A2D Technologies, Inc. : DIGITIZING COMPANY
~Other -----------------------------------------------------
~ASCII -----------------------------------------------------
# ...
 6700.00000    -999.25    -999.25  609.01340    -999.25    -999.25    -999.25    -999.25    1.64200    -999.25   94.02110   94.02110    -999.25   87.28190   87.28190    1.64200    1.71460    1.71460    -999.25    -999.25    -999.25    1.81150    -999.25    -999.25  -10.06660   -1.91540    1.81150
 6750.00000    -999.25    -999.25  632.99150    -999.25    -999.25    -999.25    -999.25    1.57980    -999.25   95.03630   95.03630    -999.25   93.76190   93.76190    1.57980    1.64830    1.64830    -999.25    -999.25    -999.25    1.73390    -999.25    -999.25  -11.43570   -2.04340    1.73390
 6800.00000    -999.25    -999.25  626.25250    -999.25    -999.25    -999.25    -999.25    1.59680    -999.25   95.28880   95.28880    -999.25   91.38400   91.38400    1.59680    1.66590    1.66590    -999.25    -999.25    -999.25    1.76130    -999.25    -999.25  -13.49820   -3.16850    1.76130
 6850.00000    -999.25    -999.25  595.37990    -999.25    -999.25    -999.25    -999.25    1.67960    -999.25   93.39600   93.39600    -999.25   91.72800   91.72800    1.67960    1.75240    1.75240    -999.25    -999.25    -999.25    1.90280    -999.25    -999.25  -13.06230   -3.38930    1.90280
 6900.00000    -999.25    -999.25  597.90730    -999.25    -999.25    -999.25    -999.25    1.67250    -999.25   93.46420   93.46420    -999.25   95.29380   95.29380    1.67250    1.74480    1.74480    -999.25    -999.25    -999.25    1.89230    -999.25    -999.25  -13.47990   -2.55020    1.89230
 6950.00000   10.79500   10.79500  602.26450    0.16960    2.51770    0.10760    0.11250    1.66040    0.16960   93.82630   93.82630  102.46800   85.30090   85.30090    1.66040    1.73300    1.73300    0.26860    0.26860    2.51770    1.84520    0.31180    0.31180  -13.95300   -0.94660    1.84520
 7000.00000   10.18390   10.18390  580.95630    0.17220    2.56100    0.08260    0.08710    1.72130    0.17220   92.09920   92.09920  102.93260   93.72360   93.72360    1.72130    1.87390    1.87390    0.28270    0.28270    2.56100    2.00850    0.29940    0.29940  -19.11470   -4.03160    2.00850
 7050.00000    8.84890    8.84890  110.65370    0.00160    2.60060    0.05930    0.06400    9.03720    0.00160   65.18860   65.18860   54.16820   46.29860   46.29860    9.03720    9.72700    9.72700    0.07660    0.07660    2.60060    8.87540    0.11310    0.11310  -37.23540  -20.80200    8.87540
 7100.00000    8.83760    8.83760  152.54830    0.00810    2.57540    0.07330    0.07870    6.55530    0.00810   69.80470   69.80470   61.89410   56.97390   56.97390    6.55530    7.01220    7.01220    0.13860    0.13860    2.57540    4.35680    0.13830    0.13830  -45.35980  -27.63080    4.35680
 7150.00000    8.83830    8.83830   90.65610    0.01630    2.59670    0.06040    0.06630   11.03070    0.01630   64.26970   64.26970   50.11770   44.03410   44.03410   11.03070   12.08240   12.08240    0.09780    0.09780    2.59670    9.15910    0.10000    0.10000  -47.00920  -27.98460    9.15910
 7200.00000    8.84150    8.84150   68.77630    0.02090    2.57750    0.07390    0.07750   14.53990    0.02090   65.96680   65.96680   37.00960   32.96990   32.96990   14.53990   15.38960   15.38960    0.10370    0.10370    2.57750   15.20150    0.10530    0.10530  -39.80230  -19.48210   15.20150
 7250.00000   11.85830   11.85830  355.87190    0.17210    2.48920    0.13590    0.12910    2.81000    0.17210  100.99830  100.99830  119.29700  107.67110  107.67110    2.81000    2.05910    2.05910    0.33850    0.33850    2.48920    3.19710    0.36610    0.36610  -28.55160  -10.19510    3.19710
 7300.00000    9.69400    9.69400  406.73550    0.24110    2.39390    0.23630    0.18490    2.45860    0.24110   95.33780   95.33780  114.09740  101.31300  101.31300    2.45860    2.63430    2.63430    0.28650    0.28650    2.39390    3.25800    0.32260    0.32260  -18.71200   -5.71170    3.25800
 7350.00000    8.98700    8.98700  206.74830    0.03370    2.48240    0.12940    0.13310    4.83680    0.03370   99.57440   99.57440  115.32790   97.92690   97.92690    4.83680    5.04680    5.04680    0.27570    0.27570    2.48240    6.12050    0.36180    0.36180  -16.16060   -6.03340    6.12050
 7400.00000    8.98640    8.98640  150.39400    0.01900    2.50040    0.11470    0.12260    6.64920    0.01900   92.74590   92.74590  124.28880  107.70370  107.70370    6.64920    7.42130    7.42130    0.27210    0.27210    2.50040    9.25260    0.29870    0.29870  -11.67960   -3.36130    9.25260
 7450.00000   10.06770   10.06770  342.48920    0.12670    2.23370    0.24380    0.27850    2.91980    0.12670   89.28460   89.28460  120.33310  102.59230  102.59230    2.91980    3.13520    3.13520    0.32970    0.32970    2.23370    3.82710    0.27400    0.27400  -23.59260  -14.99790    3.82710
 7500.00000    8.93420    8.93420  188.31680   -0.00100    2.68060    0.01310    0.01720    5.31020   -0.00100   62.18400   62.18400   53.77070   44.27380   44.27380    5.31020    6.38140    6.38140    0.11030    0.11030    2.68060    9.09160    0.08330    0.08330  -12.74870   -2.36750    9.09160
 7550.00000    8.71270    8.71270   21.68250    0.02000    2.69270    0.00770    0.01010   46.12020    0.02000   53.81180   53.81180   19.04740   18.57580   18.57580   46.12020   48.46690   48.46690    0.01450    0.01450    2.69270   41.70170    0.02450    0.02450  -35.95470  -28.58580   41.70170
 7600.00000    8.72450    8.72450  125.63290    0.00520    2.65470    0.02830    0.03230    7.95970    0.00520   60.68730   60.68730   48.03660   42.02260   42.02260    7.95970    8.53100    8.53100    0.06140    0.06140    2.65470    9.24920    0.07360    0.07360  -10.95130   -4.85910    9.24920
 7650.00000    8.53560    8.53560   12.76210    0.01220    2.69180    0.00730    0.01060   78.35700    0.01220    -999.25    -999.25   13.60390    -999.25   13.60390   78.35700   64.80170   64.80170    -999.25    -999.25    2.69180   63.77670    -999.25    -999.25  -45.70360  -30.21190   63.77670
