~Version ---------------------------------------------------
VERS.      2.0 : CWLS log ASCII Standard -VERSION 2.0
WRAP.      YES : Multiple lines per depth step
CREA. 03/28/16 : LAS Creation Date
~Well ------------------------------------------------------
STRT.FT                                      300.0 : START DEPTH
STOP.FT                                    14300.0 : STOP DEPTH
STEP.FT                                   50.00000 : STEP LENGTH
NULL.                                      -999.25 : NULL VALUE
COMP.               COLUMBIA GAS DEVELOPMENT CORP. : COMPANY
WELL.                                 UNION FEE #1 : WELL
FLD .                                      WILDCAT : FIELD
LOC .                                              : LOCATION
CNTY.                                       GRIMES : COUNTY
STAT.                                        TEXAS : STATE
CTRY.                     UNITED STATES OF AMERICA : COUNTRY
SRVC. ATLAS WIRELINE SERVICES / WESTERN ATLAS INTL : SERVICE COMPANY
DATE.                                  20-Jul-1990 : LOGDATE
API .                               42185304230000 : API NUMBER
UWI .                               42185304230000 : UNIQUE WELL ID
SLAT.WGS84                           30.6748360809 : SURFACE LATITUDE
SLON.WGS84                          -95.9134095283 : SURFACE LONGITUDE
~Curve Information -----------------------------------------
DEPT    .FT    : DEPTH FEET
ACED    .US/F  : DELTA TIME (ACOUSTIC) FROM DIND-FOC/BHC SONIC LOG
C13ED   .IN    : CALIPER 1-3 FROM COMPENSATED Z-DENSILOG/CN/GR LOG
CALDED  .IN    : CALIPER FROM DENSITY LOG [DSH TO GRRED]
CALRED  .IN    : CALIPER FROM DIND-FOC/BHC SONIC LOG
CALWS   .IN    : CALIPER [TOP CALRED 11608' CALDED 11850' C13ED TD]
CNCLSED .V/V   : NEUTRON POROSITY LIMESTONE FROM COMPENSATED Z-DENSILOG/CN/GR LOG [DSH TO GRRED]
CNCSSED .V/V   : NEUTRON POROSITY SANDSTONE FROM COMPENSATED Z-DENSILOG/CN/GR LOG [DSH TO GRRED]
CONDWS  .MMHO  : DEEP CONDUCTIVITY [1000/DRESWS]
DCORWS  .G/C3  : DENSITY CORRECTION [ZCORED]
DENWS   .G/C3  : BULK DENSITY [CALCULATED FROM DPOLSWS, M=2.71,F=1.0]
DPOLSWS .V/V   : DENSITY POROSITY (LS) [TOP PORZLSED 11338' PORZSSED CONVERTED TO LIMESTONE 11850' PORZLSED TD]
DRESWS  .OHMM  : DEEP RESISTIVITY [RILDED]
DTWS    .US/F  : DELTA TIME COMPRESSIONAL [ACED]
GRDED   .GAPI  : GAMMA RAY FROM COMPENSATED Z-DENSILOG/CN/GR LOG [DSH TO GRRED]
GRMED   .GAPI  : GAMMA RAY MICROLOG [DSH TO GRRED]
GRN1ED  .GAPI  : GAMMA RAY FROM GRN LOG (HALLIBURTON) [DSH TO GRRED]
GRNED   .CU    : GAMMA RAY FROM GRN LOG (PENWOOD) [DSH TO GRRED]
GRRED   .GAPI  : GAMMA RAY FROM DIND-FOC/BHC SONIC LOG
GRWS    .GAPI  : GAMMA RAY [TOP GRRED 10990 GRDED 11250 GRRED 14107 GRDED 14250 GRMED TD (IN CASING 3012-2965 GRRED+15)]
MCALED  .IN    : CALIPER FROM MICROLOG [DSH TO GRRED]
MRESWS  .OHMM  : MEDIUM RESISTIVITY [RILMED]
NEUT1ED .NAPI  : NEUTRON FROM GRN LOG (HALLIBURTON) [DSH TO GRRED]
NEUTED  .CU    : NEUTRON FROM GRN LOG (PENWOOD [DSH TO GRRED])
NPOLSWS .V/V   : NEUTRON POROSITY LIMESTONE [TOP CNCLSED 11338' CNCSSED CONVERTED TO LIMESTONE 11850' CNCLSED TD]
PEFED   .B/E   : PHOTOELECTRIC FACTOR FROM COMPENSATED Z-DENSILOG/CN/GR LOG [DSH TO GRRED]
PEFWS   .B/E   : PHOTOELECTRIC FACTOR [PEFED]
PORZLSED.V/V   : DENSITY POROSITY (LS) [M=2.71 F=1.0] FROM COMPENSATED Z-DENSILOG/CN/GR LOG [DSH TO GRRED]
PORZSSED.V/V   : DENSITY POROSITY (SS) [M=2.65 F=1.0] FROM COMPENSATED Z-DENSILOG/CN/GR LOG [DSH TO GRRED]
RFOCED  .OHMM  : FOCUSED RESISTIVITY FROM DIND-FOC/BHC SONIC LOG
RILDED  .OHMM  : INDUCTION LOG DEEP RESISTIVITY FROM DIND-FOC/BHC SONIC LOG
RILMED  .OHMM  : INDUCTION LOG MEDIUM RESISTIVITY FROM DIND-FOC/BHC SONIC LOG
SPRED   .MV    : SPONTANEOUS POTENTIAL FROM DIND-FOC/BHC SONIC LOG
SPWS    .MV    : SPONTANEOUS POTENTIAL [BASELINE 0 MV] [SPRED]
SRESWS  .OHMM  : SHALLOW RESISTIVITY [RFOCED]
TENDED  .LBF   : TENSION FROM COMPENSATED Z-DENSILOG/CN/GR LOG [DSH TO GRRED]
TENRED  .LBF   : TENSION FROM DIND-FOC/BHC SONIC LOG
ZCORED  .G/C3  : DENSITY CORRECTION FROM COMPENSATED Z-DENSILOG/CN/GR LOG [DSH TO GRRED]
~Params ----------------------------------------------------
PD  .                     GL : PERMANENT DATUM
EPD .FT                  366 : ELEVATION PERMANENT DATUM
LMF .                    RKB : LOG MEASURED FROM
DAPD.FT                   21 : FEET ABOVE PERMANENT DATUM
DMF .                    RKB : DRILLING MEASURED FROM
EKB .FT                  387 : KELLY BUSHING
EDF .FT                  386 : DRILLING FLOOR
EGL .FT                  366 : GROUND LEVEL
DATE.               07/20/90 : RUN DATE
RUN .                      1 : RUN NUMBER
DD  .FT                14300 : DEPTH DRILLER
DL  .FT                14300 : DEPTH LOGGER
BLI .FT                14297 : BOTTOM LOG INTERVAL
TLI .FT                11428 : TOP LOG INTERVAL
CS  .IN                9.625 : CASING SIZE
CBD .FT                 3814 : CASING BOTTOM DRILLER
CBL .FT                 3814 : CASING BOTTOM LOGGER
BS  .IN                 8.75 : BIT SIZE
BSD .FT                14300 : BIT SIZE AT DEPTH
DFT .                        : DRILLING FLUID TYPE
DFD .                    9.9 : DRILLING FLUID DENSITY
DFV .                     36 : DRILLING FLUID VISCOSITY
DFPH.                    9.5 : DRILLING FLUID PH
DFL .                    6.8 : DRILLING FLUID LOSS
MSS .                    PIT : MUD SAMPLE SOURCE
RMS .OHMM               1.26 : RESISTIVITY MUD SAMPLE
MST .DEGF                 78 : MUD SAMPLE TEMPERATURE
RMF .OHMM               0.78 : RESISTIVITY MUD FILTRATE SAMPLE
MFST.DEGF                 78 : MUD FILTRATE SAMPLE TEMPERATURE
RMC .OHMM               1.68 : RESISTIVITY MUD CAKE
MCST.DEGF                 78 : MUD CAKE SAMPLE TEMPERATURE
MFSS.                   MEAS : MUD FILTRATE SAMPLE SOURCE
MCSS.                   MEAS : MUD CAKE SAMPLE SOURCE
RMB .OHMM               0.32 : RESISTIVITY MUD AT BHT
TCS .HRS                  18 : TIME CIRCULATED STOPPED
TLAB.HRS                   0 : TIME LOGGER AT BOTTOM
LUN .                HL 6428 : LOGGING UNIT NUMBER
LUL .               BEALMONT : LOGGING UNIT LOCATION
ENGI.                SHERRIN : RECORDING ENGINEER
WITN.                  SADDO : WITNESSED BY
CLNT.                A2DTECH : CLIENT CODE
ORIG.               5" PRINT : ORIGIN OF DATA
UWI .         42185304230000 : UNIQUE WELL ID
DICO. A2D Technologies, Inc. : DIGITIZING COMPANY
OS  .                        : OTHER SERVICES
PWI .                        : PRIMARY WELL IDENTIFIER
R1  .                        : REMARKS 1
R2  .                        : REMARKS 2
LSRV.                        : LOG MNEMONIC
~Other -----------------------------------------------------
~ASCII -----------------------------------------------------
# ...
 12300.00000   51.74040    8.87100    -999.25    -999.25    8.87100    0.10380    -999.25   21.88730    0.10770    2.64790    0.03630   45.68870   51.74040   22.80750   22.38320   24.00430    -999.25   24.10450   24.10450    9.22750   52.48280    -999.25    -999.25    0.10380    7.23900    7.23900    0.03630    -999.25  100.72890   45.68870   52.48280  -62.85910  -78.29630  100.72890   -4.70510   -0.57380    0.10770
 12350.00000   50.45880   10.11370    -999.25    -999.25   10.11370    0.13330    -999.25   19.37020    0.25160    2.59820    0.06540   51.62560   50.45880   23.04910   21.22390   28.82740    -999.25   21.64900   21.64900   10.69210   46.54650    -999.25    -999.25    0.13330    7.36350    7.36350    0.06540    -999.25   77.16360   51.62560   46.54650  -99.64110 -117.07840   77.16360   -4.09790    2.16610    0.25160
 12400.00000   50.44140   11.93820    -999.25    -999.25   11.93820    0.12150    -999.25   12.75500    0.33450    2.35770    0.20600   78.40080   50.44140   15.62170   17.75980    6.28590    -999.25   15.30820   15.30820   11.59740   80.62820    -999.25    -999.25    0.12150    7.48320    7.48320    0.20600    -999.25   48.04010   78.40080   80.62820 -115.83710 -135.27450   48.04010   11.54910    4.47590    0.33450
 12450.00000   48.69860   10.00910    -999.25    -999.25   10.00910    0.15250    -999.25   15.14400    0.07890    2.64660    0.03710   66.03290   48.69860   19.41700   20.14570   28.09050    -999.25   18.64920   18.64920    9.77390   63.62100    -999.25    -999.25    0.15250    6.28310    6.28310    0.03710    -999.25  206.88650   66.03290   63.62100  -86.87490 -108.31240  206.88650   27.39030    2.76210    0.07890
 12500.00000   49.95960   10.92740    -999.25    -999.25   10.92740    0.12400    -999.25   13.50160    0.23780    2.63890    0.04160   74.06530   49.95960   14.49580   15.86080   31.77330    -999.25   18.00870   18.00870   11.00680   73.54830    -999.25    -999.25    0.12400    7.24580    7.24580    0.04160    -999.25  156.41980   74.06530   73.54830  -95.43700 -118.87460  156.41980   -0.36000    1.04830    0.23780
 12550.00000   50.61790   10.82840    -999.25    -999.25   10.82840    0.04250    -999.25   19.13370    0.31670    2.20800    0.29350   52.26370   50.61790   20.46470   21.52110   35.86010    -999.25   24.96340   24.96340   11.11900   49.52140    -999.25    -999.25    0.04250    7.23980    7.23980    0.29350    -999.25   75.66070   52.26370   49.52140  -98.82860 -124.26630   75.66070    4.73850    1.27080    0.31670
 12600.00000  239.85010    9.38040    -999.25    -999.25    9.38040    0.10920    -999.25  170.82340    0.25370    2.28520    0.24840    5.85400  239.85010   53.82020   56.87380   44.31550    -999.25   56.66250   56.66250   10.12080   13.58070    -999.25    -999.25    0.10920    5.61000    5.61000    0.24840    -999.25   11.36780    5.85400   13.58070  -34.97100  -62.40880   11.36780  381.28200    5.12420    0.25370
 12650.00000   37.96110    9.49120    -999.25    -999.25    9.49120    0.14930    -999.25   66.36270    0.01340    2.61060    0.05810   15.06870   37.96110   48.45280   46.32710    -999.25    -999.25   46.64790   46.64790    9.95910   22.81270    -999.25    -999.25    0.14930    6.68780    6.68780    0.05810    -999.25   18.79370   15.06870   22.81270  -41.93700  -71.37500   18.79370    5.66330    3.83890    0.01340
 12700.00000   51.39920   10.94260    -999.25    -999.25   10.94260    0.13360    -999.25   34.60660    0.18070    2.69700    0.00760   28.89620   51.39920   32.95850   30.25070    -999.25    -999.25   30.53100   30.53100   11.08120   42.96630    -999.25    -999.25    0.13360    7.05860    7.05860    0.00760    -999.25   55.64630   28.89620   42.96630  -88.63840 -120.07650   55.64630   35.49460    2.55350    0.18070
 12750.00000   30.73180   10.71210    -999.25    -999.25   10.71210    0.10870    -999.25   44.47450    0.29640    2.52820    0.10630   22.48480   30.73180   34.36340   33.14440    -999.25    -999.25   30.74010   30.74010   11.16470   34.80580    -999.25    -999.25    0.10870    7.05360    7.05360    0.10630    -999.25   41.97320   22.48480   34.80580 -120.40060 -153.83880   41.97320    8.10970    2.01390    0.29640
 12800.00000   49.79810    9.74290    -999.25    -999.25    9.74290    0.11320    -999.25   56.88020    0.14180    2.67930    0.01800   17.58080   49.79810   45.63350   39.28600    -999.25    -999.25   40.82970   40.82970   10.17610   24.30510    -999.25    -999.25    0.11320    6.84740    6.84740    0.01800    -999.25   33.50590   17.58080   24.30510  -60.00570  -95.44400   33.50590    5.25170   16.09060    0.14180
 12850.00000   67.07270   10.05480    -999.25    -999.25   10.05480    0.16170    -999.25  199.23490    0.28960    2.42360    0.16750    5.01920   67.07270   62.11290   60.97720    -999.25    -999.25   58.01010   58.01010   10.54920    9.90850    -999.25    -999.25    0.16170    4.66730    4.66730    0.16750    -999.25   10.57440    5.01920    9.90850  -39.52380  -76.96220   10.57440   12.84850   -3.74590    0.28960
 12900.00000   69.67290    9.44080    -999.25    -999.25    9.44080    0.16230    -999.25  192.98690    0.24340    2.43980    0.15800    5.18170   69.67290   51.48810   52.89130    -999.25    -999.25   50.45270   50.45270    9.92610   13.05890    -999.25    -999.25    0.16230    5.34100    5.34100    0.15800    -999.25    7.32060    5.18170   13.05890  -31.97700  -71.41550    7.32060    9.57150    8.37030    0.24340
 12950.00000   60.20200    9.15690    -999.25    -999.25    9.15690    0.11600    -999.25   72.61060    0.00420    2.62240    0.05120   13.77210   60.20200   42.05940   39.29460    -999.25    -999.25   41.17310   41.17310    9.62270   24.57850    -999.25    -999.25    0.11600    6.51410    6.51410    0.05120    -999.25   19.74300   13.77210   24.57850  -56.52360  -97.96220   19.74300   -2.96140    8.99770    0.00420
 13000.00000   51.94910   10.03020    -999.25    -999.25   10.03020    0.14420    -999.25    7.84870    0.23410    2.27620    0.25370  127.41010   51.94910   26.17210   22.59460    -999.25    -999.25   25.24650   25.24650   11.47550  100.89900    -999.25    -999.25    0.14420    6.30900    6.30900    0.25370    -999.25  183.51240  127.41010  100.89900  -81.66580 -125.10450  183.51240   -6.09060   -2.64850    0.23410
 13050.00000   51.38430    8.99880    -999.25    -999.25    8.99880    0.12470    -999.25   14.38560    0.10190    2.59180    0.06910   69.51390   51.38430   31.50980   33.30340    -999.25    -999.25   32.53260   32.53260   10.44630   81.27900    -999.25    -999.25    0.12470    7.01340    7.01340    0.06910    -999.25  131.20630   69.51390   81.27900  -70.04900 -115.48780  131.20630   -3.91630    2.36770    0.10190
 13100.00000   69.72030   10.12880    -999.25    -999.25   10.12880    0.16400    -999.25  201.63320    0.08770    2.35600    0.20700    4.95950   69.72030   55.16350   58.70730    -999.25    -999.25   53.82490   53.82490   10.17920    9.50380    -999.25    -999.25    0.16400    4.69510    4.69510    0.20700    -999.25    8.11740    4.95950    9.50380  -34.53100  -81.97000    8.11740    1.20230    6.30040    0.08770
 13150.00000   81.98880   15.40940    -999.25    -999.25   15.40940    0.13040    -999.25  331.01620    0.23950    2.00240    0.41380    3.02100   81.98880   57.15800   56.48790    -999.25    -999.25   48.21660   48.21660   13.11790    4.69380    -999.25    -999.25    0.13040    2.63960    2.63960    0.41380    -999.25    5.14920    3.02100    4.69380  -25.76650  -75.20560    5.14920   -3.77010   12.53600    0.23950
 13200.00000   62.24720   12.00930    -999.25    -999.25   12.00930    0.12210    -999.25  189.06450    0.21460    2.50430    0.12030    5.28920   62.24720   38.82480   41.44360    -999.25    -999.25   38.11700   38.11700   10.69600   10.08140    -999.25    -999.25    0.12210    4.73260    4.73260    0.12030    -999.25   13.72960    5.28920   10.08140  -20.77640  -72.21560   13.72960    7.15310    5.54930    0.21460
 13250.00000   53.70490   10.83090    -999.25    -999.25   10.83090    0.11640    -999.25   28.08890    0.05520    2.69480    0.00890   35.60130   53.70490   27.07250   25.16310    -999.25    -999.25   25.89970   25.89970    9.77990   57.34630    -999.25    -999.25    0.11640    6.86490    6.86490    0.00890    -999.25   48.70630   35.60130   57.34630  -36.36980  -89.80910   48.70630    1.69050    0.73840    0.05520
