~Version ---------------------------------------------------
VERS. 2.0 : CWLS log ASCII Standard -VERSION 2.0
WRAP.  NO : ONE LINE PER DEPTH STEP
~Well ------------------------------------------------------
STRT.F                     3800.0 : START DEPTH
STOP.F                     9750.0 : STOP DEPTH
STEP.F                   50.00000 : STEP LENGTH
NULL.                     -999.25 : NULL VALUE
COMP. MITCHELL ENERGY CORPORATION : COMPANY
WELL.           LEAH G. BARNES #2 : WELL
FLD .               ALABAMA FERRY : FIELD
LOC .                             : LOCATION
CNTY.                        LEON : COUNTY
STAT.                       TEXAS : STATE
CTRY.    UNITED STATES OF AMERICA : COUNTRY
SRVC.                Schlumberger : SERVICE COMPANY
DATE.                 16-Oct-1987 : LOGDATE
API .              42289309370000 : API NUMBER
UWI .              42289309370000 : UNIQUE WELL ID
SLAT.WGS84          31.2184420459 : SURFACE LATITUDE
SLON.WGS84         -95.8739729069 : SURFACE LONGITUDE
~Curve Information -----------------------------------------
DEPT   .F    0   1   0  0 : 1 MEASURED DEPTH
GRR    .GAPI 07 310 01 00 : GAMMA RAY FROM RESISTIVITY LOG
ILD    .OHMM 07 120 46 00 : INDUCTION DEEP RESISTIVITY
ILM    .OHMM 07 120 44 00 : INDUCTION MEDIUM RESISTIVITY
SFLU   .OHMM 07 220 01 00 : SHALLOW FOCUSED RESISTIVITY (UNAVERAGED)
SPR    .MV   07 010 01 00 : SPONTANEOUS POTENTIAL FROM RESISTIVITY LOG
DCAL   .IN   07 280 01 00 : DIFFERENTIAL CALIPER
DT     .US/F 60 500 00 00 : DELTA-T (INTERVAL TRANSIT TIME)
DPHI_LS.DEC  45 890 10 00 : DENSITY POROSITY LIMESTONE
DRHO   .G/C3 45 356 01 00 : BULK DENSITY CORRECTION
PEF    .B/E  45 358 01 00 : PHOTOELECTRIC FACTOR
RHOB   .G/C3 45 350 01 00 : BULK DENSITY
CALD   .IN   45 280 60 00 : CALIPER FROM DENSITY LOG
~Params ----------------------------------------------------
PD  .                     GL : PERMANENT DATUM
EPD .FT                  294 : ELEVATION PERMANENT DATUM
LMF .                    RKB : LOG MEASURED FROM
DAPD.FT                   21 : FEET ABOVE PERMANENT DATUM
DMF .                    RKB : DRILLING MEASURED FROM
EKB .FT                  315 : KELLY BUSHING
EDF .FT                  314 : DRILLING FLOOR
EGL .FT                  294 : GROUND LEVEL
DATE.               10/16/87 : RUN DATE
RUN .                      1 : RUN NUMBER
DD  .FT                 9750 : DEPTH DRILLER
DL  .FT                 9787 : DEPTH LOGGER
BLI .FT                 9784 : BOTTOM LOG INTERVAL
TLI .FT                 6500 : TOP LOG INTERVAL
CS  .IN                8.625 : CASING SIZE
CBD .FT                 3825 : CASING BOTTOM DRILLER
CBL .FT                 3829 : CASING BOTTOM LOGGER
BS  .IN                7.875 : BIT SIZE
BSD .FT                 9750 : BIT SIZE AT DEPTH
DFT .         LIGNOSILFONATE : DRILLING FLUID TYPE
DFD .                     10 : DRILLING FLUID DENSITY
DFV .                     48 : DRILLING FLUID VISCOSITY
DFPH.                    9.5 : DRILLING FLUID PH
DFL .                    9.4 : DRILLING FLUID LOSS
MSS .               CIR TANK : MUD SAMPLE SOURCE
RMS .OHMM               2.89 : RESISTIVITY MUD SAMPLE
MST .DEGF                 75 : MUD SAMPLE TEMPERATURE
RMF .OHMM               2.67 : RESISTIVITY MUD FILTRATE SAMPLE
MFST.DEGF                 75 : MUD FILTRATE SAMPLE TEMPERATURE
RMC .OHMM               3.21 : RESISTIVITY MUD CAKE
MCST.DEGF                 75 : MUD CAKE SAMPLE TEMPERATURE
MFSS.                   MEAS : MUD FILTRATE SAMPLE SOURCE
MCSS.                   MEAS : MUD CAKE SAMPLE SOURCE
RMB .OHMM              1.053 : RESISTIVITY MUD AT BHT
TCS .HRS                 600 : TIME CIRCULATED STOPPED
TLAB.HRS                1400 : TIME LOGGER AT BOTTOM
LUN .                   8505 : LOGGING UNIT NUMBER
LUL .               TYLER OH : LOGGING UNIT LOCATION
ENGI.              LANGHAMER : RECORDING ENGINEER
WITN.                EDWARDS : WITNESSED BY
CLNT.                A2DTECH : CLIENT CODE
ORIG.           5" 25" PRINT : ORIGIN OF DATA
UWI .         42289309370000 : UNIQUE WELL ID
DICO. A2D Technologies, Inc. : DIGITIZING COMPANY
~Other -----------------------------------------------------
~ASCII -----------------------------------------------------
 3800.00000   61.33560    -999.25    -999.25    -999.25    -999.25    -999.25    -999.25    -999.25    -999.25    -999.25    -999.25    -999.25
 3850.00000   80.06820    2.05970    2.16980    2.22000  -12.48810    3.35810    -999.25    -999.25    -999.25    -999.25    -999.25    -999.25
 3900.00000   70.96030    2.45800    2.52900    2.57360  -16.92410    4.68480    -999.25    -999.25    -999.25    -999.25    -999.25    -999.25
 3950.00000   72.95580    2.26740    2.30390    2.33010  -16.90340    4.21210    -999.25    -999.25    -999.25    -999.25    -999.25    -999.25
 4000.00000   69.73140    3.75450    3.88790    4.52020  -21.39190    2.97890    -999.25    -999.25    -999.25    -999.25    -999.25    -999.25
 4050.00000   76.45640    2.13840    2.25130    2.39490  -15.94140    3.36830    -999.25    -999.25    -999.25    -999.25    -999.25    -999.25
 4100.00000   60.27960    1.87240    1.93100    2.09300  -13.57570    2.35680    -999.25    -999.25    -999.25    -999.25    -999.25    -999.25
 4150.00000   83.04400    2.01710    2.06210    2.09890  -13.29400    2.05480    -999.25    -999.25    -999.25    -999.25    -999.25    -999.25
 4200.00000   75.75890    2.01380    2.07100    2.22550  -16.29170    2.07840    -999.25    -999.25    -999.25    -999.25    -999.25    -999.25
 4250.00000   82.32670    1.92340    2.01500    2.13990  -14.35330    1.34400    -999.25    -999.25    -999.25    -999.25    -999.25    -999.25
 4300.00000   97.23830    1.85330    1.92080    2.02510  -13.86810    0.95990    -999.25    -999.25    -999.25    -999.25    -999.25    -999.25
 4350.00000   73.76840    1.73110    1.88100    2.00340  -13.42820    1.01680    -999.25    -999.25    -999.25    -999.25    -999.25    -999.25
 4400.00000   93.08350    1.69350    1.73820    1.80150  -16.16720    1.59110    -999.25    -999.25    -999.25    -999.25    -999.25    -999.25
 4450.00000   78.04650    2.08500    2.15780    2.19610  -15.85940    1.77410    -999.25    -999.25    -999.25    -999.25    -999.25    -999.25
 4500.00000   96.26160    2.21240    2.27820    2.31970  -14.14990    1.23650    -999.25    -999.25    -999.25    -999.25    -999.25    -999.25
 4550.00000   85.34460    2.28190    2.32400    2.44960  -14.08450    1.75440    -999.25    -999.25    -999.25    -999.25    -999.25    -999.25
 4600.00000   86.35090    2.49640    2.57130    2.61830  -17.75470    1.57680    -999.25    -999.25    -999.25    -999.25    -999.25    -999.25
 4650.00000   89.64190    2.33000    2.43970    2.53960  -15.35850    1.45750    -999.25    -999.25    -999.25    -999.25    -999.25    -999.25
 4700.00000   93.40240    2.34790    2.42690    2.47300  -19.11330    0.64780    -999.25    -999.25    -999.25    -999.25    -999.25    -999.25
 4750.00000   90.52690    2.11340    2.29310    2.33400  -16.47420    1.43250    -999.25    -999.25    -999.25    -999.25    -999.25    -999.25
 4800.00000   76.78330    2.19500    2.26440    2.30630  -14.01110    1.30790    -999.25    -999.25    -999.25    -999.25    -999.25    -999.25
 4850.00000   69.00680    1.05940    1.09970    1.24660  -12.26150    1.07010    -999.25    -999.25    -999.25    -999.25    -999.25    -999.25
 4900.00000   71.03540    2.52870    2.60320    2.65140  -13.36040    0.19790    -999.25    -999.25    -999.25    -999.25    -999.25    -999.25
 4950.00000   74.16800    2.05570    2.11590    2.23080  -10.88790    0.63450    -999.25    -999.25    -999.25    -999.25    -999.25    -999.25
 5000.00000   86.75260    1.15550    1.20280    1.22080  -17.17590    1.38320    -999.25    -999.25    -999.25    -999.25    -999.25    -999.25
 5050.00000   93.55740    1.05240    1.08890    1.15440  -15.16680    0.54030    -999.25    -999.25    -999.25    -999.25    -999.25    -999.25
 5100.00000   80.03440    1.23710    1.27280    1.29530  -12.95190    1.09560    -999.25    -999.25    -999.25    -999.25    -999.25    -999.25
 5150.00000   94.62410    0.90890    0.93510    1.02310  -11.20380    1.40790    -999.25    -999.25    -999.25    -999.25    -999.25    -999.25
 5200.00000   89.71220    1.00010    1.03290    1.12380  -12.95150    1.86690    -999.25    -999.25    -999.25    -999.25    -999.25    -999.25
 5250.00000   89.32720    1.07230    1.12320    1.19500  -14.55570    1.86100    -999.25    -999.25    -999.25    -999.25    -999.25    -999.25
 5300.00000   90.87110    0.97330    1.01730    1.14260  -12.18080    2.22680    -999.25    -999.25    -999.25    -999.25    -999.25    -999.25
 5350.00000   90.89010    1.04230    1.06670    1.24490  -11.25670    2.07530    -999.25    -999.25    -999.25    -999.25    -999.25    -999.25
 5400.00000   91.37590    1.09930    1.16310    1.57320   -9.37920    1.71280    -999.25    -999.25    -999.25    -999.25    -999.25    -999.25
 5450.00000   90.62600    1.16450    1.21050    1.31560  -11.75040    1.94830    -999.25    -999.25    -999.25    -999.25    -999.25    -999.25
 5500.00000   36.07670    4.32480    4.48550    4.70190  -23.68130    0.56040    -999.25    -999.25    -999.25    -999.25    -999.25    -999.25
 5550.00000   78.41280    3.93790    4.02280    4.30920  -15.98250    0.74760    -999.25    -999.25    -999.25    -999.25    -999.25    -999.25
 5600.00000   69.68370    3.87670    4.01620    4.47700  -18.83860    1.00690    -999.25    -999.25    -999.25    -999.25    -999.25    -999.25
 5650.00000  103.50570    2.22030    2.33990    2.40910  -12.92550    1.65550    -999.25    -999.25    -999.25    -999.25    -999.25    -999.25
 5700.00000   68.27720    3.02040    3.13500    3.57080  -12.31780    1.15690    -999.25    -999.25    -999.25    -999.25    -999.25    -999.25
 5750.00000   93.13020    1.71020    1.77390    1.91460  -11.29830    2.31730    -999.25    -999.25    -999.25    -999.25    -999.25    -999.25
 5800.00000   77.68380    2.31200    2.41210    3.55770  -10.55190    1.32720    -999.25    -999.25    -999.25    -999.25    -999.25    -999.25
 5850.00000   85.03420    1.53470    1.59030    1.93340  -12.71790    2.25620    -999.25    -999.25    -999.25    -999.25    -999.25    -999.25
 5900.00000   91.73320    1.32870    1.37640    1.61630  -10.60750    2.97770    -999.25    -999.25    -999.25    -999.25    -999.25    -999.25
 5950.00000   79.48470    2.23690    2.31810    2.67660   -7.68420    1.58580    -999.25    -999.25    -999.25    -999.25    -999.25    -999.25
 6000.00000   76.25960    1.86140    1.92960    2.23780  -13.16610    2.51540    -999.25    -999.25    -999.25    -999.25    -999.25    -999.25
 6050.00000   56.45060    2.99280    3.10140    3.70670   -9.26410    1.37170    -999.25    -999.25    -999.25    -999.25    -999.25    -999.25
 6100.00000   84.07700    1.26400    1.30960    1.57800  -13.45700    3.21770    -999.25    -999.25    -999.25    -999.25    -999.25    -999.25
 6150.00000   46.67390    4.66780    4.83540    5.55790  -15.09300    1.52910    -999.25    -999.25    -999.25    -999.25    -999.25    -999.25
 6200.00000   79.13200    2.92770    3.03450    3.58240  -11.93860    1.87200    -999.25    -999.25    -999.25    -999.25    -999.25    -999.25
 6250.00000   95.47590    1.76640    1.82600    2.01130  -19.24440    2.53360    -999.25    -999.25    -999.25    -999.25    -999.25    -999.25
 6300.00000   96.57190    1.61980    1.67800    1.89180  -16.23030    2.52350    -999.25    -999.25    -999.25    -999.25    -999.25    -999.25
 6350.00000   79.55510    1.85980    1.92740    2.24940  -14.83140    2.49070    -999.25    -999.25    -999.25    -999.25    -999.25    -999.25
 6400.00000   79.80740    1.97890    2.05000    2.34230  -13.74930    2.30890   88.76770    -999.25    -999.25    -999.25    -999.25    -999.25
 6450.00000   77.00980    1.38130    1.43220    1.74530  -16.50250    3.92340   94.86750    0.29070    0.02920    2.84930    2.21670   13.40480
 6500.00000   42.12180    4.42150    4.66820    4.55440  -15.02270    2.03350   73.75640    0.06990   -0.02520    4.46020    2.58770   10.87020
 6550.00000   40.91380    5.49940    5.70260    5.36770  -16.82590    2.27180   71.71200    0.06780   -0.01440    4.33870    2.59270   10.75500
