~Version ---------------------------------------------------
VERS. 2.0 : CWLS log ASCII Standard -VERSION 2.0
WRAP.  NO : ONE LINE PER DEPTH STEP
~Well ------------------------------------------------------
STRT.F                       300.0 : START DEPTH
STOP.F                     13400.0 : STOP DEPTH
STEP.F                    50.00000 : STEP LENGTH
NULL.                      -999.25 : NULL VALUE
COMP. HOWELL DRILLING INCORPORATED : COMPANY
WELL.       WOYTEK EDWARDS UNIT #1 : WELL
FLD .                      WILDCAT : FIELD
LOC .                              : LOCATION
CNTY.                       LAVACA : COUNTY
STAT.                        TEXAS : STATE
CTRY.     UNITED STATES OF AMERICA : COUNTRY
SRVC.                 Schlumberger : SERVICE COMPANY
DATE.                  23-Jun-1979 : LOGDATE
API .               42285313800000 : API NUMBER
UWI .               42285313800000 : UNIQUE WELL ID
SLAT.WGS84           29.4772205613 : SURFACE LATITUDE
SLON.WGS84          -96.9257390391 : SURFACE LONGITUDE
~Curve Information -----------------------------------------
DEPT.F                 : 
SPR .MV   06 010 01 00 : SPONTANEOUS POTENTIAL FROM RESISTIVITY LOG
SFL .OHMM 07 220 01 00 : SPHERICALLY FOCUSED LOG
ILD .OHMM 06 120 46 00 : INDUCTION DEEP RESISTIVITY
CILD.MMHO 07 110 46 00 : INDUCTION DEEP CONDUCTIVITY
CALR.IN   07 280 01 00 : CALIPER FROM RESISTIVITY LOG
ILM .OHMM 07 120 44 00 : INDUCTION MEDIUM RESISTIVITY
DT  .US/F 60 500 00 00 : DELTA-T (INTERVAL TRANSIT TIME)
GRD .GAPI 45 310 01 00 : GAMMA RAY FROM DENSITY LOG
CALD.IN   45 280 60 00 : CALIPER FROM DENSITY LOG
CORR.G/C3 45 356 01 00 : DENSITY CORRECTION
RHOB.G/C3 45 350 01 00 : BULK DENSITY
NPHI.DEC  42 890 03 00 : NEUTRON POROSITY
DPHI.DEC  45 890 12 00 : DENSITY POROSITY
~Params ----------------------------------------------------
PD  .                     GL : PERMANENT DATUM
EPD .FT                304.8 : ELEVATION PERMANENT DATUM
LMF .                     KB : LOG MEASURED FROM
DAPD.FT                   18 : FEET ABOVE PERMANENT DATUM
DMF .                     KB : DRILLING MEASURED FROM
EKB .FT                322.8 : KELLY BUSHING
EDF .FT                321.8 : DRILLING FLOOR
EGL .FT                304.8 : GROUND LEVEL
DATE.               06/23/79 : RUN DATE
RUN .                      3 : RUN NUMBER
DD  .FT                13474 : DEPTH DRILLER
BLI .FT                13442 : BOTTOM LOG INTERVAL
TLI .FT                 9552 : TOP LOG INTERVAL
CS  .IN                7.625 : CASING SIZE
CBD .FT                 9555 : CASING BOTTOM DRILLER
CBL .FT                 9552 : CASING BOTTOM LOGGER
BS  .IN                6.625 : BIT SIZE
BSD .FT                13474 : BIT SIZE AT DEPTH
DFT .         LIGNOSULFONATE : DRILLING FLUID TYPE
DFD .                   12.2 : DRILLING FLUID DENSITY
DFV .                     43 : DRILLING FLUID VISCOSITY
DFPH.                     10 : DRILLING FLUID PH
DFL .                    6.3 : DRILLING FLUID LOSS
MSS .               CIRC PIT : MUD SAMPLE SOURCE
RMS .OHMM               1.31 : RESISTIVITY MUD SAMPLE
MST .DEGF                 75 : MUD SAMPLE TEMPERATURE
RMF .OHMM                1.2 : RESISTIVITY MUD FILTRATE SAMPLE
MFST.DEGF                 75 : MUD FILTRATE SAMPLE TEMPERATURE
RMC .OHMM               1.97 : RESISTIVITY MUD CAKE
MCST.DEGF                 75 : MUD CAKE SAMPLE TEMPERATURE
MFSS.                      M : MUD FILTRATE SAMPLE SOURCE
MCSS.                      C : MUD CAKE SAMPLE SOURCE
TCS .HRS                1000 : TIME CIRCULATED STOPPED
TLAB.HRS                 400 : TIME LOGGER AT BOTTOM
LUN .                   8005 : LOGGING UNIT NUMBER
LUL .               VICTORIA : LOGGING UNIT LOCATION
ENGI.              BENAVIDES : RECORDING ENGINEER
WITN.           HOWELL BROWN : WITNESSED BY
CLNT.                A2DTECH : CLIENT CODE
ORIG.            1" 5" PRINT : ORIGIN OF DATA
UWI .         42285313800000 : UNIQUE WELL ID
DICO. A2D Technologies, Inc. : DIGITIZING COMPANY
~Other -----------------------------------------------------
~ASCII -----------------------------------------------------
# ...
 10700.00000   -9.47530    2.76260    2.76800    -999.25    -999.25    -999.25    -999.25   98.72560    9.06220    0.01050    2.49250    0.26530    0.11260
 10750.00000  -10.67660    2.95890    2.74900    -999.25    -999.25    -999.25    -999.25  100.99930    9.47600    0.03750    2.58440    0.24350    0.06550
 10800.00000  -10.67470    2.47970    2.50340    -999.25    -999.25    -999.25    -999.25  100.99030    9.82040    0.07960    2.56860    0.23410    0.06500
 10850.00000  -14.57270    2.01370    1.93570    -999.25    -999.25    -999.25    -999.25  100.75070   11.35650    0.05640    2.46980    0.28970    0.11840
 10900.00000  -20.32020    1.87980    1.84470    -999.25    -999.25    -999.25    -999.25   93.77920   12.06580    0.00370    2.45660    0.32060    0.13180
 10950.00000  -18.77060    1.85430    1.93560    -999.25    -999.25    -999.25    -999.25  102.10120   11.25760    0.09680    2.51010    0.28610    0.10360
 11000.00000  -18.34300    2.08410    2.11680    -999.25    -999.25    -999.25    -999.25  102.55060   10.59880    0.08780    2.48160    0.26680    0.10760
 11050.00000  -19.04040    2.06980    2.05230    -999.25    -999.25    -999.25    -999.25   91.75190   11.09280    0.09760    2.52960    0.27980    0.08920
 11100.00000  -17.57240    1.65460    1.68690    -999.25    -999.25    -999.25    -999.25   91.30430   12.08080    0.05860    2.47860    0.28520    0.11880
 11150.00000  -15.17420    2.59690    2.41220    -999.25    -999.25    -999.25    -999.25   84.10880   10.05990    0.12840    2.52740    0.22910    0.09330
 11200.00000  -15.17310    3.66160    3.49710    -999.25    -999.25    -999.25    -999.25   88.38300    8.94570    0.03230    2.59190    0.20450    0.05470
 11250.00000  -16.67230    1.97280    2.25180    -999.25    -999.25    -999.25    -999.25   76.68570   11.06290    0.05710    2.39830    0.28120    0.16140
 11300.00000  -16.12120    2.29470    2.10230    -999.25    -999.25    -999.25    -999.25   90.85350   11.06300    0.07730    2.34360    0.27490    0.20540
 11350.00000  -14.57390    2.18440    2.10220    -999.25    -999.25    -999.25    -999.25   88.73860    9.91020    0.13660    2.54090    0.26280    0.08610
 11400.00000  -14.02910    2.89050    2.67970    -999.25    -999.25    -999.25    -999.25   89.37340   10.22460    0.05270    2.56910    0.28870    0.06780
 11450.00000  -14.32910    2.04890    2.02550    -999.25    -999.25    -999.25    -999.25   79.26870   12.15570    0.05740    2.43190    0.31510    0.15470
 11500.00000  -13.10080    2.41670    2.42040    -999.25    -999.25    -999.25    -999.25   83.75750   10.05990    0.08210    2.51130    0.29140    0.10460
 11550.00000  -13.13430    2.67230    3.31710    -999.25    -999.25    -999.25    -999.25   90.94480   12.36380    0.06020    2.31920    0.23380    0.21320
 11600.00000  -12.25300    2.41680    2.50120    -999.25    -999.25    -999.25    -999.25   84.31840   11.64670    0.02130    2.18170    0.24480    0.28630
 11650.00000  -11.34470    2.16720    2.16060    -999.25    -999.25    -999.25    -999.25   86.22750   11.25030    0.04740    2.30630    0.27760    0.22120
 11700.00000  -14.62690    2.75450    2.81540    -999.25    -999.25    -999.25    -999.25   97.00670   10.44920    0.01430    2.42940    0.26100    0.15190
 11750.00000  -14.33030    2.10580    2.12040    -999.25    -999.25    -999.25    -999.25   90.81160   12.26050    0.04780    2.34760    0.27390    0.18270
 11800.00000  -12.83750    3.31150    3.60270    -999.25    -999.25    -999.25    -999.25   87.57750    9.28140    0.05590    2.54580    0.20990    0.07540
 11850.00000  -12.54120    2.89040    2.95080    -999.25    -999.25    -999.25    -999.25   93.19630    9.35630    0.03190    2.56070    0.22790    0.06870
 11900.00000  -11.64170    2.83140    2.66130    -999.25    -999.25    -999.25    -999.25   93.74460    9.17360    0.00510    2.52890    0.24260    0.09270
 11950.00000  -12.19890    2.47760    2.39650    -999.25    -999.25    -999.25    -999.25   83.75640   10.83830    0.09710    2.45380    0.25430    0.14500
 12000.00000  -11.04650    2.51860    2.52280    -999.25    -999.25    -999.25    -999.25   87.35080   10.80840    0.09370    2.43240    0.26030    0.14850
 12050.00000  -10.44900    2.20620    2.19750    -999.25    -999.25    -999.25    -999.25   88.69830   11.66170    0.05730    2.38440    0.28020    0.17680
 12100.00000  -11.04600    3.94060    3.22700    -999.25    -999.25    -999.25    -999.25  136.97600    8.93540    0.02860    2.42740    0.26680    0.14760
 12150.00000  -10.14920    2.22520    2.36730    -999.25    -999.25    -999.25    -999.25   83.30840   11.16770    0.05270    2.34490    0.25920    0.19690
 12200.00000  -10.15020    2.90820    2.57130    -999.25    -999.25    -999.25    -999.25  106.33640   10.46410    0.02940    2.20490    0.28740    0.26100
 12250.00000   -8.95520    2.41670    2.13510    -999.25    -999.25    -999.25    -999.25  104.17630   11.64480    0.05050    2.27460    0.26280    0.23760
 12300.00000   -8.65670    3.24930    3.34000    -999.25    -999.25    -999.25    -999.25   99.02770   11.52700    0.04150    2.18240    0.23540    0.29100
 12350.00000  -10.44920    3.20480    2.95070    -999.25    -999.25    -999.25    -999.25   98.38540   12.56000    0.02480    2.26950    0.30000    0.24710
 12400.00000   -7.16610    2.64310    2.60690    -999.25    -999.25    -999.25    -999.25  108.23350   10.06510    0.07060    2.42810    0.27400    0.16200
 12450.00000   -6.56720    3.09630    3.16090    -999.25    -999.25    -999.25    -999.25   87.77210    9.41620    0.00490    2.56530    0.20670    0.07270
 12500.00000   -6.57150   20.41690    9.64110    -999.25    -999.25    -999.25    -999.25   46.25750    8.95160    0.00080    2.57830    0.12960    0.05790
 12550.00000   -5.97400    4.45980    3.91280    -999.25    -999.25    -999.25    -999.25   83.98200    8.75530    0.05650    2.49920    0.18630    0.10860
 12600.00000   -5.97010    5.08290    4.81030    -999.25    -999.25    -999.25    -999.25   80.46250    9.58330    0.02640    2.57130    0.17000    0.05650
 12650.00000   -5.67600    7.32030    6.37880    -999.25    -999.25    -999.25    -999.25   68.93710    9.73050    0.02420    2.63330    0.09690    0.02850
 12700.00000   -4.77610    5.95470    5.29710    -999.25    -999.25    -999.25    -999.25   68.24770    9.79040    0.01050    2.58110    0.11680    0.05610
 12750.00000   -4.17910    4.64760    4.16290    -999.25    -999.25    -999.25    -999.25   82.12980    9.86530   -0.00230    2.58660    0.14200    0.04800
 12800.00000   -3.28360    6.88080    5.17170    -999.25    -999.25    -999.25    -999.25   72.75270    9.36330    0.03310    2.61340    0.13360    0.04130
 12850.00000   -2.68830    3.94620    3.52720    -999.25    -999.25    -999.25    -999.25   96.55690    9.76050    0.06830    2.56900    0.18610    0.06690
 12900.00000   -1.43800    3.50480    2.96690    -999.25    -999.25    -999.25    -999.25   92.45240   10.34430    0.07530    2.56080    0.19010    0.07270
 12950.00000   -0.88330    3.45600    3.05410    -999.25    -999.25    -999.25    -999.25  100.98780    9.92520    0.02860    2.54800    0.49550    0.28780
 13000.00000    1.78930    3.13930    2.85100    -999.25    -999.25    -999.25    -999.25   99.25090    9.56220    0.04700    2.36640    0.49260    0.45120
 13050.00000    0.29780   10.83820    9.12450    -999.25    -999.25    -999.25    -999.25   56.31890    7.75450   -0.03780    2.23410    0.04580    0.29980
 13100.00000   -0.89920   38.57720   21.13080    -999.25    -999.25    -999.25    -999.25   41.54190    7.84430   -0.00080    2.37980    0.04590    0.19230
 13150.00000   -3.88060  164.36480   37.25000    -999.25    -999.25    -999.25    -999.25   28.29340    8.05390    0.01210    2.65470    0.02840    0.03670
 13200.00000   -6.26960   54.26410   39.53610    -999.25    -999.25    -999.25    -999.25   62.64970    8.15860    0.02330    2.58930    0.05550    0.02330
 13250.00000  -15.22390  177.28390   53.88910    -999.25    -999.25    -999.25    -999.25   45.13510    8.03900    0.02030    2.68170    0.01820    0.01820
