~Version ---------------------------------------------------
VERS. 2.0 : CWLS log ASCII Standard -VERSION 2.0
WRAP. YES : MULTIPLE LINES PER DEPTH STEP
~Well ------------------------------------------------------
STRT.FT                   3750.0 : START DEPTH
STOP.FT                   8050.0 : STOP DEPTH
STEP.FT                 50.00000 : STEP LENGTH
NULL.                    -999.25 : NULL VALUE
COMP. CHAMPLIN PETROLEUM COMPANY : COMPANY
WELL.           ALFONSO BERAN #1 : WELL
FLD .                   GIDDINGS : FIELD
LOC .                            : LOCATION
CNTY.                   BURLESON : COUNTY
STAT.                      TEXAS : STATE
CTRY.   UNITED STATES OF AMERICA : COUNTRY
SRVC.              Dresser Atlas : SERVICE COMPANY
DATE.                19-Mar-1980 : LOGDATE
API .             42051306370000 : API NUMBER
UWI .             42051306370000 : UNIQUE WELL ID
SLAT.WGS84             30.423017 : SURFACE LATITUDE
SLON.WGS84             -96.73979 : SURFACE LONGITUDE
~Curve Information -----------------------------------------
DEPT  .FT    : DEPTH FEET
ACED  .US/F  : DELTA TIME (ACOUSTIC) FROM SONIC LOG
CALDED.IN    : CALIPER FROM DENSITY LOG[DSH TO GRRED]
CALWS .IN    : CALIPER [CALDED]
CONDWS.MMHO  : CONDUCTIVITY [1000/DRESWS]
CORRED.G/C3  : DENSITY CORRECTION FROM DENSITY LOG[DSH TO GRRED]
DCORWS.G/C3  : DENSITY CORRECTION [CORRED]
DENWS .G/C3  : BULK DENSITY [M=2.71 F=1.0] [RHOBED]
DPHIED.V/V   : DENSITY POROSITY [M=2.71 F=1.0]FROM DENSILOG-SONIC
DPOWS .V/V   : DENSITY POROSITY [M=2.71 F=1.0] [DPHIED]
DRESWS.OHMM  : DEEP RESISTIVITY [ILDED]
DTWS  .US/F  : DELTA TIME [ACED]
GRD1ED.GAPI  : GAMMA RAY FROM DENSILOG-SONIC [DSH TO GRRED]
GRDED .GAPI  : GAMMA RAY FROM DENSITY LOG[DSH TO GRRED]
GRNED .GAPI  : GAMMA RAY FROM GR-NEUTRON LOG[DSH TO GRRED]
GRRED .GAPI  : GAMMA RAY FROM RESISTIVITY LOG
GRWS  .GAPI  : GAMMA RAY [GRRED SPLICED TO GRDED AT 5460'/5534']
ILDED .OHMM  : INDUCTION LOG DEEP RESISTIVITY
ILMED .OHMM  : INDUCTION LOG MEDIUM RESISTIVITY
MRESWS.OHMM  : MEDIUM RESISTIVITY [ILMED]
NEUTED.NAPI  : NEUTRON FROM GR-NEUTRON LOG[DSH TO GRRED]
NEUTWS.NAPI  : NEUTRON [NEUTED]
RHOBED.G/C3  : BULK DENSITY FROM DENSITY LOG[DSH TO GRRED]
SFLED .OHMM  : SPHERICALLY FOCUSED LOG RESISTIVITY
SPHIED.V/V   : SONIC POROSITY FROM DENSILOG-SONIC LOG[DSH TO GRRED]
SPOWS .V/V   : SONIC POROSITY [SPHIED]
SPRED .MV    : SPONTANEOUS POTENTIAL FROM RESISTIVITY LOG
SPWS  .MV    : SPONTANEOUS POTENTIAL [BASELINE 0 MV] [SPRED WAS REVERSED]
SRESWS.OHMM  : SHALLOW RESISTIVITY [SFLED]
~Params ----------------------------------------------------
PD  .                     GL : PERMANENT DATUM
EPD .FT                  383 : ELEVATION PERMANENT DATUM
LMF .                     KB : LOG MEASURED FROM
DAPD.FT                 13.6 : FEET ABOVE PERMANENT DATUM
DMF .                     KB : DRILLING MEASURED FROM
EKB .FT                  397 : KELLY BUSHING
EDF .FT                  396 : DRILLING FLOOR
EGL .FT                  383 : GROUND LEVEL
DATE.               03/19/80 : RUN DATE
RUN .                      1 : RUN NUMBER
DD  .FT                 8123 : DEPTH DRILLER
DL  .FT                 8094 : DEPTH LOGGER
BLI .FT                 8092 : BOTTOM LOG INTERVAL
TLI .FT                 3764 : TOP LOG INTERVAL
CS  .IN                9.625 : CASING SIZE
CBD .FT                 3755 : CASING BOTTOM DRILLER
CBL .FT                 3764 : CASING BOTTOM LOGGER
BS  .IN                 8.75 : BIT SIZE
BSD .FT                 8123 : BIT SIZE AT DEPTH
DFT .                SUPER X : DRILLING FLUID TYPE
DFD .                    9.2 : DRILLING FLUID DENSITY
DFV .                     42 : DRILLING FLUID VISCOSITY
DFPH.                      7 : DRILLING FLUID PH
DFL .                    8.2 : DRILLING FLUID LOSS
MSS .               FLOWLINE : MUD SAMPLE SOURCE
RMS .OHMM               0.15 : RESISTIVITY MUD SAMPLE
MST .DEGF                 70 : MUD SAMPLE TEMPERATURE
RMF .OHMM               0.11 : RESISTIVITY MUD FILTRATE SAMPLE
MFST.DEGF                 70 : MUD FILTRATE SAMPLE TEMPERATURE
RMC .OHMM               0.19 : RESISTIVITY MUD CAKE
MCST.DEGF                 70 : MUD CAKE SAMPLE TEMPERATURE
MFSS.                   MEAS : MUD FILTRATE SAMPLE SOURCE
MCSS.                   CALC : MUD CAKE SAMPLE SOURCE
RMB .OHMM               0.05 : RESISTIVITY MUD AT BHT
TCS .HRS                  14 : TIME CIRCULATED STOPPED
LUN .                   6139 : LOGGING UNIT NUMBER
LUL .                  BRYAN : LOGGING UNIT LOCATION
ENGI.                 POWELL : RECORDING ENGINEER
WITN.              WES DAVIS : WITNESSED BY
CLNT.                A2DTECH : CLIENT CODE
ORIG.          1" 2.5" PRINT : ORIGIN OF DATA
UWI .         42051306370000 : UNIQUE WELL ID
DICO. A2D Technologies, Inc. : DIGITIZING COMPANY
~Other -----------------------------------------------------
~ASCII -----------------------------------------------------
# ...
 6250.00000  100.20640   13.77330   13.77330  715.56350    0.13020    0.13020    2.44330    0.15310    0.15310    1.39750  100.20640   87.03910   90.14030    -999.25   71.24630   71.24630    1.39750    1.26190    1.26190    -999.25    -999.25    2.44330    1.38630    0.41420    0.41420  -94.32840   -1.93320    1.38630
 6300.00000  102.13020   13.78920   13.78920  686.57740    0.16870    0.16870    2.25270    0.26400    0.26400    1.45650  102.13020   84.60350   90.79480    -999.25   75.26670   75.26670    1.45650    1.07000    1.07000    -999.25    -999.25    2.25270    1.36730    0.42180    0.42180  -92.53730   -3.30860    1.36730
 6350.00000   97.98820   12.71930   12.71930  663.34990    0.17020    0.17020    2.39480    0.18710    0.18710    1.50750   97.98820   83.93550   88.15180    -999.25   80.48050   80.48050    1.50750    1.23620    1.23620    -999.25    -999.25    2.39480    1.60300    0.38610    0.38610  -91.39470   -3.98510    1.60300
 6400.00000   90.59190   10.44860   10.44860  354.22050    0.12730    0.12730    2.41070    0.17100    0.17100    2.82310   90.59190   72.58990   76.08560    -999.25   80.18020   80.18020    2.82310    3.05580    3.05580    -999.25    -999.25    2.41070    2.15810    0.33480    0.33480  -90.20770   -4.56980    2.15810
 6450.00000   81.27220   10.10430   10.10430  335.17680    0.01650    0.01650    2.56620    0.08300    0.08300    2.98350   81.27220   49.15200   48.48960    -999.25   44.14410   44.14410    2.98350    3.21370    3.21370    -999.25    -999.25    2.56620    2.95290    0.24490    0.24490  -89.02080   -5.15440    2.95290
 6500.00000   71.36090    9.79900    9.79900  244.11680    0.03850    0.03850    2.60150    0.05470    0.05470    4.09640   71.36090   23.22320   26.70620    -999.25   31.53210   31.53210    4.09640    4.21140    4.21140    -999.25    -999.25    2.60150    3.98670    0.20540    0.20540  -89.02080   -4.55210    3.98670
 6550.00000   79.05230   10.04280   10.04280  265.15350    0.01480    0.01480    2.54030    0.09940    0.09940    3.77140   79.05230   37.94640   41.04420    -999.25   49.02400   49.02400    3.77140    2.65110    2.65110    -999.25    -999.25    2.54030    4.24970    0.27320    0.27320  -90.80210   -2.16850    4.24970
 6600.00000   92.66320   13.38320   13.38320  576.53500    0.13420    0.13420    2.43890    0.15670    0.15670    1.73450   92.66320   68.60710   74.43870   60.22810   75.67570   75.67570    1.73450    1.25620    1.25620  227.51200  227.51200    2.43890    3.70060    0.35740    0.35740  -89.61420   -2.75410    3.70060
 6650.00000   88.52120   11.64670   11.64670  479.54730    0.07100    0.07100    2.46800    0.14910    0.14910    2.08530   88.52120   81.74390   88.63020   60.92860   83.55870   83.55870    2.08530    1.73650    1.73650  282.13930  282.13930    2.46800    3.96580    0.32180    0.32180  -88.42730   -3.33870    3.96580
 6700.00000   85.15350   11.22750   11.22750  401.02660    0.06210    0.06210    2.54180    0.10390    0.10390    2.49360   85.15350   80.35710   84.61940   62.00000   81.68170   81.68170    2.49360    2.52650    2.52650  319.55810  319.55810    2.54180    2.51270    0.29550    0.29550  -88.42730   -2.73640    2.51270
 6750.00000   80.97660   11.31740   11.31740  315.01020    0.03100    0.03100    2.52990    0.11060    0.11060    3.17450   80.97660   65.39340   71.48000   52.71430   78.30330   78.30330    3.17450    3.16280    3.16280  351.38410  351.38410    2.52990    2.78720    0.27870    0.27870  -88.12910   -3.14170    2.78720
 6800.00000   87.63290   12.57490   12.57490  520.04780    0.09780    0.09780    2.44920    0.15880    0.15880    1.92290   87.63290   86.61610   89.97580   59.50000   86.03660   86.03660    1.92290    1.35170    1.35170  227.42610  227.42610    2.44920    4.15310    0.36100    0.36100  -88.43060   -3.17130    4.15310
 6850.00000   97.34680   12.63470   12.63470  799.04120    0.12300    0.12300    2.45520    0.15090    0.15090    1.25150   97.34680   93.07120   96.58750   67.36690   87.83750   87.83750    1.25150    1.21090    1.21090  208.30150  208.30150    2.45520    2.94580    0.37850    0.37850  -88.13030   -3.80270    2.94580
 6900.00000   98.57990   12.12420   12.12420  766.63600    0.08860    0.08860    2.50440    0.12800    0.12800    1.30440   98.57990  101.45800  101.46080   69.13600   93.69370   93.69370    1.30440    1.59410    1.59410  224.45770  224.45770    2.50440    2.22890    0.33830    0.33830  -89.61570   -2.64840    2.22890
 6950.00000   94.43790   11.73500   11.73500  773.75430    0.08320    0.08320    2.53110    0.10880    0.10880    1.29240   94.43790   87.70430   88.15150   65.04770   90.76560   90.76560    1.29240    1.40850    1.40850  241.14810  241.14810    2.53110    2.37750    0.36820    0.36820  -91.69000   -0.90530    2.37750
 7000.00000   91.47930   10.38920   10.38920  579.20650    0.04610    0.04610    2.56560    0.09050    0.09050    1.72650   91.47930   91.48440   91.65430   64.89190   97.07240   97.07240    1.72650    2.04160    2.04160  264.96340  264.96340    2.56560    2.18670    0.31960    0.31960  -89.02080   -3.90560    2.18670
 7050.00000   90.09870   10.95810   10.95810  560.85250    0.05180    0.05180    2.51850    0.11240    0.11240    1.78300   90.09870   94.17300   96.03110   63.17570   95.27020   95.27020    1.78300    1.88010    1.88010  268.92690  268.92690    2.51850    2.76270    0.33740    0.33740  -90.20770   -3.04980    2.76270
 7100.00000   90.39320   11.34810   11.34810  550.66080    0.02660    0.02660    2.54330    0.10130    0.10130    1.81600   90.39320   90.84570   92.34800   59.15010   89.41470   89.41470    1.81600    1.77940    1.77940  258.69940  258.69940    2.54330    2.37500    0.33300    0.33300  -89.01980   -3.77480    2.37500
 7150.00000   91.18340   10.07560   10.07560  577.90110    0.01300    0.01300    2.55360    0.09370    0.09370    1.73040   91.18340   75.95650   75.17770   63.78440   79.50450   79.50450    1.73040    2.00920    2.00920  300.40710  300.40710    2.55360    1.98630    0.31700    0.31700  -89.02080   -3.25100    1.98630
 7200.00000   65.24650    9.85030    9.85030  162.15600    0.04140    0.04140    2.55520    0.10020    0.10020    6.16690   65.24650   23.17380   24.86880   31.40920   23.98710   23.98710    6.16690    3.53830    3.53830  505.25850  505.25850    2.55520    5.41830    0.12670    0.12670  -86.05200   -5.69710    5.41830
 7250.00000   67.81070    9.94010    9.94010  147.91590    0.02070    0.02070    2.62570    0.05450    0.05450    6.76060   67.81070   20.07520   18.17530   28.82300   24.77480   24.77480    6.76060    6.30290    6.30290  472.26190  472.26190    2.62570    4.43910    0.11910    0.11910  -87.53640   -3.69000    4.43910
 7300.00000   67.81070    9.68560    9.68560  493.14530    0.00600    0.00600    2.56260    0.08620    0.08620    2.02780   67.81070   44.12900   45.42140   45.92860   40.84060   40.84060    2.02780    2.50920    2.50920  386.82520  386.82520    2.56260    6.32090    0.15280    0.15280  -89.02080   -1.68290    6.32090
 7350.00000   61.99240    9.76050    9.76050  109.72010    0.01920    0.01920    2.64090    0.04580    0.04580    9.11410   61.99240    9.19260   10.25530   31.10690   20.72110   20.72110    9.11410    7.23170    7.23170  451.70760  451.70760    2.64090    9.45580    0.11290    0.11290  -87.24030   -2.94060    9.45580
 7400.00000   71.65680    9.70060    9.70060  198.50720    0.00290    0.00290    2.61040    0.06220    0.06220    5.03760   71.65680   31.52850   27.03850   36.64290   34.53430   34.53430    5.03760    3.68720    3.68720  451.20490  451.20490    2.61040    7.33180    0.13630    0.13630  -87.83000   -1.82820    7.33180
 7450.00000   67.21890    9.40880    9.40880  198.50720   -0.00460   -0.00460    2.59640    0.06630    0.06630    5.03760   67.21890   13.08650   15.84170   29.32140   22.07210   22.07210    5.03760    2.61490    2.61490  491.82640  491.82640    2.59640    5.77740    0.15670    0.15670  -88.42350   -0.71200    5.77740
