~Version ---------------------------------------------------
VERS. 2.0 : CWLS log ASCII Standard -VERSION 2.0
WRAP.  NO : ONE LINE PER DEPTH STEP
~Well ------------------------------------------------------
STRT.FT                            300.0 : START DEPTH
STOP.FT                          22000.0 : STOP DEPTH
STEP.FT                         50.00000 : STEP LENGTH
NULL.                            -999.25 : NULL VALUE
COMP. PAN AMERICAN PETROLEUM CORPORATION : COMPANY
WELL.                  A. M. FOERSTER #1 : WELL
FLD .                            WILDCAT : FIELD
LOC .                                    : LOCATION
CNTY.                           LA SALLE : COUNTY
STAT.                              TEXAS : STATE
CTRY.           UNITED STATES OF AMERICA : COUNTRY
SRVC.                       Schlumberger : SERVICE COMPANY
DATE.                        20-Aug-1964 : LOGDATE
API .                     42283002040000 : API NUMBER
UWI .                     42283002040000 : UNIQUE WELL ID
SLAT.WGS84                 28.3371650608 : SURFACE LATITUDE
SLON.WGS84                -98.9649233845 : SURFACE LONGITUDE
~Curve Information -----------------------------------------
DEPT  .FT    : DEPTH
CONDWS.MMHO  : CONDUCTIVITY [CILDED] FROM IEL
ILDED .OHMM  : INDUCTION LOG DEEP RESISTIVITY FROM IEL
ASNED .OHMM  : SHORT NORMAL RESISTIVITY 16 INCH FROM IEL
CILDED.MMHO  : CONDUCTIVITY FROM IEL
DRESWS.OHMM  : DEEP RESISTIVITY [ILDED] FROM IEL [IF ILDED < 1 THEN 1000/CILDED]
DTWS  .US/F  : DELTA TIME FROM SONIC LOG
NEUTWS.CU    : NEUTRON FROM GAMMA RAY NEUTRON LOG
GRNED .GAPI  : GAMMA RAY FROM NEUTRON LOG
NEUTED.NAPI  : NEUTRON  FROM GAMMA RAY NEUTRON LOG
SPED  .MV    : SPONTANEOUS POTENTIAL [MECHANICAL SHIFTS REMOVED]
SPWS  .MV    : SPONTANEOUS POTENTIAL [BASELINE 0 MV]
CALSED.IN    : CALIPER FROM SONIC LOG
DTED  .US/F  : DELTA TIME FROM SONIC LOG
SRESWS.OHMM  : SHALLOW RESISTIVITY [ASNED] FROM IEL
GRWS  .GAPI  : GAMMA RAY [GRNED] FROM GAMMA RAY NEUTRON LOG
CALWS .IN    : CALIPER [CALSED] FROM SONIC LOG
SPSED .MV    : SPONTANEOUS POTENTIAL FROM SONIC LOG [MECHANICAL SHIFTS REMOVED]
~Params ----------------------------------------------------
EKB .F                 473.5 : KELLY BUSHING
EGL .F                   445 : ELEVATION GROUND LEVEL
EDF .F                   471 : ELEVATION DERRICK FLOOR
EPD .F                   445 : ELEVATION PERMANENT DATUM
TD  .F               21995.0 : TOTAL DEPTH
DATE.            20-AUG-1964 : DATE LOGGED
CLNT.                A2DTECH : CLIENT CODE
SL  .   1320' FSL & 660' FWL : SURFACE LOCATION
PD  .                     GL : PERMANENT DATUM
LMF .                     KB : LOG MEASURED FROM
DMF .                     KB : DRILLING MEASURED FROM
DAPD.F                  28.5 : FEET ABOVE PERMANENT DATUM
DD  .F                 21995 : DEPTH DRILLER
DL  .F                 21992 : DEPTH LOGGER
BLI .F                 21991 : BOTTOM LOG INTERVAL
TLI .F                 20005 : TOP LOG INTERVAL
CS1 .IN                9.625 : CASING SIZE
CBD1.        9.625" @ 15993' : CASING DRILLER 1
CBL1.F                 15993 : CASING LOGGER 1
BS1 .IN                  8.5 : BIT SIZE
BSD1.F                 21995 : DEPTH DRILLED WITH BIT1
DFT .              XP-20-O.E : TYPE FLUID IN HOLE
DFD .                   18.4 : DENSITY
DFV .                     54 : VISCOSITY
DFPH.                    8.9 : PH
DFL .                      4 : FLUID LOSS
MSS .                MUD/PIT : SOURCE OF SAMPLE
RMS .OHMM               0.15 : RM
RMF .OHMM              0.089 : RMF
RMC .OHMM               0.32 : RMC
MFSS.                   MEAS : SOURCE RMF.
MCSS.                   MEAS : SOURCE RMC.
RMB .OHMM              0.046 : RM. AT BHT
BHT .F                   404 : BHT.
TCS .HRS                  10 : TIME CIRC. STOPPED
LUN .                   4526 : LOGGING UNIT NUMBER
LUL .                    KEN : LOGGING UNIT LOCATION
ENGI.                  HARSH : RECORDED BY
WITN.          FREEMAN/WALSH : WITNESSED BY
ORIG.          1" & 5" PRINT : ORIGIN OF DATA
UWI .         42283002040000 : UNIQUE WELL ID
DICO. A2D TECHNOLOGIES, INC. : DIGITIZING COMPANY
~Other -----------------------------------------------------
~ASCII -----------------------------------------------------
# ...
 16550.00000  446.01100    2.97800    4.23200  446.01100    2.97800   60.39800 1394.74300  793.04900 1394.74300  -68.95000  -10.35470   11.11700   60.39800    4.23200  793.04900   11.11700  -39.00500
 16600.00000  199.60300    6.54100    7.40500  199.60300    6.54100   64.75100 1656.05300  796.13400 1656.05300  -66.93200   -8.75680    9.96700   64.75100    7.40500  796.13400    9.96700  -41.48900
 16650.00000   30.84100   33.09800   38.66100   30.84100   33.09800   56.35600 2013.97600  741.24100 2013.97600  -76.53900  -18.58830    9.74100   56.35600   38.66100  741.24100    9.74100  -59.59500
 16700.00000  125.72000    8.82600   15.85600  125.72000    8.82600   56.44100 2009.58300  550.29900 2009.58300  -77.44600  -19.71980    9.46200   56.44100   15.85600  550.29900    9.46200  -53.53000
 16750.00000  357.19600    3.36000    5.59700  357.19600    3.36000   60.86400 2011.96800  563.53300 2011.96800  -73.63100  -16.12930    9.63400   60.86400    5.59700  563.53300    9.63400  -43.94800
 16800.00000   54.52200   20.51500   20.22900   54.52200   20.51500   58.09400 2253.38990  555.69700 2253.38990  -74.52600  -17.24880    9.60800   58.09400   20.22900  555.69700    9.60800  -43.68300
 16850.00000    9.68300  696.12700   14.36600    9.68300  696.12700   58.01000 1844.17600  532.45800 1844.17600  -99.99900  -42.94630    9.65300   58.01000   14.36600  532.45800    9.65300  -56.15200
 16900.00000  193.36800    5.31700    7.36900  193.36800    5.31700   71.08400 1405.10400  536.00400 1405.10400  -57.63500   -0.80680   10.02400   71.08400    7.36900  536.00400   10.02400  -26.98000
 16950.00000  244.54500    3.45000    5.93400  244.54500    3.45000   65.10900 1451.71200  546.92900 1451.71200  -55.29100   -3.21980   10.38400   65.10900    5.93400  546.92900   10.38400  -27.72900
 17000.00000  172.29400    5.65000    8.94100  172.29400    5.65000   57.74700 1634.73000  501.48400 1634.73000  -56.75200   -1.30070    9.97000   57.74700    8.94100  501.48400    9.97000  -25.31000
 17050.00000  305.06500    2.06200    6.12300  305.06500    2.06200   72.74400 1752.73400  514.14400 1752.73400  -67.03800  -12.15650   10.25000   72.74400    6.12300  514.14400   10.25000  -40.45500
 17100.00000  484.38300    0.92300    5.82800  484.38300    2.06450   84.03600 2040.43600  457.45800 2040.43600 -124.20200  -69.89020    9.56100   84.03600    5.82800  457.45800    9.56100  -78.99000
 17150.00000  459.28500    1.09700    4.05400  459.28500    1.09700   76.42300 1333.84300  486.53000 1333.84300  -79.89000  -26.14790   12.08300   76.42300    4.05400  486.53000   12.08300  -46.34600
 17200.00000  127.47000    7.20500   10.10500  127.47000    7.20500   60.89500 1766.92200  434.06700 1766.92200  -86.56900  -33.39660    9.29400   60.89500   10.10500  434.06700    9.29400  -40.87200
 17250.00000   29.94400   32.14400   33.11100   29.94400   32.14400   53.74700 2365.29200  374.97500 2365.29200  -87.98000  -35.37730    8.94100   53.74700   33.11100  374.97500    8.94100  -49.81800
 17300.00000   58.21700   16.78200   29.41000   58.21700   16.78200   55.58500 2409.63310  320.23900 2409.63310  -94.59800  -42.56510    8.95200   55.58500   29.41000  320.23900    8.95200  -27.70800
 17350.00000  441.43300    1.28900    4.23500  441.43300    1.28900   75.80500  935.86700  339.04600  935.86700  -79.13300  -27.66980   10.12900   75.80500    4.23500  339.04600   10.12900  -35.43400
 17400.00000  239.13800    3.58500    8.63900  239.13800    3.58500   57.10800 1543.21800  295.04400 1543.21800  -84.98800  -34.09450    9.27100   57.10800    8.63900  295.04400    9.27100  -40.90700
 17450.00000  200.36300    4.42900    8.55400  200.36300    4.42900   62.17300  813.86300  335.28300  813.86300 -114.72300  -64.39920   10.97700   62.17300    8.55400  335.28300   10.97700  -48.55700
 17500.00000  175.72400    5.65700    9.48500  175.72400    5.65700   69.06100 1643.54900  266.13300 1643.54900  -91.14100  -41.38690    9.02900   69.06100    9.48500  266.13300    9.02900  -37.55000
 17550.00000  371.63500    2.41900    4.12100  371.63500    2.41900   73.35900 1023.40700  298.96100 1023.40700  -63.41600  -14.23160   10.06200   73.35900    4.12100  298.96100   10.06200  -26.35500
 17600.00000  362.00700    2.08600    4.33700  362.00700    2.08600   69.61300 1050.23600  345.59100 1050.23600  -49.78900   -1.17440   10.18600   69.61300    4.33700  345.59100   10.18600  -16.28400
 17650.00000  241.95300    3.87100    6.46400  241.95300    3.87100   66.56700 1169.16600  330.38600 1169.16600  -46.81300    1.23190    9.19800   66.56700    6.46400  330.38600    9.19800  -13.80600
 17700.00000  370.77200    2.08000    5.07300  370.77200    2.08000   69.75600 1354.37900  330.02300 1354.37900  -56.59900   -9.12380    9.21500   69.75600    5.07300  330.02300    9.21500  -27.28900
 17750.00000  403.52800    1.55200    4.02100  403.52800    1.55200   66.12700 1309.86400  284.06900 1309.86400  -53.53900   -6.63350    9.96400   66.12700    4.02100  284.06900    9.96400  -22.59600
 17800.00000  297.97700    2.66300    4.38200  297.97700    2.66300   61.19400 1163.30510  315.08100 1163.30510  -54.77000   -8.43420    9.84200   61.19400    4.38200  315.08100    9.84200  -24.08800
 17850.00000  333.68000    2.30800    3.98300  333.68000    2.30800   65.17400 1059.66600  306.96800 1059.66600  -52.05600   -6.29000    9.66200   65.17400    3.98300  306.96800    9.66200  -23.96500
 17900.00000  392.81500    2.20000    3.77100  392.81500    2.20000   71.99200 1156.73000  329.10500 1156.73000  -56.14300   -7.31680    9.28800   71.99200    3.77100  329.10500    9.28800  -25.85100
 17950.00000  400.65000    1.86500    3.55200  400.65000    1.86500   70.78300 1028.96700  263.03400 1028.96700  -60.93300   -0.57670    8.97200   70.78300    3.55200  263.03400    8.97200  -18.41900
 18000.00000  415.33900    2.81480    2.96100  415.33900    2.81480   70.02300 1078.42500  245.22800 1078.42500  -64.19300   -3.67060    8.94100   70.02300    2.96100  245.22800    8.94100  -12.05800
 18050.00000  215.96300   27.77600    5.79400  215.96300   27.77600   74.27400 1519.58500  274.58000 1519.58500  -60.73100    0.09520    9.66400   74.27400    5.79400  274.58000    9.66400  -11.89000
 18100.00000  233.86300   12.67950    5.04500  233.86300   12.67950   73.73100 1157.09900  230.77900 1157.09900  -66.42000   -3.93060    9.82300   73.73100    5.04500  230.77900    9.82300  -13.14300
 18150.00000  169.08400    9.51850    5.57300  169.08400    9.51850   52.87600 1276.75000  229.27700 1276.75000  -67.63200   -3.37710    9.13100   52.87600    5.57300  229.27700    9.13100  -15.10400
 18200.00000  301.80200    4.78930    3.83300  301.80200    4.78930   67.00300 1083.12300  245.35700 1083.12300  -68.55700   -2.53650    9.07100   67.00300    3.83300  245.35700    9.07100   -9.84700
 18250.00000  183.21700    5.55560    5.05700  183.21700    5.55560   63.70300 1352.70610  156.67000 1352.70610  -73.46100   -5.67500    9.03200   63.70300    5.05700  156.67000    9.03200  -10.95900
 18300.00000  256.97100    3.20960    3.76800  256.97100    3.20960   74.66200 1044.63700  178.30000 1044.63700  -75.64200   -6.09040    9.07900   74.66200    3.76800  178.30000    9.07900  -15.67300
 18350.00000  107.58500   10.22120    4.83600  107.58500   10.22120   95.07400  987.17400  177.00900  987.17400  -92.53500  -23.39140   10.27400   95.07400    4.83600  177.00900   10.27400  -25.70200
 18400.00000  149.97700    6.74100    4.30700  149.97700    6.74100   68.39800  806.41700  182.80000  806.41700  -73.69300   -5.46730    9.20800   68.39800    4.30700  182.80000    9.20800  -20.22200
 18450.00000  256.14800    6.00010    3.85600  256.14800    6.00010   75.36300  852.65300  188.37900  852.65300  -69.23300   -1.92510    9.79500   75.36300    3.85600  188.37900    9.79500   -9.53900
 18500.00000  234.56600    6.81480    4.85200  234.56600    6.81480   72.39200  885.69900  192.39200  885.69900  -67.99600   -1.60590    8.78800   72.39200    4.85200  192.39200    8.78800  -16.49300
