~Version ---------------------------------------------------
VERS. 2.0 : CWLS log ASCII Standard -VERSION 2.0
WRAP.  NO : ONE LINE PER DEPTH STEP
~Well ------------------------------------------------------
STRT.F                   300.0 : START DEPTH
STOP.F                  7150.0 : STOP DEPTH
STEP.F                50.00000 : STEP LENGTH
NULL.                  -999.25 : NULL VALUE
COMP.        EASON OIL COMPANY : COMPANY
WELL.      FLOWERS AND WARD #1 : WELL
FLD .                  WILDCAT : FIELD
LOC .                          : LOCATION
CNTY.                   ZAVALA : COUNTY
STAT.                    TEXAS : STATE
CTRY. UNITED STATES OF AMERICA : COUNTRY
SRVC.             Schlumberger : SERVICE COMPANY
DATE.              04-Feb-1980 : LOGDATE
API .           42507312960000 : API NUMBER
UWI .           42507312960000 : UNIQUE WELL ID
SLAT.WGS84        29.077013402 : SURFACE LATITUDE
SLON.WGS84     -100.0065409806 : SURFACE LONGITUDE
~Curve Information -----------------------------------------
DEPT   .F    0   1   0  0 : 1 MEASURED DEPTH
NPHI_SS.DEC  42 890 03 00 : NEUTRON POROSITY SANDSTONE
GRD    .GAPI 45 310 01 00 : GAMMA RAY FROM DENSITY LOG
DPHI_SS.DEC  45 890 12 00 : DENSITY POROSITY SANDSTONE
CALD   .IN   45 280 60 00 : CALIPER FROM DENSITY LOG
NPHI_LS.DEC  42 890 01 00 : NEUTRON POROSITY LIMESTONE
DPHI_LS.DEC  45 890 10 00 : DENSITY POROSITY LIMESTONE
CORR   .G/C3 45 356 01 00 : DENSITY CORRECTION
RHOB   .G/C3 45 350 01 00 : BULK DENSITY
DT     .MS/F 60 500 00 00 : DELTA-T (INTERVAL TRANSIT TIME)
ILD    .OHMM 07 120 46 00 : INDUCTION DEEP RESISTIVITY
ILM    .OHMM 07 120 44 00 : INDUCTION MEDIUM RESISTIVITY
SFL    .OHMM 07 220 01 00 : SPHERICALLY FOCUSED LOG
SPR    .MV   07 010 01 00 : SPONTANEOUS POTENTIAL FROM RESISTIVITY LOG
~Params ----------------------------------------------------
PD  .                     GL : PERMANENT DATUM
EPD .FT               808.45 : ELEVATION PERMANENT DATUM
LMF .                     KB : LOG MEASURED FROM
DAPD.FT                   13 : FEET ABOVE PERMANENT DATUM
DMF .                     KB : DRILLING MEASURED FROM
EKB .FT               821.45 : KELLY BUSHING
EDF .FT               820.45 : DRILLING FLOOR
EGL .FT               808.45 : GROUND LEVEL
DATE.               02/04/80 : RUN DATE
RUN .                      1 : RUN NUMBER
DD  .FT                 7151 : DEPTH DRILLER
DL  .FT                 7191 : DEPTH LOGGER
BLI .FT                 7188 : BOTTOM LOG INTERVAL
TLI .FT                  513 : TOP LOG INTERVAL
CS  .IN                8.625 : CASING SIZE
CBD .FT                  516 : CASING BOTTOM DRILLER
CBL .FT                  513 : CASING BOTTOM LOGGER
BS  .IN                7.875 : BIT SIZE
BSD .FT                 7151 : BIT SIZE AT DEPTH
DFT .         LIGNOSULFONATE : DRILLING FLUID TYPE
DFD .                    9.3 : DRILLING FLUID DENSITY
DFV .                     44 : DRILLING FLUID VISCOSITY
DFPH.                   10.7 : DRILLING FLUID PH
DFL .                    7.7 : DRILLING FLUID LOSS
MSS .                    PIT : MUD SAMPLE SOURCE
RMS .OHMM               1.32 : RESISTIVITY MUD SAMPLE
MST .DEGF                 73 : MUD SAMPLE TEMPERATURE
RMF .OHMM               0.99 : RESISTIVITY MUD FILTRATE SAMPLE
MFST.DEGF                 73 : MUD FILTRATE SAMPLE TEMPERATURE
RMC .OHMM               1.98 : RESISTIVITY MUD CAKE
MCST.DEGF                 73 : MUD CAKE SAMPLE TEMPERATURE
MFSS.                  CHART : MUD FILTRATE SAMPLE SOURCE
MCSS.                  CHART : MUD CAKE SAMPLE SOURCE
RMB .OHMM               0.63 : RESISTIVITY MUD AT BHT
TCS .HRS                 530 : TIME CIRCULATED STOPPED
TLAB.HRS                1430 : TIME LOGGER AT BOTTOM
LUN .                   8145 : LOGGING UNIT NUMBER
LUL .                  PLEAS : LOGGING UNIT LOCATION
ENGI.                   FAIR : RECORDING ENGINEER
WITN.                 LONDON : WITNESSED BY
CLNT.                A2DTECH : CLIENT CODE
ORIG.               5" PRINT : ORIGIN OF DATA
UWI .         42507312960000 : UNIQUE WELL ID
DICO. A2D Technologies, Inc. : DIGITIZING COMPANY
~Other -----------------------------------------------------
~ASCII -----------------------------------------------------
# ...
 2900.00000    -999.25   11.51950    -999.25   10.30030   -0.00520   -0.14620   -0.01190    2.95690   50.10310    -999.25    -999.25 1240.33700 -188.35740
 2950.00000    -999.25   14.56590    -999.25   10.77710   -0.00120   -0.08640    0.00500    2.86430  101.36020  896.80840  196.46800  603.22450  -64.04190
 3000.00000    -999.25   58.52270    -999.25    9.14960    0.05320    0.03730   -0.01740    2.64160   53.31190   47.80300   58.69460   68.90610  -54.73050
 3050.00000    -999.25   30.45620    -999.25    8.98610    0.05870    0.04080   -0.01230    2.63730   55.40090   61.45760   51.31930   51.91940  -63.99090
 3100.00000    -999.25   22.36090    -999.25    8.71760    0.03240    0.02660   -0.01350    2.66410   53.67550   83.73330   66.94640   67.53250  -46.64330
 3150.00000    -999.25   26.82320    -999.25    8.62360    0.03980    0.02340   -0.01170    2.67300   55.00490   79.71140   58.34870   59.43080  -53.35930
 3200.00000    -999.25   20.22010    -999.25    9.18190    0.06980    0.04760   -0.01730    2.62770   56.70500   39.78440   35.56310   43.81620  -40.22400
 3250.00000    -999.25   15.15620    -999.25    9.10440    0.08550    0.04230   -0.00520    2.63370   57.02450   32.13630   32.61120   50.91280  -56.67230
 3300.00000    -999.25   27.36130    -999.25    8.99220    0.05080    0.00640   -0.00710    2.70060   63.66350   24.11890   26.64030   39.29610  -29.01710
 3350.00000    -999.25   34.57610    -999.25    8.99570    0.12400    0.03180   -0.00780    2.65450   62.30870   32.35890   31.57370   28.31500  -24.89160
 3400.00000    -999.25   30.99570    -999.25    8.63450    0.11390    0.02060   -0.00970    2.67140   61.39580   35.14700   28.74930   26.41300  -39.31520
 3450.00000    -999.25   41.43350    -999.25    8.68660    0.12450    0.04490   -0.01520    2.63220   65.87690   32.11690   26.27300   19.73250  -32.08510
 3500.00000    -999.25   23.68340    -999.25    8.67050    0.05440    0.01100   -0.01120    2.69110   55.73640   43.83780   39.83200   62.58750  -38.32130
 3550.00000    -999.25   34.12670    -999.25    9.30770    0.09670    0.03040   -0.00820    2.66160   65.37630   23.93690   22.22390   22.45770  -32.00710
 3600.00000    -999.25   24.91290    -999.25    8.84220    0.06230    0.03370   -0.01490    2.65490   58.10660   44.35350   38.50630   37.71020  -67.02130
 3650.00000    -999.25   30.09770    -999.25    9.12230    0.04870    0.01080   -0.01140    2.68820   58.00510   51.26830   45.44370   60.15600  -55.30180
 3700.00000    -999.25   10.79180    -999.25   10.99270    0.00230   -0.14930   -0.00580    2.96330   51.60170   88.83250   59.84570  408.64530  -52.56910
 3750.00000    -999.25   32.77700    -999.25    8.77700    0.04800    0.01430   -0.00710    2.68310   58.73000  104.24240   60.76430   52.88840  -55.86970
 3800.00000    -999.25   51.04480    -999.25    9.02960    0.27600    0.33460    0.03430    2.18510   85.07490   19.55130   10.96440   15.99840  -45.48000
 3850.00000    -999.25   17.30040    -999.25    9.44930    0.09190    0.07290   -0.00890    2.58350   59.85080   20.77680   21.38170   28.78280  -78.28480
 3900.00000    -999.25   41.26970    -999.25    8.79870    0.05270    0.02440   -0.01550    2.66940   61.14520   31.54130   34.31520   51.46750  -38.28640
 3950.00000    -999.25   31.41280    -999.25    8.32430    0.05960    0.02030   -0.01210    2.67490   57.05760   91.15030   61.23860   65.03360  -78.18830
 4000.00000    -999.25   28.26960    -999.25    8.40460    0.05500   -0.00260   -0.01470    2.70760   55.06950  164.87250  123.13550  154.89180  -50.76160
 4050.00000    -999.25   37.13870    -999.25    8.47740    0.09740    0.02080   -0.01850    2.67300   58.31840   72.22000   54.43320   61.53980  -55.02120
 4100.00000    -999.25   28.63000    -999.25    8.91080    0.04910   -0.00620   -0.01150    2.71740   54.55760  139.01640   83.85700  172.10130  -68.99950
 4150.00000    -999.25   25.97020    -999.25    9.42590    0.01430    0.02020   -0.00410    2.67550   51.12860 1742.96590  230.39510  450.90830  -77.82830
 4200.00000    -999.25   23.10430    -999.25    9.22670    0.14670    0.13150    0.00090    2.48380   62.30080   42.85720   38.92230   37.95650 -100.52380
 4250.00000    -999.25   17.64810    -999.25    9.05140    0.04470    0.03320   -0.01770    2.64290   53.60950 1348.55080  490.20470  254.01840  -77.46520
 4300.00000    -999.25   40.37450    -999.25    8.28000    0.07010    0.01760   -0.02050    2.67900   61.38620  126.64220   65.11600   86.11000  -84.19700
 4350.00000    -999.25   19.06330    -999.25    8.71710    0.05800    0.04450   -0.01250    2.62720   52.57060  316.78360  162.90760  234.41960  -90.86040
 4400.00000    -999.25   22.67440    -999.25    9.15730    0.07170    0.04900   -0.01180    2.63130   56.21110  225.58800  107.03070  123.98270  -97.31090
 4450.00000    -999.25   31.84460    -999.25    8.39790    0.03620    0.00310   -0.00900    2.69690   53.20140 1723.25890  172.94470  254.91380  -93.23870
 4500.00000    -999.25   28.06210    -999.25    8.27730    0.02470    0.00870   -0.00470    2.69390   52.71090    -999.25  223.98280  372.12610  -88.46600
 4550.00000    -999.25   34.92420    -999.25    8.27840    0.03150    0.01460   -0.01610    2.68290   54.73520 1444.28360  158.73560  205.97430  -66.85350
 4600.00000    -999.25   56.66820    -999.25    8.18880    0.03980    0.01130   -0.01350    2.68950   54.90320  864.14880  139.61000  151.43230  -72.61500
 4650.00000    -999.25   43.17190    -999.25    8.21610    0.03250    0.00450   -0.01380    2.69940   53.25060  481.19360  127.22150  166.89580  -49.37390
 4700.00000    -999.25   70.71040    -999.25    8.82310    0.16560    0.03710   -0.01730    2.64620   72.11910   16.32590   15.66650   16.89790  -33.68720
 4750.00000    -999.25   38.04960    -999.25    8.43670    0.03920    0.00940   -0.02000    2.69490   55.01080   91.79090   64.86670  104.42720  -43.39870
 4800.00000    -999.25   42.34790    -999.25    8.67470    0.07300    0.01550   -0.00080    2.68210   59.49400   34.87470   31.93140   44.51850  -31.89560
 4850.00000    -999.25   66.28500    -999.25    8.57570    0.04220    0.00860   -0.01160    2.69420   56.23360   71.36770   55.14630   60.93190  -33.28830
 4900.00000    -999.25   56.89890    -999.25    9.10830    0.06840    0.01970   -0.01170    2.67410   59.73960   38.61100   39.64040   41.43810  -30.46050
 4950.00000    -999.25   57.58410    -999.25    8.93500    0.20810    0.07630   -0.01520    2.58110   79.16090   12.38810   11.72820   12.90310  -19.88490
 5000.00000    -999.25   78.36950    -999.25    9.16340    0.24810    0.08530   -0.01700    2.56400   88.58320   16.63560   15.05350   15.41360  -23.18860
 5050.00000    -999.25   45.37850    -999.25    8.69370    0.06930    0.00970   -0.00440    2.68900   59.32800   38.38850   31.56820   35.86640  -16.82220
 5100.00000    -999.25   47.87800    -999.25    9.17080    0.10690    0.01500    0.01120    2.68030   71.92470   17.79370   19.58620   23.67780  -12.90510
 5150.00000    -999.25   80.81800    -999.25    9.11710    0.22760    0.07870    0.13070    2.55750   78.27030    9.52780    9.59400   10.45790  -25.13740
 5200.00000    -999.25   28.03800    -999.25    8.50860    0.05650    0.01940   -0.01110    2.67480   53.57770   55.12620   52.88200   80.50200  -52.26380
 5250.00000    -999.25   29.87160    -999.25    8.46750    0.02520   -0.00180   -0.01160    2.70400   53.10540  490.67860  235.51450  246.79380  -54.78320
 5300.00000    -999.25   27.75000    -999.25    8.66860    0.00910   -0.01850   -0.00730    2.73800   49.74000 1602.23410  218.97820  845.48080  -46.05030
 5350.00000    -999.25   36.79470    -999.25    8.46190    0.12220   -0.00560   -0.00780    2.71440   60.68430   76.61790   54.34060  103.95950  -31.98870
 5400.00000    -999.25   74.93430    -999.25    8.75710    0.20390    0.04110   -0.01390    2.63600   68.35690   46.13410   42.73880   42.84310  -20.47130
 5450.00000    -999.25   20.27850    -999.25    8.42290    0.11360    0.08190    0.02300    2.57450   62.12620   66.57150   50.85760  105.88950  -50.72160
