~Version ---------------------------------------------------
VERS. 2.0 : CWLS log ASCII Standard -VERSION 2.0
WRAP.  NO : ONE LINE PER DEPTH STEP
~Well ------------------------------------------------------
STRT.FT                 3800.0 : START DEPTH
STOP.FT                10100.0 : STOP DEPTH
STEP.FT               50.00000 : STEP LENGTH
NULL.                  -999.25 : NULL VALUE
COMP.   PATTERSON PETROLEUM LP : COMPANY
WELL.           WEIDER UNIT #1 : WELL
FLD .                 GIDDINGS : FIELD
LOC .                          : LOCATION
CNTY.                      LEE : COUNTY
STAT.                    TEXAS : STATE
CTRY. UNITED STATES OF AMERICA : COUNTRY
SRVC.             Baker Hughes : SERVICE COMPANY
DATE.              17-Nov-2000 : LOGDATE
API .           42287325060000 : API NUMBER
UWI .           42287325060000 : UNIQUE WELL ID
SLAT.WGS84        30.109798312 : SURFACE LATITUDE
SLON.WGS84      -96.8938886142 : SURFACE LONGITUDE
~Curve Information -----------------------------------------
DEPT  .FT    : DEPTH FEET
M1R6ED.OHMM  : 60 INCH DOI RESISTIVITY FROM HDI/CD/CN LOG
M1RXED.OHMM  : 120 INCH DOI RESISTIVITY FROM HDI/CD/CN LOG
TENRED.LBF   : TENSION FROM RESISTIVITY LOG
GRRED .GAPI  : GAMMA RAY FROM RESISTIVITY LOG
CALRED.IN    : CALIPER FROM RESISTIVITY LOG
SPRED .MV    : SPONTANEOUS POTENTIAL FROM RESISTIVITY LOG
M1R2ED.OHMM  : 20 INCH DOI RESISTIVITY FROM HDI/CD/CN LOG
M1R3ED.OHMM  : 30 INCH DOI RESISTIVITY FROM HDI/CD/CN LOG
M1R9ED.OHMM  : 90 INCH DOI RESISTIVITY FROM HDI/CD/CN LOG
ZCORED.G/C3  : DENSITY CORRECTION FROM HDI/CD/CN LOG
CNCFED.V/V   : NEUTRON POROSITY LIMESTONE
PEFED .B/E   : PHOTOELECTRIC FACTOR FROM DENSITY LOG
PORZED.V/V   : DENSITY POROSITY FROM HDI/CD/CN LOG
SPWS  .MV    : SPONTANEOUS POTENTIAL [BASELINE 0 MV] [SPRED]
GRWS  .GAPI  : GAMMA RAY [GRRED]
DCORWS.G/C3  : DENSITY CORRECTION [ZCORED]
CALWS .IN    : CALIPER [CALRED]
DRESWS.OHMM  : DEEP RESISTIVITY [M1R9ED]
MRESWS.OHMM  : MEDIUM RESISTIVITY [M1R3ED]
SRESWS.OHMM  : SHALLOW RESISTIVITY [M1R2ED]
CONDWS.MMHO  : CONDUCTIVITY [1000/DRESWS]
NPOWS .V/V   : NEUTRON POROSITY [CNCFED]
PEFWS .B/E   : PHOTOELECTRIC FACTOR [PEFED]
DENWS .G/C3  : BULK DENSITY [M=2.71 F=1.0] [CALCULATED FROM PORDED]
DPOWS .V/V   : DENSITY POROSITY [M=2.71 F=1] [CALCULATED FROM DENWS]
~Params ----------------------------------------------------
PD  .                     GL : PERMANENT DATUM
EPD .FT                  379 : ELEVATION PERMANENT DATUM
LMF .                     KB : LOG MEASURED FROM
DAPD.FT                   20 : FEET ABOVE PERMANENT DATUM
DMF .                     KB : DRILLING MEASURED FROM
EKB .FT                  399 : KELLY BUSHING
EDF .FT                  398 : DRILLING FLOOR
EGL .FT                  379 : GROUND LEVEL
DATE.               11/17/00 : RUN DATE
RUN .                      1 : RUN NUMBER
DD  .FT                10130 : DEPTH DRILLER
DL  .FT                10128 : DEPTH LOGGER
BLI .FT                10120 : BOTTOM LOG INTERVAL
TLI .FT                 3820 : TOP LOG INTERVAL
CS  .IN                8.625 : CASING SIZE
CBD .FT                 3820 : CASING BOTTOM DRILLER
CBL .FT                 3820 : CASING BOTTOM LOGGER
BS  .IN                7.875 : BIT SIZE
BSD .FT                10130 : BIT SIZE AT DEPTH
DFT .                  FRESH : DRILLING FLUID TYPE
DFD .                    9.8 : DRILLING FLUID DENSITY
DFV .                     37 : DRILLING FLUID VISCOSITY
DFPH.                    8.5 : DRILLING FLUID PH
DFL .                    6.8 : DRILLING FLUID LOSS
MSS .               MUD TANK : MUD SAMPLE SOURCE
RMS .OHMM                  3 : RESISTIVITY MUD SAMPLE
MST .FT                   70 : MUD SAMPLE TEMPERATURE
RMF .OHMM                2.7 : RESISTIVITY MUD FILTRATE SAMPLE
MFST.FT                   70 : MUD FILTRATE SAMPLE TEMPERATURE
RMC .OHMM                3.8 : RESISTIVITY MUD CAKE
MCST.FT                   70 : MUD CAKE SAMPLE TEMPERATURE
MFSS.               MEASURED : MUD FILTRATE SAMPLE SOURCE
MCSS.               MEASURED : MUD CAKE SAMPLE SOURCE
RMB .OHMM               0.84 : RESISTIVITY MUD AT BHT
TCS .HRS                   6 : TIME CURCULATED STOPPED
LUN .                HL 6554 : LOGGING UNIT NUMBER
LUL .               VICTORIA : LOGGING UNIT LOCATION
ENGI.                    MAY : RECORDING ENGINEER
WITN.                 NELSON : WITNESSED BY
CLNT.                A2DTECH : CLIENT CODE
ORIG.            1" 5" PRINT : ORIGIN OF DATA
UWI .         42287325060000 : UNIQUE WELL ID
DICO. A2D Technologies, Inc. : DIGITIZING COMPANY
~Other -----------------------------------------------------
ALL LOGS RUN IN COMBO.
LS_2.71 MTRX
~ASCII -----------------------------------------------------
# ...
 5200.00000    0.99490    0.71690  -33.41380   47.59740    8.64720  -92.64950    2.26510    1.34100    0.84110    -999.25    -999.25    -999.25    -999.25  -88.96200   47.59740    -999.25    8.64720    0.84110    1.34100    2.26510 1188.91930    -999.25    -999.25    -999.25    -999.25
 5250.00000    0.80760    0.61620  -13.08710   45.41780    8.16110 -103.27590    1.85520    1.11190    0.70450    -999.25    -999.25    -999.25    -999.25  -99.79760   45.41780    -999.25    8.16110    0.70450    1.11190    1.85520 1419.44640    -999.25    -999.25    -999.25    -999.25
 5300.00000    0.91650    0.71760  -30.16170   56.05570    8.21350 -101.98610    1.65500    1.15240    0.78230    -999.25    -999.25    -999.25    -999.25  -99.09580   56.05570    -999.25    8.21350    0.78230    1.15240    1.65500 1278.28200    -999.25    -999.25    -999.25    -999.25
 5350.00000    1.40700    1.22330  -21.93640   73.68320    7.99070  -64.56070    2.49490    1.76410    1.26210    -999.25    -999.25    -999.25    -999.25  -62.25830   73.68320    -999.25    7.99070    1.26210    1.76410    2.49490  792.33030    -999.25    -999.25    -999.25    -999.25
 5400.00000    1.55560    1.17830   -4.40510   56.17650    7.53740  -76.37010    3.61340    2.23630    1.36500    -999.25    -999.25    -999.25    -999.25  -74.65570   56.17650    -999.25    7.53740    1.36500    2.23630    3.61340  732.60070    -999.25    -999.25    -999.25    -999.25
 5450.00000    1.87010    1.61510   -4.11790   94.56580    8.31180  -46.06510    2.80300    2.20640    1.76920    -999.25    -999.25    -999.25    -999.25  -40.35810   94.56580    -999.25    8.31180    1.76920    2.20640    2.80300  565.22720    -999.25    -999.25    -999.25    -999.25
 5500.00000    1.55880    1.47890  -15.07650   86.06210    9.09080  -29.86830    1.93490    1.65380    1.49210    -999.25    -999.25    -999.25    -999.25  -21.68420   86.06210    -999.25    9.09080    1.49210    1.65380    1.93490  670.19640    -999.25    -999.25    -999.25    -999.25
 5550.00000    1.59910    1.01810  -38.95930   53.37000    7.84140 -100.53240    5.55650    2.69580    1.27820    -999.25    -999.25    -999.25    -999.25  -94.75230   53.37000    -999.25    7.84140    1.27820    2.69580    5.55650  782.35020    -999.25    -999.25    -999.25    -999.25
 5600.00000    1.55820    1.20510  -31.99820   98.40210    9.69380  -16.14900    1.98280    1.63730    1.28410    -999.25    -999.25    -999.25    -999.25  -11.87340   98.40210    -999.25    9.69380    1.28410    1.63730    1.98280  778.75550    -999.25    -999.25    -999.25    -999.25
 5650.00000    1.20020    1.02520  -47.47210   71.28160    9.49540  -65.59230    1.67200    1.38320    1.07300    -999.25    -999.25    -999.25    -999.25  -62.45260   71.28160    -999.25    9.49540    1.07300    1.38320    1.67200  931.96650    -999.25    -999.25    -999.25    -999.25
 5700.00000    1.73200    1.69010  -82.64600   83.78910    9.50600  -19.36820    1.79580    1.75340    1.70430    -999.25    -999.25    -999.25    -999.25  -13.92960   83.78910    -999.25    9.50600    1.70430    1.75340    1.79580  586.75120    -999.25    -999.25    -999.25    -999.25
 5750.00000    1.92130    1.85020  -44.87880  101.89760    8.35360  -10.79960    1.98000    1.93400    1.88060    -999.25    -999.25    -999.25    -999.25   -2.61550  101.89760    -999.25    8.35360    1.88060    1.93400    1.98000  531.74520    -999.25    -999.25    -999.25    -999.25
 5800.00000    1.92750    1.88510  -51.81780   96.95720    8.51430  -11.35960    1.99800    1.95250    1.89970    -999.25    -999.25    -999.25    -999.25   -5.36470   96.95720    -999.25    8.51430    1.89970    1.95250    1.99800  526.39890    -999.25    -999.25    -999.25    -999.25
 5850.00000    1.97520    1.93150   -4.11240   96.27410    8.50810  -10.50800    2.00230    1.95570    1.90160    -999.25    -999.25    -999.25    -999.25   -6.35670   96.27410    -999.25    8.50810    1.90160    1.95570    2.00230  525.87290    -999.25    -999.25    -999.25    -999.25
 5900.00000    1.89040    1.84780  -17.30050  106.06950    8.26100   -5.36990    1.94490    1.89760    1.84270    -999.25    -999.25    -999.25    -999.25   -3.84740  106.06950    -999.25    8.26100    1.84270    1.89760    1.94490  542.68190    -999.25    -999.25    -999.25    -999.25
 5950.00000    1.86760    1.82610  -17.47100  105.77750    8.31120   -6.63150    1.97470    1.92760    1.87320    -999.25    -999.25    -999.25    -999.25   -6.01100  105.77750    -999.25    8.31120    1.87320    1.92760    1.97470  533.84580    -999.25    -999.25    -999.25    -999.25
 6000.00000    1.64580    1.60970  -39.28590  106.59210    8.31440   -7.88890    1.66940    1.63140    1.58740    -999.25    -999.25    -999.25    -999.25   -6.93300  106.59210    -999.25    8.31440    1.58740    1.63140    1.66940  629.96090    -999.25    -999.25    -999.25    -999.25
 6050.00000    1.63770    1.60180  -29.45180  109.20410    8.64160   -6.09140    1.67880    1.64050    1.59600    -999.25    -999.25    -999.25    -999.25   -4.80000  109.20410    -999.25    8.64160    1.59600    1.64050    1.67880  626.56640    -999.25    -999.25    -999.25    -999.25
 6100.00000    1.54950    1.51540  -18.67240  110.25830    8.67500   -4.00420    1.60070    1.56410    1.52150    -999.25    -999.25    -999.25    -999.25   -2.37740  110.25830    -999.25    8.67500    1.52150    1.56410    1.60070  657.24620    -999.25    -999.25    -999.25    -999.25
 6150.00000    1.53190    1.49830  -35.24030  104.32440    8.86850   -3.21130    1.57120    1.53520    1.49360    -999.25    -999.25    -999.25    -999.25   -1.24910  104.32440    -999.25    8.86850    1.49360    1.53520    1.57120  669.52330    -999.25    -999.25    -999.25    -999.25
 6200.00000    1.61180    1.56280  -52.24530  111.58700    8.91030   -9.73520    1.68290    1.63590    1.58180    -999.25    -999.25    -999.25    -999.25   -7.43760  111.58700    -999.25    8.91030    1.58180    1.63590    1.68290  632.19120    -999.25    -999.25    -999.25    -999.25
 6250.00000    1.83500    1.79150  -44.22830  101.62530    9.07980   -6.59570    1.91980    1.87040    1.81330    -999.25    -999.25    -999.25    -999.25   -5.20060  101.62530    -999.25    9.07980    1.81330    1.87040    1.91980  551.48070    -999.25    -999.25    -999.25    -999.25
 6300.00000    1.43010    1.39580  -42.05490  107.31770    8.69290   -4.05900    1.46110    1.42580    1.38500    -999.25    -999.25    -999.25    -999.25   -4.66420  107.31770    -999.25    8.69290    1.38500    1.42580    1.46110  722.02170    -999.25    -999.25    -999.25    -999.25
 6350.00000    1.27150    1.22860  -82.20160  115.28100    8.67200    1.00980    1.28430    1.25460    1.22010    -999.25    -999.25    -999.25    -999.25   -1.18480  115.28100    -999.25    8.67200    1.22010    1.25460    1.28430  819.60490    -999.25    -999.25    -999.25    -999.25
 6400.00000    1.35450    1.30060  -44.59300  105.72270    8.67480    0.80130    1.43500    1.38960    1.33790    -999.25    -999.25    -999.25    -999.25   -2.83820  105.72270    -999.25    8.67480    1.33790    1.38960    1.43500  747.44000    -999.25    -999.25    -999.25    -999.25
 6450.00000    1.34230    1.28180  -40.01440  104.46250    8.40680    2.51770    1.39880    1.35150    1.29720    -999.25    -999.25    -999.25    -999.25   -2.56680  104.46250    -999.25    8.40680    1.29720    1.35150    1.39880  770.89120    -999.25    -999.25    -999.25    -999.25
 6500.00000    1.64110    1.60190  -34.37440   83.11500    7.99890   -3.34300    1.69440    1.64740    1.60170    -999.25    -999.25    -999.25    -999.25   -9.33890   83.11500    -999.25    7.99890    1.60170    1.64740    1.69440  624.33670    -999.25    -999.25    -999.25    -999.25
 6550.00000    1.33610    1.26080  -22.59940   90.53110    8.09410   -6.96460    1.32430    1.28770    1.25040    -999.25    -999.25    -999.25    -999.25  -11.73770   90.53110    -999.25    8.09410    1.25040    1.28770    1.32430  799.74410    -999.25    -999.25    -999.25    -999.25
