~Version ---------------------------------------------------
VERS. 2.0 : CWLS log ASCII Standard -VERSION 2.0
WRAP.  NO : ONE LINE PER DEPTH STEP
~Well ------------------------------------------------------
STRT.F                        2400.0 : START DEPTH
STOP.F                       13000.0 : STOP DEPTH
STEP.F                      50.00000 : STEP LENGTH
NULL.                        -999.25 : NULL VALUE
COMP.              SCHNEIDER & COREY : COMPANY
WELL. PEARL HANNAH TYLER GAS UNIT #1 : WELL
FLD .                        WILDCAT : FIELD
LOC .                                : LOCATION
CNTY.                        MADISON : COUNTY
STAT.                          TEXAS : STATE
CTRY.       UNITED STATES OF AMERICA : COUNTRY
SRVC.                                : SERVICE COMPANY
DATE.                                : LOGDATE
API .                 42313300420000 : API NUMBER
UWI .                 42313300420000 : UNIQUE WELL ID
SLAT.WGS84             30.9456689705 : SURFACE LATITUDE
SLON.WGS84             -96.043823621 : SURFACE LONGITUDE
~Curve Information -----------------------------------------
DEPT.F                 : 
DRHO.G/C3 45 356 01 00 : DENSITY CORRECTION
CALI.IN   45 280 60 00 : CALIPER
GR  .GAPI 45 310 01 00 : GAMMA RAY
RHOB.G/C3 45 350 01 00 : BULK DENSITY  G/C3
SP  .MV   07 010 01 00 : SPONTANEOUS POTENTIAL
CILD.MMHO 07 110 46 00 : COND 46
SN  .OHMM 07 040 16 00 : 
~Params ----------------------------------------------------
EKB .F                 322.0 : KELLY BUSHING
EGL .F                   303 : ELEVATION GROUND LEVEL
EDF .F                   320 : ELEVATION DERRICK FLOOR
EPD .                    303 : ELEVATION PERMANENT DATUM
TD  .F               13019.0 : TOTAL DEPTH
DATE.            28-JUL-1975 : DATE LOGGED
CLNT.                A2DTECH : CLIENT CODE
PD  .                     GL : PERMANENT DATUM
LMF .                     KB : LOG MEASURED FROM
DMF .                     KB : DRILLING MEASURED FROM
DAPD.F                    19 : FEET ABOVE PERMANENT DATUM
DD  .F                 13019 : DEPTH DRILLER
DL  .F                 10900 : DEPTH LOGGER
BLI .F                 10899 : BOTTOM LOG INTERVAL
TLI .F                  9544 : TOP LOG INTERVAL
CS1 .IN                9.625 : CASING SIZE
CBD1.         9.625" @ 2375' : CASING DRILLER 1
CBL1.F                  2377 : CASING LOGGER 1
BS1 .IN                 8.75 : BIT SIZE
BSD1.F                 13019 : DEPTH DRILLED WITH BIT1
DFT .               GEL/CHEM : TYPE FLUID IN HOLE
DFD .                    9.6 : DENSITY
DFV .                     90 : VISCOSITY
DFPH.                   10.5 : PH
DFL .                      4 : FLUID LOSS
MSS .                    PIT : SOURCE OF SAMPLE
RMS .OHMM               1.25 : RM
RMF .OHMM               0.69 : RMF
RMC .OHMM                0.9 : RMC
MFSS.                   MEAS : SOURCE RMF.
MCSS.                   CALC : SOURCE RMC.
RMB .OHMM               0.36 : RM. AT BHT
BHT .F                   256 : BHT.
TCS .HRS                1930 : TIME CIRC. STOPPED
LUN .                   7700 : LOGGING UNIT NUMBER
LUL .                 DAYTON : LOGGING UNIT LOCATION
ENGI.              NICOLAKIS : RECORDED BY
WITN.           MOORE/COOPER : WITNESSED BY
ORIG.          1" 2.5" PRINT : ORIGIN OF DATA
UWI .         42313300420000 : UNIQUE WELL ID
DICO. A2D TECHNOLOGIES, INC. : DIGITIZING COMPANY
~Other -----------------------------------------------------
~ASCII -----------------------------------------------------
# ...
 6900.00000    -999.25    -999.25    -999.25    -999.25  -32.20860  707.69230    2.71600
 6950.00000    -999.25    -999.25    -999.25    -999.25  -31.44170  660.00000    2.97840
 7000.00000    -999.25    -999.25    -999.25    -999.25  -30.48260  589.74520    3.37450
 7050.00000    -999.25    -999.25    -999.25    -999.25  -30.52150  667.19240    3.25620
 7100.00000    -999.25    -999.25    -999.25    -999.25  -29.44790  283.91170    9.27980
 7150.00000    -999.25    -999.25    -999.25    -999.25  -28.27210  209.77920   16.14190
 7200.00000    -999.25    -999.25    -999.25    -999.25  -25.93750  323.07680    6.81070
 7250.00000    -999.25    -999.25    -999.25    -999.25  -27.92950  235.38620   16.37930
 7300.00000    -999.25    -999.25    -999.25    -999.25  -23.80230  348.71460    7.77760
 7350.00000    -999.25    -999.25    -999.25    -999.25  -22.81250  333.33200    7.65470
 7400.00000    -999.25    -999.25    -999.25    -999.25  -25.00000  476.92310    4.91770
 7450.00000    -999.25    -999.25    -999.25    -999.25  -25.00000  552.30770    4.33230
 7500.00000    -999.25    -999.25    -999.25    -999.25  -24.68750  503.58900    5.12410
 7550.00000    -999.25    -999.25    -999.25    -999.25  -24.68750  568.71470    4.30120
 7600.00000    -999.25    -999.25    -999.25    -999.25  -23.64570  236.92310   14.47200
 7650.00000    -999.25    -999.25    -999.25    -999.25  -22.81250  317.94790    8.27640
 7700.00000    -999.25    -999.25    -999.25    -999.25  -23.12500  403.07690    6.45970
 7750.00000    -999.25    -999.25    -999.25    -999.25  -22.34360  434.87180    6.69250
 7800.00000    -999.25    -999.25    -999.25    -999.25  -23.75000  468.71800    5.34130
 7850.00000    -999.25    -999.25    -999.25    -999.25  -23.64590  543.07200    4.47200
 7900.00000   -0.01080    -999.25   46.26200    2.66560  -24.27120  147.69230    7.81580
 7950.00000   -0.02080   10.22100   38.11300    2.66430  -22.50000  190.25640    6.09730
 8000.00000   -0.01390   10.51800   41.91100    2.60990  -21.16100  253.33330    -999.25
 8050.00000   -0.01390    9.63100   34.59400    2.63310  -24.97410  133.84620    -999.25
 8100.00000   -0.00620    9.79000   25.16300    2.65170  -30.52080  147.69230    -999.25
 8150.00000   -0.00850   10.54300   53.22700    2.46440  -24.60940  284.61540   16.30430
 8200.00000    0.00770    9.22600   42.31100    2.52480  -36.25000  230.76920   19.62930
 8250.00000    0.12200   14.35200   88.19350    2.20200  -20.72960  644.09920    4.59630
 8300.00000    0.06170   11.48300   83.69800    2.60220  -20.96270  212.30770   12.98140
 8350.00000    0.06640   10.90500   82.48500    2.56270  -19.79830  489.23070    4.80330
 8400.00000    0.14350   10.81400   92.33700    2.56190  -19.25470  476.92310    6.75710
 8450.00000    0.12580   12.22200   87.83600    2.41410  -19.64290  642.85710    4.13050
 8500.00000    0.11860    9.79900   86.58600    2.59130  -17.54670  322.98140   14.76200
 8550.00000   -0.01160    9.31200   77.60700    2.60450  -17.62430  326.08690   11.58330
 8600.00000    0.15120   11.05700   85.07400    2.48500  -19.25470  378.46150    6.28860
 8650.00000    0.14130   12.39900   96.86400    2.34130  -17.96870  500.51770    7.62400
 8700.00000    0.20370   11.41000   86.38700    2.39160  -18.33330  321.02560   13.38510
 8750.00000    0.16440   12.09100   88.52200    2.20770  -18.75000  521.02640    6.87900
 8800.00000    0.19140   10.32200   96.86300    2.33490  -20.00000  329.25140   15.67280
 8850.00000    0.10570   11.03400   99.40800    2.28330  -17.08330  241.53590   14.76720
 8900.00000    0.18670   14.72200   78.20800    2.19970  -22.91630  560.00000   19.72050
 8950.00000    0.19210   10.49000   62.72400    2.63310  -18.75000  247.70220   13.18320
 9000.00000   -0.00150    9.39300   13.77800    2.68830  -26.56280   72.76940   37.68110
 9050.00000   -0.02810    9.20900   25.20700    2.67930  -20.93750  114.36320   30.81800
 9100.00000    0.02310    9.37900   23.64100    2.69350  -36.71880   66.66670   30.86060
 9150.00000    0.01930    9.77800   10.01200    2.70510  -54.68750   33.84620   65.52210
 9200.00000   -0.02780    9.39300   12.95600    2.66870  -41.25000   60.51280   42.33850
 9250.00000   -0.01080    9.38000   10.82600    2.69450  -46.97920   70.77910   52.40940
 9300.00000   -0.00460    9.39300   21.14900    2.74460  -35.31250  124.10910   16.57520
 9350.00000   -0.00390    9.42200   21.62500    2.74250  -33.75000  129.23070   25.21840
 9400.00000    0.00310    9.27400   24.01900    2.69970  -32.29180   64.61540   47.26150
 9450.00000    0.00320    9.57700   21.94900    2.68730  -47.89850   89.23070   32.76910
 9500.00000    0.00000    8.78400   30.97100    2.72290  -45.67750    1.02230   89.53500
 9550.00000    0.01800    8.36100   34.30200    2.69110  -31.25030   58.46160   39.23080
 9600.00000    0.21340   11.95600   39.00800    2.70060  -28.54150   83.07700   41.33200
 9650.00000    0.13350   12.07600   29.50300    2.73190  -31.45570  110.06290   48.76910
 9700.00000    0.04800   11.55500   40.92700    2.68410  -25.77160  185.53150   16.24470
 9750.00000    0.03920   11.48900   59.73600    2.68040  -25.15430  221.69810    8.76940
 9800.00000    0.11270   17.08100   62.01500    2.54780  -24.07410  813.35210    2.82050
 9850.00000    0.02400   12.52100   39.57500    2.68490  -22.81270  195.38460   13.91830
 9900.00000    0.02660   12.25400   26.74800    2.74380  -27.65620   65.64100   60.06350
 9950.00000    0.13860   13.84830   51.60600    2.55250  -21.32810  650.76920    4.02050
 10000.00000    0.08310   16.49690   56.96500    1.84720  -25.62450 1160.00000    3.31280
 10050.00000    0.07000   14.26700   44.63300    2.32480  -23.82820  758.45850    4.46140
 10100.00000    0.23300   12.57500   44.23200    2.24330  -27.50000  469.68980    8.68840
 10150.00000   -0.00260   12.77480   39.28900    2.68290  -29.76560  355.38160    7.20000
 10200.00000    0.00940   12.26700   42.53200    2.67750  -30.62590   54.35900    7.19030
 10250.00000    0.03760   11.95600   25.91200    2.70830  -28.72400  122.61150    2.22520
 10300.00000    0.06500   11.77300   31.89600    2.66980  -27.34380  213.37580   14.09250
 10350.00000    0.03450   11.91500   34.64100    2.67610  -27.94270  363.57400    7.86150
 10400.00000    0.03180   11.91600   35.22800    2.72640  -27.18700  140.12740   23.29740
 10450.00000    0.04000   11.58600   37.13500    2.71990  -27.26560  216.92310   13.78970
 10500.00000    0.14630   13.78400   55.21300    2.42170  -33.28120  393.84610    7.87740
 10550.00000    0.01720   12.15600   46.35300    2.65120  -35.07810  147.69730   21.56910
 10600.00000    0.05330   11.79700   52.56500    2.62870  -32.81250  150.76920   16.54340
 10650.00000    0.00000   11.41800   48.58600    2.67210  -38.12500   46.66260   45.64800
 10700.00000    0.02510   11.18900   42.63500    2.70160  -37.18750   46.15380  119.86660
 10750.00000    0.00240   12.29400   65.39800    2.73050  -36.25000  252.31080    9.47180
 10800.00000    0.03090   11.59800   52.81100    2.63910  -39.89570  150.76920   16.15390
 10850.00000    0.03370   12.25600   41.13800    2.65610  -41.77090  244.63000   15.23080
 10900.00000    0.00780   11.28100   54.01300    2.69170  -38.75000  104.61540   90.46640
 10950.00000    -999.25    -999.25    -999.25    -999.25  -74.68680   70.76920   70.82560
 11000.00000    -999.25    -999.25    -999.25    -999.25  -45.52150   40.00000  119.68640
 11050.00000    -999.25    -999.25    -999.25    -999.25  -39.89580   61.53850  197.74350
 11100.00000    -999.25    -999.25    -999.25    -999.25  -37.81250  292.30780   17.85490
 11150.00000    -999.25    -999.25    -999.25    -999.25  -38.43750   84.09920   28.31040
 11200.00000    -999.25    -999.25    -999.25    -999.25  -40.00000  142.56410   13.23080
 11250.00000    -999.25    -999.25    -999.25    -999.25  -45.54690   56.92310   51.54040
 11300.00000    -999.25    -999.25    -999.25    -999.25  -48.64500   43.07700  117.93210
 11350.00000    -999.25    -999.25    -999.25    -999.25 -106.30380   72.30770   58.46230
