~Version ---------------------------------------------------
VERS.      2.0 : CWLS log ASCII Standard -VERSION 2.0
WRAP.       NO : One line per depth step
CREA. 08/30/12 : LAS Creation Date
~Well ------------------------------------------------------
STRT.FT                 3800.0 : START DEPTH
STOP.FT                 8150.0 : STOP DEPTH
STEP.FT               50.00000 : STEP LENGTH
NULL.                  -999.25 : NULL VALUE
COMP.          FISHER-WEBB INC : COMPANY
WELL.             MARESH A. #1 : WELL
FLD .                 CALDWELL : FIELD
LOC .                          : LOCATION
CNTY.                 BURLESON : COUNTY
STAT.                    TEXAS : STATE
CTRY. UNITED STATES OF AMERICA : COUNTRY
SRVC.            Dresser Atlas : SERVICE COMPANY
DATE.              07-Oct-1980 : LOGDATE
API .           42051309880000 : API NUMBER
UWI .           42051309880000 : UNIQUE WELL ID
SLAT.WGS84       30.4235982939 : SURFACE LATITUDE
SLON.WGS84      -96.7541650727 : SURFACE LONGITUDE
~Curve Information -----------------------------------------
DEPT  .FT                                                               : DEPTH FEET
CALRED.IN                                                               : CALIPER FROM CDL-DIFL LOG
CALWS .IN                                                               : CALIPER [CALRED]
CONDWS.MMHO                                                             : CONDUCTIVITY [1000/DRESWS]
DENWS .G/C3 :   FORMATIONBULK DENSITY [CALCULATED FROM DPHIED, M:2.71,F : 1.0]
DPHIED.V/V                                                              : DENSITY POROSITY FROM CDL-DIFL LOG
DPOWS .V/V                                                              : DENSITY POROSITY [DPHILSED]
DRESWS.OHMM                                                             : DEEP RESISTIVITY [ILDED]
GRNED .GAPI                                                             : GAMMA RAY FROM GRN LOG [ADJ. TO GRRED]
GRRED .GAPI                                                             : GAMMA RAY FROM CDL-DIFL LOG
GRWS  .GAPI                                                             : GAMMA RAY [GRNED SPL. TO GRRED @ 7120.5']
ILDED .OHMM                                                             : DEEP INDUCTION RESISTIVITY FROM CDL-DIFL LOG
ILMED .OHMM                                                             : MEDIUM INDUCTION RESISTIVITY FROM CDL-DIFL LOG
MRESWS.OHMM                                                             : MEDIUM RESISTIVITY [ILMED]
NEUTED.NAPI                                                             : NEUTRON FROM GRN LOG [ADJ. TO GRRED]
NEUTWS.NAPI                                                             : NEUTRON [NEUTED]
SFLED .OHMM                                                             : SPHERICALLY FOCUSED FROM CDL-DIFL LOG
SPRED .MV                                                               : SPONTANEOUS POTENTIAL FROM CDL-DIFL LOG
SPWS  .MV                                                               : SPONTANEOUS POTENTIAL
SRESWS.OHMM                                                             : SHALLOW RESISTIVITY [SFLED]
~Params ----------------------------------------------------
PD  .                     GL : PERMANENT DATUM
EPD .FT                  396 : ELEVATION PERMANENT DATUM
LMF .                     KB : LOG MEASURED FROM
DAPD.FT                   18 : FEET ABOVE PERMANENT DATUM
DMF .                     KB : DRILLING MEASURED FROM
EKB .FT                  414 : KELLY BUSHING
EDF .FT                  413 : DRILLING FLOOR
EGL .FT                  396 : GROUND LEVEL
DATE.               10/07/80 : RUN DATE
RUN .                      1 : RUN NUMBER
DD  .FT                 8170 : DEPTH DRILLER
DL  .FT                 8161 : DEPTH LOGGER
BLI .FT                 8159 : BOTTOM LOG INTERVAL
TLI .FT                 3806 : TOP LOG INTERVAL
CS  .IN                8.625 : CASING SIZE
CBD .FT                 3820 : CASING BOTTOM DRILLER
CBL .FT                 3806 : CASING BOTTOM LOGGER
BS  .IN                7.875 : BIT SIZE
BSD .FT                 8170 : BIT SIZE AT DEPTH
DFT .          LIGNITE LIGNO : DRILLING FLUID TYPE
DFD .                    9.7 : DRILLING FLUID DENSITY
DFV .                     40 : DRILLING FLUID VISCOSITY
DFPH.                    8.5 : DRILLING FLUID PH
DFL .                    7.2 : DRILLING FLUID LOSS
MSS .                   TANK : MUD SAMPLE SOURCE
RMS .OHMM                3.5 : RESISTIVITY MUD SAMPLE
MST .DEGF                 85 : MUD SAMPLE TEMPERATURE
RMF .OHMM                2.6 : RESISTIVITY MUD FILTRATE SAMPLE
MFST.DEGF                 85 : MUD FILTRATE SAMPLE TEMPERATURE
RMC .OHMM                4.4 : RESISTIVITY MUD CAKE
MCST.DEGF                 85 : MUD CAKE SAMPLE TEMPERATURE
MFSS.                   CALC : MUD FILTRATE SAMPLE SOURCE
MCSS.                   CALC : MUD CAKE SAMPLE SOURCE
RMB .OHMM                1.5 : RESISTIVITY MUD AT BHT
TCS .HRS                  10 : TIME CIRCULATED STOPPED
LUN .                   6082 : LOGGING UNIT NUMBER
LUL .                  BRYAN : LOGGING UNIT LOCATION
ENGI.                  CROSS : RECORDING ENGINEER
WITN.        BURDELL MENEFEE : WITNESSED BY
CLNT.                A2DTECH : CLIENT CODE
ORIG.          1" 2.5" PRINT : ORIGIN OF DATA
UWI .         42051309880000 : UNIQUE WELL ID
DICO. A2D Technologies, Inc. : DIGITIZING COMPANY
~Other -----------------------------------------------------
GRRED FAILED AT 7120'
~ASCII -----------------------------------------------------
 3800.00000    7.97960    7.97960    -999.25    -999.25    -999.25    -999.25    -999.25    -999.25    -999.25    -999.25    -999.25    -999.25    -999.25    -999.25    -999.25    -999.25    -999.25    -999.25    -999.25
 3850.00000    7.45300    7.45300  112.03600    -999.25    -999.25    -999.25    8.92570    -999.25    -999.25    -999.25    8.92570   10.86340   10.86340    -999.25    -999.25    9.98280  -52.20510  -52.20510    9.98280
 3900.00000    7.40780    7.40780  289.65360    -999.25    -999.25    -999.25    3.45240    -999.25    -999.25    -999.25    3.45240    3.76200    3.76200    -999.25    -999.25    4.79270  -31.82640  -31.82640    4.79270
 3950.00000    7.61310    7.61310  402.13940    -999.25    -999.25    -999.25    2.48670    -999.25    -999.25    -999.25    2.48670    2.58410    2.58410    -999.25    -999.25    3.63920  -29.28120  -29.28120    3.63920
 4000.00000    7.03480    7.03480  177.56310    -999.25    -999.25    -999.25    5.63180    -999.25    -999.25    -999.25    5.63180    7.72980    7.72980    -999.25    -999.25    9.37160  -60.02770  -60.02770    9.37160
 4050.00000    7.09210    7.09210  191.22650    -999.25    -999.25    -999.25    5.22940    -999.25    -999.25    -999.25    5.22940    7.04580    7.04580    -999.25    -999.25   10.33750  -57.93470  -57.93470   10.33750
 4100.00000    7.34050    7.34050  211.05060    -999.25    -999.25    -999.25    4.73820    -999.25    -999.25    -999.25    4.73820    5.09300    5.09300    -999.25    -999.25    6.08990  -37.37690  -37.37690    6.08990
 4150.00000    7.22570    7.22570  233.98930    -999.25    -999.25    -999.25    4.27370    -999.25    -999.25    -999.25    4.27370    4.53540    4.53540    -999.25    -999.25    5.61760  -38.17300  -38.17300    5.61760
 4200.00000    7.10790    7.10790  268.73050    -999.25    -999.25    -999.25    3.72120    -999.25    -999.25    -999.25    3.72120    3.79690    3.79690    -999.25    -999.25    4.38150  -30.09710  -30.09710    4.38150
 4250.00000    7.34340    7.34340  271.04680    -999.25    -999.25    -999.25    3.68940    -999.25    -999.25    -999.25    3.68940    3.88670    3.88670    -999.25    -999.25    4.44520  -30.25940  -30.25940    4.44520
 4300.00000    7.68120    7.68120  331.98330    -999.25    -999.25    -999.25    3.01220    -999.25    -999.25    -999.25    3.01220    3.11010    3.11010    -999.25    -999.25    3.79730  -28.54780  -28.54780    3.79730
 4350.00000    7.96040    7.96040  315.58680    -999.25    -999.25    -999.25    3.16870    -999.25    -999.25    -999.25    3.16870    3.29200    3.29200    -999.25    -999.25    3.76980  -27.74650  -27.74650    3.76980
 4400.00000    8.22140    8.22140  406.40490    -999.25    -999.25    -999.25    2.46060    -999.25    -999.25    -999.25    2.46060    2.51490    2.51490    -999.25    -999.25    2.85980  -27.09350  -27.09350    2.85980
 4450.00000    7.78170    7.78170  292.30360    -999.25    -999.25    -999.25    3.42110    -999.25    -999.25    -999.25    3.42110    3.48930    3.48930    -999.25    -999.25    3.55600  -26.63980  -26.63980    3.55600
 4500.00000    8.20950    8.20950  432.84420    -999.25    -999.25    -999.25    2.31030    -999.25    -999.25    -999.25    2.31030    2.40780    2.40780    -999.25    -999.25    2.65820  -25.04830  -25.04830    2.65820
 4550.00000    8.81530    8.81530  505.74020    -999.25    -999.25    -999.25    1.97730    -999.25    -999.25    -999.25    1.97730    2.01680    2.01680    -999.25    -999.25    2.58260  -25.07180  -25.07180    2.58260
 4600.00000    8.93260    8.93260  516.36890    -999.25    -999.25    -999.25    1.93660    -999.25    -999.25    -999.25    1.93660    1.97540    1.97540    -999.25    -999.25    2.53500  -23.94160  -23.94160    2.53500
 4650.00000    8.86690    8.86690  486.64170    -999.25    -999.25    -999.25    2.05490    -999.25    -999.25    -999.25    2.05490    2.09590    2.09590    -999.25    -999.25    2.74750  -25.24990  -25.24990    2.74750
 4700.00000    8.84820    8.84820  458.27410    -999.25    -999.25    -999.25    2.18210    -999.25    -999.25    -999.25    2.18210    2.22480    2.22480    -999.25    -999.25    2.63080  -27.30430  -27.30430    2.63080
 4750.00000    8.29190    8.29190  465.89640    -999.25    -999.25    -999.25    2.14640    -999.25    -999.25    -999.25    2.14640    2.21040    2.21040    -999.25    -999.25    2.70820  -26.12480  -26.12480    2.70820
 4800.00000    9.09520    9.09520  566.63640    -999.25    -999.25    -999.25    1.76480    -999.25    -999.25    -999.25    1.76480    1.83410    1.83410    -999.25    -999.25    2.14330  -27.70610  -27.70610    2.14330
 4850.00000    8.95850    8.95850  927.12780    -999.25    -999.25    -999.25    1.07860    -999.25    -999.25    -999.25    1.07860    1.01790    1.01790    -999.25    -999.25    1.63350  -26.17950  -26.17950    1.63350
 4900.00000    8.65160    8.65160  492.75650    -999.25    -999.25    -999.25    2.02940    -999.25    -999.25    -999.25    2.02940    2.15050    2.15050    -999.25    -999.25    2.32310  -28.01600  -28.01600    2.32310
 4950.00000    8.46280    8.46280  463.39200    -999.25    -999.25    -999.25    2.15800    -999.25    -999.25    -999.25    2.15800    2.25660    2.25660    -999.25    -999.25    2.49530  -28.76280  -28.76280    2.49530
 5000.00000    9.05230    9.05230  670.37610    -999.25    -999.25    -999.25    1.49170    -999.25    -999.25    -999.25    1.49170    1.41730    1.41730    -999.25    -999.25    2.14510  -30.47660  -30.47660    2.14510
 5050.00000    9.05170    9.05170  717.61750    -999.25    -999.25    -999.25    1.39350    -999.25    -999.25    -999.25    1.39350    1.32440    1.32440    -999.25    -999.25    1.88890  -26.36230  -26.36230    1.88890
 5100.00000    8.24060    8.24060  381.51920    -999.25    -999.25    -999.25    2.62110    -999.25    -999.25    -999.25    2.62110    2.72050    2.72050    -999.25    -999.25    2.95890  -29.94680  -29.94680    2.95890
 5150.00000    8.15440    8.15440  368.43270    -999.25    -999.25    -999.25    2.71420    -999.25    -999.25    -999.25    2.71420    2.76190    2.76190    -999.25    -999.25    3.22700  -33.06900  -33.06900    3.22700
 5200.00000    8.09130    8.09130  448.26970    -999.25    -999.25    -999.25    2.23080    -999.25    -999.25    -999.25    2.23080    2.35650    2.35650    -999.25    -999.25    2.98860  -31.18430  -31.18430    2.98860
 5250.00000    8.76220    8.76220  698.90970    -999.25    -999.25    -999.25    1.43080    -999.25    -999.25    -999.25    1.43080    1.36150    1.36150    -999.25    -999.25    1.91530  -31.68830  -31.68830    1.91530
 5300.00000    9.11100    9.11100  690.17880    -999.25    -999.25    -999.25    1.44890    -999.25    -999.25    -999.25    1.44890    1.38410    1.38410    -999.25    -999.25    1.83570  -29.98390  -29.98390    1.83570
 5350.00000    9.50560    9.50560  670.10650    -999.25    -999.25    -999.25    1.49230    -999.25    -999.25    -999.25    1.49230    1.41720    1.41720    -999.25    -999.25    2.05640  -29.91050  -29.91050    2.05640
 5400.00000    9.08110    9.08110  708.46620    -999.25    -999.25    -999.25    1.41150    -999.25    -999.25    -999.25    1.41150    1.34810    1.34810    -999.25    -999.25    1.89980  -29.56970  -29.56970    1.89980
 5450.00000    8.79990    8.79990  569.63830    -999.25    -999.25    -999.25    1.75550    -999.25    -999.25    -999.25    1.75550    1.67090    1.67090    -999.25    -999.25    2.05900  -30.43940  -30.43940    2.05900
 5500.00000    8.58740    8.58740  473.21600    -999.25    -999.25    -999.25    2.11320    -999.25    -999.25    -999.25    2.11320    2.05830    2.05830    -999.25    -999.25    2.16920  -28.80350  -28.80350    2.16920
 5550.00000    8.29840    8.29840  602.95450    -999.25    -999.25    -999.25    1.65850    -999.25    -999.25    -999.25    1.65850    1.61610    1.61610    -999.25    -999.25    1.96090  -26.18010  -26.18010    1.96090
 5600.00000    8.49440    8.49440  587.61310    -999.25    -999.25    -999.25    1.70180    -999.25    -999.25    -999.25    1.70180    1.66710    1.66710    -999.25    -999.25    2.24590  -29.56550  -29.56550    2.24590
