~Version ---------------------------------------------------
VERS.      2.0 : CWLS log ASCII Standard -VERSION 2.0
WRAP.      YES : Multiple lines per depth step
CREA. 10/06/20 : LAS Creation Date
~Well ------------------------------------------------------
STRT.FT                 3150.0 : START DEPTH
STOP.FT                18400.0 : STOP DEPTH
STEP.FT               50.00000 : STEP LENGTH
NULL.                  -999.25 : NULL VALUE
COMP. AMOCO PRODUCTION COMPANY : COMPANY
WELL.       MARTIN GAS UNIT #1 : WELL
FLD .                  WILDCAT : FIELD
LOC .                          : LOCATION
CNTY.                     LEON : COUNTY
STAT.                    TEXAS : STATE
CTRY. UNITED STATES OF AMERICA : COUNTRY
SRVC.             Schlumberger : SERVICE COMPANY
DATE.              06-Oct-1998 : LOGDATE
API .           42289312900000 : API NUMBER
UWI .           42289312900000 : UNIQUE WELL ID
SLAT.WGS84       31.2448401024 : SURFACE LATITUDE
SLON.WGS84      -96.2384028977 : SURFACE LONGITUDE
~Curve Information -----------------------------------------
DEPT    .FT    : DEPTH FEET
AT20ED  .OHMM  : 20 INCH ARRAY RESISTIVITY TWO FOOT RESOLUTION FROM AIT LOG
AT30ED  .OHMM  : 30 INCH ARRAY RESISTIVITY TWO FOOT RESOLUTION FROM AIT LOG
AT60ED  .OHMM  : 60 INCH ARRAY RESISTIVITY TWO FOOT RESOLUTION FROM AIT LOG
AT90ED  .OHMM  : 90 INCH ARRAY RESISTIVITY TWO FOOT RESOLUTION FROM AIT LOG
BITSED  .IN    : BIT SIZE FROM RUN HEADERS
CALDED  .IN    : CALIPER FROM DENSITY LOG [DSH. TO GRRED]
CALWS   .IN    : CALIPER [TOP CALDED 14108' (DCALDED+BITSED) TD]
CONDWS  .MMHO  : DEEP CONDUCTIVITY [1000/DRESWS]
DCALDED .IN    : DIFFERENTIAL CALIPER FROM DENSITY LOG [DSH. TO GRRED]
DCORWS  .G/C3  : DENSITY CORRECTION [TOP DRHOED 16650' DRHED TD]
DENWS   .G/C3  : BULK DENSITY [CALC. FROM DPOLSWS]
DPHILSED.V/V   : DENSITY POROSITY (LS) [M=2.71 F=1.00] [DSH. TO GRRED]
DPOLSED .V/V   : DENSITY POROSITY (LS) [M=2.71 F=1.00] [DSH. TO GRRED]
DPOLSWS .V/V   : DENSITY POROSITY (LS) [M=2.71 F=1.00] [TOP DPHILSED 16650' DPOLSED TD]
DRESWS  .OHMM  : DEEP RESISTIVITY [TOP AT90ED 14100' ILDED 16650' IDPHED TD]
DRHED   .G/C3  : DENSITY CORRECTION FROM DENSITY LOG [DSH. TO GRRED]
DRHOED  .G/C3  : DENSITY CORRECTION FROM DENSITY LOG [DSH. TO GRRED]
DTCOED  .US/F  : DELTA TIME COMPRESSIONAL FROM SONIC LOG
DTLFED  .US/F  : DELTA TIME LONG SPACING FAR DETECTOR FROM SONIC LOG
DTLNED  .US/F  : DELTA TIME LONG SPACING NEAR DETECTOR FROM SONIC LOG
DTSMED  .US/F  : DELTA TIME SHEAR WAVE FROM SONIC LOG
DTSWS   .US/F  : DELTA TIME SHEAR [DTSMED]
DTWS    .US/F  : DELTA TIME COMPRESSIONAL [TOP DTCOED 16650' DTLNED TD]
GRDED   .GAPI  : GAMMA RAY FROM DENSITY LOG [DSH. TO GRRED]
GRRED   .GAPI  : GAMMA RAY FROM RESISTIVITY LOG
GRWS    .GAPI  : GAMMA RAY [GRRED][RESCALED GRWS IN CSG )14030-14106' & 16606-16645') FROM 0/90-0/150]
IDPHED  .OHMM  : DEEP INDUCTION PHASE RESISTIVITY
ILDED   .OHMM  : DEEP INDUCTION RESISTIVITY
ILMED   .OHMM  : MEDIUM INDUCTION RESISTIVITY
IMPHED  .OHMM  : MEDIUM INDUCTION PHASE RESISTIVITY
MRESWS  .OHMM  : MEDIUM RESISTIVITY [TOP AT30ED 14100' ILMED 16650' IMPHED TD]
NPHILSED.V/V   : NEUTRON POROSITY (LS) [DSH. TO GRRED]
NPOLSWS .V/V   : NEUTRON POROSITY (LS) [NPHILSED]
PEFED   .B/E   : PHOTOELECTRIC FACTOR FROM DENSITY LOG [DSH. TO GRRED]
PEFWS   .B/E   : PHOTOELECTRIC FACTOR [PEFED]
SFLUED  .OHMM  : SPHERICALLY FOCUSED UNAVERAGED RESISTIVITY
SPWS    .MV    : SPONTANEOUS POTENTIAL [BASELINE 0 MV] [SPRED]
SPRED   .MV    : SPONTANEOUS POTENTIAL FROM RESISTIVITY LOG
SRESWS  .OHMM  : SHALLOW RESISTIVITY [TOP AT20ED 14100' SFLUED TD]
TENDED  .LBF   : TENSION FROM DENSITY LOG [DSH. TO GRRED]
TENRED  .LBF   : TENSION FROM RESISTIVITY LOG
~Params ----------------------------------------------------
PD  .                     GL : PERMANENT DATUM
EPD .FT                389.3 : ELEVATION PERMANENT DATUM
LMF .                     KB : LOG MEASURED FROM
DAPD.FT                 33.7 : MEASUREMENT ABOVE PERMANENT DATUM
DMF .                     KB : DRILLING MEASURED FROM
EKB .FT                  423 : KELLY BUSHING
EDF .FT                  422 : DRILLING FLOOR
EGL .FT                389.3 : GROUND LEVEL
DATE.               10/06/98 : RUN DATE
RUN .                      3 : RUN NUMBER
DD  .FT                18400 : DEPTH DRILLER
DL  .FT                18391 : DEPTH LOGGER
BLI .FT                18381 : BOTTOM LOG INTERVAL
TLI .FT                16646 : TOP LOG INTERVAL
CS  .IN                7.625 : CASING SIZE
CBD .FT                16650 : CASING BOTTOM DRILLER
CBL .FT                16646 : CASING BOTTOM LOGGER
BS  .IN                 6.25 : BIT SIZE
BSD .FT                18400 : BIT SIZE AT DEPTH
DFT .             VERSADRILL : DRILLING FLUID TYPE
DFD .                   17.9 : DRILLING FLUID DENSITY
DFV .                     45 : DRILLING FLUID VISCOSITY
MSS .                MUD PIT : MUD SAMPLE SOURCE
MFSS.                   CALC : MUD FILTRATE SAMPLE SOURCE
MCSS.                   CALC : MUD CAKE SAMPLE SOURCE
TCS .HRS                 830 : TIME CIRCULATED STOPPED
TLAB.HRS                2357 : TIME LOGGER AT BOTTOM
LUN .                   2142 : LOGGING UNIT NUMBER
LUL .                  TYLER : LOGGING UNIT LOCATION
ENGI.                SKRBICH : RECORDING ENGINEER
WITN.       WALKER WYSZYNSKI : WITNESSED BY
CLNT.                A2DTECH : CLIENT CODE
ORIG.         1" 2" 5" PRINT : ORIGIN OF DATA
UWI .         42289312900000 : UNIQUE WELL ID
DICO. A2D Technologies, Inc. : DIGITIZING COMPANY
~Other -----------------------------------------------------
1) RESISTIVITY INVALID 14360-14404', 15400-15475 NULLED (REPEAT LOG N/A). PATCHED FROM REPEAT LOG 15950-15980' & 16590-16645'.
2) GRRED PATCHED FROM REPEAT LOG 15400-15500 & 16550-16606'.
3) SONIC NOT LOGGED 14100-16650' AND ERRATIC ON SOME AREAS ABOVE 6300' WITH SOME GAPS AND SPIKES HENCE PATCHED SOME SMALL AREAS.
4) LDL/CNL STICKING TOOL ENTIRE RUN2 - NULLED PEF INVALID @ 15410-15625' & 15730-15410', PATCHED DENSITY@16025-16040', PATCHED NEUTRON@14295-14320' & PATCHED GRDED@VARIOUS DEPTHS BASED ON GRRED. ANY DOUBTS, PLEASE REFER TO ORIGINAL CURVES IN STANDARD LAS. STICKING TOOL MAY SLIGHTLY AFFECT LOG QUALITY ON OTHER AREAS, PLEASE USE WITH CAUTIONS.
~ASCII -----------------------------------------------------
# ...
 17550.00000    -999.25    -999.25    -999.25    -999.25    6.25000    -999.25    6.78420    4.43550    0.53420   -0.03460    2.73630    -999.25   -0.01540   -0.01540  225.45490   -0.03460    -999.25    -999.25   50.46560   50.86510    -999.25    -999.25   50.86510   16.33390   13.13740   13.13740  225.45490    -999.25    -999.25  239.13420  239.13420    0.00830    0.00830    -999.25    -999.25    -999.25    -999.25    -999.25    -999.25 4202.80570 4426.52390
 17600.00000    -999.25    -999.25    -999.25    -999.25    6.25000    -999.25    6.55970    6.07190    0.30970   -0.01350    2.72110    -999.25   -0.00650   -0.00650  164.69240   -0.01350    -999.25    -999.25   51.01990   51.41350    -999.25    -999.25   51.41350   25.15420   22.22900   22.22900  164.69240    -999.25    -999.25  135.09760  135.09760    0.00620    0.00620    -999.25    -999.25    -999.25    -999.25    -999.25    -999.25 4277.27540 4439.30860
 17650.00000    -999.25    -999.25    -999.25    -999.25    6.25000    -999.25    6.52370    0.49860    0.27370   -0.01980    2.71020    -999.25   -0.00010   -0.00010 2005.80640   -0.01980    -999.25    -999.25   49.24500   49.95280    -999.25    -999.25   49.95280   12.14460   14.11900   14.11900 2005.80640    -999.25    -999.25 1965.69730 1965.69730    0.00280    0.00280    -999.25    -999.25    -999.25    -999.25    -999.25    -999.25 4252.89210 4499.46440
 17700.00000    -999.25    -999.25    -999.25    -999.25    6.25000    -999.25    6.50900    1.88610    0.25900   -0.05080    2.71920    -999.25   -0.00540   -0.00540  530.19810   -0.05080    -999.25    -999.25   49.75570   50.26470    -999.25    -999.25   50.26470   12.46610   15.45960   15.45960  530.19810    -999.25    -999.25  458.20070  458.20070    0.00380    0.00380    -999.25    -999.25    -999.25    -999.25    -999.25    -999.25 4308.23240 4493.56690
 17750.00000    -999.25    -999.25    -999.25    -999.25    6.25000    -999.25    6.29140    5.33310    0.04140   -0.01280    2.72930    -999.25   -0.01130   -0.01130  187.50780   -0.01280    -999.25    -999.25   50.70810   51.24090    -999.25    -999.25   51.24090   37.75860   38.21970   38.21970  187.50780    -999.25    -999.25  152.99350  152.99350    0.00740    0.00740    -999.25    -999.25    -999.25    -999.25    -999.25    -999.25 4326.70120 4550.78710
 17800.00000    -999.25    -999.25    -999.25    -999.25    6.25000    -999.25    6.24430    0.49650   -0.00570   -0.01190    2.73290    -999.25   -0.01340   -0.01340 2014.11850   -0.01190    -999.25    -999.25   49.23340   49.62530    -999.25    -999.25   49.62530   18.33210   16.67760   16.67760 2014.11850    -999.25    -999.25 2027.67350 2027.67350    0.00300    0.00300    -999.25    -999.25    -999.25    -999.25    -999.25    -999.25 4405.42290 4616.29100
 17850.00000    -999.25    -999.25    -999.25    -999.25    6.25000    -999.25    6.25760    4.00540    0.00760   -0.00420    2.74520    -999.25   -0.02060   -0.02060  249.66580   -0.00420    -999.25    -999.25   50.33790   50.73450    -999.25    -999.25   50.73450   29.51920   24.80430   24.80430  249.66580    -999.25    -999.25  215.06470  215.06470    0.00500    0.00500    -999.25    -999.25    -999.25    -999.25    -999.25    -999.25 4383.38960 4674.19920
 17900.00000    -999.25    -999.25    -999.25    -999.25    6.25000    -999.25    6.25750    0.49910    0.00750   -0.00970    2.74110    -999.25   -0.01820   -0.01820 2003.50090   -0.00970    -999.25    -999.25   49.18360   49.78430    -999.25    -999.25   49.78430   16.63020   13.02070   13.02070 2003.50090    -999.25    -999.25  981.40170  981.40170    0.00180    0.00180    -999.25    -999.25    -999.25    -999.25    -999.25    -999.25 4440.05760 4672.90820
 17950.00000    -999.25    -999.25    -999.25    -999.25    6.25000    -999.25    6.25180    4.55430    0.00180   -0.01190    2.72950    -999.25   -0.01140   -0.01140  219.57510   -0.01190    -999.25    -999.25   50.04250   50.77720    -999.25    -999.25   50.77720   21.17940   19.71520   19.71520  219.57510    -999.25    -999.25  176.01240  176.01240    0.00400    0.00400    -999.25    -999.25    -999.25    -999.25    -999.25    -999.25 4434.54740 4659.60840
 18000.00000    -999.25    -999.25    -999.25    -999.25    6.25000    -999.25    6.23140    4.94280   -0.01860   -0.01000    2.72760    -999.25   -0.01030   -0.01030  202.31310   -0.01000    -999.25    -999.25   49.88950   50.58370    -999.25    -999.25   50.58370   12.44580   13.54230   13.54230  202.31310    -999.25    -999.25  189.09330  189.09330    0.00350    0.00350    -999.25    -999.25    -999.25    -999.25    -999.25    -999.25 4431.26120 4697.36470
 18050.00000    -999.25    -999.25    -999.25    -999.25    6.25000    -999.25    6.22140    0.50790   -0.02860   -0.01240    2.72880    -999.25   -0.01100   -0.01100 1968.73190   -0.01240    -999.25    -999.25   48.79040   49.19680    -999.25    -999.25   49.19680   13.27900   12.37530   12.37530 1968.73190    -999.25    -999.25 2013.78130 2013.78130    0.00200    0.00200    -999.25    -999.25    -999.25    -999.25    -999.25    -999.25 4451.12260 4702.59720
 18100.00000    -999.25    -999.25    -999.25    -999.25    6.25000    -999.25    6.23600    0.50170   -0.01400   -0.01270    2.72440    -999.25   -0.00840   -0.00840 1993.33520   -0.01270    -999.25    -999.25   49.34010   49.71720    -999.25    -999.25   49.71720   15.10540   14.66740   14.66740 1993.33520    -999.25    -999.25 2010.88570 2010.88570    0.00100    0.00100    -999.25    -999.25    -999.25    -999.25    -999.25    -999.25 4437.27780 4746.21440
 18150.00000    -999.25    -999.25    -999.25    -999.25    6.25000    -999.25    6.27270    0.49960    0.02270   -0.01340    2.73480    -999.25   -0.01450   -0.01450 2001.74510   -0.01340    -999.25    -999.25   48.80030   49.72930    -999.25    -999.25   49.72930   21.12830   19.83280   19.83280 2001.74510    -999.25    -999.25 2074.89140 2074.89140    0.00100    0.00100    -999.25    -999.25    -999.25    -999.25    -999.25    -999.25 4409.62600 4743.73880
 18200.00000    -999.25    -999.25    -999.25    -999.25    6.25000    -999.25    6.22050    0.49780   -0.02950   -0.01130    2.72830    -999.25   -0.01070   -0.01070 2008.99560   -0.01130    -999.25    -999.25   48.70430   49.40680    -999.25    -999.25   49.40680   17.72450   18.11710   18.11710 2008.99560    -999.25    -999.25 2008.63610 2008.63610    0.00050    0.00050    -999.25    -999.25    -999.25    -999.25    -999.25    -999.25 4505.27540 4744.94430
 18250.00000    -999.25    -999.25    -999.25    -999.25    6.25000    -999.25    6.22760    2.69430   -0.02240   -0.01340    2.72080    -999.25   -0.00630   -0.00630  371.15800   -0.01340    -999.25    -999.25   50.37820   50.77400    -999.25    -999.25   50.77400   21.85460   24.35120   24.35120  371.15800    -999.25    -999.25  241.15930  241.15930    0.00070    0.00070    -999.25    -999.25    -999.25    -999.25    -999.25    -999.25 4519.43510 4815.02390
 18300.00000    -999.25    -999.25    -999.25    -999.25    6.25000    -999.25    6.25750    0.48970    0.00750   -0.01700    2.74160    -999.25   -0.01850   -0.01850 2042.18950   -0.01700    -999.25    -999.25   48.74690   49.18970    -999.25    -999.25   49.18970   14.38240   13.11640   13.11640 2042.18950    -999.25    -999.25 2010.62630 2010.62630    0.00010    0.00010    -999.25    -999.25    -999.25    -999.25    -999.25    -999.25 4636.53220 4827.17870
 18350.00000    -999.25    -999.25    -999.25    -999.25    6.25000    -999.25    6.21770    0.50050   -0.03230   -0.01320    2.73360    -999.25   -0.01380   -0.01380 1997.97830   -0.01320    -999.25    -999.25   49.07050   49.46240    -999.25    -999.25   49.46240   16.97040   13.40120   13.40120 1997.97830    -999.25    -999.25 1467.18880 1467.18880    0.00010    0.00010    -999.25    -999.25    -999.25    -999.25    -999.25    -999.25 4677.54830 4865.08690
 18400.00000    -999.25    -999.25    -999.25    -999.25    6.25000    -999.25    -999.25    -999.25    -999.25    -999.25    -999.25    -999.25    -999.25    -999.25    -999.25    -999.25    -999.25    -999.25    -999.25    -999.25    -999.25    -999.25    -999.25    -999.25    -999.25    -999.25    -999.25    -999.25    -999.25    -999.25    -999.25    -999.25    -999.25    -999.25    -999.25    -999.25    -999.25    -999.25    -999.25 4061.29790 4355.16650
