~Version ---------------------------------------------------
VERS. 2.0 : CWLS log ASCII Standard -VERSION 2.0
WRAP.  NO : ONE LINE PER DEPTH STEP
~Well ------------------------------------------------------
STRT.F                  2600.0 : START DEPTH
STOP.F                 10950.0 : STOP DEPTH
STEP.F                50.00000 : STEP LENGTH
NULL.                  -999.25 : NULL VALUE
COMP.        PRIMARY FUELS INC : COMPANY
WELL.               COURAND #1 : WELL
FLD .                  WILDCAT : FIELD
LOC .                          : LOCATION
CNTY.                 ATASCOSA : COUNTY
STAT.                    TEXAS : STATE
CTRY. UNITED STATES OF AMERICA : COUNTRY
SRVC.             Schlumberger : SERVICE COMPANY
DATE.              04-May-1985 : LOGDATE
API .           42013332560000 : API NUMBER
UWI .           42013332560000 : UNIQUE WELL ID
SLAT.WGS84       28.9073224722 : SURFACE LATITUDE
SLON.WGS84      -98.4483829135 : SURFACE LONGITUDE
~Curve Information -----------------------------------------
DEPT.F                 : 
RHOB.G/C3 45 350 01 00 : BULK DENSITY
DRHO.G/C3 45 356 01 00 : DENSITY CORRECTION
NPHI.DEC  42 890 03 00 : NEUTRON POROSITY SANDSTONE
DPHI.DEC  45 890 12 00 : DENSITY POROSITY SANDSTONE
DCAL.IN   07 280 30 00 : DIFFERENTIAL CALIPER
DT  .US/F 60 520 00 00 : INTERVAL TRANSIT TIME
GRR .GAPI 07 310 01 00 : GAMMA RAY
ILD .OHMM 07 120 46 00 : INDUCTION LOG DEEP
ILM .OHMM 07 120 44 00 : INDUCTION LOG MEDIUM
SFLU.OHMM 07 220 01 00 : SPHERICALLY FOCUSED LOG UNAVERAGED RESISTIVITY
SPR .MV   07 010 01 00 : SPONTANEOUS POTENTIAL FROM RES. LOG
~Params ----------------------------------------------------
PD  .                     GL : PERMANENT DATUM
EPD .F                   397 : ELEVATION PERMANENT DATUM
LMF .                    RKB : LOG MEASURED FROM
DAPD.F                    18 : FEET ABOVE PERMANENT DATUM
DMF .                    RKB : DRILLING MEASURED FROM
EKB .F                   415 : KELLING BUSHING
EDF .F                   414 : DRILLING FLOOR
EGL .F                   397 : GROUND LEVEL
DATE.               05/04/85 : RUN DATE
RUN .                      1 : RUN NUMBER
DD  .F                 11008 : DEPTH DRILLER
DL  .F                 10974 : DEPTH LOGGER
BLI .F                 10974 : BOTTOM LOG INTERVAL
TLI .F                  2642 : TOP LOG INTERVAL
CS  .IN                9.625 : CASING SIZE
CBD .F                  2600 : CASING BOTTOM DRILLER
CBL .F                  2642 : CASING BOTTOM LOGGER
BS  .IN                 8.75 : BIT SIZE
BSD .F                 11008 : BIT SIZE AT DEPTH
DFT .                 HL 100 : DRILLING FLUID TYPE
DFD .                   10.1 : DRILLING FLUID DENSITY
DFV .                     41 : DRILLING FLUID VISCOSITY
DFPH.                    8.5 : DRILLING FLUID PH
DFL .                    4.5 : DRILLING FLUID LOSS
MSS .              CIRC TANK : MUD SAMPLE SOURCE
RMS .OHMM              0.961 : RESISTIVITY MUD SAMPLE
MST .F                    75 : MUD SAMPLE TEMPERATURE
RMF .OHMM              0.843 : RESISTIVITY MUD FILTRATE SAMPLE
MFST.F                    75 : MUD FILTRATE SAMPLE TEMPERATURE
RMC .OHMM               1.27 : RESISTIVITY MUD CAKE
MCST.F                    75 : MUD CAKE SAMPLE TEMPERATURE
MFSS.                   CALC : MUD FILTRATE SAMPLE SOURCE
MCSS.                   CALC : MUD CAKE SAMPLE SOURCE
RMB .OHMM              0.488 : RESISTIVITY MUD AT BHT
TCS .HRS                 210 : TIME CURCULATED STOPPED
TLAB.HRS                 915 : TIME LOGGER AT BOTTOM
LUN .                   8258 : LOGGING UNIT NUMBER
LUL .             PLEASANTON : LOGGING UNIT LOCATION
ENGI.              GARY SHAW : RECORDING ENGINEER
WITN.        LEE TIM MAGUIRE : WITNESSED BY
CLNT.                A2DTECH : CLIENT CODE
ORIG.               5" PRINT : ORIGIN OF DATA
UWI .         42013332560000 : UNIQUE WELL ID
DICO. A2D Technologies, Inc. : DIGITIZING COMPANY
~Other -----------------------------------------------------
~ASCII -----------------------------------------------------
# ...
 5650.00000    2.36710    0.14730    0.23270    0.18760    1.05090   81.69640   67.72160    3.56880    2.87940    2.78580   -2.73620
 5700.00000    2.40120    0.02470    0.30180    0.16810    2.08730   95.23810   81.17660    2.14110    2.07640    2.06950    3.36610
 5750.00000    2.54030    0.04440    0.25440    0.08100    1.79140   81.54760   79.20490    3.46100    3.18930    3.18280    1.20080
 5800.00000    2.44930    0.05130    0.38320    0.12830    1.58400  104.43790   83.40710    1.33810    1.32440    1.52170    2.18500
 5850.00000    -999.25    -999.25    -999.25    -999.25    0.99190   92.45460   81.83790    2.09770    1.93300    2.09080    0.61020
 5900.00000    -999.25    -999.25    -999.25    -999.25    1.85050   95.26540   90.00140    1.95300    1.93310    1.94600    0.80710
 5950.00000    -999.25    -999.25    -999.25    -999.25    5.96660   94.93950   62.64600    2.20760    1.71000    2.22340   -0.17720
 6000.00000    -999.25    -999.25    -999.25    -999.25    5.72930   92.40980   58.89710    2.85020    2.01370    2.04840   -3.32680
 6050.00000    -999.25    -999.25    -999.25    -999.25    2.97580  103.42260   73.89710    1.70990    1.43480    1.60170   -2.34250
 6100.00000    -999.25    -999.25    -999.25    -999.25    4.92970   97.02310   73.23530    1.78130    1.55970    1.65180   -0.35430
 6150.00000    -999.25    -999.25    -999.25    -999.25    5.25560   93.30220   77.64710    2.16280    2.11910    2.11250    0.41340
 6200.00000    -999.25    -999.25    -999.25    -999.25    3.83440   88.24300   71.25000    2.79250    2.37120    2.20090    0.61020
 6250.00000    -999.25    -999.25    -999.25    -999.25    2.85710   91.81550   73.67650    2.07650    1.95300    2.38880    1.20080
 6300.00000    -999.25    -999.25    -999.25    -999.25    1.13990   95.98130   87.13310    1.68110    1.64150    1.68600    0.61020
 6350.00000    -999.25    -999.25    -999.25    -999.25    2.41300   87.79590   77.20590    2.32340    2.32340    2.24620    0.63000
 6400.00000    -999.25    -999.25    -999.25    -999.25    2.29500   96.13100   74.77980    1.60830    1.60830    1.56920    1.20080
 6450.00000    -999.25    -999.25    -999.25    -999.25    2.76850   83.03590   82.27960    2.93890    2.82090    2.87300   -0.68880
 6500.00000    -999.25    -999.25    -999.25    -999.25    1.82100   87.92680   75.88240    2.24530    2.09740    2.13410    1.00390
 6550.00000    -999.25    -999.25    -999.25    -999.25    1.22910  108.22220  113.82460    1.20490    1.18380    1.15380   -1.49600
 6600.00000    -999.25    -999.25    -999.25    -999.25    1.46560  102.14630   95.29450    1.58700    1.51270    1.37350   -1.88930
 6650.00000    -999.25    -999.25    -999.25    -999.25   -0.31060  104.81320  114.04430    1.21720    1.24550    1.21450   -0.10340
 6700.00000    -999.25    -999.25    -999.25    -999.25    0.48850  112.42070  121.11180    1.15670    1.19580    1.03090   -1.65280
 6750.00000    -999.25    -999.25    -999.25    -999.25    0.60680   90.14850   97.55560    1.76050    1.64150    1.63490   -0.37400
 6800.00000    -999.25    -999.25    -999.25    -999.25    1.70290  102.71710  102.78340    1.31880    1.21670    1.31100    0.41340
 6850.00000    -999.25    -999.25    -999.25    -999.25    1.25830  102.44320   99.26470    1.22380    1.15970    1.20810    0.41340
 6900.00000    2.30770    0.04680    0.32960    0.23820    4.30770  105.40510   94.63240    1.15100    1.14800    1.13620  -40.90550
 6950.00000    2.25170    0.07770    0.24230    0.26300    3.92330   92.96300   76.98530    2.23830    2.14100    2.02610  -36.94920
 7000.00000    2.52100    0.00770    0.17100    0.11500    3.65680   80.66670   48.97060    4.97230    4.79960    4.84910  -47.99210
 7050.00000    2.43170    0.02690    0.18700    0.17480    2.11700   92.36870   57.68390    4.01120    4.89900   11.55720  -45.62990
 7100.00000    2.51730    0.00330    0.11390    0.11230    3.53810   72.96130   46.98550   14.86440   15.07470   16.89200  -51.53540
 7150.00000    2.58890   -0.01660    0.07380    0.06710    3.53810   68.81410   43.01470    8.21090    8.42040   10.22340  -43.66140
 7200.00000    2.52900   -0.00110    0.10330    0.10260    3.50850   74.44630   47.42650    9.52370    8.85950    9.51750  -51.92910
 7250.00000    2.48710    0.00040    0.19670    0.12920    3.62690   72.81480   62.86900   16.80640   14.99830   29.89340  -42.08660
 7300.00000    2.49000    0.01440    0.17860    0.13090    3.36050   78.44360   99.04410   37.72550   31.78770   74.98600  -38.54330
 7350.00000    2.62950    0.01360    0.04530    0.04280    3.15280   60.66460   37.50140   41.36050   31.14140   37.05000  -60.19680
 7400.00000    2.55130    0.00040    0.04930    0.07420    2.41300   55.18520   34.41180   78.01720   46.86810   91.98940  -64.52760
 7450.00000    2.40000    0.14910    0.22990    0.18370    4.57390   75.92590   75.44330    3.79190    3.27760    3.87270  -35.39370
 7500.00000    2.66690    0.00920    0.11350    0.02280    3.00510   60.22010   54.26610    9.19010    9.13780    8.59320  -39.33070
 7550.00000    2.68040    0.00630    0.00850    0.02280    2.02850   52.96300   45.22060   65.88370   51.37160   71.98170  -50.74800
 7600.00000    2.67310   -0.00180    0.03380    0.02990    1.52500   56.66920   45.22200   22.84430   21.33720   24.36950  -47.59840
 7650.00000    2.39520    0.00920    0.13740    0.18100    0.84380   71.92590   33.75210    5.79800    7.52500   20.69310 -134.21260
 7700.00000    2.47090    0.07300    0.13920    0.13250    0.82140   64.21940   35.51470    4.77360    7.60250   32.44350 -134.21260
 7750.00000    2.42440    0.07770    0.02400    0.16310    1.16960   58.14710   42.35540   13.69570   23.15470  164.70640 -133.42520
 7800.00000    2.41710    0.03290    0.12100    0.17950    1.43620   65.11110   34.63240   19.39690   22.68340   59.28350 -138.54330
 7850.00000    2.55340    0.05780    0.14620    0.08640    1.67300   53.40600   34.19120    4.50020    4.37790    7.30190 -131.85040
 7900.00000    2.56310    0.03420    0.09220    0.07840    0.84430   53.40740   42.79620    9.97260   12.28900   37.04940 -136.57480
 7950.00000    2.50770    0.02470    0.03550    0.10590    0.91800   55.48010   51.17650   46.63430   46.14720  376.83660  -83.42640
 8000.00000    2.46570    0.00630    0.10860    0.14130    0.13340   61.55630   41.91280    5.07540    7.83840   28.26400 -136.14170
 8050.00000    2.50110    0.02980    0.14090    0.11870    0.10340   66.44360   35.29480    2.35600    3.79470   13.47190 -136.57480
 8100.00000    -999.25    -999.25    -999.25    -999.25    1.46580   50.59260   29.78080   44.89430   87.41530 2013.60560 -134.80330
 8150.00000    -999.25    -999.25    -999.25    -999.25    0.96500   62.73990   35.29430    6.10320    8.81580   26.17480 -136.37790
 8200.00000    -999.25    -999.25    -999.25    -999.25    0.97790   58.28400   45.22130    4.23010    4.46780    5.90260 -135.59050
 8250.00000    -999.25    -999.25    -999.25    -999.25    0.29200   55.99090   38.45380    6.10200    8.64170   36.76540 -139.84270
 8300.00000    -999.25    -999.25    -999.25    -999.25    0.77010   59.31950   41.91180    3.10550    5.07570   17.81810 -136.57480
 8350.00000    -999.25    -999.25    -999.25    -999.25    1.33300   50.00000   52.28010   30.73950   31.37720   46.76480  -92.87400
 8400.00000    -999.25    -999.25    -999.25    -999.25    1.65930   50.49680   50.07350   49.24430   48.64890  131.45790  -95.82640
 8450.00000    -999.25    -999.25    -999.25    -999.25    1.65900   56.65680   49.63310   10.11530   16.13260   16.13150  -94.44880
 8500.00000    -999.25    -999.25    -999.25    -999.25    1.67390   51.59090   41.54950   14.12160   13.69570   24.31850 -101.53540
 8550.00000    -999.25    -999.25    -999.25    -999.25    1.71840   61.35870   49.19140    3.54780    3.70400    5.73860  -91.29920
 8600.00000    -999.25    -999.25    -999.25    -999.25    1.89630   58.57880   52.27940   11.50880   11.99050   17.87330 -103.07110
 8650.00000    -999.25    -999.25    -999.25    -999.25    0.91850   60.65180   45.22060    5.36370    7.64990   24.29180 -129.21280
