~Version ---------------------------------------------------
VERS. 2.0 : CWLS log ASCII Standard -VERSION 2.0
WRAP. YES : MULTIPLE LINES PER DEPTH STEP
~Well ------------------------------------------------------
STRT.FT                 3100.0 : START DEPTH
STOP.FT                 8450.0 : STOP DEPTH
STEP.FT               50.00000 : STEP LENGTH
NULL.                  -999.25 : NULL VALUE
COMP.    REATA OIL & GAS CORP. : COMPANY
WELL.        E. J. BURKHART #1 : WELL
FLD .                  WILDCAT : FIELD
LOC .                          : LOCATION
CNTY.                ROBERTSON : COUNTY
STAT.                    TEXAS : STATE
CTRY. UNITED STATES OF AMERICA : COUNTRY
SRVC.            Dresser Atlas : SERVICE COMPANY
DATE.              18-Jun-1984 : LOGDATE
API .           42395303030000 : API NUMBER
UWI .           42395303030000 : UNIQUE WELL ID
SLAT.WGS84       30.9364688509 : SURFACE LATITUDE
SLON.WGS84      -96.3553009714 : SURFACE LONGITUDE
~Curve Information -----------------------------------------
DEPT    .FT    : DEPTH FEET
CALRED  .IN    : CALIPER FROM RESISTIVITY LOG
CALWS   .IN    : CALIPER [CALRED]
CNLSED  .V/V   : NEUTRON POROSITY LIMESTONE FROM DENSITY LOG
CNSSED  .V/V   : NEUTRON POROSITY SANDSTONE FROM DENSITY LOG
CONDWS  .MMHO  : CONDUCTIVITY [1000/DRESWS]
CORRED  .G/C3  : DENSITY CORRECTION FROM DENSITY LOG
DCORWS  .G/C3  : DENSITY CORRECTION [CORRED]
DENWS   .G/C3  : BULK DENSITY [CALCULATED FROM DPORLSED <7048> DPORSSED <7500.5> DPORLSED]
DPOWS   .V/V   : DENSITY POROSITY [M=2.71 F=1.0] <7048> [M=2.68 F=1.0] <7500.5> [M=2.71 F=1.0] [CALCULATED FROM DENWS]
DRESWS  .OHMM  : DEEP RESISTIVITY [RILDED]
GRRED   .GAPI  : GAMMA RAY FROM RESISTIVITY LOG
GRWS    .GAPI  : GAMMA RAY [GRRED, CSG ABOE 3112]
MRESWS  .OHMM  : MEDIUM RESISTIVITY [RILMED]
NPOWS   .V/V   : NEUTRON POROSITY [SPL CNLSED <7048> CNSSED <7500.5> CNLSED]
PORDLSED.V/V   : DENSITY POROSITY [M=2.71 F=1.0] FROM DENSITY LOG
PORDSSED.V/V   : DENSITY POROSITY [M=2.68 F=1.0] FROM DENSITY LOG
RFOCED  .OHMM  : FOCUSED RESISTIVITY
RILDED  .OHMM  : INDUCTION LOG DEEP RESISTIVITY
RILMED  .OHMM  : INDUCTION LOG MEDIUM RESISTIVITY
SPRED   .MV    : SPONTANEOUS POTENTIAL FROM RESISTIVITY LOG
SPWS    .MV    : SPONTANEOUS POTENTIAL [BASELINE 0 MV] [SPRED]
SRESWS  .OHMM  : SHALLOW RESISTIVITY [RFOCED]
TENRED  .LBF   : TENSION FROM RESISTIVITY LOG
~Params ----------------------------------------------------
PD  .                     GL : PERMANENT DATUM
EPD .FT                  428 : ELEVATION PERMANENT DATUM
LMF .                     KB : LOG MEASURED FROM
DAPD.FT                   16 : FEET ABOVE PERMANENT DATUM
DMF .                     KB : DRILLING MEASURED FROM
EKB .FT                  444 : KELLY BUSHING
EDF .FT                  443 : DRILLING FLOOR
EGL .FT                  428 : GROUND LEVEL
DATE.               06/18/84 : RUN DATE
RUN .                      1 : RUN NUMBER
DD  .FT                 8479 : DEPTH DRILLER
DL  .FT                 8460 : DEPTH LOGGER
BLI .FT                 8458 : BOTTOM LOG INTERVAL
TLI .FT                 3112 : TOP LOG INTERVAL
CS  .IN                9.625 : CASING SIZE
CBD .FT                 3116 : CASING BOTTOM DRILLER
CBL .FT                 3112 : CASING BOTTOM LOGGER
BS  .IN                 8.75 : BIT SIZE
BSD .FT                 8479 : BIT SIZE AT DEPTH
DFT .                  BENEX : DRILLING FLUID TYPE
DFD .                    9.3 : DRILLING FLUID DENSITY
DFV .                     42 : DRILLING FLUID VISCOSITY
DFPH.                      9 : DRILLING FLUID PH
DFL .                      7 : DRILLING FLUID LOSS
MSS .                   TANK : MUD SAMPLE SOURCE
RMS .OHMM               3.93 : RESISTIVITY MUD SAMPLE
MST .DEGF                 75 : MUD SAMPLE TEMPERATURE
RMF .OHMM               1.76 : RESISTIVITY MUD FILTRATE SAMPLE
MFST.DEGF                 75 : MUD FILTRATE SAMPLE TEMPERATURE
RMC .OHMM               4.91 : RESISTIVITY MUD CAKE
MCST.DEGF                 75 : MUD CAKE SAMPLE TEMPERATURE
MFSS.               MEASURED : MUD FILTRATE SAMPLE SOURCE
MCSS.               MEASURED : MUD CAKE SAMPLE SOURCE
RMB .OHMM               1.64 : RESISTIVITY MUD AT BHT
TCS .HRS                   8 : TIME CIRCULATED STOPPED
LUN .                HL 6300 : LOGGING UNIT NUMBER
LUL .                  BRYAN : LOGGING UNIT LOCATION
ENGI.                 WRIGHT : RECORDING ENGINEER
WITN.                MCBRIDE : WITNESSED BY
CLNT.                A2DTECH : CLIENT CODE
ORIG.            2" 5" PRINT : ORIGIN OF DATA
UWI .         42395303030000 : UNIQUE WELL ID
DICO. A2D Technologies, Inc. : DIGITIZING COMPANY
~Other -----------------------------------------------------
~ASCII -----------------------------------------------------
 3100.00000    -999.25    -999.25    -999.25    -999.25    -999.25    -999.25    -999.25    -999.25    -999.25    -999.25   50.70100   50.70100    -999.25    -999.25    -999.25    -999.25    -999.25    -999.25    -999.25    -999.25    -999.25    -999.25    -999.25
 3150.00000    -999.25    -999.25    -999.25    -999.25  281.37310    -999.25    -999.25    -999.25    -999.25    3.55400   67.87970   67.87970    3.73930    -999.25    -999.25    -999.25    3.31230    3.55400    3.73930  -70.04390   -9.18220    3.31230   17.00210
 3200.00000    -999.25    -999.25    -999.25    -999.25  151.30650    -999.25    -999.25    -999.25    -999.25    6.60910   78.55940   78.55940    6.89250    -999.25    -999.25    -999.25    6.49220    6.60910    6.89250  -80.36250  -19.80900    6.49220   20.65380
 3250.00000    -999.25    -999.25    -999.25    -999.25   79.69910    -999.25    -999.25    -999.25    -999.25   12.54720   49.98260   49.98260   12.82550    -999.25    -999.25    -999.25   12.10960   12.54720   12.82550  -96.93230  -36.68700   12.10960   24.87400
 3300.00000    -999.25    -999.25    -999.25    -999.25  509.91790    -999.25    -999.25    -999.25    -999.25    1.96110   85.36220   85.36220    2.03170    -999.25    -999.25    -999.25    3.06910    1.96110    2.03170  -65.11810   -5.18100    3.06910   26.38780
 3350.00000    -999.25    -999.25    -999.25    -999.25  403.24210    -999.25    -999.25    -999.25    -999.25    2.47990   89.26790   89.26790    2.56350    -999.25    -999.25    -999.25    3.14150    2.47990    2.56350  -66.16520   -6.53640    3.14150   21.61160
 3400.00000    -999.25    -999.25    -999.25    -999.25  358.66720    -999.25    -999.25    -999.25    -999.25    2.78810   84.65510   84.65510    2.85990    -999.25    -999.25    -999.25    3.44790    2.78810    2.85990  -64.67050   -5.34990    3.44790   16.83530
 3450.00000    -999.25    -999.25    -999.25    -999.25  385.41590    -999.25    -999.25    -999.25    -999.25    2.59460   64.64820   64.64820    2.64980    -999.25    -999.25    -999.25    3.09200    2.59460    2.64980  -63.93210   -4.91970    3.09200   22.11890
 3500.00000    -999.25    -999.25    -999.25    -999.25  512.53140    -999.25    -999.25    -999.25    -999.25    1.95110   80.36820   80.36820    2.02080    -999.25    -999.25    -999.25    2.74310    1.95110    2.02080  -59.12110   -0.41690    2.74310   23.12370
 3550.00000    -999.25    -999.25    -999.25    -999.25  441.09210    -999.25    -999.25    -999.25    -999.25    2.26710   74.84180   74.84180    2.37420    -999.25    -999.25    -999.25    3.00390    2.26710    2.37420  -66.48250   -8.08650    3.00390   21.51640
 3600.00000    -999.25    -999.25    -999.25    -999.25  474.83380    -999.25    -999.25    -999.25    -999.25    2.10600   81.45050   81.45050    2.18000    -999.25    -999.25    -999.25    3.00080    2.10600    2.18000  -59.70540   -1.61770    3.00080   16.76960
 3650.00000    -999.25    -999.25    -999.25    -999.25  420.39770    -999.25    -999.25    -999.25    -999.25    2.37870   72.51720   72.51720    2.44470    -999.25    -999.25    -999.25    2.99940    2.37870    2.44470  -60.74910   -2.96960    2.99940   16.89930
 3700.00000    -999.25    -999.25    -999.25    -999.25  544.24730    -999.25    -999.25    -999.25    -999.25    1.83740   68.46730   68.46730    1.90140    -999.25    -999.25    -999.25    2.67770    1.83740    1.90140  -59.14920   -1.67790    2.67770   29.92900
 3750.00000    -999.25    -999.25    -999.25    -999.25  524.32890    -999.25    -999.25    -999.25    -999.25    1.90720   79.77430   79.77430    1.97270    -999.25    -999.25    -999.25    2.64530    1.90720    1.97270  -61.24230   -3.87130    2.64530   20.69090
 3800.00000    -999.25    -999.25    -999.25    -999.25  608.90220    -999.25    -999.25    -999.25    -999.25    1.64230   63.31720   63.31720    1.69880    -999.25    -999.25    -999.25    2.49430    1.64230    1.69880  -62.85240   -5.54800    2.49430   11.45280
 3850.00000    -999.25    -999.25    -999.25    -999.25  637.51110    -999.25    -999.25    -999.25    -999.25    1.56860   69.14950   69.14950    1.62260    -999.25    -999.25    -999.25    2.42990    1.56860    1.62260  -60.59360   -3.35560    2.42990   13.88290
 3900.00000    -999.25    -999.25    -999.25    -999.25  594.49490    -999.25    -999.25    -999.25    -999.25    1.68210   64.37660   64.37660    1.74230    -999.25    -999.25    -999.25    2.50970    1.68210    1.74230  -61.22540   -4.05390    2.50970   10.57820
 3950.00000    -999.25    -999.25    -999.25    -999.25  577.03410    -999.25    -999.25    -999.25    -999.25    1.73300   90.27280   90.27280    1.79250    -999.25    -999.25    -999.25    2.45730    1.73300    1.79250  -59.37390   -2.19110    2.45730   29.40740
 4000.00000    -999.25    -999.25    -999.25    -999.25  506.02170    -999.25    -999.25    -999.25    -999.25    1.97620   89.98900   89.98900    2.04400    -999.25    -999.25    -999.25    2.71670    1.97620    2.04400  -62.09050   -4.72300    2.71670   14.54290
 4050.00000    -999.25    -999.25    -999.25    -999.25  614.51480    -999.25    -999.25    -999.25    -999.25    1.62730   92.35490   92.35490    1.68310    -999.25    -999.25    -999.25    2.41560    1.62730    1.68310  -63.05230   -5.50010    2.41560   17.42380
 4100.00000    -999.25    -999.25    -999.25    -999.25  794.53360    -999.25    -999.25    -999.25    -999.25    1.25860   87.32120   87.32120    1.30220    -999.25    -999.25    -999.25    2.09100    1.25860    1.30220  -59.66830   -1.93140    2.09100   14.07350
 4150.00000    -999.25    -999.25    -999.25    -999.25  563.63430    -999.25    -999.25    -999.25    -999.25    1.77420   73.81580   73.81580    1.83990    -999.25    -999.25    -999.25    2.46310    1.77420    1.83990  -64.20170   -6.28010    2.46310   10.49720
 4200.00000    -999.25    -999.25    -999.25    -999.25  806.51670    -999.25    -999.25    -999.25    -999.25    1.23990   76.17510   76.17510    1.28330    -999.25    -999.25    -999.25    2.03560    1.23990    1.28330  -59.30100   -1.19480    2.03560    7.85850
 4250.00000    -999.25    -999.25    -999.25    -999.25  617.13160    -999.25    -999.25    -999.25    -999.25    1.62040   75.08710   75.08710    1.67610    -999.25    -999.25    -999.25    2.18940    1.62040    1.67610  -61.47200   -3.18110    2.18940   17.86750
 4300.00000    -999.25    -999.25    -999.25    -999.25  487.35320    -999.25    -999.25    -999.25    -999.25    2.05190   67.87040   67.87040    2.12220    -999.25    -999.25    -999.25    2.51330    2.05190    2.12220  -64.70200   -6.22640    2.51330   11.28620
 4350.00000    -999.25    -999.25    -999.25    -999.25 1038.20610    -999.25    -999.25    -999.25    -999.25    0.96320   78.46940   78.46940    0.99700    -999.25    -999.25    -999.25    1.72330    0.96320    0.99700  -60.18690   -1.52660    1.72330   18.19630
 4400.00000    -999.25    -999.25    -999.25    -999.25  970.30860    -999.25    -999.25    -999.25    -999.25    1.03060   77.71750   77.71750    1.06870    -999.25    -999.25    -999.25    1.75940    1.03060    1.06870  -61.94390   -3.09890    1.75940   20.29060
 4450.00000    -999.25    -999.25    -999.25    -999.25  754.31840    -999.25    -999.25    -999.25    -999.25    1.32570   80.58390   80.58390    1.37670    -999.25    -999.25    -999.25    2.00640    1.32570    1.37670  -61.75440   -2.98200    2.00640   19.00050
 4500.00000    -999.25    -999.25    -999.25    -999.25  810.63550    -999.25    -999.25    -999.25    -999.25    1.23360   79.44450   79.44450    1.27600    -999.25    -999.25    -999.25    1.94780    1.23360    1.27600  -64.22320   -5.80200    1.94780    6.41610
 4550.00000    -999.25    -999.25    -999.25    -999.25  859.10650    -999.25    -999.25    -999.25    -999.25    1.16400   82.12570   82.12570    1.20040    -999.25    -999.25    -999.25    1.82940    1.16400    1.20040  -67.72400   -9.65390    1.82940   17.42420
 4600.00000    -999.25    -999.25    -999.25    -999.25  842.88600    -999.25    -999.25    -999.25    -999.25    1.18640   75.09290   75.09290    1.22710    -999.25    -999.25    -999.25    1.96230    1.18640    1.22710  -68.60910  -10.89020    1.96230   11.94830
