~Version ---------------------------------------------------
VERS. 2.0 : CWLS log ASCII Standard -VERSION 2.0
WRAP. YES : Multiple lines per depth step
~Well ------------------------------------------------------
STRT.FT                   4050.0 : START DEPTH
STOP.FT                   9050.0 : STOP DEPTH
STEP.FT                 50.00000 : STEP LENGTH
NULL.                    -999.25 : NULL VALUE
COMP. CHAMPLIN PETROLEUM COMPANY : COMPANY
WELL.         LENWOOD WALLACE #1 : WELL
FLD .                   GIDDINGS : FIELD
LOC .                            : LOCATION
CNTY.                   BURLESON : COUNTY
STAT.                      TEXAS : STATE
CTRY.   UNITED STATES OF AMERICA : COUNTRY
SRVC.               Schlumberger : SERVICE COMPANY
DATE.                17-Dec-1980 : LOGDATE
API .             42051310320000 : API NUMBER
UWI .             42051310320000 : UNIQUE WELL ID
SLAT.WGS84         30.4639863127 : SURFACE LATITUDE
SLON.WGS84        -96.5949985756 : SURFACE LONGITUDE
~Curve Information -----------------------------------------
DEPT    .FT    : DEPTH
CALWS   .IN    : CALIPER (DCALED+8.75)
CONDWS  .MMHO  : CONDUCTIVITY (1000/DRESWS)
DCALED  .IN    : DIFFERENTIAL CALIPER
DCORWS  .G/C3  : DENSITY CORRECTION (DRHOED)
DENWS   .G/C3  : BULK DENSITY  (DPHISSED M=2.65 F=1/DPHILSED M-2.71 F-1)
DPHILSED.V/V   : DENSITY POROSITY LIMESTONE
DPHISSED.V/V   : DENSITY POROSITY SANDSTONE
DPOWS   .V/V   : DENSITY POROSITY (M=2.71 F=1 FROM DENWS)
DRESWS  .OHMM  : DEEP RESISTIVITY (ILDED)
DRHOED  .G/C3  : DENSITY CORRECTION (FILLED MISSING)
GRRED   .GAPI  : GAMMA RAY
GRWS    .GAPI  : GAMMA RAY (GRRED)
ILDED   .OHMM  : DEEP INDUCTION RESISTIVITY
ILMED   .OHMM  : MEDIUM INDUCTION RESISTIVITY
MRESWS  .OHMM  : MEDIUM RESISTIVITY (ILMED)
NPHILSED.V/V   : NEUTRON POROSITY LIMESTONE
NPHISSED.V/V   : NEUTRON POROSITY SANDSTONE
NPOWS   .V/V   : NEUTRON POROSITY LIMESTONE (NPHISSED CONVERTED TO LS/NPHILSED)
SFLUED  .OHMM  : SPHERICALLY FOCUSED RESISTIVITY
SPRED   .MV    : SPONTANEOUS POTENTIAL
SPWS    .MV    : SPONTANEOUS POTENTIAL BASELINE 0 MV (SPRED)
SRESWS  .OHMM  : SHALLOW RESISTIVITY (SFLUED)
~Params ----------------------------------------------------
PD  .                     GL : PERMANENT DATUM
EPD .FT                  325 : ELEVATION PERMANENT DATUM
LMF .                     KB : LOG MEASURED FROM
DAPD.FT                   14 : FEET ABOVE PERMANENT DATUM
DMF .                     KB : DRILLING MEASURED FROM
EKB .FT                  339 : KELLY BUSHING
EDF .FT                  338 : DRILLING FLOOR
EGL .FT                  325 : GROUND LEVEL
DATE.               12/17/80 : RUN DATE
RUN .                      1 : RUN NUMBER
DD  .FT                 9080 : DEPTH DRILLER
DL  .FT                 9076 : DEPTH LOGGER
BLI .FT                 9070 : BOTTOM LOG INTERVAL
TLI .FT                 4046 : TOP LOG INTERVAL
CS  .IN                9.625 : CASING SIZE
CBD .FT                 4045 : CASING BOTTOM DRILLER
CBL .FT                 4046 : CASING BOTTOM LOGGER
BS  .IN                 8.75 : BIT SIZE
BSD .FT                 9080 : BIT SIZE AT DEPTH
DFT .                 BEN EX : DRILLING FLUID TYPE
DFD .                    9.4 : DRILLING FLUID DENSITY
DFV .                     43 : DRILLING FLUID VISCOSITY
DFPH.                    8.5 : DRILLING FLUID PH
DFL .                    7.1 : DRILLING FLUID LOSS
MSS .                   TANK : MUD SAMPLE SOURCE
RMS .OHMM               2.01 : RESISTIVITY MUD SAMPLE
MST .DEGF                 98 : MUD SAMPLE TEMPERATURE
RMF .OHMM                1.5 : RESISTIVITY MUD FILTRATE SAMPLE
MFST.DEGF                 98 : MUD FILTRATE SAMPLE TEMPERATURE
RMC .OHMM               3.01 : RESISTIVITY MUD CAKE
MCST.DEGF                 98 : MUD CAKE SAMPLE TEMPERATURE
MFSS.                      M : MUD FILTRATE SAMPLE SOURCE
MCSS.                      C : MUD CAKE SAMPLE SOURCE
RMB .OHMM               1.06 : RESISTIVITY MUD AT BHT
TCS .HRS                2400 : TIME CIRCULATED STOPPED
TLAB.HRS                 630 : TIME LOGGER AT BOTTOM
LUN .                   8101 : LOGGING UNIT NUMBER
LUL .                BRENHAM : LOGGING UNIT LOCATION
ENGI.                  WYATT : RECORDING ENGINEER
WITN.                 KRAUHS : WITNESSED BY
CLNT.                A2DTECH : CLIENT CODE
ORIG.          1" 2.5" PRINT : ORIGIN OF DATA
UWI .         42051310320000 : UNIQUE WELL ID
DICO. A2D Technologies, Inc. : DIGITIZING COMPANY
~Other -----------------------------------------------------
~ASCII -----------------------------------------------------
# ...
 5650.00000   10.34990  386.54810    1.59990    0.03230    2.50560    -999.25    0.08750    0.11950    2.58700    0.03230   94.42020   94.42020    2.58700    2.51830    2.51830    -999.25    0.27230    0.33260    2.25470   -3.07530   -0.79710    2.25470
 5700.00000   10.47670  574.54750    1.72670    0.09880    2.51550    -999.25    0.08150    0.11370    1.74050    0.09880   82.85170   82.85170    1.74050    1.96230    1.96230    -999.25    0.26630    0.32770    2.62870   -5.25010   -3.24780    2.62870
 5750.00000   10.78980  624.72670    2.03980    0.09130    2.43530    -999.25    0.13010    0.16060    1.60070    0.09130   89.49810   89.49810    1.60070    1.74540    1.74540    -999.25    0.29710    0.35250    1.85230   -5.56160   -3.83510    1.85230
 5800.00000   10.51290  654.87880    1.76290    0.08450    2.41090    -999.25    0.14490    0.17490    1.52700    0.08450  104.71830  104.71830    1.52700    1.67080    1.67080    -999.25    0.34360    0.38850    1.89160   -0.91070    0.53990    1.89160
 5850.00000   12.53020  870.01920    3.78020    0.10140    2.35510    -999.25    0.17870    0.20750    1.14940    0.10140   93.26510   93.26510    1.14940    1.27260    1.27260    -999.25    0.37180    0.40950    1.44850   -3.97330   -2.79850    1.44850
 5900.00000   11.24530  825.21870    2.49530    0.08220    2.37350    -999.25    0.16760    0.19680    1.21180    0.08220  114.82420  114.82420    1.21180    1.32360    1.32360    -999.25    0.36470    0.40430    1.34560   -0.09650    0.80240    1.34560
 5950.00000   10.49740  873.66760    1.74740    0.04150    2.42020    -999.25    0.13930    0.16950    1.14460    0.04150  110.99780  110.99780    1.14460    1.28110    1.28110    -999.25    0.35850    0.39970    1.31830   -1.51210   -0.88900    1.31830
 6000.00000   11.48850  787.64970    2.73850    0.09060    2.49320    -999.25    0.09500    0.12680    1.26960    0.09060   93.20940   93.20940    1.26960    1.36240    1.36240    -999.25    0.31300    0.36510    1.42340   -6.53480   -6.18760    1.42340
 6050.00000   12.29130 1063.49040    3.54130    0.09650    2.40500    -999.25    0.14850    0.17840    0.94030    0.09650   99.02310   99.02310    0.94030    1.08970    1.08970    -999.25    0.37850    0.41440    1.18000  -10.55510  -10.48370    1.18000
 6100.00000   12.17490  940.82230    3.42490    0.07100    2.45360    -999.25    0.11900    0.14990    1.06290    0.07100  118.07710  118.07710    1.06290    1.15140    1.15140    -999.25    0.34680    0.39090    1.19250   -3.56990   -3.77440    1.19250
 6150.00000   10.67750  552.94440    1.92750    0.02770    2.55960    -999.25    0.05480    0.08800    1.80850    0.02770   80.32680   80.32680    1.80850    2.00260    2.00260    -999.25    0.26100    0.32340    2.44990   -5.64380   -6.12420    2.44990
 6200.00000    9.90630  485.90860    1.15630    0.09770    2.54340    -999.25    0.06460    0.09740    2.05800    0.09770   78.92610   78.92610    2.05800    2.21770    2.21770    -999.25    0.25320    0.31690    2.68250   -3.48480   -4.24100    2.68250
 6250.00000   10.27070  692.42490    1.52070    0.08840    2.45760    -999.25    0.11660    0.14760    1.44420    0.08840   92.03370   92.03370    1.44420    1.58600    1.58600    -999.25    0.28440    0.34240    1.71630   -1.70650   -2.73860    1.71630
 6300.00000    9.87890  534.38790    1.12890    0.06080    2.46370    -999.25    0.11290    0.14400    1.87130    0.06080   85.25080   85.25080    1.87130    2.02230    2.02230    -999.25    0.28430    0.34240    2.08680   -9.69290  -11.00080    2.08680
 6350.00000    9.66720  536.59580    0.91720    0.02040    2.41170    -999.25    0.14440    0.17440    1.86360    0.02040   85.64360   85.64360    1.86360    2.03970    2.03970    -999.25    0.26690    0.32820    1.96220  -12.35750  -13.94130    1.96220
 6400.00000   11.01570  617.74150    2.26570    0.10080    2.35140    -999.25    0.18100    0.20970    1.61880    0.10080  149.29680  149.29680    1.61880    1.69400    1.69400    -999.25    0.35570    0.39760    1.68680   -4.00550   -5.86510    1.68680
 6450.00000   11.45390  630.95470    2.70390    0.09910    2.36060    -999.25    0.17540    0.20430    1.58490    0.09910  110.47960  110.47960    1.58490    1.68020    1.68020    -999.25    0.39700    0.42780    1.49070   -6.11830   -8.25380    1.49070
 6500.00000   11.69050  712.91080    2.94050    0.02990    2.32610    -999.25    0.19630    0.22450    1.40270    0.02990   92.59740   92.59740    1.40270    1.53440    1.53440    -999.25    0.36950    0.40780    1.64470   -4.53830   -6.94960    1.64470
 6550.00000   12.52680  755.68650    3.77680    0.10000    2.25280    -999.25    0.24070    0.26730    1.32330    0.10000  100.38040  100.38040    1.32330    1.48330    1.48330    -999.25    0.41210    0.43860    1.57080   -2.52050   -5.20770    1.57080
 6600.00000   12.78320  749.23210    4.03320    0.10000    2.28220    -999.25    0.22290    0.25020    1.33470    0.10000  100.11830  100.11830    1.33470    1.51420    1.51420    -999.25    0.35130    0.39430    1.65710   -9.94700  -12.68430    1.65710
 6650.00000   12.26760  861.25230    3.51760    0.10110    2.30190    -999.25    0.21100    0.23870    1.16110    0.10110  107.81580  107.81580    1.16110    1.30010    1.30010    -999.25    0.39750    0.42820    1.38120   -8.59940  -11.19450    1.38120
 6700.00000   12.02730  962.83460    3.27730    0.09950    2.28390    -999.25    0.22190    0.24920    1.03860    0.09950  115.61590  115.61590    1.03860    1.16020    1.16020    -999.25    0.47450    0.48950    1.30500   -6.42410   -8.87700    1.30500
 6750.00000   10.55020  584.62440    1.80020    0.09790    2.48960    -999.25    0.09720    0.12890    1.71050    0.09790   96.41120   96.41120    1.71050    1.90420    1.90420    -999.25    0.30260    0.35690    1.94990   -6.75630   -9.06700    1.94990
 6800.00000   10.04880  504.61720    1.29880    0.09070    2.47870    -999.25    0.10380    0.13520    1.98170    0.09070   98.02320   98.02320    1.98170    2.17550    2.17550    -999.25    0.28480    0.34280    2.30300   -6.71410   -8.88260    2.30300
 6850.00000   10.60980  624.02500    1.85980    0.10000    2.36090    -999.25    0.17520    0.20410    1.60250    0.10000  150.24920  150.24920    1.60250    1.70160    1.70160    -999.25    0.35130    0.39430    1.76580   -5.74580   -7.77210    1.76580
 6900.00000   11.19180  617.32210    2.44180    0.10000    2.46770    -999.25    0.11050    0.14170    1.61990    0.10000   87.61250   87.61250    1.61990    1.78300    1.78300    -999.25    0.31970    0.37020    1.98710   -8.81950  -10.70360    1.98710
 6950.00000   10.54590  616.48480    1.79590    0.10000    2.54030    -999.25    0.06650    0.09930    1.62210    0.10000   94.13050   94.13050    1.62210    1.78930    1.78930    -999.25    0.33800    0.38430    2.01690   -4.07070   -5.81260    2.01690
 7000.00000   10.58970  489.21290    1.83970    0.10080    2.49300    0.12690    -999.25    0.12690    2.04410    0.10080  101.80930  101.80930    2.04410    2.21500    2.21500    0.30970    -999.25    0.30970    2.29800  -11.01330  -12.61300    2.29800
 7050.00000   12.17440  640.73810    3.42440    0.04730    2.49950    0.12310    -999.25    0.12310    1.56070    0.04730   98.94780   98.94780    1.56070    1.76060    1.76060    0.32800    -999.25    0.32800    1.90360   -8.97810  -10.43560    1.90360
 7100.00000   13.05970  822.63900    4.30970    0.08140    2.42310    0.16780    -999.25    0.16780    1.21560    0.08140  101.24200  101.24200    1.21560    1.35840    1.35840    0.31430    -999.25    0.31430    1.49940   -9.94170  -11.25700    1.49940
 7150.00000   11.73700  666.88900    2.98700    0.10000    2.53180    0.10420    -999.25    0.10420    1.49950    0.10000   87.96450   87.96450    1.49950    1.66790    1.66790    0.30730    -999.25    0.30730    1.91560  -12.87230  -14.04550    1.91560
 7200.00000   10.13250  316.78650    1.38250    0.01380    2.58670    0.07210    -999.25    0.07210    3.15670    0.01380   70.67290   70.67290    3.15670    3.41910    3.41910    0.18630    -999.25    0.18630    3.99000  -10.00980  -11.04080    3.99000
