~Version ---------------------------------------------------
VERS. 2.0 : CWLS log ASCII Standard -VERSION 2.0
WRAP. YES : Multiple lines per depth step
~Well ------------------------------------------------------
STRT.FT                     300.0 : START DEPTH
STOP.FT                   15250.0 : STOP DEPTH
STEP.FT                  50.00000 : STEP LENGTH
NULL.                     -999.25 : NULL VALUE
COMP. GRACE PETROLEUM CORPORATION : COMPANY
WELL.      WELDON COX GAS UNIT #1 : WELL
FLD .                  BEAR GRASS : FIELD
LOC .                             : LOCATION
CNTY.                        LEON : COUNTY
STAT.                       TEXAS : STATE
CTRY.    UNITED STATES OF AMERICA : COUNTRY
SRVC.                Schlumberger : SERVICE COMPANY
DATE.                 27-Jan-1980 : LOGDATE
API .              42289303540000 : API NUMBER
UWI .              42289303540000 : UNIQUE WELL ID
SLAT.WGS84           31.398216302 : SURFACE LATITUDE
SLON.WGS84         -96.2188853622 : SURFACE LONGITUDE
~Curve Information -----------------------------------------
DEPT    .FT    : DEPTH FEET
CALDED  .IN    : CALIPER FROM SIMULTANEOUS COMPENSATED NEUTRON-FORMATION DENSITY LOG [ADJ. TO CALRED]
CALRED  .IN    : CALIPER FROM DUAL INDUCTION-SFL-BOREHOLE COMPENSATED SONIC LOG
CALWS   .IN    : CALIPER [CALDED SPLICED FOR DEPTH 7900' TO 15268.5' WITH CALRED]
CONDWS  .MMHO  : CONDUCTIVITY [1000/DRESWS]
DCORWS  .G/C3  : DENSITY CORRECTION [DRHOED]
DENWS   .G/C3  : FORMATION BULK DENSITY [RHOBED]
DPHILSED.V/V   : DENSITY POROSITY LIMESTONE [M=2.71, F=1.0, CALCULATED FROM DENWS]]
DPOWS   .V/V   : DENSITY POROSITY LIMESTONE [DPHILSED]
DRESWS  .OHMM  : DEEP RESISTIVITY [ILDED]
DRHOED  .G/C3  : BULK DENSITY CORRECTION SIMULTANEOUS COMPENSATED NEUTRON-FORMATION DENSITY LOG [ADJ. TO ILDED]
DTED    .US/F  : DELTA-T (INTERVAL TRANSIT TIME) FROM DUAL INDUCTION-SFL-BOREHOLE COMPENSATED SONIC LOG
DTWS    .US/F  : COMPRESSIONAL SONIC [DTED]
GRDED   .GAPI  : GAMMA RAY SIMULTANEOUS COMPENSATED NEUTRON-FORMATION DENSITY LOG [ADJ. TO ILDED]
GRWS    .GAPI  : GAMMA RAY [GRDED]
ILDED   .OHMM  : DEEP INDUCTION FROM DUAL INDUCTION-SFL-BOREHOLE COMPENSATED SONIC LOG
ILMED   .OHMM  : MEDIUM INDUCTION FROM DUAL INDUCTION-SFL-BOREHOLE COMPENSATED SONIC LOG
MRESWS  .OHMM  : MEDIUM RESISTIVITY [ILMED]
NPHILSED.V/V   : NEUTRON POROSITY LIMESTONE SIMULTANEOUS COMPENSATED NEUTRON-FORMATION DENSITY LOG [ADJ. TO ILDED]
NPOWS   .V/V   : NEUTRON POROSITY LIMESTONE [NPHILSED]
RHOBED  .G/C3  : BULK DENSITY SIMULTANEOUS COMPENSATED NEUTRON-FORMATION DENSITY LOG [ADJ. TO ILDED]
SFLUED  .OHMM  : SHALLOW FOCUSED INDUCTION (UNAVERAGED) FROM DUAL INDUCTION-SFL-BOREHOLE COMPENSATED SONIC LOG
SPRED   .MV    : SPONTANEOUS POTENTIAL FROM DUAL INDUCTION-SFL-BOREHOLE COMPENSATED SONIC LOG
SPWS    .MV    : SPONTANEOUS POTENTIAL [BASELINE 0 MV, SPRED]
SRESWS  .OHMM  : SHALLOW RESISTIVITY [SFLUED]
~Params ----------------------------------------------------
PD  .                     GL : PERMANENT DATUM
EPD .F                   492 : ELEVATION PERMANENT DATUM
LMF .                     KB : LOG MEASURED FROM
DAPD.F                  22.4 : FEET ABOVE PERMANENT DATUM
DMF .                     KB : DRILLING MEASURED FROM
EKB .F                 514.4 : KELLING BUSHING
EDF .F                 513.4 : DRILLING FLOOR
EGL .F                   492 : GROUND LEVEL
DATE.              1-27-1980 : RUN DATE
RUN .                      4 : RUN NUMBER
DD  .F                 15300 : DEPTH DRILLER
DL  .F                 15299 : DEPTH LOGGER
BLI .F                 15293 : BOTTOM LOG INTERVAL
TLI .F                 13183 : TOP LOG INTERVAL
CS  .IN                 7.62 : CASING SIZE
CBD .F                  1320 : CASING BOTTOM DRILLER
CBL .F                  1318 : CASING BOTTOM LOGGER
BS  .IN                  6.2 : BIT SIZE
BSD .F                 15300 : BIT SIZE AT DEPTH
DFT .              LIME/CHEM : DRILLING FLUID TYPE
DFD .                   16.2 : DRILLING FLUID DENSITY
DFV .                     55 : DRILLING FLUID VISCOSITY
DFPH.                   11.5 : DRILLING FLUID PH
DFL .                      7 : DRILLING FLUID LOSS
MSS .                   TANK : MUD SAMPLE SOURCE
RMS .OHMM               1.18 : RESISTIVITY MUD SAMPLE
MST .F                    52 : MUD SAMPLE TEMPERATURE
RMF .OHMM               0.66 : RESISTIVITY MUD FILTRATE SAMPLE
MFST.F                    58 : MUD FILTRATE SAMPLE TEMPERATURE
RMC .OHMM                3.7 : RESISTIVITY MUD CAKE
MCST.F                    52 : MUD CAKE SAMPLE TEMPERATURE
MFSS.                      P : MUD FILTRATE SAMPLE SOURCE
MCSS.                      C : MUD CAKE SAMPLE SOURCE
RMB .OHMM               0.18 : RESISTIVITY MUD AT BHT
TCS .HRS                 900 : TIME CURCULATED STOPPED
TLAB.HRS                1730 : TIME LOGGER AT BOTTOM
LUN .                   8083 : LOGGING UNIT NUMBER
LUL .                  TYLER : LOGGING UNIT LOCATION
ENGI.                  HARSH : RECORDING ENGINEER
CLNT.                A2DTECH : CLIENT CODE
ORIG.            2",5" PRINT : ORIGIN OF DATA
UWI .         42289303540000 : UNIQUE WELL ID
DICO. A2D Technologies, Inc. : DIGITIZING COMPANY
~Other -----------------------------------------------------
CALIPER IS INVALID ABOVE 13192' AND IT WAS NULLED
~ASCII -----------------------------------------------------
# ...
 7550.00000    -999.25    5.81270    -999.25   69.18930    -999.25    -999.25    -999.25    -999.25   14.45310    -999.25    -999.25    -999.25    -999.25    -999.25   14.45310   11.33820   11.33820    -999.25    -999.25    -999.25   26.63370  -30.63440   -8.44490   26.63370
 7600.00000    -999.25    5.94310    -999.25   46.83800    -999.25    -999.25    -999.25    -999.25   21.35020    -999.25    -999.25    -999.25    -999.25    -999.25   21.35020   13.82180   13.82180    -999.25    -999.25    -999.25   14.17960  -34.21740  -12.43460   14.17960
 7650.00000    -999.25    6.01190    -999.25   48.28170    -999.25    -999.25    -999.25    -999.25   20.71180    -999.25    -999.25    -999.25    -999.25    -999.25   20.71180   18.15630   18.15630    -999.25    -999.25    -999.25   15.71350  -29.79350   -8.41730   15.71350
 7700.00000    -999.25    6.02700    -999.25  100.61680    -999.25    -999.25    -999.25    -999.25    9.93870    -999.25    -999.25    -999.25    -999.25    -999.25    9.93870   11.34460   11.34460    -999.25    -999.25    -999.25   20.31730  -30.09630   -9.12670   20.31730
 7750.00000    -999.25    5.94390    -999.25   98.48920    -999.25    -999.25    -999.25    -999.25   10.15340    -999.25    -999.25    -999.25    -999.25    -999.25   10.15340    8.37680    8.37680    -999.25    -999.25    -999.25   20.45750  -28.21570   -7.65280   20.45750
 7800.00000    -999.25    5.90130    -999.25   94.40730    -999.25    -999.25    -999.25    -999.25   10.59240    -999.25    -999.25    -999.25    -999.25    -999.25   10.59240   10.02410   10.02410    -999.25    -999.25    -999.25    8.40410  -26.82970   -6.67340    8.40410
 7850.00000    -999.25    6.00540    -999.25   76.28810    -999.25    -999.25    -999.25    -999.25   13.10820    -999.25    -999.25    -999.25    -999.25    -999.25   13.10820   11.96070   11.96070    -999.25    -999.25    -999.25   17.78470  -30.27120  -10.52150   17.78470
 7900.00000   12.24720    6.06230    -999.25  182.67180    0.00490    2.55160    0.08820    0.09260    5.47430    0.00490    -999.25    -999.25   40.15040   40.15040    5.47430    5.41720    5.41720    0.18570    0.18570    2.55160    6.09390  -28.42230   -9.07930    6.09390
 7950.00000   11.88740    5.78630    -999.25   26.38570    0.01510    2.67970    0.01970    0.01770   37.89930    0.01510    -999.25    -999.25   37.32530   37.32530   37.89930   30.71050   30.71050    0.01060    0.01060    2.67970   41.87020  -55.45660  -36.52020   41.87020
 8000.00000   12.07790    5.99180    -999.25  179.93050    0.01550    2.65440    0.03540    0.03250    5.55770    0.01550    -999.25    -999.25   46.48640   46.48640    5.55770    4.97300    4.97300    0.12480    0.12480    2.65440    6.79050  -27.68530   -9.15550    6.79050
 8050.00000   11.61490    5.93630    -999.25   36.22650    0.08350    2.71140    0.00360   -0.00080   27.60410    0.08350    -999.25    -999.25   27.70240   27.70240   27.60410   23.12030   23.12030    0.04710    0.04710    2.71140   21.76300  -30.13120  -12.00810   21.76300
 8100.00000   11.63810    5.89020    -999.25   33.92390    0.02220    2.73150   -0.01200   -0.01260   29.47770    0.02220    -999.25    -999.25   28.05140   28.05140   29.47770   26.52240   26.52240    0.00420    0.00420    2.73150  193.03350  -27.91650  -10.20000  193.03350
 8150.00000   12.29730    5.94770    -999.25   46.85710    0.00630    2.65000    0.03650    0.03510   21.34150    0.00630    -999.25    -999.25   24.91380   24.91380   21.34150   19.21610   19.21610    0.05860    0.05860    2.65000   34.44900  -24.78070   -7.47080   34.44900
 8200.00000   11.63150    6.03860    -999.25   48.11950    0.00740    2.69620   -0.01030    0.00810   20.78160    0.00740    -999.25    -999.25   34.06840   34.06840   20.78160   17.60850   17.60850    0.04630    0.04630    2.69620   25.05200  -22.90740   -6.00420   25.05200
 8250.00000   12.39020    6.05630    -999.25   72.31760    0.00610    2.67720    0.02890    0.01920   13.82790    0.00610    -999.25    -999.25   40.02910   40.02910   13.82790   14.35930   14.35930    0.05180    0.05180    2.67720   26.87630  -82.76850  -66.27190   26.87630
 8300.00000   11.87980    5.82280    -999.25    9.57520   -0.00620    2.67330    0.02120    0.02150  104.43680   -0.00620    -999.25    -999.25   25.44620   25.44620  104.43680   61.58290   61.58290    0.01040    0.01040    2.67330  114.73070  -58.38590  -42.29590  114.73070
 8350.00000   11.43670    6.04980    -999.25   18.57370    0.01030    2.71760   -0.00670   -0.00440   53.83960    0.01030    -999.25    -999.25   24.59130   24.59130   53.83960   59.50630   59.50630    0.01150    0.01150    2.71760   71.63470  -76.28650  -60.60320   71.63470
 8400.00000   11.60160    6.14850    -999.25   95.06610    0.00740    2.63900    0.04210    0.04150   10.51900    0.00740    -999.25    -999.25   41.09230   41.09230   10.51900    9.51890    9.51890    0.11140    0.11140    2.63900   14.24330  -18.86440   -3.58770   14.24330
 8450.00000   11.29230    6.03190    -999.25    6.16640    0.00480    2.67220    0.02320    0.02210  162.16980    0.00480    -999.25    -999.25   37.93110   37.93110  162.16980   70.60440   70.60440    0.01430    0.01430    2.67220  124.46620  -25.65630  -10.78620  124.46620
 8500.00000   11.85100    6.03070    -999.25   81.16550    0.00480    2.66930    0.02630    0.02380   12.32050    0.00480    -999.25    -999.25   42.10730   42.10730   12.32050   11.09260   11.09260    0.07680    0.07680    2.66930   21.17360  -19.84360   -5.38020   21.17360
 8550.00000   12.20700    6.05570    -999.25  153.82250    0.05140    2.60820    0.06120    0.05950    6.50100    0.05140    -999.25    -999.25   55.76190   55.76190    6.50100    5.69360    5.69360    0.19190    0.19190    2.60820   10.23660  -18.90920   -4.83490   10.23660
 8600.00000   12.97600    6.06900    -999.25  186.27520    0.02240    2.27710    0.22110    0.25320    5.36840    0.02240    -999.25    -999.25   56.28370   56.28370    5.36840    4.85880    4.85880    0.30040    0.30040    2.27710    3.73530  -15.89620   -2.14550    3.73530
 8650.00000   13.87420    5.96580    -999.25  177.83470    0.09940    2.45550    0.16380    0.14880    5.62320    0.09940    -999.25    -999.25   61.36600   61.36600    5.62320    4.81210    4.81210    0.30070    0.30070    2.45550    8.08580  -15.40170   -1.97450    8.08580
 8700.00000   15.58490    6.00430    -999.25  164.14430    0.06480    2.44970    0.15220    0.15220    6.09220    0.06480    -999.25    -999.25   68.07550   68.07550    6.09220    4.12250    4.12250    0.41810    0.41810    2.44970    5.78490  -14.69370   -1.59010    5.78490
 8750.00000   11.47810    6.04620    -999.25   25.24490    0.00130    2.67070    0.02050    0.02300   39.61200    0.00130    -999.25    -999.25   45.82290   45.82290   39.61200   45.03390   45.03390    0.02790    0.02790    2.67070   61.20350  -15.84200   -3.06190   61.20350
 8800.00000   11.25920    6.15980    -999.25  111.78180   -0.00580    2.65260    0.03590    0.03360    8.94600   -0.00580    -999.25    -999.25   31.92610   31.92610    8.94600    7.91320    7.91320    0.11150    0.11150    2.65260   19.06730  -15.66960   -3.21310   19.06730
 8850.00000   15.22570    6.15940    -999.25  285.49400    0.03220    2.40110    0.17950    0.18060    3.50270    0.03220    -999.25    -999.25   67.22540   67.22540    3.50270    3.26340    3.26340    0.34410    0.34410    2.40110    3.88300  -13.62720   -1.49420    3.88300
 8900.00000   13.57760    6.12310    -999.25  215.96410    0.07510    2.30410    0.23520    0.23740    4.63040    0.07510  103.27750  103.27750   56.10080   56.10080    4.63040    4.05570    4.05570    0.29720    0.29720    2.30410    6.84260  -15.84630   -4.03690    6.84260
 8950.00000   11.37560    6.00920    -999.25    3.92500    0.00030    2.66300    0.02780    0.02750  254.77670    0.00030   62.11350   62.11350   34.10020   34.10020  254.77670   82.96410   82.96410    0.00800    0.00800    2.66300  203.31080  -27.94880  -16.46290  203.31080
