~Version ---------------------------------------------------
VERS. 2.0 : CWLS log ASCII Standard -VERSION 2.0
WRAP.  NO : ONE LINE PER DEPTH STEP
~Well ------------------------------------------------------
STRT.FT                            300.0 : START DEPTH
STOP.FT                          22000.0 : STOP DEPTH
STEP.FT                         50.00000 : STEP LENGTH
NULL.                            -999.25 : NULL VALUE
COMP. PAN AMERICAN PETROLEUM CORPORATION : COMPANY
WELL.                  A. M. FOERSTER #1 : WELL
FLD .                            WILDCAT : FIELD
LOC .                                    : LOCATION
CNTY.                           LA SALLE : COUNTY
STAT.                              TEXAS : STATE
CTRY.           UNITED STATES OF AMERICA : COUNTRY
SRVC.                       Schlumberger : SERVICE COMPANY
DATE.                        20-Aug-1964 : LOGDATE
API .                     42283002040000 : API NUMBER
UWI .                     42283002040000 : UNIQUE WELL ID
SLAT.WGS84                 28.3371650608 : SURFACE LATITUDE
SLON.WGS84                -98.9649233845 : SURFACE LONGITUDE
~Curve Information -----------------------------------------
DEPT  .FT    : DEPTH
CONDWS.MMHO  : CONDUCTIVITY [CILDED] FROM IEL
ILDED .OHMM  : INDUCTION LOG DEEP RESISTIVITY FROM IEL
ASNED .OHMM  : SHORT NORMAL RESISTIVITY 16 INCH FROM IEL
CILDED.MMHO  : CONDUCTIVITY FROM IEL
DRESWS.OHMM  : DEEP RESISTIVITY [ILDED] FROM IEL [IF ILDED < 1 THEN 1000/CILDED]
DTWS  .US/F  : DELTA TIME FROM SONIC LOG
NEUTWS.CU    : NEUTRON FROM GAMMA RAY NEUTRON LOG
GRNED .GAPI  : GAMMA RAY FROM NEUTRON LOG
NEUTED.NAPI  : NEUTRON  FROM GAMMA RAY NEUTRON LOG
SPED  .MV    : SPONTANEOUS POTENTIAL [MECHANICAL SHIFTS REMOVED]
SPWS  .MV    : SPONTANEOUS POTENTIAL [BASELINE 0 MV]
CALSED.IN    : CALIPER FROM SONIC LOG
DTED  .US/F  : DELTA TIME FROM SONIC LOG
SRESWS.OHMM  : SHALLOW RESISTIVITY [ASNED] FROM IEL
GRWS  .GAPI  : GAMMA RAY [GRNED] FROM GAMMA RAY NEUTRON LOG
CALWS .IN    : CALIPER [CALSED] FROM SONIC LOG
SPSED .MV    : SPONTANEOUS POTENTIAL FROM SONIC LOG [MECHANICAL SHIFTS REMOVED]
~Params ----------------------------------------------------
EKB .F                 473.5 : KELLY BUSHING
EGL .F                   445 : ELEVATION GROUND LEVEL
EDF .F                   471 : ELEVATION DERRICK FLOOR
EPD .F                   445 : ELEVATION PERMANENT DATUM
TD  .F               21995.0 : TOTAL DEPTH
DATE.            20-AUG-1964 : DATE LOGGED
CLNT.                A2DTECH : CLIENT CODE
SL  .   1320' FSL & 660' FWL : SURFACE LOCATION
PD  .                     GL : PERMANENT DATUM
LMF .                     KB : LOG MEASURED FROM
DMF .                     KB : DRILLING MEASURED FROM
DAPD.F                  28.5 : FEET ABOVE PERMANENT DATUM
DD  .F                 21995 : DEPTH DRILLER
DL  .F                 21992 : DEPTH LOGGER
BLI .F                 21991 : BOTTOM LOG INTERVAL
TLI .F                 20005 : TOP LOG INTERVAL
CS1 .IN                9.625 : CASING SIZE
CBD1.        9.625" @ 15993' : CASING DRILLER 1
CBL1.F                 15993 : CASING LOGGER 1
BS1 .IN                  8.5 : BIT SIZE
BSD1.F                 21995 : DEPTH DRILLED WITH BIT1
DFT .              XP-20-O.E : TYPE FLUID IN HOLE
DFD .                   18.4 : DENSITY
DFV .                     54 : VISCOSITY
DFPH.                    8.9 : PH
DFL .                      4 : FLUID LOSS
MSS .                MUD/PIT : SOURCE OF SAMPLE
RMS .OHMM               0.15 : RM
RMF .OHMM              0.089 : RMF
RMC .OHMM               0.32 : RMC
MFSS.                   MEAS : SOURCE RMF.
MCSS.                   MEAS : SOURCE RMC.
RMB .OHMM              0.046 : RM. AT BHT
BHT .F                   404 : BHT.
TCS .HRS                  10 : TIME CIRC. STOPPED
LUN .                   4526 : LOGGING UNIT NUMBER
LUL .                    KEN : LOGGING UNIT LOCATION
ENGI.                  HARSH : RECORDED BY
WITN.          FREEMAN/WALSH : WITNESSED BY
ORIG.          1" & 5" PRINT : ORIGIN OF DATA
UWI .         42283002040000 : UNIQUE WELL ID
DICO. A2D TECHNOLOGIES, INC. : DIGITIZING COMPANY
~Other -----------------------------------------------------
~ASCII -----------------------------------------------------
# ...
 4400.00000  192.09500    5.80100    9.13200  192.09500    5.80100   84.49300    -999.25    -999.25    -999.25  -59.64800  -36.79470    -999.25   84.49300    9.13200    -999.25    -999.25  -57.05900
 4450.00000  703.98900    1.46200    2.00400  703.98900    1.46200  126.69000    -999.25    -999.25    -999.25  -24.10300   -1.20360    -999.25  126.69000    2.00400    -999.25    -999.25  -26.15000
 4500.00000  367.59200    2.72700    3.73200  367.59200    2.72700   90.06900    -999.25    -999.25    -999.25  -24.86300   -1.91750    -999.25   90.06900    3.73200    -999.25    -999.25  -27.21400
 4550.00000  270.66100    3.80000    5.11700  270.66100    3.80000   94.55600    -999.25    -999.25    -999.25  -31.43600   -8.44440    -999.25   94.55600    5.11700    -999.25    -999.25  -32.51900
 4600.00000  288.28800    3.58100   11.14500  288.28800    3.58100   88.71800    -999.25    -999.25    -999.25  -84.97700  -61.93930    -999.25   88.71800   11.14500    -999.25    -999.25  -77.97300
 4650.00000  249.73200    4.08900    5.99400  249.73200    4.08900   93.84500    -999.25    -999.25    -999.25  -33.83300  -10.74920    -999.25   93.84500    5.99400    -999.25    -999.25  -36.98400
 4700.00000  405.32500    2.44600    2.84300  405.32500    2.44600   96.44800    -999.25    -999.25    -999.25  -23.52300   -0.39320    -999.25   96.44800    2.84300    -999.25    -999.25  -25.63000
 4750.00000  289.83200    3.49300    4.03900  289.83200    3.49300   93.88700    -999.25    -999.25    -999.25  -25.51500   -2.33910    -999.25   93.88700    4.03900    -999.25    -999.25  -28.81800
 4800.00000  307.49300    3.25000    3.80900  307.49300    3.25000   92.54600    -999.25    -999.25    -999.25  -23.37500   -0.15300    -999.25   92.54600    3.80900    -999.25    -999.25  -24.25700
 4850.00000  298.99000    3.32700    3.91100  298.99000    3.32700   91.84400    -999.25    -999.25    -999.25  -30.50400   -7.23590    -999.25   91.84400    3.91100    -999.25    -999.25  -35.08800
 4900.00000  315.01600    3.13700    3.79300  315.01600    3.13700   93.78700    -999.25    -999.25    -999.25  -26.62600   -3.31180    -999.25   93.78700    3.79300    -999.25    -999.25  -25.01100
 4950.00000  337.31500    3.06700    3.37000  337.31500    3.06700   94.54900    -999.25    -999.25    -999.25  -33.34600   -9.98580    -999.25   94.54900    3.37000    -999.25    -999.25  -29.80200
 5000.00000  380.21500    2.43700    3.19000  380.21500    2.43700  100.54700    -999.25    -999.25    -999.25  -25.76900   -2.36270    -999.25  100.54700    3.19000    -999.25    -999.25  -22.60100
 5050.00000  439.76300    2.19500    3.25900  439.76300    2.19500  102.07800    -999.25    -999.25    -999.25  -27.03200   -3.57960    -999.25  102.07800    3.25900    -999.25    -999.25  -23.31400
 5100.00000  308.67600    3.16300    4.56600  308.67600    3.16300   92.29700    -999.25    -999.25    -999.25  -43.88000  -20.38150    -999.25   92.29700    4.56600    -999.25    -999.25  -37.97900
 5150.00000  274.45400    3.65700   10.96200  274.45400    3.65700   89.88600    -999.25    -999.25    -999.25  -90.70000  -67.15540    -999.25   89.88600   10.96200    -999.25    -999.25  -77.62000
 5200.00000  402.51100    2.20300    3.40300  402.51100    2.20300   94.60100    -999.25    -999.25    -999.25  -27.26600   -3.67530    -999.25   94.60100    3.40300    -999.25    -999.25  -21.78800
 5250.00000  366.49900    2.50000    3.77700  366.49900    2.50000   90.48000    -999.25    -999.25    -999.25  -25.29500   -1.65830    -999.25   90.48000    3.77700    -999.25    -999.25  -20.14800
 5300.00000  389.77400    2.38800    3.43500  389.77400    2.38800   89.03800    -999.25    -999.25    -999.25  -24.78300   -1.10020    -999.25   89.03800    3.43500    -999.25    -999.25  -21.05900
 5350.00000  344.53700    2.72600    3.89900  344.53700    2.72600   88.95400    -999.25    -999.25    -999.25  -22.93100    0.79790    -999.25   88.95400    3.89900    -999.25    -999.25  -19.46800
 5400.00000  302.50600    3.13200    4.19800  302.50600    3.13200   86.73000    -999.25    -999.25    -999.25  -28.57000   -4.79500    -999.25   86.73000    4.19800    -999.25    -999.25  -23.86100
 5450.00000  506.97900    1.94400    2.58500  506.97900    1.94400  101.04400    -999.25    -999.25    -999.25  -24.79500   -0.97390    -999.25  101.04400    2.58500    -999.25    -999.25  -21.16100
 5500.00000  303.59300    3.15500    4.04200  303.59300    3.15500   86.57300    -999.25    -999.25    -999.25  -41.85100  -17.90050    -999.25   86.57300    4.04200    -999.25    -999.25  -31.54800
 5550.00000  576.17600    1.63000    2.07900  576.17600    1.63000  109.48300    -999.25    -999.25    -999.25  -28.97000   -4.82200    -999.25  109.48300    2.07900    -999.25    -999.25  -20.76800
 5600.00000  397.30000    2.42900    4.67400  397.30000    2.42900   87.12800    -999.25    -999.25    -999.25  -77.40000  -53.05450    -999.25   87.12800    4.67400    -999.25    -999.25  -67.43700
 5650.00000  330.97400    2.96500    3.89300  330.97400    2.96500   88.99200    -999.25    -999.25    -999.25  -42.28600  -17.74290    -999.25   88.99200    3.89300    -999.25    -999.25  -37.42400
 5700.00000  479.21800    2.06500    2.88700  479.21800    2.06500   93.49600    -999.25    -999.25    -999.25  -26.82800   -2.08740    -999.25   93.49600    2.88700    -999.25    -999.25  -21.66900
 5750.00000  353.50700    2.83100    3.83800  353.50700    2.83100   85.02300    -999.25    -999.25    -999.25  -26.58400   -1.64580    -999.25   85.02300    3.83800    -999.25    -999.25  -20.14000
 5800.00000  467.76700    2.13700    2.89300  467.76700    2.13700   99.35400    -999.25    -999.25    -999.25  -28.06200   -1.07980   14.80900   99.35400    2.89300    -999.25   14.80900  -17.75400
 5850.00000  414.68300    2.42400    2.83400  414.68300    2.42400   92.54000    -999.25    -999.25    -999.25  -30.42600   -0.09230   14.73500   92.54000    2.83400    -999.25   14.73500  -21.06800
 5900.00000  294.54500    3.38200    3.75600  294.54500    3.38200   92.09700    -999.25    -999.25    -999.25  -33.39800   -3.17170   14.96100   92.09700    3.75600    -999.25   14.96100  -21.06500
 5950.00000  328.84100    2.97100    3.32400  328.84100    2.97100   83.64400    -999.25    -999.25    -999.25  -32.26800   -2.18400   14.44600   83.64400    3.32400    -999.25   14.44600  -21.52900
 6000.00000  331.34300    2.99600    3.26900  331.34300    2.99600   87.62400    -999.25    -999.25    -999.25  -33.05900   -3.11730   14.56800   87.62400    3.26900    -999.25   14.56800  -22.20700
 6050.00000  533.07300    1.93500    2.24000  533.07300    1.93500   95.67600    -999.25    -999.25    -999.25  -28.84700    0.94840   15.40400   95.67600    2.24000    -999.25   15.40400  -20.89500
 6100.00000  570.61600    1.78900    2.06300  570.61600    1.78900   98.72800    -999.25    -999.25    -999.25  -29.93300   -0.48060   15.04500   98.72800    2.06300    -999.25   15.04500  -20.39700
 6150.00000  478.30400    2.13700    2.37600  478.30400    2.13700   91.29300    -999.25    -999.25    -999.25  -31.07500   -1.96560   14.79000   91.29300    2.37600    -999.25   14.79000  -21.10600
 6200.00000  532.28900    1.85900    2.22200  532.28900    1.85900   95.65900    -999.25    -999.25    -999.25  -30.37700   -1.61060   14.49000   95.65900    2.22200    -999.25   14.49000  -20.57400
 6250.00000  365.23700    2.73400    2.94400  365.23700    2.73400   89.66300    -999.25    -999.25    -999.25  -33.20100   -4.77760   14.13700   89.66300    2.94400    -999.25   14.13700  -22.79700
 6300.00000  363.18400    2.73000    3.07900  363.18400    2.73000   82.58700    -999.25    -999.25    -999.25  -34.43600   -6.35560   13.82000   82.58700    3.07900    -999.25   13.82000  -26.24400
 6350.00000  330.74500    2.95900    3.34700  330.74500    2.95900   82.75300    -999.25    -999.25    -999.25  -35.52800   -7.79060   13.70000   82.75300    3.34700    -999.25   13.70000  -25.25900
 6400.00000  408.42200    2.45700    2.82600  408.42200    2.45700   84.40200    -999.25    -999.25    -999.25  -32.91800   -5.52360   13.20600   84.40200    2.82600    -999.25   13.20600  -24.44600
