~Version ---------------------------------------------------
VERS.      2.0 : CWLS log ASCII Standard -VERSION 2.0
WRAP.      YES : Multiple lines per depth step
CREA. 09/28/17 : LAS Creation Date
~Well ------------------------------------------------------
STRT.FT                  2150.0 : START DEPTH
STOP.FT                 11650.0 : STOP DEPTH
STEP.FT                50.00000 : STEP LENGTH
NULL.                   -999.25 : NULL VALUE
COMP. BURK ROYALTY COMPANY, LTD : COMPANY
WELL.               STERLING #1 : WELL
FLD .                           : FIELD
LOC .                           : LOCATION
CNTY.                   MADISON : COUNTY
STAT.                     TEXAS : STATE
CTRY.  UNITED STATES OF AMERICA : COUNTRY
SRVC.               HALLIBURTON : SERVICE COMPANY
DATE.               31-May-2014 : LOGDATE
API .            42313311010000 : API NUMBER
UWI .            42313311010000 : UNIQUE WELL ID
SLAT.WGS84     30.9882730389083 : SURFACE LATITUDE
SLON.WGS84    -95.6985448660659 : SURFACE LONGITUDE
~Curve Information -----------------------------------------
DEPT    .FT    : DEPTH FEET
CALRED  .IN    : CALIPER FROM RESISTIVITY LOG
CALWS   .IN    : CALIPER [CALRED]
CONDWS  .MMHO  : DEEP CONDUCTIVITY [1000/DRESWS]
DCALRED .IN    : DIFFERENTIAL CALIPER FROM RESISTIVITY LOG
DCORWS  .G/C3  : DENSITY CORRECTION [DRHOED]
DENWS   .G/C3  : BULK DENSITY [RHOBED]
DPHILSED.V/V   : DENSITY POROSITY (LS) [M=2.71 F=1.00]
DPOLSWS .V/V   : DENSITY POROSITY (LS) [M=2.71 F=1.00] [DPHILSED]
DRESWS  .OHMM  : DEEP RESISTIVITY [RT90ED]
DRHOED  .G/C3  : DENSITY CORRECTION FROM DENSITY LOG
GRRED   .GAPI  : GAMMA RAY FROM RESISTIVITY LOG
GRWS    .GAPI  : GAMMA RAY [GRRED]
MINVED  .OHMM  : MICROINVERSE RESISTIVITY
MNORED  .OHMM  : MICRONORMAL RESISTIVITY
MRESWS  .OHMM  : MEDIUM RESISTIVITY [RT30ED]
NPHILSED.V/V   : NEUTRON POROSITY LIMESTONE
NPOLSWS .V/V   : NEUTRON POROSITY LIMESTONE [NPHILSED]
PEED    .B/E   : PHOTOELECTRIC FACTOR FROM DENSITY LOG
PEFWS   .B/E   : PHOTOELECTRIC FACTOR [PEED]
RHOBED  .G/C3  : BULK DENSITY FROM DENSITY LOG
RT10ED  .OHMM  : 10 INCH RESISTIVITY TWO FOOT RESOLUTION
RT20ED  .OHMM  : 20 INCH RESISTIVITY TWO FOOT RESOLUTION
RT30ED  .OHMM  : 30 INCH RESISTIVITY TWO FOOT RESOLUTION
RT60ED  .OHMM  : 60 INCH RESISTIVITY TWO FOOT RESOLUTION
RT90ED  .OHMM  : 90 INCH RESISTIVITY TWO FOOT RESOLUTION
SPRED   .MV    : SPONTANEOUS POTENTIAL FROM RESISTIVITY LOG
SPWS    .MV    : SPONTANEOUS POTENTIAL [BASELINE 0 MV] [SPRED]
SRESWS  .OHMM  : SHALLOW RESISTIVITY [RT10ED]
TENRED  .LBF   : TENSION FROM RESISTIVITY LOG
~Params ----------------------------------------------------
PD  .                     GL : PERMANENT DATUM
EPD .FT                  159 : ELEVATION PERMANENT DATUM
LMF .                     KB : LOG MEASURED FROM
DAPD.FT                   30 : FEET ABOVE PERMANENT DATUM
DMF .                     KB : DRILLING MEASURED FROM
EKB .FT                  189 : KELLY BUSHING
EDF .FT                  188 : DRILLING FLOOR
EGL .FT                  159 : GROUND LEVEL
DATE.              5/31/2014 : RUN DATE
RUN .                      1 : RUN NUMBER
DD  .FT                11688 : DEPTH DRILLER
DL  .FT                11682 : DEPTH LOGGER
BLI .FT                11679 : BOTTOM LOG INTERVAL
TLI .FT                 2195 : TOP LOG INTERVAL
CS  .IN                9.625 : CASING SIZE
CBD .FT                 2195 : CASING BOTTOM DRILLER
CBL .FT                 2195 : CASING BOTTOM LOGGER
BS  .IN                 8.75 : BIT SIZE
BSD .FT                11688 : BIT SIZE AT DEPTH
DFT .        WATER BASED MUD : DRILLING FLUID TYPE
DFD .                    9.8 : DRILLING FLUID DENSITY
DFV .                     65 : DRILLING FLUID VISCOSITY
DFPH.                    9.4 : DRILLING FLUID PH
DFL .                    4.4 : DRILLING FLUID LOSS
MSS .               MUD TANK : MUD SAMPLE SOURCE
RMS .OHMM               1.31 : RESISTIVITY MUD SAMPLE
MST .DEGF                 71 : MUD SAMPLE TEMPERATURE
RMF .OHMM               1.12 : RESISTIVITY MUD FILTRATE SAMPLE
MFST.DEGF                 72 : MUD FILTRATE SAMPLE TEMPERATURE
RMC .OHMM               1.83 : RESISTIVITY MUD CAKE
MCST.DEGF                 72 : MUD CAKE SAMPLE TEMPERATURE
MFSS.                   MEAS : MUD FILTRATE SAMPLE SOURCE
MCSS.                   MEAS : MUD CAKE SAMPLE SOURCE
RMB .OHMM               0.73 : RESISTIVITY MUD AT BHT
TCS .HRS                 700 : TIME CIRCULATED STOPPED
TLAB.HRS                 630 : TIME LOGGER AT BOTTOM
LUN .               10549594 : LOGGING UNIT NUMBER
LUL .                KILGORE : LOGGING UNIT LOCATION
ENGI.                 ALLALI : RECORDING ENGINEER
WITN.                KIMBELL : WITNESSED BY
CLNT.                A2DTECH : CLIENT CODE
ORIG.       1", 2", 5" PRINT : ORIGIN OF DATA
UWI .         42313311010000 : UNIQUE WELL ID
DICO. A2D Technologies, Inc. : DIGITIZING COMPANY
~Other -----------------------------------------------------
ALL LOGS RAN ON COMBO.
LOADED ALL CURVES FROM BOREHOLE DATA SET.
GAPS ON CURVES AROUND 11450'-11510' DUE TO TOOL PULLED.
~ASCII -----------------------------------------------------
# ...
 4650.00000    8.91830    8.91830 1178.82820    0.16830    0.03750    2.20290    0.29660    0.29660    0.84830    0.03750   61.31860   61.31860    3.84860    2.60330    0.99490    0.24700    0.24700    2.67510    2.67510    2.20290    1.69320    1.20980    0.99490    0.90520    0.84830  -45.64800  -50.07200    1.69320 2995.56300
 4700.00000    8.85150    8.85150  527.62100    0.10150    0.03400    2.40740    0.17700    0.17700    1.89530    0.03400   82.57870   82.57870    4.76150    3.00220    2.13790    0.22730    0.22730    2.90950    2.90950    2.40740    2.99180    2.49710    2.13790    1.98950    1.89530  -16.89420  -21.49980    2.99180 3091.03470
 4750.00000    8.88150    8.88150  429.86720    0.13150    0.00980    2.38700    0.18890    0.18890    2.32630    0.00980   75.86500   75.86500    5.32260    3.50630    2.34850    0.22300    0.22300    2.61790    2.61790    2.38700    3.04700    2.58150    2.34850    2.27640    2.32630  -29.44590  -33.32980    3.04700 3115.99930
 4800.00000    8.72700    8.72700  777.54450   -0.02300    0.02630    2.35560    0.20720    0.20720    1.28610    0.02630   94.70410   94.70410    4.16530    2.48980    1.46400    0.25870    0.25870    2.88380    2.88380    2.35560    2.28220    1.74250    1.46400    1.34530    1.28610  -34.53320  -37.69530    2.28220 3129.32450
 4850.00000    8.72680    8.72680  371.80250   -0.02320    0.01770    2.54490    0.09660    0.09660    2.68960    0.01770   39.65160   39.65160    9.44950    9.79130    3.13990    0.07170    0.07170    3.28780    3.28780    2.54490    6.00580    4.01280    3.13990    2.74960    2.68960  -58.68870  -61.12900    6.00580 3177.53170
 4900.00000    8.67290    8.67290 2207.99290   -0.07710    0.01060    2.14100    0.33280    0.33280    0.45290    0.01060   43.70700   43.70700    3.20500    2.19790    0.49630    0.25270    0.25270    2.54370    2.54370    2.14100    0.67440    0.55860    0.49630    0.47230    0.45290  -66.79110  -68.50970    0.67440 3136.87210
 4950.00000    8.61940    8.61940 1624.43140   -0.13060    0.02700    2.13500    0.33630    0.33630    0.61560    0.02700   51.04460   51.04460    3.25740    2.24640    0.69370    0.25260    0.25260    2.76310    2.76310    2.13500    1.06820    0.81390    0.69370    0.64550    0.61560  -64.18830  -65.18510    1.06820 3196.25810
 5000.00000    8.66090    8.66090 1534.68390   -0.08910    0.01610    2.21620    0.28880    0.28880    0.65160    0.01610   54.17770   54.17770    4.10880    2.98820    0.74250    0.26680    0.26680    2.42450    2.42450    2.21620    1.23090    0.89170    0.74250    0.68140    0.65160  -68.97080  -69.24590    1.23090 3188.84060
 5050.00000    8.86890    8.86890  478.03430    0.11890    0.03340    2.45430    0.14950    0.14950    2.09190    0.03340  107.13470  107.13470    3.41380    1.58420    2.11500    0.27850    0.27850    3.10220    3.10220    2.45430    2.18820    2.15490    2.11500    2.10090    2.09190   -9.77690   -9.33020    2.18820 3267.54370
 5100.00000    8.65590    8.65590 1110.61750   -0.09410    0.03170    2.31040    0.23370    0.23370    0.90040    0.03170   73.07780   73.07780    3.66570    2.68460    1.07220    0.22560    0.22560    2.69710    2.69710    2.31040    1.87900    1.31720    1.07220    0.97010    0.90040  -62.27260  -60.06020    1.87900 3275.12600
 5150.00000    8.68170    8.68170 1101.44290   -0.06830    0.02990    2.30800    0.23510    0.23510    0.90790    0.02990   71.28750   71.28750    4.21380    2.82050    1.06410    0.23740    0.23740    2.87000    2.87000    2.30800    1.83870    1.30320    1.06410    0.96260    0.90790  -63.47200  -58.95600    1.83870 3348.46360
 5200.00000    8.63410    8.63410 1523.69340   -0.11590    0.01830    2.21410    0.29000    0.29000    0.65630    0.01830   58.57210   58.57210    4.00340    2.70110    0.78580    0.25550    0.25550    2.77250    2.77250    2.21410    1.37990    0.96490    0.78580    0.71240    0.65630  -70.21260  -63.39310    1.37990 3349.06470
 5250.00000    8.64510    8.64510 1633.72000   -0.10490    0.04100    2.27540    0.25410    0.25410    0.61210    0.04100   52.93670   52.93670    3.84180    2.74310    0.72270    0.23290    0.23290    2.40920    2.40920    2.27540    1.24670    0.87910    0.72270    0.65990    0.61210  -70.24230  -61.11930    1.24670 3346.37700
 5300.00000    8.78980    8.78980  824.47030    0.03980    0.00530    1.87870    0.48620    0.48620    1.21290    0.00530   80.36120   80.36120    8.26630    3.59670    1.43890    0.39760    0.39760    2.10010    2.10010    1.87870    2.60810    1.79910    1.43890    1.28570    1.21290  -52.53770  -41.11120    2.60810 3394.83200
 5350.00000    8.82090    8.82090  308.52770    0.07090    0.04020    1.96720    0.43440    0.43440    3.24120    0.04020   66.91340   66.91340   13.49520    7.43050    3.19780    0.36000    0.36000    2.37180    2.37180    1.96720    3.35820    3.30660    3.19780    3.17570    3.24120  -28.29190  -14.56180    3.35820 3377.49680
 5400.00000    8.68790    8.68790 1034.12620   -0.06210    0.05100    2.38220    0.19170    0.19170    0.96700    0.05100   81.43940   81.43940    4.05460    2.96710    1.11660    0.22340    0.22340    3.44850    3.44850    2.38220    1.96020    1.36920    1.11660    1.01140    0.96700  -56.84820  -40.81460    1.96020 3450.16210
 5450.00000    8.74680    8.74680  755.17290   -0.00320    0.01200    2.42210    0.16830    0.16830    1.32420    0.01200   91.75420   91.75420    4.30010    2.61490    1.45830    0.23740    0.23740    2.74820    2.74820    2.42210    2.15540    1.70200    1.45830    1.36030    1.32420  -48.00120  -29.66410    2.15540 3444.14720
 5500.00000    8.63660    8.63660 1222.19510   -0.11340    0.01760    2.39880    0.18200    0.18200    0.81820    0.01760   58.83660   58.83660    5.78450    4.46760    0.99760    0.19220    0.19220    3.45590    3.45590    2.39880    1.90140    1.26610    0.99760    0.88280    0.81820  -87.45430  -66.81370    1.90140 3406.54150
 5550.00000    8.79050    8.79050  486.23940    0.04050    0.01950    2.41080    0.17500    0.17500    2.05660    0.01950   75.93960   75.93960    5.21040    3.18080    2.12970    0.21070    0.21070    2.84480    2.84480    2.41080    2.58380    2.29340    2.12970    2.08160    2.05660  -49.74820  -26.80400    2.58380 3413.51100
 5600.00000    8.72540    8.72540  898.87640   -0.02460    0.03270    2.39730    0.18280    0.18280    1.11250    0.03270   76.34650   76.34650    4.79850    3.40920    1.27720    0.19910    0.19910    2.87860    2.87860    2.39730    2.07610    1.52970    1.27720    1.17240    1.11250  -80.80280  -55.55510    2.07610 3353.08620
 5650.00000    8.63370    8.63370 1511.48730   -0.11630    0.01770    2.24380    0.27270    0.27270    0.66160    0.01770   49.88500   49.88500    3.73810    2.64280    0.77290    0.21950    0.21950    3.09420    3.09420    2.24380    1.25730    0.92430    0.77290    0.71160    0.66160  -95.44210  -67.89090    1.25730 3312.94460
 5700.00000    9.00000    9.00000  657.80820    0.25000    0.04360    2.43290    0.16210    0.16210    1.52020    0.04360  101.23470  101.23470    3.43510    1.58990    1.61640    0.22280    0.22280    2.87750    2.87750    2.43290    1.87500    1.73350    1.61640    1.55210    1.52020  -50.38630  -20.53150    1.87500 3373.34520
 5750.00000    8.86720    8.86720  543.89210    0.11720    0.02980    2.48300    0.13280    0.13280    1.83860    0.02980   93.76830   93.76830    4.90500    2.68360    1.98940    0.20750    0.20750    2.69680    2.69680    2.48300    2.37510    2.19400    1.98940    1.90180    1.83860  -47.87230  -16.21600    2.37510 3421.82450
 5800.00000    8.97300    8.97300  602.44590    0.22300    0.01240    2.47430    0.13780    0.13780    1.65990    0.01240   83.84010   83.84010    3.80180    1.65710    1.68650    0.21220    0.21220    2.57870    2.57870    2.47430    1.77600    1.73960    1.68650    1.67390    1.65990  -46.16830  -13.32390    1.77600 3438.91190
 5850.00000    9.12860    9.12860  523.28620    0.37860    0.10770    2.51240    0.11550    0.11550    1.91100    0.10770   80.56460   80.56460    3.26580    1.48640    1.92970    0.23180    0.23180    3.50020    3.50020    2.51240    1.97470    1.96670    1.92970    1.92280    1.91100  -40.48030   -6.41440    1.97470 3423.74630
