~Version ---------------------------------------------------
VERS. 2.0 : CWLS log ASCII Standard -VERSION 2.0
WRAP.  NO : ONE LINE PER DEPTH STEP
~Well ------------------------------------------------------
STRT.F                   1900.0 : START DEPTH
STOP.F                  10400.0 : STOP DEPTH
STEP.F                 50.00000 : STEP LENGTH
NULL.                   -999.25 : NULL VALUE
COMP.      ASHER RESOURCES, INC : COMPANY
WELL. C. N. COOKE A GAS UNIT #2 : WELL
FLD .                     COOKE : FIELD
LOC .                           : LOCATION
CNTY.                  LA SALLE : COUNTY
STAT.                     TEXAS : STATE
CTRY.  UNITED STATES OF AMERICA : COUNTRY
SRVC.              Schlumberger : SERVICE COMPANY
DATE.               18-Jun-1993 : LOGDATE
API .            42283315230000 : API NUMBER
UWI .            42283315230000 : UNIQUE WELL ID
SLAT.WGS84         28.314045138 : SURFACE LATITUDE
SLON.WGS84       -99.0804856611 : SURFACE LONGITUDE
~Curve Information -----------------------------------------
DEPT.F                 : 
GRR .GAPI 06 310 01 00 : GAMMA RAY FROM RES.
IDPH.OHMM 06 120 46 00 : INDUCTION DEEP PHASOR RES.
IMPH.OHMM 06 120 44 00 : INDUCTION MEDIUM PHASOR RES.
SFLU.OHMM 06 220 01 00 : SPHERICALLY FOCUSED LOG UNAVERAGED RESISTIVITY
SPR .MV   06 010 01 00 : SPONTANEOUS POTENTIAL FROM RES.
CALD.IN   45 280 60 00 : CALIPER FROM DENSITY LOG
DPHI.DEC  45 890 10 00 : DENSITY POROSITY LIMESTONE
DRHO.G/C3 45 356 01 00 : DENSITY CORRECTION
NPHI.DEC  42 890 01 00 : NEUTRON POROSITY LIMESTONE
~Params ----------------------------------------------------
PD  .                     GL : PERMANENT DATUM
EPD .F                   352 : ELEVATION PERMANENT DATUM
LMF .                     KB : LOG MEASURED FROM
DAPD.F                    14 : FEET ABOVE PERMANENT DATUM
DMF .                     KB : DRILLING MEASURED FROM
DATE.              6-18-1993 : RUN DATE
RUN .                      1 : RUN NUMBER
DD  .F                 10435 : DEPTH DRILLER
DL  .F                 10404 : DEPTH LOGGER
BLI .F                 10396 : BOTTOM LOG INTERVAL
TLI .F                  2007 : TOP LOG INTERVAL
CS  .IN                9.625 : CASING SIZE
CBD .F                  2007 : CASING BOTTOM DRILLER
CBL .F                  2007 : CASING BOTTOM LOGGER
BS  .IN                 8.75 : BIT SIZE
BSD .F                 10435 : BIT SIZE AT DEPTH
DFT .              FRESH MUD : DRILLING FLUID TYPE
DFD .                   10.4 : DRILLING FLUID DENSITY
DFPH.                     10 : DRILLING FLUID PH
DFL .                    5.6 : DRILLING FLUID LOSS
MSS .              CIRC. PIT : MUD SAMPLE SOURCE
RMS .OHMM              0.543 : RESISTIVITY MUD SAMPLE
MST .F                   116 : MUD SAMPLE TEMPERATURE
RMF .OHMM              0.589 : RESISTIVITY MUD FILTRATE SAMPLE
MFST.F                    75 : MUD FILTRATE SAMPLE TEMPERATURE
RMC .OHMM              0.814 : RESISTIVITY MUD CAKE
MCST.F                   116 : MUD CAKE SAMPLE TEMPERATURE
MFSS.               MEASURED : MUD FILTRATE SAMPLE SOURCE
MCSS.             CALCULATED : MUD CAKE SAMPLE SOURCE
RMB .OHMM              0.282 : RESISTIVITY MUD AT BHT
TCS .HRS                 330 : TIME CURCULATED STOPPED
TLAB.HRS                 940 : TIME LOGGER AT BOTTOM
LUN .                   8129 : LOGGING UNIT NUMBER
LUL .             LAREDO, TX : LOGGING UNIT LOCATION
ENGI.              STRUBHART : RECORDING ENGINEER
WITN.                    FOX : WITNESSED BY
CLNT.                A2DTECH : CLIENT CODE
ORIG.               5" PRINT : ORIGIN OF DATA
UWI .         42283315230000 : UNIQUE WELL ID
DICO. A2D Technologies, Inc. : DIGITIZING COMPANY
~Other -----------------------------------------------------
~ASCII -----------------------------------------------------
# ...
 5550.00000   99.47590    2.84580    2.88520    3.17860   -5.37760    -999.25    -999.25    -999.25    -999.25
 5600.00000   90.90230    3.13510    3.09190    2.96620   -3.86770    -999.25    -999.25    -999.25    -999.25
 5650.00000   89.55040    3.99350    3.99340    4.02110   -5.07550    -999.25    -999.25    -999.25    -999.25
 5700.00000   94.73680    2.44400    2.44410    2.44410   -2.50760    -999.25    -999.25    -999.25    -999.25
 5750.00000   88.42110    2.09920    2.09920    2.07040   -2.96070    -999.25    -999.25    -999.25    -999.25
 5800.00000   85.26390    1.70590    1.70600    1.98620   -4.47000    -999.25    -999.25    -999.25    -999.25
 5850.00000   92.48080    2.07040    1.95900    1.95900   -6.58570    -999.25    -999.25    -999.25    -999.25
 5900.00000   81.65530    2.11380    2.11380    2.11380   -7.19060    -999.25    -999.25    -999.25    -999.25
 5950.00000   81.20390    2.69260    2.67400    2.76820   -7.34090    -999.25    -999.25    -999.25    -999.25
 6000.00000   85.71500    2.73010    2.76800    2.92550   -7.79560    -999.25    -999.25    -999.25    -999.25
 6050.00000   79.17410    2.11380    1.97260    1.98620   -7.03900    -999.25    -999.25    -999.25    -999.25
 6100.00000   68.79890    2.12850    2.12840    1.98630   -7.03930    -999.25    -999.25    -999.25    -999.25
 6150.00000   81.65410    2.36100    2.39390    2.60100   -5.67980    -999.25    -999.25    -999.25    -999.25
 6200.00000   71.05150    2.24950    2.20330    2.20330   -5.98150    -999.25    -999.25    -999.25    -999.25
 6250.00000   87.06840    2.80660    3.00750    3.17860   -9.30510    -999.25    -999.25    -999.25    -999.25
 6300.00000   81.65380    3.42980    3.47750    3.42980   -8.24720    -999.25    -999.25    -999.25    -999.25
 6350.00000   62.70690    1.98620    1.95890    2.14320  -12.32630    -999.25    -999.25    -999.25    -999.25
 6400.00000   66.54140    3.04940    3.04940    2.60100  -10.66440    -999.25    -999.25    -999.25    -999.25
 6450.00000   59.77480    3.40610    3.91130    3.96580  -12.77950    -999.25    -999.25    -999.25    -999.25
 6500.00000   55.03800    3.33620    3.07050    3.15660  -12.02420    -999.25    -999.25    -999.25    -999.25
 6550.00000   59.54960    3.15670    3.26770    3.00750  -11.87300    -999.25    -999.25    -999.25    -999.25
 6600.00000   63.15810    3.26770    3.42980    3.38270  -13.98790    -999.25    -999.25    -999.25    -999.25
 6650.00000   62.03010    3.88430    3.65000    3.70080  -12.17520    -999.25    -999.25    -999.25    -999.25
 6700.00000   70.82670    2.23400    2.26510    2.24950  -13.53470    -999.25    -999.25    -999.25    -999.25
 6750.00000   64.73720    2.36100    2.29660    2.16530  -13.68610    -999.25    -999.25    -999.25    -999.25
 6800.00000   64.51130    2.26510    2.31260    2.21060  -12.62840    -999.25    -999.25    -999.25    -999.25
 6850.00000   73.08270    2.11380    2.09920    2.07750  -13.83690    -999.25    -999.25    -999.25    -999.25
 6900.00000   66.76650    2.17310    2.18810    2.13560  -12.62840    -999.25    -999.25    -999.25    -999.25
 6950.00000   65.18800    2.51260    2.54760    2.53800  -11.57070    -999.25    -999.25    -999.25    -999.25
 7000.00000   70.82690    2.58310    2.63730    2.70060  -12.47780    -999.25    -999.25    -999.25    -999.25
 7050.00000   68.79700    2.51260    2.49530    2.50310  -12.17520    -999.25    -999.25    -999.25    -999.25
 7100.00000   65.86470    2.24950    2.26510    2.32010  -12.76780    -999.25    -999.25    -999.25    -999.25
 7150.00000   70.82710    2.24940    2.23400    2.28820  -12.62840    -999.25    -999.25    -999.25    -999.25
 7200.00000   60.22630    2.76810    2.69250    2.80660  -12.02420    -999.25    -999.25    -999.25    -999.25
 7250.00000   74.21050    2.73000    2.78570    2.78720  -11.26890    -999.25    -999.25    -999.25    -999.25
 7300.00000   69.69960    2.34480    2.24950    2.36100  -11.87310    -999.25    -999.25    -999.25    -999.25
 7350.00000   67.21750    2.54750    2.54770    2.58320  -10.21110    -999.25    -999.25    -999.25    -999.25
 7400.00000   58.19550    3.07060    3.09170    3.14380  -12.17520    -999.25    -999.25    -999.25    -999.25
 7450.00000   65.63930    3.26770    3.45360    3.16560  -14.44100    -999.25    -999.25    -999.25    -999.25
 7500.00000   64.51110    3.15670    3.11120    3.46280  -13.23310    -999.25    -999.25    -999.25    -999.25
 7550.00000   67.66920    3.15670    3.17860    3.29940  -11.26890    -999.25    -999.25    -999.25    -999.25
 7600.00000   69.11630    3.24790    3.30920    3.37550  -11.47070    -999.25    -999.25    -999.25    -999.25
 7650.00000   59.09740    4.84380    4.97030    5.98960  -10.66450    -999.25    -999.25    -999.25    -999.25
 7700.00000   67.89510    4.79400    4.85150    5.45620   -9.30540    -999.25    -999.25    -999.25    -999.25
 7750.00000   54.13530    4.16300    4.21080    4.86830   -8.09670    -999.25    -999.25    -999.25    -999.25
 7800.00000   53.08730    3.24940    3.28350    3.37550  -15.80010    -999.25    -999.25    -999.25    -999.25
 7850.00000   63.93070    3.18290    3.21620    3.10690  -10.06040    -999.25    -999.25    -999.25    -999.25
 7900.00000   61.21890    3.66730    3.71830    5.51300   -8.85220    -999.25    -999.25    -999.25    -999.25
 7950.00000   57.60500    5.43730    6.32970    8.40300  -10.81600    -999.25    -999.25    -999.25    -999.25
 8000.00000   66.64160    3.59210    3.42240    3.37550   -9.75830    -999.25    -999.25    -999.25    -999.25
 8050.00000   63.47850    3.90260    3.87570    4.21070   -7.34140    -999.25    -999.25    -999.25    -999.25
 8100.00000   70.03070    3.69260    3.57650    3.84900   -6.43500    -999.25    -999.25    -999.25    -999.25
 8150.00000   77.48640    2.45640    2.46420    2.50790   -7.64350    -999.25    -999.25    -999.25    -999.25
 8200.00000   70.92140    3.19400    3.33820    3.49410   -7.03830    -999.25    -999.25    -999.25    -999.25
 8250.00000  164.23190    3.15020    2.98920    2.93990   -7.03880    -999.25    -999.25    -999.25    -999.25
 8300.00000   90.81330    2.17970    2.18420    2.30830   -7.18980   16.25600    0.15800    -999.25    0.26380
 8350.00000   77.71080    2.36740    2.40600    2.45650   -5.98290   13.68070    0.16370    -999.25    0.26020
 8400.00000   82.54890    2.75440    2.78180    2.76270   -8.39840   14.71990    0.13550    0.10000    0.24070
 8450.00000   86.97290    2.64310    2.65040    2.74370   -9.30510   15.24700    0.14000    -999.25    0.21890
 8500.00000  104.30050    2.41690    1.98280    1.80000   -9.28470   13.62050    0.40760    -999.25    0.25120
 8550.00000   80.54300    2.97110    3.08550    3.06430   -9.00230   14.87040    0.15860    -999.25    0.20690
 8600.00000   83.03280    2.77350    2.80090    2.82050   -9.00260   14.58430    0.15500    -999.25    0.20090
 8650.00000  100.22620    3.07100    3.17200    3.15020   -8.70070   11.22600    0.09990    -999.25    0.17840
 8700.00000   83.25790    3.63550    3.63410    3.61700   -9.00300   12.15950    0.08790    0.10000    0.15150
 8750.00000   84.93980    3.39350    3.36830    3.35230   -6.88900   12.62650    0.13070    0.10000    0.19910
 8800.00000   77.48490    3.32410    3.36840    3.37560  -11.72210   13.69570    0.16700    -999.25    0.17130
 8850.00000   83.35920    3.68610    3.65930    3.39890  -13.68580   13.09330    0.11270    0.09550    0.14910
 8900.00000   80.19540    2.79820    2.59110    2.18420  -13.83640   15.03610    0.17270    0.10000    0.20090
 8950.00000   65.96390    4.40920    4.25980    4.92490  -14.59190   12.77700    0.06360    0.07130    0.14430
 9000.00000   68.89950    4.72340    4.79010    5.28920  -13.83690   12.00890    0.11960    0.10000    0.13980
 9050.00000   82.22890    3.94880    4.31880    4.86830  -13.08140   11.61740    0.10880    0.00800    0.15900
 9100.00000   58.96100    6.48450    6.40140    7.47220  -14.44130   11.06010    0.05310   -0.00110    0.11140
 9150.00000   60.54140    4.92280    5.11490    5.86670  -14.74320   11.82830    0.05730   -0.00260    0.11170
