~Version ---------------------------------------------------
VERS.      2.0 : CWLS log ASCII Standard -VERSION 2.0
WRAP.      YES : Multiple lines per depth step
CREA. 08/18/12 : LAS Creation Date
~Well ------------------------------------------------------
STRT.FT                 2900.0 : START DEPTH
STOP.FT                17850.0 : STOP DEPTH
STEP.FT               50.00000 : STEP LENGTH
NULL.                  -999.25 : NULL VALUE
COMP. AMOCO PRODUCTION COMPANY : COMPANY
WELL.   JIMMY HILL GAS UNIT #1 : WELL
FLD .                  WILDCAT : FIELD
LOC .                          : LOCATION
CNTY.                     LEON : COUNTY
STAT.                    TEXAS : STATE
CTRY. UNITED STATES OF AMERICA : COUNTRY
SRVC.             Schlumberger : SERVICE COMPANY
DATE.              04-Jun-1996 : LOGDATE
API .           42289312310000 : API NUMBER
UWI .           42289312310000 : UNIQUE WELL ID
SLAT.WGS84       31.2538599246 : SURFACE LATITUDE
SLON.WGS84      -96.2196025838 : SURFACE LONGITUDE
~Curve Information -----------------------------------------
DEPT    .FT                                                                                                : DEPTH FEET
AO10ED  .OHMM                                                                                              : ARRAY INDUCTION ONE FOOT RESISTIVITY A10 FROM AIT-PI-DITE-LDT-CNT LOG
AO20ED  .OHMM                                                                                              : ARRAY INDUCTION ONE FOOT RESISTIVITY A20 FROM AIT-PI-DITE-LDT-CNT LOG
AO30ED  .OHMM                                                                                              : ARRAY INDUCTION ONE FOOT RESISTIVITY A30 FROM AIT-PI-DITE-LDT-CNT LOG
AO60ED  .OHMM                                                                                              : ARRAY INDUCTION ONE FOOT RESISTIVITY A60 FROM AIT-PI-DITE-LDT-CNT LOG
AO90ED  .OHMM                                                                                              : ARRAY INDUCTION ONE FOOT RESISTIVITY A90 FROM AIT-PI-DITE-LDT-CNT LOG
CALSED  .IN                                                                                                : CALIPER FROM BCS-CALIPER-GR LOG [ADJ. TO GRRED]
CALWS   .IN                                                                                                : CALIPER [DCALED+BITS]
CONDWS  .MMHO                                                                                              : CONDUCTIVITY [1000/DRESWS]
DCALED  .IN                                                                                                : DIFFERENTIAL CALIPER FROM AIT-PI-DITE-LDT-CNT LOG
DCORWS  .G/C3                                                                                              : DENSITY CORRECTION [DRHED SPL. TO DRHOED @ 10860']
DENWS   .G/C3 :   FORMATION BULK DENSITY [RHOMED, DENWS CALCULATED FROM DPOWS FROM 7004'-10889'] [M:2.71,F : 1.0]
DPHILSED.V/V                                                      :   DENSITY POROSITY LIMESTONE [M:2.71,F : 1.0] FROM AIT-PI-DITE-LDT-CNT LOG
DPOLSED .V/V                                                                                               : DENSITY POROSITY LIMESTONE FROM HOSTILE LDL-CN-GR LOG
DPOWS   .V/V                                                                                               : DENSITY POROSITY [DPHILSED SPL. TO DPOLSED @ 10852']
DRESWS  .OHMM                                                                                              : DEEP RESISTIVITY [AO30ED SPL. TO IDPHED]
DRHED   .G/C3                                                                                              : BULK DENSITY CORRECTION FROM HOSTILE LDL-CN-GR LOG
DRHOED  .G/C3                                                                                              : BULK DENSITY CORRECTION FROM AIT-PI-DITE-LDT-CNT LOG
DTED    .US/F                                                                                              : DELTA T FROM BCS-CALIPER-GR LOG [ADJ. TO GRRED/NPHILSED]
DTLFED  .US/F                                                                                              : DELTA-T LONG SPACING FAR FROM AIT-PI-DITE-LDT-CNT-PI-LSS-GR LOG
DTLNED  .US/F                                                                                              : DELTA-T LONG SPACING NEAR FROM AIT-PI-DITE-LDT-CNT-PI-LSS-GR LOG
DTWS    .US/F                                                                                              : COMPRESSIONAL SONIC [DTED SPL. TO DTLNED @ 10865.5'-15946.5']
GRRED   .GAPI                                                                                              : GAMMA RAY FROM AIT-PI-DITE-LDT-CNT LOG
GRSED   .GAPI                                                                                              : GAMMA RAY FROM BCS-CALIPER-GR-PI-LSS LOG [ADJ. TO GRRED]
GRWS    .GAPI                                                                                              : GAMMA RAY [GRRED]
IDPHED  .OHMM                                                                                              : DEEP INDUCTION PHASOR FROM AIT-PI-DITE-LDT-CNT- PI-LSS-GR LOG
LCALED  .IN                                                                                                : LOWER CALIPER FROM HOSTILE LDL-CN-GR LOG
MRESWS  .OHMM                                                                                              : MEDIUM RESISTIVITY [AO30ED]
NPHILSED.V/V                                                                                               : NEUTRON POROSITY LIMESTONE FROM AIT-PI-DITE-LDT-CNT LOG
NPOWS   .V/V                                                                                               : NEUTRON POROSITY [NPHILSED]
PEFED   .B/E                                                                                               : PHOTOELECTRIC FACTOR FROM AIT-PI-DITE-LDT-CNT LOG
PEFLED  .B/E                                                                                               : HLDT PEF LONG SPACING FROM HOSTILE LDL-CN-GR LOG
PEFSED  .B/E                                                                                               : SHORT SPACED CORRECTED PHOTOELECTRIC FACTOR FROM HOSTILE LDL-CN-GR LOG
PEFWS   .B/E                                                                                               : PHOTOELECTRIC FACTOR [PEFED SPL. TO PEFSED @ 10847.5']
RHOMED  .G/C3                                                                                              : CORRECTED BULK DENSITY FROM HOSTILE LDL-CN-GR LOG
SPRED   .MV                                                                                                : SPONTANEOUS POTENTIAL  FROM AIT-PI-DITE-LDT-CNT LOG
SPWS    .MV                                                                                                : SPONTANEOUS POTENTIAL [BASELINE 0, MV SPRED]
SRESWS  .OHMM                                                                                              : SHALLOW RESISTIVITY [AO10ED]
TENDED  .LBF                                                                                               : DIFFERENTIAL TENSION FROM HOSTILE LDL-CN-GR LOG
TENRED  .LBF                                                                                               : TENSION FROM AIT-PI-DITE-LDT-CNT LOG
TENSED  .LBF                                                                                               : TOTAL TENSION FROM BCS-CALIPER-GR LOG [ADJ. TO GRRED]
~Params ----------------------------------------------------
PD  .                     GL : PERMANENT DATUM
EPD .FT                 3759 : ELEVATION PERMANENT DATUM
LMF .                     KB : LOG MEASURED FROM
DAPD.FT                 37.2 : FEET ABOVE PERMANENT DATUM
DMF .                     KB : DRILLING MEASURED FROM
EKB .FT                 4131 : KELLY BUSHING
EDF .FT                 4121 : DRILLING FLOOR
EGL .FT                 3759 : GROUND LEVEL
DATE.               06/04/96 : RUN DATE
RUN .                      4 : RUN NUMBER
DD  .FT                17800 : DEPTH DRILLER
DL  .FT                17800 : DEPTH LOGGER
BLI .FT                17797 : BOTTOM LOG INTERVAL
TLI .FT                15944 : TOP LOG INTERVAL
CS  .IN                    7 : CASING SIZE
CBD .FT                15950 : CASING BOTTOM DRILLER
CBL .FT                15944 : CASING BOTTOM LOGGER
BS  .IN                5.875 : BIT SIZE
BSD .FT                17800 : BIT SIZE AT DEPTH
DFT .              OIL BASED : DRILLING FLUID TYPE
DFD .                     18 : DRILLING FLUID DENSITY
DFV .                     88 : DRILLING FLUID VISCOSITY
RMC .OHMM      OIL BASED MUD : RESISTIVITY MUD CAKE
MCST.DEGF      OIL BASED MUD : MUD CAKE SAMPLE TEMPERATURE
TCS .HRS                2100 : TIME CIRCULATED STOPPED
TLAB.HRS                1500 : TIME LOGGER AT BOTTOM
LUN .                   2019 : LOGGING UNIT NUMBER
LUL .                  TYLER : LOGGING UNIT LOCATION
ENGI.                 FERRIS : RECORDING ENGINEER
WITN.              MCGINNUSS : WITNESSED BY
CLNT.                A2DTECH : CLIENT CODE
ORIG.               5' PRINT : ORIGIN OF DATA
UWI .         42289312310000 : UNIQUE WELL ID
DICO. A2D Technologies, Inc. : DIGITIZING COMPANY
~Other -----------------------------------------------------
~ASCII -----------------------------------------------------
# ...
 12800.00000    -999.25    -999.25    -999.25    -999.25    -999.25    -999.25    8.78100   31.23520    0.28100   -0.01520    2.56190    -999.25    0.08760    0.08760   32.01520   -0.01520    -999.25    -999.25   61.07500   65.07720   65.07720   32.02510    -999.25   32.02510   32.01520    8.74960    -999.25    0.00840    0.00840    -999.25    3.64470    2.65160    2.65160    2.56190    -999.25    -999.25    -999.25 4611.84570 4606.17290    -999.25
 12850.00000    -999.25    -999.25    -999.25    -999.25    -999.25    -999.25    8.76100   54.20910    0.26100   -0.00240    2.59490    -999.25    0.06820    0.06820   18.44710   -0.00240    -999.25    -999.25   61.23660   61.46420   61.46420   62.83890    -999.25   62.83890   18.44710    8.74040    -999.25    0.05190    0.05190    -999.25    3.98040    3.06760    3.06760    2.59490    -999.25    -999.25    -999.25 4656.89210 4649.89600    -999.25
 12900.00000    -999.25    -999.25    -999.25    -999.25    -999.25    -999.25    8.83080   49.89600    0.33080   -0.01380    2.63580    -999.25    0.04070    0.04070   20.04170   -0.01380    -999.25    -999.25   58.37010   58.53580   58.53580   68.71690    -999.25   68.71690   20.04170    8.76950    -999.25    0.01550    0.01550    -999.25    3.70570    2.97690    2.97690    2.63580    -999.25    -999.25    -999.25 4607.10890 4625.37500    -999.25
 12950.00000    -999.25    -999.25    -999.25    -999.25    -999.25    -999.25    8.85280   21.35820    0.35280   -0.01120    2.65450    -999.25    0.02990    0.02990   46.82040   -0.01120    -999.25    -999.25   54.93660   55.12390   55.12390   46.57490    -999.25   46.57490   46.82040    8.80370    -999.25    0.00670    0.00670    -999.25    4.07770    3.22430    3.22430    2.65450    -999.25    -999.25    -999.25 4638.67580 4668.98390    -999.25
 13000.00000    -999.25    -999.25    -999.25    -999.25    -999.25    -999.25    8.87000   33.38250    0.37000    0.00090    2.62830    -999.25    0.04640    0.04640   29.95580    0.00090    -999.25    -999.25   57.05840   57.17150   57.17150   51.49400    -999.25   51.49400   29.95580    8.84420    -999.25    0.00210    0.00210    -999.25    3.43210    3.24080    3.24080    2.62830    -999.25    -999.25    -999.25 4724.27540 4703.30710    -999.25
 13050.00000    -999.25    -999.25    -999.25    -999.25    -999.25    -999.25    8.82060   91.72120    0.32060   -0.00600    2.59400    -999.25    0.06480    0.06480   10.90260   -0.00600    -999.25    -999.25   59.81830   59.95260   59.95260   27.31260    -999.25   27.31260   10.90260    8.76880    -999.25    0.01040    0.01040    -999.25    3.28730    2.80220    2.80220    2.59400    -999.25    -999.25    -999.25 4709.85160 4707.45850    -999.25
 13100.00000    -999.25    -999.25    -999.25    -999.25    -999.25    -999.25    8.84920   43.98870    0.34920    0.02610    2.63100    -999.25    0.04390    0.04390   22.73310    0.02610    -999.25    -999.25   62.41740   63.08970   63.08970   56.59840    -999.25   56.59840   22.73310    8.80300    -999.25    0.02380    0.02380    -999.25    5.04600    4.44170    4.44170    2.63100    -999.25    -999.25    -999.25 4673.77490 4696.69430    -999.25
 13150.00000    -999.25    -999.25    -999.25    -999.25    -999.25    -999.25    8.80620   70.00010    0.30620   -0.01250    2.63360    -999.25    0.04320    0.04320   14.28570   -0.01250    -999.25    -999.25   65.76450   65.89860   65.89860   93.79090    -999.25   93.79090   14.28570    8.76370    -999.25    0.06700    0.06700    -999.25    4.66880    3.07870    3.07870    2.63360    -999.25    -999.25    -999.25 4705.59380 4705.08300    -999.25
 13200.00000    -999.25    -999.25    -999.25    -999.25    -999.25    -999.25    8.81760   21.20380    0.31760   -0.00210    2.64040    -999.25    0.04370    0.04370   47.16130   -0.00210    -999.25    -999.25   48.84350   55.51030   55.51030   52.55320    -999.25   52.55320   47.16130    8.76530    -999.25    0.00700    0.00700    -999.25    4.00180    3.68710    3.68710    2.64040    -999.25    -999.25    -999.25 4776.47610 4759.50880    -999.25
 13250.00000    -999.25    -999.25    -999.25    -999.25    -999.25    -999.25    9.09250   64.27810    0.59250   -0.00100    2.78530    -999.25   -0.04610   -0.04610   15.55740   -0.00100    -999.25    -999.25   56.28000   56.39560   56.39560   67.69110    -999.25   67.69110   15.55740    8.99930    -999.25    0.05620    0.05620    -999.25    7.15620    4.74490    4.74490    2.78530    -999.25    -999.25    -999.25 4748.30220 4757.15330    -999.25
 13300.00000    -999.25    -999.25    -999.25    -999.25    -999.25    -999.25    9.16240  143.50500    0.66240    0.01290    2.70010    -999.25    0.00460    0.00460    6.96840    0.01290    -999.25    -999.25   69.15400   69.27470   69.27470  108.03530    -999.25  108.03530    6.96840    9.10490    -999.25    0.12250    0.12250    -999.25    7.80330    5.62160    5.62160    2.70010    -999.25    -999.25    -999.25 4764.22360 4752.42430    -999.25
 13350.00000    -999.25    -999.25    -999.25    -999.25    -999.25    -999.25    9.56260  259.78750    1.06260    0.00570    2.65790    -999.25    0.02460    0.02460    3.84930    0.00570    -999.25    -999.25   76.55780   76.83870   76.83870  126.59300    -999.25  126.59300    3.84930    9.51000    -999.25    0.14330    0.14330    -999.25    6.13340    5.10660    5.10660    2.65790    -999.25    -999.25    -999.25 4766.46780 4772.95020    -999.25
 13400.00000    -999.25    -999.25    -999.25    -999.25    -999.25    -999.25    8.89870    8.78300    0.39870   -0.00300    2.56430    -999.25    0.08540    0.08540  113.85590   -0.00300    -999.25    -999.25   56.47640   57.05290   57.05290   19.09920    -999.25   19.09920  113.85590    8.85570    -999.25   -0.00570   -0.00570    -999.25    4.12370    3.14910    3.14910    2.56430    -999.25    -999.25    -999.25 4760.11770 4774.39400    -999.25
 13450.00000    -999.25    -999.25    -999.25    -999.25    -999.25    -999.25    9.03150   53.27420    0.53150    0.13710    2.61860    -999.25    0.05680    0.05680   18.77080    0.13710    -999.25    -999.25   80.53700   63.27820   63.27820   55.74240    -999.25   55.74240   18.77080    8.96000    -999.25    0.02250    0.02250    -999.25   10.07300   10.03740   10.03740    2.61860    -999.25    -999.25    -999.25 4893.27290 4891.33940    -999.25
 13500.00000    -999.25    -999.25    -999.25    -999.25    -999.25    -999.25    9.44260  382.13150    0.94260   -0.00510    2.61720    -999.25    0.05390    0.05390    2.61690   -0.00510    -999.25    -999.25   88.10970   84.45260   84.45260  130.93300    -999.25  130.93300    2.61690    9.30080    -999.25    0.17610    0.17610    -999.25    5.55820    4.04540    4.04540    2.61720    -999.25    -999.25    -999.25 4836.54200 4965.16850    -999.25
 13550.00000    -999.25    -999.25    -999.25    -999.25    -999.25    -999.25    8.94910   36.15630    0.44910    0.02620    2.61220    -999.25    0.05710    0.05710   27.65770    0.02620    -999.25    -999.25   48.10130   50.17160   50.17160   29.04110    -999.25   29.04110   27.65770    8.98540    -999.25   -0.00300   -0.00300    -999.25    4.49340    4.05390    4.05390    2.61220    -999.25    -999.25    -999.25 4909.52930 4902.91110    -999.25
 13600.00000    -999.25    -999.25    -999.25    -999.25    -999.25    -999.25    8.80730   14.36700    0.30730    0.04740    2.59000    -999.25    0.06290    0.06290   69.60390    0.04740    -999.25    -999.25    0.00720   53.10950   53.10950   16.72940    -999.25   16.72940   69.60390    8.80650    -999.25   -0.00150   -0.00150    -999.25    4.18530    5.01660    5.01660    2.59000    -999.25    -999.25    -999.25 4819.67820 4916.52830    -999.25
 13650.00000    -999.25    -999.25    -999.25    -999.25    -999.25    -999.25    8.90340   20.95410    0.40340    0.07660    2.53820    -999.25    0.10330    0.10330   47.72340    0.07660    -999.25    -999.25   81.55530   76.57610   76.57610   35.47500    -999.25   35.47500   47.72340    8.86110    -999.25    0.01190    0.01190    -999.25    8.50670    6.47970    6.47970    2.53820    -999.25    -999.25    -999.25 4882.88570 4905.89550    -999.25
