~Version ---------------------------------------------------
VERS. 2.0 : CWLS log ASCII Standard -VERSION 2.0
WRAP. YES : Multiple lines per depth step
~Well ------------------------------------------------------
STRT.FT                 3750.0 : START DEPTH
STOP.FT                15800.0 : STOP DEPTH
STEP.FT               50.00000 : STEP LENGTH
NULL.                  -999.25 : NULL VALUE
COMP.        EOG RESOURCES INC : COMPANY
WELL.         JOHNSON A B  #1R : WELL
FLD .             BRANTON WEST : FIELD
LOC .                          : LOCATION
CNTY.                     LEON : COUNTY
STAT.                    TEXAS : STATE
CTRY. UNITED STATES OF AMERICA : COUNTRY
SRVC.             Schlumberger : SERVICE COMPANY
DATE.              24-Sep-2006 : LOGDATE
API .           42289315440000 : API NUMBER
UWI .           42289315440000 : UNIQUE WELL ID
SLAT.WGS84       31.3479375148 : SURFACE LATITUDE
SLON.WGS84      -96.2310147208 : SURFACE LONGITUDE
~Curve Information -----------------------------------------
DEPT    .FT        : DEPTH FEET
AT10ED  .OHMM      : 10 INCH RESISTIVITY TWO FOOT RESOLUTION FROM AIT LOG
AT20ED  .OHMM      : 20 INCH RESISTIVITY TWO FOOT RESOLUTION FROM AIT LOG
AT30ED  .OHMM      : 30 INCH RESISTIVITY TWO FOOT RESOLUTION FROM AIT LOG
AT60ED  .OHMM      : 60 INCH RESISTIVITY TWO FOOT RESOLUTION FROM AIT LOG
AT90ED  .OHMM      : 90 INCH RESISTIVITY TWO FOOT RESOLUTION FROM AIT LOG
CALWS   .IN        : CALIPER [DCALED+BITS]
CONDWS  .MMHO      : CONDUCTIVITY [1000/DRESWS]
DCALED  .IN        : DIFFERENTIAL CALIPER FROM AIT LOG
DCORWS  .G/C3      : DENSITY CORRECTION [HDRAED]
DENWS   .G/C3      : FORMATION BULK DENSITY [CALC FROM DPOWS, M=2.71,F=1.0]
DPHZLSED.V/V       : DENSITY POROSITY LIMESTONE [M=2.71, F=1.0] FROM DENSITY LOG
DPOWS   .V/V       : DENSITY POROSITY LIMESTONE [DPHZLSED]
DRESWS  .OHMM      : DEEP RESISTIVITY [AT90ED]
DTED    .US/F      : DELTA-T FROM SONIC LOG
GRED    .GAPI      : GAMMA RAY FROM CBL LOG [ADJ.TO AIT LOG <13840> SONIC LOG]
GRRED   .GAPI      : GAMMA RAY FROM AIT LOG
GRSED   .GAPI      : GAMMA RAY FROM SONIC LOG
GRTED   .GAPI      : THORIUM GAMMA RAY FROM RST LOG [ADJ.TO SONIC LOG]
GRWS    .GAPI      : GAMMA RAY [GRRED SPL.TO GRED 13840' TO TD.]
HDRAED  .G/C3      : DENSITY CORRECTION FROM DENSITY LOG
MRESWS  .OHMM      : MEDIUM RESISTIVITY [AT30ED]
NPHILSED.V/V       : NEUTRON POROSITY LIMESTONE FROM DENSITY LOG
NPOWS   .V/V       : NEUTRON POROSITY LIMESTONE [NPHILSED]
PEFWS   .B/E       : PHOTOELECTRIC FACTOR [PEFZED]
PEFZED  .B/E       : PHOTOELECTRIC FACTOR FROM DENSITY LOG
RATIOED .UNITLESS  : RATIO FROM RST LOG [ADJ.TO SONIC LOG]
SIGMED  .CU        : NEUTRON CAPTURE CROSS SECTION FROM RST LOG [ADJ.TO SONIC LOG]
SPHIED  .V/V       : SONIC POROSITY [DTM=47.6, DTF=189] FROM SONIC LOG
SPRED   .MV        : SPONTANEOUS POTENTIAL FROM AIT LOG
SPWS    .MV        : SPONTANEOUS POTENTIAL [BASELINE 0 MV,SPRED]
SRESWS  .OHMM      : SHALLOW RESISTIVITY [AT10ED]
TENRED  .LBF       : TENSION FROM AIT LOG
TENSED  .LBF       : TENSION FROM SONIC LOG
TPHILSED.V/V       : THERMAL POROSITY LIMESTONE FROM RST LOG [ADJ.TO SONIC LOG]
~Params ----------------------------------------------------
PD  .                     GL : PERMANENT DATUM
EPD .FT                  449 : ELEVATION PERMANENT DATUM
LMF .                     KB : LOG MEASURED FROM
DAPD.FT                   27 : FEET ABOVE PERMANENT DATUM
DMF .                     KB : DRILLING MEASURED FROM
EKB .FT                  476 : KELLY BUSHING
EDF .FT                  475 : DRILLING FLOOR
EGL .FT                  449 : GROUND LEVEL
DATE.               09/24/06 : RUN DATE
RUN .                      1 : RUN NUMBER
DD  .FT                13864 : DEPTH DRILLER
DL  .FT                13877 : DEPTH LOGGER
BLI .FT                13869 : BOTTOM LOG INTERVAL
TLI .FT                 3829 : TOP LOG INTERVAL
CS  .IN                10.75 : CASING SIZE
CBD .FT                 3825 : CASING BOTTOM DRILLER
CBL .FT                 3829 : CASING BOTTOM LOGGER
BS  .IN                9.875 : BIT SIZE
BSD .FT                13864 : BIT SIZE AT DEPTH
DFT .  WATER BASED DISPERSED : DRILLING FLUID TYPE
DFD .                   11.6 : DRILLING FLUID DENSITY
DFV .                     42 : DRILLING FLUID VISCOSITY
DFPH.                   10.2 : DRILLING FLUID PH
DFL .                     16 : DRILLING FLUID LOSS
MSS .       CIRCULATION TANK : MUD SAMPLE SOURCE
RMS .OHMM              0.873 : RESISTIVITY MUD SAMPLE
MST .DEGF                 82 : MUD SAMPLE TEMPERATURE
RMF .OHMM              0.698 : RESISTIVITY MUD FILTRATE SAMPLE
MFST.DEGF                 82 : MUD FILTRATE SAMPLE TEMPERATURE
RMC .OHMM              1.048 : RESISTIVITY MUD CAKE
MCST.DEGF                 82 : MUD CAKE SAMPLE TEMPERATURE
MFSS.             CALCULATED : MUD FILTRATE SAMPLE SOURCE
MCSS.             CALCULATED : MUD CAKE SAMPLE SOURCE
RMB .OHMM              0.251 : RESISTIVITY MUD AT BHT
TCS .HRS                2300 : TIME CIRCULATED STOPPED
TLAB.HRS                1015 : TIME LOGGER AT BOTTOM
LUN .                   2267 : LOGGING UNIT NUMBER
LUL .                  TYLER : LOGGING UNIT LOCATION
ENGI.        BELKNA[ MUSTATA : RECORDING ENGINEER
WITN.                  SMITH : WITNESSED BY
CLNT.                A2DTECH : CLIENT CODE
ORIG.         1" 2" 5" PRINT : ORIGIN OF DATA
UWI .         42289315440000 : UNIQUE WELL ID
DICO. A2D Technologies, Inc. : DIGITIZING COMPANY
~Other -----------------------------------------------------
AIT-CDL-CNL RUN IN COMBO & ARRAY SONIC & RST-CBL LOG RUN
GRED,GRSED,DTED,SPHIED,GRTED & TDT LOG RUN IN CSG.[NOT DELETED FROM WELL AS FOR THIS INTERVAL NO WIRELINE DATA FOUND FOR PROCESSING]
DENSITY AFFECTED BY HEAVY MUD & MUD CAKE BELOW 10,000'
SP AFFECTED AT 8400' DUE TO HIGH AC AUX USED TO CLOSE POWER POSITION CALIPER
~ASCII -----------------------------------------------------
# ...
 7950.00000    2.27660    2.66650    2.89330    3.14070    3.45540   13.19940  289.40210    3.32440    -999.25    -999.25    -999.25    -999.25    3.45540    -999.25    -999.25   52.90490    -999.25    -999.25   52.90490    -999.25    2.89330    -999.25    -999.25    -999.25    -999.25    -999.25    -999.25    -999.25   48.17400   -7.06050    2.27660 3671.84810    -999.25    -999.25
 8000.00000   31.44410   28.81050   26.38800   23.75860   23.13130   10.41340   43.23150    0.53840    -999.25    -999.25    -999.25    -999.25   23.13130    -999.25    -999.25   24.02460    -999.25    -999.25   24.02460    -999.25   26.38800    -999.25    -999.25    -999.25    -999.25    -999.25    -999.25    -999.25   50.94460   -6.28830   31.44410 3749.41580    -999.25    -999.25
 8050.00000    3.47140    3.73980    4.17540    4.26890    4.61520   10.72140  216.67530    0.84640    -999.25    -999.25    -999.25    -999.25    4.61520    -999.25    -999.25   35.07890    -999.25    -999.25   35.07890    -999.25    4.17540    -999.25    -999.25    -999.25    -999.25    -999.25    -999.25    -999.25   11.70510  -12.60020    3.47140 3745.59160    -999.25    -999.25
 8100.00000   45.53000   38.57240   30.45030   26.50980   21.33260   10.73300   46.87660    0.85800    0.01510    2.70380    0.00360    0.00360   21.33260    -999.25    -999.25   27.39490    -999.25    -999.25   27.39490    0.01510   30.45030    0.01290    0.01290    5.38010    5.38010    -999.25    -999.25    -999.25    9.07420  -43.72390   45.53000 3851.11960    -999.25    -999.25
 8150.00000   30.07410   25.83740   22.82020   18.54810   14.59820   10.62500   68.50160    0.75000    0.00910    2.66840    0.02430    0.02430   14.59820    -999.25    -999.25   33.71570    -999.25    -999.25   33.71570    0.00910   22.82020    0.05420    0.05420    5.41320    5.41320    -999.25    -999.25    -999.25  -14.71340  -61.96180   30.07410 3843.61500    -999.25    -999.25
 8200.00000    7.17770    7.02350    6.55960    6.07010    5.89910   10.54560  169.51740    0.67060    0.00320    2.63920    0.04140    0.04140    5.89910    -999.25    -999.25   41.74220    -999.25    -999.25   41.74220    0.00320    6.55960    0.11180    0.11180    4.56740    4.56740    -999.25    -999.25    -999.25  -37.55880  -79.25760    7.17770 3815.91410    -999.25    -999.25
 8250.00000   31.25800   30.27220   27.82130   26.80860   25.90960   10.64630   38.59570    0.77130    0.01050    2.71210   -0.00120   -0.00120   25.90960    -999.25    -999.25   33.22410    -999.25    -999.25   33.22410    0.01050   27.82130    0.03110    0.03110    5.03970    5.03970    -999.25    -999.25    -999.25  -46.07120  -82.22030   31.25800 3848.99580    -999.25    -999.25
 8300.00000   21.59110   22.70220   25.33200   30.74800   29.33850   10.66400   34.08490    0.78900    0.02400    2.68180    0.01650    0.01650   29.33850    -999.25    -999.25   37.38200    -999.25    -999.25   37.38200    0.02400   25.33200    0.03620    0.03620    6.80390    6.80390    -999.25    -999.25    -999.25  -29.66890  -60.26840   21.59110 3882.99680    -999.25    -999.25
 8350.00000   88.45020   58.81350   52.60470   47.59830   44.46210   10.67320   22.49110    0.79820    0.01110    2.68790    0.01290    0.01290   44.46210    -999.25    -999.25   28.89040    -999.25    -999.25   28.89040    0.01110   52.60470    0.01470    0.01470    4.79870    4.79870    -999.25    -999.25    -999.25 -126.25880 -151.30860   88.45020 3883.42970    -999.25    -999.25
 8400.00000   10.98780   10.51580    9.39810    5.43420    4.25480   11.48930  235.02870    1.61430    0.06290    2.47040    0.14010    0.14010    4.25480    -999.25    -999.25   18.12110    -999.25    -999.25   18.12110    0.06290    9.39810    0.13090    0.13090    7.00880    7.00880    -999.25    -999.25    -999.25  -99.79930 -119.29950   10.98780 3978.09690    -999.25    -999.25
 8450.00000   29.59220   24.68580   22.31950   15.62260   12.87180   10.61010   77.68920    0.73510   -0.03070    2.68210    0.01630    0.01630   12.87180    -999.25    -999.25   36.92240    -999.25    -999.25   36.92240   -0.03070   22.31950    0.02880    0.02880    8.49490    8.49490    -999.25    -999.25    -999.25  -63.75250  -77.70300   29.59220 3793.21850    -999.25    -999.25
 8500.00000   20.11990   18.93100   18.27500   17.22440   16.73350   10.48960   59.76040    0.61460    0.00640    2.68500    0.01460    0.01460   16.73350    -999.25    -999.25   36.24530    -999.25    -999.25   36.24530    0.00640   18.27500    0.06030    0.06030    5.13590    5.13590    -999.25    -999.25    -999.25    3.99450  -11.21080   20.11990 3894.96680    -999.25    -999.25
 8550.00000    7.01720    6.68660    6.42890    6.14100    5.97470   10.65930  167.37240    0.78430    0.00920    2.64160    0.04000    0.04000    5.97470    -999.25    -999.25   48.79810    -999.25    -999.25   48.79810    0.00920    6.42890    0.12360    0.12360    4.69710    4.69710    -999.25    -999.25    -999.25   -2.11260  -26.24580    7.01720 3925.51070    -999.25    -999.25
 8600.00000   42.97920   41.10110   34.92570   30.95130   30.18890   10.43610   33.12480    0.56110    0.00500    2.69240    0.01030    0.01030   30.18890    -999.25    -999.25   38.60530    -999.25    -999.25   38.60530    0.00500   34.92570    0.02390    0.02390    4.94990    4.94990    -999.25    -999.25    -999.25  -24.07290  -30.88810   42.97920 3953.00950    -999.25    -999.25
 8650.00000    5.42840    6.22790    7.04260    8.07220    8.47700   10.84200  117.96630    0.96700    0.12140    2.53300    0.10350    0.10350    8.47700    -999.25    -999.25   46.09850    -999.25    -999.25   46.09850    0.12140    7.04260    0.17320    0.17320    7.77040    7.77040    -999.25    -999.25    -999.25  -31.95500  -16.07670    5.42840 3933.69170    -999.25    -999.25
 8700.00000   14.71990   15.06200   15.54130   15.84310   16.36310   10.43250   61.11310    0.55750    0.11110    2.67990    0.01760    0.01760   16.36310    -999.25    -999.25   37.79770    -999.25    -999.25   37.79770    0.11110   15.54130    0.09340    0.09340    5.00560    5.00560    -999.25    -999.25    -999.25  -48.66960  -10.09770   14.71990 4205.58840    -999.25    -999.25
 8750.00000    2.28500    2.57920    3.05370    3.64700    3.81450   12.29080  262.15760    2.41580    0.16810    2.24230    0.27350    0.27350    3.81450    -999.25    -999.25   59.53000    -999.25    -999.25   59.53000    0.16810    3.05370    0.34690    0.34690    3.31420    3.31420    -999.25    -999.25    -999.25  -56.75980   -5.74220    2.28500 4095.94920    -999.25    -999.25
 8800.00000    4.74420    4.90760    5.48550    6.33840    6.83850   13.06880  146.23090    3.19380    0.14650    2.57730    0.07760    0.07760    6.83850    -999.25    -999.25   69.03020    -999.25    -999.25   69.03020    0.14650    5.48550    0.31290    0.31290    6.57340    6.57340    -999.25    -999.25    -999.25  -66.77020   -7.63900    4.74420 4157.24370    -999.25    -999.25
 8850.00000    3.24370    3.60890    4.46300    4.64500    5.52090   13.58310  181.12990    3.70810    0.13770    2.47080    0.13990    0.13990    5.52090    -999.25    -999.25   71.86770    -999.25    -999.25   71.86770    0.13770    4.46300    0.34770    0.34770    6.52100    6.52100    -999.25    -999.25    -999.25  -74.48640  -12.33130    3.24370 4088.95970    -999.25    -999.25
 8900.00000   26.26440   23.47620   22.73700   21.40870   19.43390   10.90040   51.45650    1.02540    0.00020    2.67840    0.01850    0.01850   19.43390    -999.25    -999.25   42.51660    -999.25    -999.25   42.51660    0.00020   22.73700    0.06400    0.06400    4.97450    4.97450    -999.25    -999.25    -999.25  -90.07470  -32.12980   26.26440 3908.93310    -999.25    -999.25
 8950.00000    5.85780    7.37170    8.44100   12.39210   13.83290   11.34550   72.29140    1.47050    0.00750    2.61870    0.05340    0.05340   13.83290    -999.25    -999.25   40.69710    -999.25    -999.25   40.69710    0.00750    8.44100    0.09620    0.09620    6.44400    6.44400    -999.25    -999.25    -999.25  -88.84660  -35.11190    5.85780 3967.05740    -999.25    -999.25
