~Version ---------------------------------------------------
VERS. 2.0 : CWLS log ASCII Standard -VERSION 2.0
WRAP.  NO : ONE LINE PER DEPTH STEP
~Well ------------------------------------------------------
STRT.F                     3750.0 : START DEPTH
STOP.F                    10100.0 : STOP DEPTH
STEP.F                   50.00000 : STEP LENGTH
NULL.                     -999.25 : NULL VALUE
COMP. MITCHELL ENERGY CORPORATION : COMPANY
WELL.            LARGENT HEIRS #6 : WELL
FLD .               ALABAMA FERRY : FIELD
LOC .                             : LOCATION
CNTY.                        LEON : COUNTY
STAT.                       TEXAS : STATE
CTRY.    UNITED STATES OF AMERICA : COUNTRY
SRVC.                Schlumberger : SERVICE COMPANY
DATE.                 08-Feb-1988 : LOGDATE
API .              42289309510000 : API NUMBER
UWI .              42289309510000 : UNIQUE WELL ID
SLAT.WGS84          31.1906329088 : SURFACE LATITUDE
SLON.WGS84         -95.8235309688 : SURFACE LONGITUDE
~Curve Information -----------------------------------------
DEPT   .F    0   1   0  0 : 1 MEASURED DEPTH
GRR    .GAPI 07 310 01 00 : GAMMA RAY FROM RESISTIVITY LOG
ILD    .OHMM 07 120 46 00 : INDUCTION DEEP RESISTIVITY
ILM    .OHMM 07 120 44 00 : INDUCTION MEDIUM RESISTIVITY
SFLU   .OHMM 07 220 01 00 : SHALLOW FOCUSED RESISTIVITY (UNAVERAGED)
SPR    .MV   07 010 01 00 : SPONTANEOUS POTENTIAL FROM RESISTIVITY LOG
DT     .US/F 60 500 00 00 : DELTA-T (INTERVAL TRANSIT TIME)
CALD   .IN   45 280 60 00 : CALIPER FROM DENSITY LOG
DPHI_LS.DEC  45 890 10 00 : DENSITY POROSITY LIMESTONE
DRHO   .G/C3 45 356 01 00 : BULK DENSITY CORRECTION
~Params ----------------------------------------------------
PD  .                     GL : PERMANENT DATUM
EPD .FT                  273 : ELEVATION PERMANENT DATUM
LMF .                    RKB : LOG MEASURED FROM
DAPD.FT                   22 : FEET ABOVE PERMANENT DATUM
DMF .                    RKB : DRILLING MEASURED FROM
EKB .FT                  295 : KELLY BUSHING
EDF .FT                  294 : DRILLING FLOOR
EGL .FT                  273 : GROUND LEVEL
DATE.               02/08/88 : RUN DATE
RUN .                      1 : RUN NUMBER
DD  .FT                10100 : DEPTH DRILLER
DL  .FT                10114 : DEPTH LOGGER
BLI .FT                10111 : BOTTOM LOG INTERVAL
TLI .FT                 3875 : TOP LOG INTERVAL
CS  .IN                8.625 : CASING SIZE
CBD .FT                 3870 : CASING BOTTOM DRILLER
CBL .FT                 3875 : CASING BOTTOM LOGGER
BS  .IN                7.875 : BIT SIZE
BSD .FT                10100 : BIT SIZE AT DEPTH
DFT .                    LIG : DRILLING FLUID TYPE
DFD .                   10.1 : DRILLING FLUID DENSITY
DFV .                     43 : DRILLING FLUID VISCOSITY
DFPH.                      9 : DRILLING FLUID PH
DFL .                      8 : DRILLING FLUID LOSS
MSS .              CIRC TANK : MUD SAMPLE SOURCE
RMS .OHMM               2.64 : RESISTIVITY MUD SAMPLE
MST .DEGF                 75 : MUD SAMPLE TEMPERATURE
RMF .OHMM                2.4 : RESISTIVITY MUD FILTRATE SAMPLE
MFST.DEGF                 75 : MUD FILTRATE SAMPLE TEMPERATURE
RMC .OHMM               3.17 : RESISTIVITY MUD CAKE
MCST.DEGF                 75 : MUD CAKE SAMPLE TEMPERATURE
MFSS.               MEASURED : MUD FILTRATE SAMPLE SOURCE
MCSS.             CALCULATED : MUD CAKE SAMPLE SOURCE
RMB .OHMM              1.036 : RESISTIVITY MUD AT BHT
TCS .HRS                 500 : TIME CIRCULATED STOPPED
TLAB.HRS                1200 : TIME LOGGER AT BOTTOM
LUN .                   8250 : LOGGING UNIT NUMBER
LUL .                 DAYTON : LOGGING UNIT LOCATION
ENGI.              MANEK BOB : RECORDING ENGINEER
WITN.        EDWARDS BULLARD : WITNESSED BY
CLNT.                A2DTECH : CLIENT CODE
ORIG.         1" 2" 5" PRINT : ORIGIN OF DATA
UWI .         42289309510000 : UNIQUE WELL ID
DICO. A2D Technologies, Inc. : DIGITIZING COMPANY
~Other -----------------------------------------------------
~ASCII -----------------------------------------------------
# ...
 7400.00000   22.04880    2.78810    4.81940   19.86390 -116.82560   67.30210    8.08650    0.20210    0.00280
 7450.00000   96.32610    1.71890    1.82990    1.86550  -20.78700   85.13830   12.58680    0.22760    0.03920
 7500.00000  100.90200    1.32590    1.38230    1.67300  -20.68850   98.60930   15.80120    0.23990    0.09970
 7550.00000   90.51390    1.10890    1.16330    1.45320  -25.10290  105.89680   10.94420    0.21500   -0.00040
 7600.00000   95.10690    2.45150    2.56020    2.82620  -20.23010   88.37500   11.62390    0.08390    0.02230
 7650.00000   91.15610    2.05450    2.16580    2.63260  -18.93120   90.01070   11.90450    0.12390    0.02320
 7700.00000   84.45000    2.33540    2.43580    2.72890  -18.33430   87.70590   12.36050    0.19480    -999.25
 7750.00000   88.91300    2.32560    2.44520    3.39370  -19.70840   97.64490   11.64360    0.23080    -999.25
 7800.00000   72.47790    2.19460    2.29010    3.06620  -23.56360   83.02820   11.79740    0.48140    0.03910
 7850.00000   81.31260    2.13660    2.24110    2.00740  -20.77240   85.10380   13.84080    0.30290    0.09230
 7900.00000   78.21160    1.84600    1.95920    2.95930  -24.72330  101.31830   13.05960    0.48600    0.05410
 7950.00000   63.58420    3.78090    3.41150    3.53380  -26.63990   75.84260   11.21660    0.14440    0.04160
 8000.00000   31.22860    2.55870    4.03390   12.50890 -100.42830   79.55960    8.81740    0.17830    0.04120
 8050.00000   84.83410    2.22050    2.31340    3.01010  -21.48010   84.07860   11.89800    0.26410    -999.25
 8100.00000   80.62990    1.93460    1.95230    2.04010  -28.61810   85.99260   14.31650    0.37050    0.07310
 8150.00000   80.56040    1.44790    1.33640    2.07280  -29.97340  100.60710   18.72690    0.23840    -999.25
 8200.00000   85.38240    1.94610    1.60620    2.37750  -22.66690   93.26180   17.81640    0.17980    0.05650
 8250.00000   65.26760    3.25630    2.86250    3.43220  -23.92310   83.33130   14.42460    0.12850    -999.25
 8300.00000   45.93340    3.25570    3.70070    5.48170  -22.25750   65.55310   10.08280    0.11080    0.03130
 8350.00000   19.60270   13.48300   13.26130   14.40150  -33.29750   56.82560   10.99970    0.00920   -0.00500
 8400.00000   27.68330   14.99970   13.95180   18.42580  -22.87440   59.21300   10.43940    0.01610    0.00520
 8450.00000   14.98110   16.55430   14.79350   27.85480  -34.52770   53.18620   10.48530    0.02610    0.01330
 8500.00000   13.55520   30.26020   26.17500   34.61570  -55.44840   53.29680   11.34450    -999.25    -999.25
 8550.00000   19.91980   15.02480   13.46600   15.87470  -30.21370   56.24910   10.66860    -999.25    -999.25
 8600.00000   16.33660   23.94780   23.41730   49.86830  -25.08770   53.94640   10.75160    -999.25    -999.25
 8650.00000   12.83260   22.37820   20.33790   24.32570  -70.63890   53.91040   10.48840    -999.25    -999.25
 8700.00000   20.18080   15.63430   14.62300   24.61040  -21.40770   54.41000   10.42180    -999.25    -999.25
 8750.00000   19.92600   31.05310   28.85560   41.44550  -24.48290   53.93380   10.25130    -999.25    -999.25
 8800.00000   14.72750   43.02430   31.55910  106.08830  -29.21620   53.70260   10.22600    -999.25    -999.25
 8850.00000   83.19320    0.97700    1.07390    1.53110  -24.00970  108.68910   14.81450    -999.25    -999.25
 8900.00000   39.56130   31.44780   24.74960   30.43550  -23.08590   53.76260   10.73750    -999.25    -999.25
 8950.00000   43.40360   32.01620   25.29190   33.12520  -22.51320   54.06410   10.65840    -999.25    -999.25
 9000.00000   31.80280   69.84700   48.79900   80.48360  -22.11690   52.06980   10.22920    -999.25    -999.25
 9050.00000   44.08300   11.54880   12.23890   15.51990  -15.89850   59.06690    9.56070    -999.25    -999.25
 9100.00000   44.05480   10.21570   11.87630   43.33910  -12.69130   54.98810   10.61540    -999.25    -999.25
 9150.00000   34.70110   19.71410   25.80240   47.81210  -13.35810   55.02540    9.94600    -999.25    -999.25
 9200.00000   60.63850    2.80620    3.01140    3.21080  -16.22750   81.55420   13.93000    -999.25    -999.25
 9250.00000   38.54740   10.57510   10.04340   20.70560  -11.45490   60.26900   10.38940    -999.25    -999.25
 9300.00000   43.62370    6.36860    5.76220    6.55400  -14.13630   65.05030   10.09080    -999.25    -999.25
 9350.00000   56.36880    3.48680    3.75270    4.53100  -12.26550   68.50150   10.67910    -999.25    -999.25
 9400.00000   56.89620    1.61600    1.74430    2.39490  -20.41640   83.84280   13.16230    -999.25    -999.25
 9450.00000   54.29480    1.37210    1.60350    2.96680  -16.72990   97.33420   12.26500    -999.25    -999.25
 9500.00000   47.80180    3.87150    3.46780   10.16930  -12.13850   70.82200   10.91860    -999.25    -999.25
 9550.00000   38.40870   14.04300   14.92790   22.00350   -9.93760   58.01120    9.64050    -999.25   -0.00720
 9600.00000   45.92540    2.93980    3.13650    4.36800  -13.58430   72.15880   11.09290    0.37220    0.06850
 9650.00000   27.16220   23.37070   21.47620   27.71990   -7.37070   54.31950    9.39020   -0.00520   -0.00680
 9700.00000   30.98550   31.43800   28.71790  213.01810   -8.35210   49.76820    9.10060   -0.00360   -0.00010
 9750.00000   37.67490    7.24770    7.65530    7.34210   -6.74880   64.44890    9.38620    0.00860    0.00210
 9800.00000   71.85780    2.75080    2.99290    4.41360  -12.76390   93.65750    9.76260    0.19570    0.07180
 9850.00000   36.79510   15.09430   17.00270   27.38260   -5.54050   57.38130    9.03600    0.00350   -0.01630
 9900.00000   51.03450    7.48960    7.89160   11.93330   -5.82050   66.16420    9.12710    0.00010   -0.00740
 9950.00000   24.75200    7.39830    9.74160   65.39070  -43.48060   59.57380    9.60690    0.29930    0.03350
 10000.00000   18.06160   33.43270   36.83620  184.30220  -13.34370   51.13950    8.73440    0.07060    0.05890
 10050.00000   35.48730   11.60130   12.57170   25.03320   -4.56620   56.00180    8.51610    0.04460    0.09390
 10100.00000   42.70880   34.50690   36.99740  163.54960    0.34200   64.85000    7.87130    0.00290    0.01110
