~Version ---------------------------------------------------
VERS. 2.0 : CWLS log ASCII Standard -VERSION 2.0
WRAP. YES : MULTIPLE LINES PER DEPTH STEP
~Well ------------------------------------------------------
STRT.FT                 3700.0 : START DEPTH
STOP.FT                11650.0 : STOP DEPTH
STEP.FT               50.00000 : STEP LENGTH
NULL.                  -999.25 : NULL VALUE
COMP.     LA SALLE ENERGY CORP : COMPANY
WELL.                   PAM #1 : WELL
FLD .                  WILDCAT : FIELD
LOC .                          : LOCATION
CNTY.                   GRIMES : COUNTY
STAT.                    TEXAS : STATE
CTRY. UNITED STATES OF AMERICA : COUNTRY
SRVC.             Schlumberger : SERVICE COMPANY
DATE.              15-May-1981 : LOGDATE
API .           42185302670000 : API NUMBER
UWI .           42185302670000 : UNIQUE WELL ID
SLAT.WGS84       30.7678132029 : SURFACE LATITUDE
SLON.WGS84      -95.8888588158 : SURFACE LONGITUDE
~Curve Information -----------------------------------------
DEPT    .FT    : DEPTH FEET
CALWS   .IN    : CALIPER [DCALED+8.75]
CONDWS  .MMHO  : CONDUCTIVITY [1000/DRESWS]
DCALRED .IN    : DIFFERENTIAL CALIPER FROM RES. LOG
DCORWS  .G/C3  : DENSITY CORRECTION [DRHOED]
DENWS   .G/C3  : BULK DENSITY [CALCULATED FROM DPOWS][M=2.65 F=1.0]<9830>[M=2.71 F=1.0]<10130>[M=2.68 F=1.0]<11075>[M=2.71 F=1.0] TO TD
DPHILSED.V/V   : DENSITY POROSITY [M=2.71 F=1.0] FROM DENSITY LOG
DPHISSED.V/V   : DENSITY POROSITY [M=2.65 F=1.0] FROM DENSITY LOG
DPOWS   .V/V   : DENSITY POROSITY SNADSTONE [DPHISSED]<9830>[DPHILSED]<10130>[DPHISSED]<11075>[DPHILSED] TO TD
DRESWS  .OHMM  : DEEP RESISTIVITY [ILDED]
DRHOED  .G/C3  : DENSITY CORRECTION FROM DENSITY LOG
GRRED   .GAPI  : GAMMA RAY FROM RESISTIVITY LOG
GRWS    .GAPI  : GAMMA RAY [GRRED]
ILDED   .OHMM  : INDUCTION LOG DEEP RESISTIVITY
ILMED   .OHMM  : INDUCTION LOG MEDIUM RESISTIVITY
MRESWS  .OHMM  : MEDIUM RESISTIVITY [ILMED]
NPHILSED.V/V   : NEUTRON POROSITY LIMESTONE FROM DENSITY LOG
NPHISSED.V/V   : NEUTRON POROSITY SANDSTONE FROM DENSITY LOG
NPOWS   .V/V   : NEUTRON POROSITY SANDSTONE [NPHISSED]<9830>[NPHILSED]<10130>[NPHISSED]<11075>[NPHILSED] TO TD
SFLUED  .OHMM  : SPHERICALLY FOCUSED LOG RESISTIVITY
SPRED   .MV    : SPONTANEOUS POTENTIAL FROM RESISTIVITY LOG
SPWS    .MV    : SPONTANEOUS POTENTIAL [BASELINE 0 MV] [SPRED]
SRESWS  .OHMM  : SHALLOW RESISTIVITY [SFLUED]
TENRED  .LBF   : TENSION FROM RESISTIVITY LOG
~Params ----------------------------------------------------
PD  .                     GL : PERMANENT DATUM
EPD .FT                  259 : ELEVATION PERMANENT DATUM
LMF .                    TKB : LOG MEASURED FROM
DAPD.FT                   13 : FEET ABOVE PERMANENT DATUM
DMF .                    TKB : DRILLING MEASURED FROM
EKB .FT                  272 : KELLY BUSHING
EDF .FT                  271 : DRILLING FLOOR
EGL .FT                  259 : GROUND LEVEL
DATE.               05/15/81 : RUN DATE
RUN .                      1 : RUN NUMBER
DD  .FT                11590 : DEPTH DRILLER
DL  .FT                11619 : DEPTH LOGGER
BLI .FT                11616 : BOTTOM LOG INTERVAL
TLI .FT                 3730 : TOP LOG INTERVAL
CS  .IN                9.625 : CASING SIZE
CBD .FT                 3819 : CASING BOTTOM DRILLER
CBL .FT                 3730 : CASING BOTTOM LOGGER
BS  .IN                 8.75 : BIT SIZE
BSD .FT                11590 : BIT SIZE AT DEPTH
DFT .                  GELEX : DRILLING FLUID TYPE
DFD .                    9.6 : DRILLING FLUID DENSITY
DFV .                     44 : DRILLING FLUID VISCOSITY
DFPH.                      9 : DRILLING FLUID PH
DFL .                    6.6 : DRILLING FLUID LOSS
MSS .               CIRC PIT : MUD SAMPLE SOURCE
RMS .OHMM                1.7 : RESISTIVITY MUD SAMPLE
MST .DEGF                 75 : MUD SAMPLE TEMPERATURE
RMF .OHMM               1.38 : RESISTIVITY MUD FILTRATE SAMPLE
MFST.DEGF                 75 : MUD FILTRATE SAMPLE TEMPERATURE
RMC .OHMM               2.04 : RESISTIVITY MUD CAKE
MCST.DEGF                 75 : MUD CAKE SAMPLE TEMPERATURE
MFSS.                      M : MUD FILTRATE SAMPLE SOURCE
MCSS.                      C : MUD CAKE SAMPLE SOURCE
RMB .OHMM              0.557 : RESISTIVITY MUD AT BHT
TCS .HRS                1300 : TIME CIRCULATED STOPPED
TLAB.HRS                2300 : TIME LOGGER AT BOTTOM
LUN .                   8066 : LOGGING UNIT NUMBER
LUL .                 DAYTON : LOGGING UNIT LOCATION
ENGI.               HARRISON : RECORDING ENGINEER
WITN.                  DUKES : WITNESSED BY
CLNT.                A2DTECH : CLIENT CODE
ORIG.            2" 5" PRINT : ORIGIN OF DATA
UWI .         42185302670000 : UNIQUE WELL ID
DICO. A2D Technologies, Inc. : DIGITIZING COMPANY
~Other -----------------------------------------------------
~ASCII -----------------------------------------------------
 3700.00000    -999.25    -999.25    -999.25    -999.25    -999.25    -999.25    -999.25    -999.25    -999.25    -999.25   45.62810   60.62810    -999.25    -999.25    -999.25    -999.25    0.47310    0.47310    -999.25    -999.25    -999.25    -999.25    -999.25
 3750.00000   11.02620  409.71850    2.27620    0.04350    2.14890    -999.25    0.30370    0.30370    2.44070    0.04350   65.64860   65.64860    2.44070    3.13470    3.13470    -999.25    0.38300    0.38300    4.42640  -56.22750  -29.19050    4.42640 2315.98730
 3800.00000   10.99640  556.08070    2.24640    0.05190    2.23520    -999.25    0.25140    0.25140    1.79830    0.05190   71.06110   71.06110    1.79830    2.01950    2.01950    -999.25    0.42440    0.42440    2.34450  -44.96050  -18.96810    2.34450 2289.32420
 3850.00000   11.01700  344.79190    2.26700    0.01450    2.23210    -999.25    0.25330    0.25330    2.90030    0.01450   74.33700   74.33700    2.90030    3.78530    3.78530    -999.25    0.31950    0.31950    5.15450  -60.04400  -34.74640    5.15450 2307.80860
 3900.00000   10.78110  322.39350    2.03110    0.01420    2.33500    -999.25    0.19090    0.19090    3.10180    0.01420   91.60470   91.60470    3.10180    3.94080    3.94080    -999.25    0.32370    0.32370    5.40390  -59.36820  -34.76530    5.40390 2332.15650
 3950.00000   11.79720  365.55050    3.04720    0.02500    2.29030    -999.25    0.21800    0.21800    2.73560    0.02500   76.30560   76.30560    2.73560    3.54360    3.54360    -999.25    0.31110    0.31110    5.15850  -63.22500  -39.31690    5.15850 2395.81180
 4000.00000   11.67660  305.35280    2.92660    0.02460    2.07680    -999.25    0.34740    0.34740    3.27490    0.02460   77.80100   77.80100    3.27490    4.39680    4.39680    -999.25    0.41650    0.41650    6.79350  -60.44570  -37.23240    6.79350 2359.47920
 4050.00000   13.06250  428.83490    4.31250    0.01980    2.27590    -999.25    0.22670    0.22670    2.33190    0.01980   87.47730   87.47730    2.33190    2.46180    2.46180    -999.25    0.38100    0.38100    2.51840  -28.64220   -6.12370    2.51840 2361.22830
 4100.00000   11.86340  371.59530    3.11340    0.04350    2.36930    -999.25    0.17010    0.17010    2.69110    0.04350   79.57680   79.57680    2.69110    3.29160    3.29160    -999.25    0.28990    0.28990    4.60040  -56.12180  -34.29810    4.60040 2408.63040
 4150.00000   11.57480  595.73460    2.82480    0.00410    2.13570    -999.25    0.31170    0.31170    1.67860    0.00410   58.48850   58.48850    1.67860    2.28820    2.28820    -999.25    0.32440    0.32440    3.96040  -79.76210  -58.63320    3.96040 2409.74390
 4200.00000   10.59590  397.33000    1.84590    0.02450    2.22830    -999.25    0.25560    0.25560    2.51680    0.02450   54.36130   54.36130    2.51680    3.51010    3.51010    -999.25    0.30680    0.30680    5.84810  -77.60720  -57.17300    5.84810 2420.02710
 4250.00000   11.17560  378.97450    2.42560    0.05570    2.36950    -999.25    0.17000    0.17000    2.63870    0.05570   82.34730   82.34730    2.63870    3.47000    3.47000    -999.25    0.28920    0.28920    5.00880  -55.76270  -36.02330    5.00880 2449.42210
 4300.00000   11.24560  460.72330    2.49560    0.04310    2.30120    -999.25    0.21140    0.21140    2.17050    0.04310   59.13230   59.13230    2.17050    3.05790    3.05790    -999.25    0.30510    0.30510    4.91470  -58.02140  -38.97680    4.91470 2481.93600
 4350.00000   10.29000  793.27310    1.54000    0.02840    2.20470    -999.25    0.26990    0.26990    1.26060    0.02840   66.27430   66.27430    1.26060    2.06900    2.06900    -999.25    0.31000    0.31000    5.34420  -90.42890  -72.07910    5.34420 2498.04790
 4400.00000   10.31130  563.50730    1.56130    0.02350    2.32170    -999.25    0.19900    0.19900    1.77460    0.02350   77.95670   77.95670    1.77460    2.50530    2.50530    -999.25    0.30590    0.30590    5.44560  -65.79980  -48.14480    5.44560 2518.33910
 4450.00000    9.61200  449.21610    0.86200    0.04400    2.38630    -999.25    0.15980    0.15980    2.22610    0.04400   94.74150   94.74150    2.22610    2.75710    2.75710    -999.25    0.31830    0.31830    3.81810  -49.53940  -32.57920    3.81810 2545.23950
 4500.00000    9.45400  740.68590    0.70400    0.04370    2.31220    -999.25    0.20470    0.20470    1.35010    0.04370   57.30120   57.30120    1.35010    1.97250    1.97250    -999.25    0.30170    0.30170    5.31370  -75.10450  -58.83910    5.31370 2558.76200
 4550.00000    9.79110  686.01220    1.04110    0.03380    2.30480    -999.25    0.20920    0.20920    1.45770    0.03380   75.36760   75.36760    1.45770    2.11790    2.11790    -999.25    0.28740    0.28740    4.89200  -68.50960  -52.93890    4.89200 2582.56670
 4600.00000   12.09940  412.16720    3.34940    0.09950    2.46120    -999.25    0.11440    0.11440    2.42620    0.09950   88.15860   88.15860    2.42620    2.87330    2.87330    -999.25    0.32390    0.32390    4.40410  -34.69900  -19.82310    4.40410 2608.17160
 4650.00000   10.26070 1140.38090    1.51070    0.01700    2.18850    -999.25    0.27970    0.27970    0.87690    0.01700   57.03170   57.03170    0.87690    1.35670    1.35670    -999.25    0.28820    0.28820    3.91470  -91.87570  -77.69460    3.91470 2593.18680
 4700.00000    9.25510  997.00900    0.50510    0.03650    2.19080    -999.25    0.27830    0.27830    1.00300    0.03650   60.08340   60.08340    1.00300    1.46270    1.46270    -999.25    0.30670    0.30670    3.94170  -90.85840  -77.37210    3.94170 2608.24440
 4750.00000    9.40300  198.36550    0.65300    0.01210    1.53360    -999.25    0.67660    0.67660    5.04120    0.01210   45.66590   45.66590    5.04120    5.94280    5.94280    -999.25    0.64100    0.64100   20.60510  -18.81930   -6.02780   20.60510 2647.59990
 4800.00000    9.22180  460.53230    0.47180    0.01310    2.40790    -999.25    0.14670    0.14670    2.17140    0.01310   91.78480   91.78480    2.17140    2.95140    2.95140    -999.25    0.28990    0.28990    5.54600  -47.01770  -34.92100    5.54600 2633.74930
 4850.00000    9.34340 1412.03050    0.59340    0.02490    2.18870    -999.25    0.27960    0.27960    0.70820    0.02490   55.48210   55.48210    0.70820    0.98270    0.98270    -999.25    0.31580    0.31580    2.19840  -93.31910  -81.91710    2.19840 2669.19920
 4900.00000    9.35250 2113.27150    0.60250    0.01990    2.17100    -999.25    0.29030    0.29030    0.47320    0.01990   49.00930   49.00930    0.47320    0.55830    0.55830    -999.25    0.29620    0.29620    1.89000  -95.77660  -85.06940    1.89000 2694.43410
 4950.00000    9.37570 1241.77330    0.62570    0.04020    2.19610    -999.25    0.27510    0.27510    0.80530    0.04020   54.64700   54.64700    0.80530    1.29680    1.29680    -999.25    0.31350    0.31350    4.17670  -93.35800  -83.34560    4.17670 2765.29960
 5000.00000   10.44030  426.62120    1.69030    0.05350    2.19250    -999.25    0.27730    0.27730    2.34400    0.05350   87.53380   87.53380    2.34400    2.57910    2.57910    -999.25    0.43780    0.43780    3.97480  -27.33270  -18.01510    3.97480 2718.31030
 5050.00000   10.86820  755.68650    2.11820    0.06730    2.22220    -999.25    0.25930    0.25930    1.32330    0.06730   65.85420   65.85420    1.32330    2.05670    2.05670    -999.25    0.30120    0.30120    4.68950  -71.17900  -62.55620    4.68950 2764.31790
 5100.00000   10.71250  602.11940    1.96250    0.06520    2.27050    -999.25    0.23000    0.23000    1.66080    0.06520   69.96270   69.96270    1.66080    2.56400    2.56400    -999.25    0.28450    0.28450    5.42050  -62.08420  -54.15620    5.42050 2779.74780
 5150.00000   10.02020  938.96710    1.27020    0.05610    2.20930    -999.25    0.26710    0.26710    1.06500    0.05610   61.28900   61.28900    1.06500    1.79270    1.79270    -999.25    0.32630    0.32630    4.05750  -77.98250  -70.74930    4.05750 2815.77660
 5200.00000   10.26680  606.09740    1.51680    0.09140    2.39030    -999.25    0.15740    0.15740    1.64990    0.09140   92.64400   92.64400    1.64990    2.49340    2.49340    -999.25    0.30700    0.30700    5.09010  -52.22310  -45.68460    5.09010 2795.79320
