~Version ---------------------------------------------------
VERS. 2.0 : CWLS log ASCII Standard -VERSION 2.0
WRAP. YES : Multiple lines per depth step
~Well ------------------------------------------------------
STRT.FT                   3400.0 : START DEPTH
STOP.FT                  16600.0 : STOP DEPTH
STEP.FT                 50.00000 : STEP LENGTH
NULL.                    -999.25 : NULL VALUE
COMP. CHAMPLIN PETROLEUM COMPANY : COMPANY
WELL.      CHARLES C. CHARTER #1 : WELL
FLD .                    WILDCAT : FIELD
LOC .                            : LOCATION
CNTY.                     BRAZOS : COUNTY
STAT.                      TEXAS : STATE
CTRY.   UNITED STATES OF AMERICA : COUNTRY
SRVC.                            : SERVICE COMPANY
DATE.                            : LOGDATE
API .             42041304470000 : API NUMBER
UWI .             42041304470000 : UNIQUE WELL ID
SLAT.WGS84         30.8464717491 : SURFACE LATITUDE
SLON.WGS84        -96.3676910928 : SURFACE LONGITUDE
~Curve Information -----------------------------------------
DEPT  .FT    : DEPTH
CALDED.IN    : CALIPER FROM DENSITY LOG
CALWS .IN    : CALIPER [CALDED]
CONDWS.MMHO  : CONDUCTIVITY [1000/DRESWS]
DCORWS.G/C3  : DENSITY CORRECTION [DRHOED]
DENWS .G/C3  : BULK DENSITY [RHOBED]
DPOWS .V/V   : DENSITY POROSITY [3434 M=2.71 F=1.0, 11632 M=2.65 F=1.0, 15400 M=2.71 F=1.0] [CALCULATED FROM RHOBED]
DRESWS.OHMM  : DEEP RESISTIVITY [ILDED]
DRHOED.G/C3  : DENSITY CORRECTION FROM DENSITY LOG
DTED  .US/F  : DELTA TIME FROM SONIC LOG
DTWS  .US/F  : DELTA TIME [DTED]
GRDED .GAPI  : GAMMA RAY FROM DENSITY LOG
GRRED .GAPI  : GAMMA RAY FROM RESISTIVITY LOG
GRWS  .GAPI  : GAMMA RAY [GRDED]
ILDED .OHMM  : INDUCTION LOG DEEP RESISTIVITY
ILMED .OHMM  : INDUCTION LOG MEDIUM RESISTIVITY
MRESWS.OHMM  : MEDIUM RESISTIVITY [ILMED]
NPHIED.V/V   : NEUTRON POROSITY 3434 LIMESTONE 11632 SANDSTONE 15400 LIMESTONE FROM DENSITY LOG
NPOWS .V/V   : NEUTRON POROSITY 3434 LIMESTONE 11632 SANDSTONE 15400 LIMESTONE [NPHIED]
RHOBED.G/C3  : BULK DENSITY FROM DENSITY LOG
SFLED .OHMM  : SPHERICALLY FOCUSED LOG RESISTIVITY
SPED  .MV    : SPONTANEOUS POTENTIAL [BASELINE 0 MV] FROM RESISTIVITY LOG
SPWS  .MV    : SPONTANEOUS POTENTIAL [SPED]
SRESWS.OHMM  : SHALLOW RESISTIVITY [SFLED]
~Params ----------------------------------------------------
EKB .F                 368.0 : Kelly bushing
EGL .F                 346.0 : Ground level
EDF .F                 367.0 : Drilling floor
EPD .F                 346.0 : Permanent datum
TD  .F               16600.0 : Total depth
DATE.            01-OCT-1979 : DATE LOGGED
CLNT.                A2DTECH : CLIENT CODE
SL  . 100' FSEL & 3100' FNEL : SURFACE LOCATION
PD  .                     GL : PERMANENT DATUM
LMF .                     KB : LOG MEASURED FROM
DMF .                     KB : DRILLING MEASURED FROM
DAPD.F                    22 : FEET ABOVE PERMANENT DATUM
DD  .F                 16600 : DEPTH DRILLER
DL  .F                 16600 : DEPTH LOGGER
BLI .F                 16593 : BOTTOM LOG INTERVAL
TLI .F                 10338 : TOP LOG INTERVAL
CS1 .IN                9.625 : CASING SIZE
CBD1.        9.625" @ 10324' : CASING DRILLER 1
CBL1.F                 10338 : CASING LOGGER 1
BS1 .IN                  8.5 : BIT SIZE
BSD1.F                 16600 : DEPTH DRILLED WITH BIT1
DFT .             SPER XP-20 : TYPE FLUID IN HOLE
DFD .                   12.2 : DENSITY
DFV .                     47 : VISCOSITY
DFPH.                   10.5 : PH
DFL .                    5.3 : FLUID LOSS
MSS .                    PIT : SOURCE OF SAMPLE
RMS .OHMM               0.21 : RM
RMF .OHMM               0.16 : RMF
RMC .OHMM               0.32 : RMC
MFSS.                   CALC : SOURCE RMF.
MCSS.                   CALC : SOURCE RMC.
RMB .OHMM               0.04 : RM. AT BHT
BHT .F                   334 : BHT.
TCS .HRS                 600 : TIME CIRC. STOPPED
TLAB.HRS                 530 : TIME LOGGER AT BOTTOM
LUN .                   8101 : LOGGING UNIT NUMBER
LUL .                BRENHAM : LOGGING UNIT LOCATION
ENGI.                   EAST : RECORDED BY
WITN.           LANNY CRAMER : WITNESSED BY
ORIG.               5" PRINT : ORIGIN OF DATA
UWI .         42041304470000 : UNIQUE WELL ID
DICO. A2D TECHNOLOGIES, INC. : DIGITIZING COMPANY
~Other -----------------------------------------------------
~ASCII -----------------------------------------------------
# ...
 6500.00000   13.05000   13.05000  875.65680    0.05700    2.34200    0.21520    1.14200    0.05700  102.93200  102.93200  101.27500   85.21600  101.27500    1.14200    -999.25    -999.25    0.36900    0.36900    2.34200    1.20200  -10.17180  -10.17180    1.20200
 6550.00000   13.33700   13.33700  654.45030    0.05900    2.45100    0.15150    1.52800    0.05900   94.89100   94.89100   86.60800   72.34000   86.60800    1.52800    -999.25    -999.25    0.30300    0.30300    2.45100    1.66300  -11.35820  -11.35820    1.66300
 6600.00000   14.32800   14.32800  730.46020    0.05400    2.45200    0.15090    1.36900    0.05400   98.00100   98.00100   86.81600   72.17200   86.81600    1.36900    -999.25    -999.25    0.29800    0.29800    2.45200    1.56700   -8.61460   -8.61460    1.56700
 6650.00000   14.80400   14.80400  699.79000    0.05900    2.44300    0.15610    1.42900    0.05900   97.29900   97.29900   92.58100   77.01600   92.58100    1.42900    -999.25    -999.25    0.30300    0.30300    2.44300    1.55500   -7.55600   -7.55600    1.55500
 6700.00000   16.01000   16.01000  786.16360    0.03400    2.43000    0.16370    1.27200    0.03400   98.02300   98.02300   86.60000   73.56500   86.60000    1.27200    -999.25    -999.25    0.27300    0.27300    2.43000    1.45900   -5.94840   -5.94840    1.45900
 6750.00000   15.73800   15.73800  735.83520    0.01400    2.44800    0.15320    1.35900    0.01400   96.59600   96.59600   96.88200   82.09200   96.88200    1.35900    -999.25    -999.25    0.24900    0.24900    2.44800    1.57300   -2.66580   -2.66580    1.57300
 6800.00000   15.80000   15.80000  798.72200    0.01800    2.47800    0.13570    1.25200    0.01800   97.57900   97.57900   89.83400   75.16400   89.83400    1.25200    -999.25    -999.25    0.31900    0.31900    2.47800    1.46200    0.11180    0.11180    1.46200
 6850.00000   15.53900   15.53900  856.89800    0.03100    2.45800    0.14740    1.16700    0.03100  100.00900  100.00900   92.65500   78.32900   92.65500    1.16700    -999.25    -999.25    0.29700    0.29700    2.45800    1.36100   -0.34710   -0.34710    1.36100
 6900.00000   15.51400   15.51400  705.71620   -0.00200    2.48200    0.13330    1.41700   -0.00200   94.04000   94.04000   85.83100   70.35300   85.83100    1.41700    -999.25    -999.25    0.28100    0.28100    2.48200    1.64800   -7.41660   -7.41660    1.64800
 6950.00000   15.32100   15.32100  465.76620    0.03100    2.57700    0.07780    2.14700    0.03100   87.44100   87.44100   89.91300   73.67000   89.91300    2.14700    -999.25    -999.25    0.25300    0.25300    2.57700    2.60200  -10.33320  -10.33320    2.60200
 7000.00000   14.77600   14.77600  502.00800    0.02000    2.53200    0.10410    1.99200    0.02000   90.28100   90.28100   82.00200   68.55700   82.00200    1.99200    -999.25    -999.25    0.25600    0.25600    2.53200    2.15100   -9.75770   -9.75770    2.15100
 7050.00000   14.26700   14.26700  339.44330    0.01000    2.56900    0.08250    2.94600    0.01000   79.12100   79.12100   56.17600   48.32800   56.17600    2.94600    -999.25    -999.25    0.16000    0.16000    2.56900    3.39200  -17.99430  -17.99430    3.39200
 7100.00000   13.95000   13.95000  283.60750    0.00100    2.57700    0.07780    3.52600    0.00100   74.27300   74.27300   51.53700   43.43600   51.53700    3.52600    -999.25    -999.25    0.12400    0.12400    2.57700    3.96300  -20.49780  -20.49780    3.96300
 7150.00000   13.66900   13.66900  215.79630   -0.00800    2.56700    0.08360    4.63400   -0.00800   69.03000   69.03000   36.34900   30.08400   36.34900    4.63400    -999.25    -999.25    0.08500    0.08500    2.56700    6.20300  -24.17640  -24.17640    6.20300
 7200.00000   13.51500   13.51500  254.71220   -0.00500    2.57900    0.07660    3.92600   -0.00500   72.94100   72.94100   50.58900   43.56900   50.58900    3.92600    -999.25    -999.25    0.11600    0.11600    2.57900    4.32400  -20.81490  -20.81490    4.32400
 7250.00000   12.94200   12.94200  297.26520   -0.00300    2.55800    0.08890    3.36400   -0.00300   71.08200   71.08200   59.79100   47.60800   59.79100    3.36400    -999.25    -999.25    0.12100    0.12100    2.55800    4.17200  -18.52640  -18.52640    4.17200
 7300.00000   12.98100   12.98100  143.82280   -0.01100    2.54400    0.09710    6.95300   -0.01100   60.15900   60.15900   30.59900   25.76900   30.59900    6.95300    -999.25    -999.25    0.07200    0.07200    2.54400   21.71600  -21.66100  -21.66100   21.71600
 7350.00000   13.59900   13.59900  836.12040    0.01400    2.43100    0.16320    1.19600    0.01400   97.96600   97.96600  113.95000   97.20900  113.95000    1.19600    -999.25    -999.25    0.36600    0.36600    2.43100    1.39600  -13.66250  -13.66250    1.39600
 7400.00000   14.44600   14.44600  937.20710    0.05500    2.39600    0.18360    1.06700    0.05500  101.40900  101.40900   99.19300   84.10600   99.19300    1.06700    -999.25    -999.25    0.34400    0.34400    2.39600    1.23600  -13.68810  -13.68810    1.23600
 7450.00000   14.89700   14.89700  933.70680    0.00600    2.43200    0.16260    1.07100    0.00600  100.20100  100.20100  116.93200   98.37800  116.93200    1.07100    -999.25    -999.25    0.35000    0.35000    2.43200    1.28600  -16.08560  -16.08560    1.28600
 7500.00000   15.44900   15.44900  783.08540    0.05100    2.49400    0.12630    1.27700    0.05100   96.06000   96.06000  102.43100   86.41300  102.43100    1.27700    -999.25    -999.25    0.30900    0.30900    2.49400    1.54700  -15.13720  -15.13720    1.54700
 7550.00000   14.42500   14.42500  900.90090    0.01600    2.42200    0.16840    1.11000    0.01600  100.47500  100.47500  100.41900   85.31200  100.41900    1.11000    -999.25    -999.25    0.33900    0.33900    2.42200    1.35400  -16.53970  -16.53970    1.35400
 7600.00000   14.26000   14.26000  516.26230    0.03100    2.49200    0.12750    1.93700    0.03100   98.94300   98.94300  100.24700   83.65800  100.24700    1.93700    -999.25    -999.25    0.30100    0.30100    2.49200    2.68300  -18.96020  -18.96020    2.68300
 7650.00000   13.55700   13.55700  406.00890    0.00200    2.41500    0.17250    2.46300    0.00200   98.58800   98.58800   99.75600   81.31900   99.75600    2.46300    -999.25    -999.25    0.34000    0.34000    2.41500    3.09500  -21.91280  -21.91280    3.09500
 7700.00000   13.15300   13.15300  358.93750    0.00700    2.44000    0.15790    2.78600    0.00700   99.98000   99.98000  118.86500   98.39700  118.86500    2.78600    -999.25    -999.25    0.34700    0.34700    2.44000    4.25600  -22.90130  -22.90130    4.25600
 7750.00000   13.31800   13.31800  289.51940    0.03100    2.48500    0.13160    3.45400    0.03100   95.45000   95.45000  107.87500   93.45300  107.87500    3.45400    -999.25    -999.25    0.28000    0.28000    2.48500    6.14600  -24.11290  -24.11290    6.14600
 7800.00000   15.73200   15.73200  609.01340    0.02000    2.39600    0.18360    1.64200    0.02000  114.68900  114.68900   98.99400   83.66500   98.99400    1.64200    -999.25    -999.25    0.38200    0.38200    2.39600    3.44200  -13.32640  -13.32640    3.44200
 7850.00000   15.44600   15.44600  536.76860    0.05700    2.32100    0.22750    1.86300    0.05700  112.73800  112.73800   88.24800   75.93700   88.24800    1.86300    -999.25    -999.25    0.41700    0.41700    2.32100    3.03900   -9.24610   -9.24610    3.03900
 7900.00000   13.09800   13.09800   68.86580   -0.00700    2.71100   -0.00060   14.52100   -0.00700   54.84100   54.84100   21.70200   18.58600   21.70200   14.52100    -999.25    -999.25    0.00900    0.00900    2.71100   26.35600  -34.78640  -34.78640   26.35600
 7950.00000   12.90000   12.90000   43.99080   -0.00600    2.67000    0.02340   22.73200   -0.00600   54.87900   54.87900   16.89000   14.18800   16.89000   22.73200    -999.25    -999.25    0.01400    0.01400    2.67000   35.58600  -39.33780  -39.33780   35.58600
 8000.00000   13.10600   13.10600   84.21760   -0.00200    2.68300    0.01580   11.87400   -0.00200   56.73200   56.73200   37.33300   29.96100   37.33300   11.87400    -999.25    -999.25    0.02200    0.02200    2.68300   16.50500  -29.26210  -29.26210   16.50500
