~Version ---------------------------------------------------
VERS. 2.0 : CWLS log ASCII Standard -VERSION 2.0
WRAP. YES : Multiple lines per depth step
~Well ------------------------------------------------------
STRT.FT                   3400.0 : START DEPTH
STOP.FT                  16600.0 : STOP DEPTH
STEP.FT                 50.00000 : STEP LENGTH
NULL.                    -999.25 : NULL VALUE
COMP. CHAMPLIN PETROLEUM COMPANY : COMPANY
WELL.      CHARLES C. CHARTER #1 : WELL
FLD .                    WILDCAT : FIELD
LOC .                            : LOCATION
CNTY.                     BRAZOS : COUNTY
STAT.                      TEXAS : STATE
CTRY.   UNITED STATES OF AMERICA : COUNTRY
SRVC.                            : SERVICE COMPANY
DATE.                            : LOGDATE
API .             42041304470000 : API NUMBER
UWI .             42041304470000 : UNIQUE WELL ID
SLAT.WGS84         30.8464717491 : SURFACE LATITUDE
SLON.WGS84        -96.3676910928 : SURFACE LONGITUDE
~Curve Information -----------------------------------------
DEPT  .FT    : DEPTH
CALDED.IN    : CALIPER FROM DENSITY LOG
CALWS .IN    : CALIPER [CALDED]
CONDWS.MMHO  : CONDUCTIVITY [1000/DRESWS]
DCORWS.G/C3  : DENSITY CORRECTION [DRHOED]
DENWS .G/C3  : BULK DENSITY [RHOBED]
DPOWS .V/V   : DENSITY POROSITY [3434 M=2.71 F=1.0, 11632 M=2.65 F=1.0, 15400 M=2.71 F=1.0] [CALCULATED FROM RHOBED]
DRESWS.OHMM  : DEEP RESISTIVITY [ILDED]
DRHOED.G/C3  : DENSITY CORRECTION FROM DENSITY LOG
DTED  .US/F  : DELTA TIME FROM SONIC LOG
DTWS  .US/F  : DELTA TIME [DTED]
GRDED .GAPI  : GAMMA RAY FROM DENSITY LOG
GRRED .GAPI  : GAMMA RAY FROM RESISTIVITY LOG
GRWS  .GAPI  : GAMMA RAY [GRDED]
ILDED .OHMM  : INDUCTION LOG DEEP RESISTIVITY
ILMED .OHMM  : INDUCTION LOG MEDIUM RESISTIVITY
MRESWS.OHMM  : MEDIUM RESISTIVITY [ILMED]
NPHIED.V/V   : NEUTRON POROSITY 3434 LIMESTONE 11632 SANDSTONE 15400 LIMESTONE FROM DENSITY LOG
NPOWS .V/V   : NEUTRON POROSITY 3434 LIMESTONE 11632 SANDSTONE 15400 LIMESTONE [NPHIED]
RHOBED.G/C3  : BULK DENSITY FROM DENSITY LOG
SFLED .OHMM  : SPHERICALLY FOCUSED LOG RESISTIVITY
SPED  .MV    : SPONTANEOUS POTENTIAL [BASELINE 0 MV] FROM RESISTIVITY LOG
SPWS  .MV    : SPONTANEOUS POTENTIAL [SPED]
SRESWS.OHMM  : SHALLOW RESISTIVITY [SFLED]
~Params ----------------------------------------------------
EKB .F                 368.0 : Kelly bushing
EGL .F                 346.0 : Ground level
EDF .F                 367.0 : Drilling floor
EPD .F                 346.0 : Permanent datum
TD  .F               16600.0 : Total depth
DATE.            01-OCT-1979 : DATE LOGGED
CLNT.                A2DTECH : CLIENT CODE
SL  . 100' FSEL & 3100' FNEL : SURFACE LOCATION
PD  .                     GL : PERMANENT DATUM
LMF .                     KB : LOG MEASURED FROM
DMF .                     KB : DRILLING MEASURED FROM
DAPD.F                    22 : FEET ABOVE PERMANENT DATUM
DD  .F                 16600 : DEPTH DRILLER
DL  .F                 16600 : DEPTH LOGGER
BLI .F                 16593 : BOTTOM LOG INTERVAL
TLI .F                 10338 : TOP LOG INTERVAL
CS1 .IN                9.625 : CASING SIZE
CBD1.        9.625" @ 10324' : CASING DRILLER 1
CBL1.F                 10338 : CASING LOGGER 1
BS1 .IN                  8.5 : BIT SIZE
BSD1.F                 16600 : DEPTH DRILLED WITH BIT1
DFT .             SPER XP-20 : TYPE FLUID IN HOLE
DFD .                   12.2 : DENSITY
DFV .                     47 : VISCOSITY
DFPH.                   10.5 : PH
DFL .                    5.3 : FLUID LOSS
MSS .                    PIT : SOURCE OF SAMPLE
RMS .OHMM               0.21 : RM
RMF .OHMM               0.16 : RMF
RMC .OHMM               0.32 : RMC
MFSS.                   CALC : SOURCE RMF.
MCSS.                   CALC : SOURCE RMC.
RMB .OHMM               0.04 : RM. AT BHT
BHT .F                   334 : BHT.
TCS .HRS                 600 : TIME CIRC. STOPPED
TLAB.HRS                 530 : TIME LOGGER AT BOTTOM
LUN .                   8101 : LOGGING UNIT NUMBER
LUL .                BRENHAM : LOGGING UNIT LOCATION
ENGI.                   EAST : RECORDED BY
WITN.           LANNY CRAMER : WITNESSED BY
ORIG.               5" PRINT : ORIGIN OF DATA
UWI .         42041304470000 : UNIQUE WELL ID
DICO. A2D TECHNOLOGIES, INC. : DIGITIZING COMPANY
~Other -----------------------------------------------------
~ASCII -----------------------------------------------------
# ...
 4950.00000   13.21500   13.21500  962.46390    0.00600    2.23600    0.27720    1.03900    0.00600  115.14900  115.14900   79.29600   67.52800   79.29600    1.03900    -999.25    -999.25    0.41100    0.41100    2.23600    1.09800  -14.63970  -14.63970    1.09800
 5000.00000   12.67200   12.67200 1239.15730    0.02600    2.27000    0.25730    0.80700    0.02600  120.54400  120.54400   89.10000   76.13400   89.10000    0.80700    -999.25    -999.25    0.40700    0.40700    2.27000    0.92600  -14.92610  -14.92610    0.92600
 5050.00000   13.19900   13.19900  817.66140    0.06900    2.31100    0.23330    1.22300    0.06900  111.86300  111.86300   85.97300   72.56600   85.97300    1.22300    -999.25    -999.25    0.38300    0.38300    2.31100    1.18500  -14.71650  -14.71650    1.18500
 5100.00000   12.51800   12.51800  634.11540    0.04000    2.33800    0.21750    1.57700    0.04000  105.04200  105.04200   76.75900   64.20900   76.75900    1.57700    -999.25    -999.25    0.33000    0.33000    2.33800    1.61100  -19.94590  -19.94590    1.61100
 5150.00000   12.57600   12.57600  620.73250    0.01800    2.39100    0.18650    1.61100    0.01800  102.04200  102.04200   72.61400   60.62900   72.61400    1.61100    -999.25    -999.25    0.33300    0.33300    2.39100    1.70000  -21.13220  -21.13220    1.70000
 5200.00000   12.66300   12.66300  360.49030   -0.00900    2.47300    0.13860    2.77400   -0.00900   84.47800   84.47800   51.74300   42.33200   51.74300    2.77400    -999.25    -999.25    0.21800    0.21800    2.47300    3.00800  -23.84860  -23.84860    3.00800
 5250.00000   13.36200   13.36200 1051.52480    0.04400    2.17910    0.31050    0.95100    0.04400  104.23200  104.23200   85.56400   71.88300   85.56400    0.95100    -999.25    -999.25    0.37700    0.37700    2.17910    0.95100  -17.95400  -17.95400    0.95100
 5300.00000   13.72300   13.72300  949.66770    0.03100    2.21100    0.29180    1.05300    0.03100  106.43500  106.43500   80.76700   67.93300   80.76700    1.05300    -999.25    -999.25    0.36500    0.36500    2.21100    1.01200  -16.70040  -16.70040    1.01200
 5350.00000   14.66500   14.66500 1114.82710    0.03800    2.21600    0.28890    0.89700    0.03800  104.50000  104.50000   75.49000   63.49200   75.49000    0.89700    -999.25    -999.25    0.35600    0.35600    2.21600    0.92600  -17.29180  -17.29180    0.92600
 5400.00000   15.40300   15.40300  653.16780    0.07500    2.30000    0.23980    1.53100    0.07500   93.97500   93.97500   68.31100   57.87700   68.31100    1.53100    -999.25    -999.25    0.37300    0.37300    2.30000    1.34700  -18.78520  -18.78520    1.34700
 5450.00000   15.22500   15.22500  900.90090    0.03800    2.19200    0.30290    1.11000    0.03800  108.46600  108.46600   85.85600   71.97100   85.85600    1.11000    -999.25    -999.25    0.40400    0.40400    2.19200    1.06200  -14.97760  -14.97760    1.06200
 5500.00000   15.45700   15.45700  836.12040    0.07400    2.24700    0.27080    1.19600    0.07400   99.68000   99.68000   78.56500   66.32100   78.56500    1.19600    -999.25    -999.25    0.36900    0.36900    2.24700    1.13200  -15.05700  -15.05700    1.13200
 5550.00000   14.47500   14.47500  746.82600    0.08000    2.34400    0.21400    1.33900    0.08000  102.93900  102.93900   72.96400   61.39300   72.96400    1.33900    -999.25    -999.25    0.32800    0.32800    2.34400    1.77200  -14.37640  -14.37640    1.77200
 5600.00000   13.28900   13.28900 1132.50280    0.02600    2.19600    0.30060    0.88300    0.02600  110.52100  110.52100   92.27200   78.39900   92.27200    0.88300    -999.25    -999.25    0.38100    0.38100    2.19600    0.90800  -14.86580  -14.86580    0.90800
 5650.00000   13.17300   13.17300 1027.74930    0.01500    2.19600    0.30060    0.97300    0.01500  109.64600  109.64600   80.32800   66.95100   80.32800    0.97300    -999.25    -999.25    0.38900    0.38900    2.19600    0.99800  -14.90220  -14.90220    0.99800
 5700.00000   12.40000   12.40000  974.65890    0.00200    2.24900    0.26960    1.02600    0.00200  106.43600  106.43600   92.67800   75.60900   92.67800    1.02600    -999.25    -999.25    0.38200    0.38200    2.24900    1.02000  -14.24860  -14.24860    1.02000
 5750.00000   15.45300   15.45300 1095.29030    0.01900    2.32500    0.22510    0.91300    0.01900  112.37000  112.37000   97.25200   81.68200   97.25200    0.91300    -999.25    -999.25    0.35400    0.35400    2.32500    0.92500  -12.50090  -12.50090    0.92500
 5800.00000   18.29000   18.29000  779.42320    0.01800    2.35300    0.20880    1.28300    0.01800  109.36600  109.36600  110.72900   93.29800  110.72900    1.28300    -999.25    -999.25    0.34200    0.34200    2.35300    0.99400  -13.37330  -13.37330    0.99400
 5850.00000   19.05300   19.05300  892.85710    0.03400    2.31000    0.23390    1.12000    0.03400  123.24200  123.24200  103.83100   86.97600  103.83100    1.12000    -999.25    -999.25    0.34100    0.34100    2.31000    1.00000  -13.10470  -13.10470    1.00000
 5900.00000   18.18800   18.18800  846.74010    0.00000    2.37200    0.19770    1.18100    0.00000  109.52100  109.52100  115.69800   97.34100  115.69800    1.18100    -999.25    -999.25    0.30900    0.30900    2.37200    1.18400  -12.98410  -12.98410    1.18400
 5950.00000   16.15700   16.15700  753.57950    0.02100    2.42900    0.16430    1.32700    0.02100   96.72200   96.72200  105.44000   88.01900  105.44000    1.32700    -999.25    -999.25    0.26800    0.26800    2.42900    1.30700  -14.66150  -14.66150    1.30700
 6000.00000   15.00000   15.00000  784.31370    0.01700    2.42700    0.16550    1.27500    0.01700  102.29900  102.29900   96.39800   80.58800   96.39800    1.27500    -999.25    -999.25    0.29500    0.29500    2.42700    1.29700  -15.24790  -15.24790    1.29700
 6050.00000   14.57400   14.57400  690.13110    0.01700    2.45000    0.15200    1.44900    0.01700   96.84900   96.84900  100.83200   84.96900  100.83200    1.44900    -999.25    -999.25    0.28000    0.28000    2.45000    1.49800  -16.41130  -16.41130    1.49800
 6100.00000   15.08400   15.08400  861.32640    0.01500    2.36600    0.20120    1.16100    0.01500  105.68900  105.68900   97.57700   82.46200   97.57700    1.16100    -999.25    -999.25    0.29100    0.29100    2.36600    1.21300  -12.55370  -12.55370    1.21300
 6150.00000   15.20300   15.20300 1061.57120    0.05300    2.34100    0.21580    0.94200    0.05300  111.77900  111.77900   95.48600   80.37100   95.48600    0.94200    -999.25    -999.25    0.31200    0.31200    2.34100    1.05200  -13.08910  -13.08910    1.05200
 6200.00000   15.16900   15.16900  683.99450    0.01900    2.45700    0.14800    1.46200    0.01900   98.83600   98.83600   96.48600   80.48600   96.48600    1.46200    -999.25    -999.25    0.25100    0.25100    2.45700    1.51800  -13.93450  -13.93450    1.51800
 6250.00000   15.77100   15.77100  780.64010    0.00900    2.43400    0.16140    1.28100    0.00900  100.17700  100.17700   93.70200   79.21700   93.70200    1.28100    -999.25    -999.25    0.26800    0.26800    2.43400    1.37100  -13.41790  -13.41790    1.37100
 6300.00000   13.88100   13.88100  762.19510    0.02700    2.42400    0.16730    1.31200    0.02700  100.23500  100.23500   78.44400   64.73800   78.44400    1.31200    -999.25    -999.25    0.27700    0.27700    2.42400    1.51700  -13.24620  -13.24620    1.51700
 6350.00000   12.98300   12.98300  510.46450    0.04300    2.47400    0.13800    1.95900    0.04300   89.65900   89.65900   59.35900   49.56800   59.35900    1.95900    -999.25    -999.25    0.22200    0.22200    2.47400    2.08900  -15.48260  -15.48260    2.08900
 6400.00000   12.93100   12.93100  570.45060    0.05100    2.42100    0.16900    1.75300    0.05100   94.26400   94.26400   71.16000   61.74600   71.16000    1.75300    -999.25    -999.25    0.27100    0.27100    2.42100    2.00000  -13.86600  -13.86600    2.00000
 6450.00000   13.62200   13.62200  782.47260    0.06300    2.38600    0.18950    1.27800    0.06300   99.47200   99.47200   81.93900   69.23100   81.93900    1.27800    -999.25    -999.25    0.35000    0.35000    2.38600    1.44200  -11.13440  -11.13440    1.44200
