~Version ---------------------------------------------------
VERS. 2.0 : CWLS log ASCII Standard -VERSION 2.0
WRAP.  NO : ONE LINE PER DEPTH STEP
~Well ------------------------------------------------------
STRT.F                   850.0 : START DEPTH
STOP.F                  7300.0 : STOP DEPTH
STEP.F                50.00000 : STEP LENGTH
NULL.                  -999.25 : NULL VALUE
COMP.         WATCO ENERGY INC : COMPANY
WELL.       SCHIFFERS RANCH #2 : WELL
FLD .          MARCELINA CREEK : FIELD
LOC .                          : LOCATION
CNTY.                   WILSON : COUNTY
STAT.                    TEXAS : STATE
CTRY. UNITED STATES OF AMERICA : COUNTRY
SRVC.             Schlumberger : SERVICE COMPANY
DATE.              10-Sep-1986 : LOGDATE
API .           42493319370000 : API NUMBER
UWI .           42493319370000 : UNIQUE WELL ID
SLAT.WGS84       29.0320884077 : SURFACE LATITUDE
SLON.WGS84      -98.1758461086 : SURFACE LONGITUDE
~Curve Information -----------------------------------------
DEPT.F                 : 
CILD.MMHO 07 110 46 00 : CONDUCTIVITY INDUCTION LOG DEEP
SPR .MV   07 010 01 00 : SPONTANEOUS POTENTIAL FROM RES. LOG
ILD .OHMM 07 120 46 00 : INDUCTION LOG DEEP
ASFL.OHMM 07 221 06 00 : AMPLIFIED SHALLOW FOCUSED LOG RESISTIVITY
GRN .GAPI 35 310 01 00 : GAMMA RAY
NEUT.CPS  35 330 30 00 : NEUTRON
~Params ----------------------------------------------------
PD  .                           GL : PERMANENT DATUM
EPD .F                         431 : ELEVATION PERMANENT DATUM
LMF .                           KB : LOG MEASURED FROM
DAPD.F                          13 : FEET ABOVE PERMANENT DATUM
DMF .                           KB : DRILLING MEASURED FROM
EKB .F                         444 : KELLING BUSHING
EDF .F                         443 : DRILLING FLOOR
EGL .F                         431 : GROUND LEVEL
DATE.                    9-10-1986 : RUN DATE
RUN .                            1 : RUN NUMBER
DD  .F                        7320 : DEPTH DRILLER
DL  .F                        7314 : DEPTH LOGGER
BLI .F                        7308 : BOTTOM LOG INTERVAL
TLI .F                         830 : TOP LOG INTERVAL
CS  .IN                      8.625 : CASING SIZE
CBD .F                         831 : CASING BOTTOM DRILLER
CBL .F                         830 : CASING BOTTOM LOGGER
BS  .IN                      7.875 : BIT SIZE
BSD .F                        7320 : BIT SIZE AT DEPTH
DFT .                      BASIC K : DRILLING FLUID TYPE
DFD .                          9.4 : DRILLING FLUID DENSITY
DFV .                           44 : DRILLING FLUID VISCOSITY
DFPH.                            9 : DRILLING FLUID PH
DFL .                           10 : DRILLING FLUID LOSS
MSS .                     MUD TANK : MUD SAMPLE SOURCE
RMS .OHMM                     2.02 : RESISTIVITY MUD SAMPLE
MST .F                         104 : MUD SAMPLE TEMPERATURE
RMF .OHMM                     1.12 : RESISTIVITY MUD FILTRATE SAMPLE
MFST.F                          90 : MUD FILTRATE SAMPLE TEMPERATURE
MCST.F                          90 : MUD CAKE SAMPLE TEMPERATURE
MFSS.                         MEAS : MUD FILTRATE SAMPLE SOURCE
MCSS.                         CALC : MUD CAKE SAMPLE SOURCE
RMB .OHMM                     1.23 : RESISTIVITY MUD AT BHT
TCS .HRS                       500 : TIME CURCULATED STOPPED
TLAB.HRS                      1000 : TIME LOGGER AT BOTTOM
LUL .                   PLEASANTON : LOGGING UNIT LOCATION
ENGI.                        CRIST : RECORDING ENGINEER
WITN. PAUL WALSH/STEVE WALSH/TRANT : WITNESSED BY
CLNT.                      A2DTECH : CLIENT CODE
ORIG.                     1" PRINT : ORIGIN OF DATA
UWI .               42493319370000 : UNIQUE WELL ID
DICO.       A2D Technologies, Inc. : DIGITIZING COMPANY
~Other -----------------------------------------------------
~ASCII -----------------------------------------------------
  850.00000  240.64780  -45.13850    4.81330    4.44710    -999.25    -999.25
  900.00000   89.21890  -54.05550   12.44220   10.04500    -999.25    -999.25
  950.00000  127.49000  -52.61370    8.66320    7.55180    -999.25    -999.25
 1000.00000  138.11950  -40.30710    7.18830    7.10260    -999.25    -999.25
 1050.00000  115.53780  -36.81500    9.16870    8.23290    -999.25    -999.25
 1100.00000   78.53210  -39.37620   12.91600   10.25730    -999.25    -999.25
 1150.00000  140.43820  -41.48180    7.39580    8.40470    -999.25    -999.25
 1200.00000   86.47760  -43.48810   12.85560   10.92810    -999.25    -999.25
 1250.00000  110.94080  -45.56200    9.95420    8.85330    -999.25    -999.25
 1300.00000  109.63970  -42.26570    8.71520    7.79600    -999.25    -999.25
 1350.00000  153.92970  -46.41770    5.37500    6.79990    -999.25    -999.25
 1400.00000   80.05140  -47.43820   13.14220   10.76690    -999.25    -999.25
 1450.00000   75.69720  -47.21070   11.86470   10.91020    -999.25    -999.25
 1500.00000  378.48610  -38.57710    3.36500    2.83270    -999.25    -999.25
 1550.00000  433.76500  -35.21530    2.68770    2.61620    -999.25    -999.25
 1600.00000  338.01500  -36.14030    3.23060    3.36650    -999.25    -999.25
 1650.00000  258.96410  -36.03570    4.60510    4.61010    -999.25    -999.25
 1700.00000   34.15990  -42.64540   27.16250   20.21910    -999.25    -999.25
 1750.00000   32.10690  -60.18090   27.97380   21.91290    -999.25    -999.25
 1800.00000   35.85660  -59.72060   40.46050   29.79970    -999.25    -999.25
 1850.00000  110.55780  -36.03670    9.16820   10.58100    -999.25    -999.25
 1900.00000   21.03600  -59.95070   39.52530   26.93210    -999.25    -999.25
 1950.00000   13.89890  -63.25090   49.80460   30.51540    -999.25    -999.25
 2000.00000   88.87090  -37.15790   11.29090   10.54470    -999.25    -999.25
 2050.00000   11.95220  -55.39960   47.50350   27.94380    -999.25    -999.25
 2100.00000   23.45950  -53.61380   53.23070   30.61660    -999.25    -999.25
 2150.00000   13.83570  -59.92140   52.16160   28.39230    -999.25    -999.25
 2200.00000   24.52580  -55.97950   47.13180   29.96390    -999.25    -999.25
 2250.00000  155.37850  -34.23920   31.69320    7.12480    -999.25    -999.25
 2300.00000   13.41150  -59.61300   47.33730   27.78340    -999.25    -999.25
 2350.00000   35.85660  -46.19010   26.64860   21.65320    -999.25    -999.25
 2400.00000   59.76100  -37.32590   12.52950   14.78620    -999.25    -999.25
 2450.00000   79.05220  -39.15300   13.16900   12.23290    -999.25    -999.25
 2500.00000  203.18730  -25.25420    5.65460    5.98370    -999.25    -999.25
 2550.00000  111.11110  -34.14680    8.88610    8.98860    -999.25    -999.25
 2600.00000  266.00230  -28.05550    4.79830    4.81720    -999.25    -999.25
 2650.00000   47.14470  -33.95140   22.52040   17.87100    -999.25    -999.25
 2700.00000  208.97340  -27.76100    5.06130    4.24670    -999.25    -999.25
 2750.00000  171.92770  -31.08210    6.62440    6.98830    -999.25    -999.25
 2800.00000  131.41570  -36.27280    7.59210    7.84960    -999.25    -999.25
 2850.00000  559.76100  -23.38930    1.90510    2.14630    -999.25    -999.25
 2900.00000  108.38150  -32.38070   10.09280   11.32610    -999.25    -999.25
 2950.00000  339.21460  -25.74800    3.21620    3.09690    -999.25    -999.25
 3000.00000  338.64540  -23.39660    3.27230    3.19860    -999.25    -999.25
 3050.00000  346.61360  -22.32180    3.45250    3.38270    -999.25    -999.25
 3100.00000  410.35860  -20.06780    3.24510    3.17800    -999.25    -999.25
 3150.00000  567.44450  -18.64710    2.02870    2.04050    -999.25    -999.25
 3200.00000  227.09160  -29.77520    4.88180    4.85800    -999.25    -999.25
 3250.00000  132.13810  -31.98540    9.65420   10.05890    -999.25    -999.25
 3300.00000  505.97610  -20.62740    2.21530    2.46640    -999.25    -999.25
 3350.00000  205.57770  -28.64120    4.92610    5.35300    -999.25    -999.25
 3400.00000  152.24440  -25.45450    8.43980    6.23650    -999.25    -999.25
 3450.00000  323.32570  -21.29370    2.99580    3.17850    -999.25    -999.25
 3500.00000  287.80300  -22.81060    4.49670    3.96110    -999.25    -999.25
 3550.00000  164.04970  -25.48950    6.46350    6.76520    -999.25    -999.25
 3600.00000  133.74750  -28.28650    7.70880    8.17770    -999.25    -999.25
 3650.00000   82.33730  -33.58860   12.05290   11.90760    -999.25    -999.25
 3700.00000   91.49780  -33.58790   11.65360   11.65250    -999.25    -999.25
 3750.00000   94.10780  -32.94000   11.15820   11.22700    -999.25    -999.25
 3800.00000  534.91620  -13.77230    2.78790    2.63280    -999.25    -999.25
 3850.00000  123.50600  -28.84060    8.68850    8.73410    -999.25    -999.25
 3900.00000  102.96810  -22.11950   11.06670   11.20860    -999.25    -999.25
 3950.00000   83.66530  -29.64270   11.38620   13.68890    -999.25    -999.25
 4000.00000  146.12540  -25.06390    9.17160   10.68160    -999.25    -999.25
 4050.00000   91.63350  -26.49940   11.56850   11.81320    -999.25    -999.25
 4100.00000  864.54180  -10.10830    2.07080    1.74330    -999.25    -999.25
 4150.00000   94.07620  -26.02500   11.27850   11.44630    -999.25    -999.25
 4200.00000  169.34400  -19.96120    4.88290    6.40890    -999.25    -999.25
 4250.00000  139.44220  -22.91040    6.87330    7.63530    -999.25    -999.25
 4300.00000  106.00450  -29.53850    9.07430   10.12220    -999.25    -999.25
 4350.00000  110.41550  -26.99760    8.38880    9.71230    -999.25    -999.25
 4400.00000  307.87590   -9.19560    3.22640    4.09190    -999.25    -999.25
 4450.00000  188.71880  -26.60000    5.82570    9.21480    -999.25    -999.25
 4500.00000  554.01140   -2.95930    2.39950    2.16580    -999.25    -999.25
 4550.00000  641.22480   -3.29650    1.51720    1.72020    -999.25    -999.25
 4600.00000  179.28290  -35.08090    6.04460   17.23110    -999.25    -999.25
 4650.00000  390.43830  -14.91080    2.47380    2.50170    -999.25    -999.25
 4700.00000  340.92900  -12.44020    3.19390    3.36090    -999.25    -999.25
 4750.00000  411.49690  -10.53440    2.86810    2.58860    -999.25    -999.25
 4800.00000  425.69990  -10.24700    2.60750    2.60550    -999.25    -999.25
 4850.00000  523.43010   -8.64630    2.46300    2.26760    -999.25    -999.25
 4900.00000  583.19380   -9.76390    2.18300    2.04700    -999.25    -999.25
 4950.00000  560.42500   -7.62210    2.06250    2.13480    -999.25    -999.25
 5000.00000  668.83510   -8.36180    1.97140    1.84200    -999.25    -999.25
 5050.00000  768.92430  -12.54280    1.75690    1.64490    -999.25    -999.25
 5100.00000  912.35060   -9.21130    1.13700    1.30300    -999.25    -999.25
 5150.00000  797.76810  -10.54290    1.70020    1.68310    -999.25    -999.25
 5200.00000  843.08340   -6.63440    1.50010    1.37970    -999.25    -999.25
 5250.00000  727.09160  -12.77340    1.89690    1.65560    -999.25    -999.25
 5300.00000  832.66930   -5.90710    1.52880    1.45220    -999.25    -999.25
 5350.00000  484.72780   -9.17680    2.28780    2.30080    -999.25    -999.25
 5400.00000  684.87050   -9.80170    1.77610    1.71520    -999.25    -999.25
 5450.00000  628.68520   -6.38360    1.98280    1.72710    -999.25    -999.25
 5500.00000  665.26650  -10.87390    2.04590    1.95160    -999.25    -999.25
 5550.00000  682.27090  -13.21900    1.80000    1.67870    -999.25    -999.25
 5600.00000 1015.93630   -9.11350    1.37740    1.26110    -999.25    -999.25
 5650.00000  699.86720   -8.04050    1.64230    1.67300    -999.25    -999.25
 5700.00000  619.43720  -12.41020    1.66550    1.98210    -999.25    -999.25
 5750.00000  588.31340   -8.74430    2.12540    2.02480    -999.25    -999.25
 5800.00000  681.84410   -9.10260    1.68920    1.78960    -999.25    -999.25
 5850.00000  545.01990   -6.52100    2.35160    2.23940   45.96170 1172.22510
 5900.00000  397.11640  -10.17020    2.72660    3.03700   39.76630 1624.87920
 5950.00000  617.52990  -14.69450    1.94060    2.08730   52.66170  908.67370
