~Version ---------------------------------------------------
VERS. 2.0 : CWLS log ASCII Standard -VERSION 2.0
WRAP. YES : MULTIPLE LINES PER DEPTH STEP
~Well ------------------------------------------------------
STRT.FT                  1500.0 : START DEPTH
STOP.FT                  8000.0 : STOP DEPTH
STEP.FT                50.00000 : STEP LENGTH
NULL.                   -999.25 : NULL VALUE
COMP.  AMOCO PRODUCTION COMPANY : COMPANY
WELL.            LEON F CASH #1 : WELL
FLD . CALDWELL, N.E. GEORGETOWN : FIELD
LOC .                           : LOCATION
CNTY.                    BRAZOS : COUNTY
STAT.                     TEXAS : STATE
CTRY.  UNITED STATES OF AMERICA : COUNTRY
SRVC.             Dresser Atlas : SERVICE COMPANY
DATE.               17-Jul-1984 : LOGDATE
API .            42041311700000 : API NUMBER
UWI .            42041311700000 : UNIQUE WELL ID
SLAT.WGS84        30.6324896391 : SURFACE LATITUDE
SLON.WGS84       -96.5352157138 : SURFACE LONGITUDE
~Curve Information -----------------------------------------
DEPT    .FT        : DEPTH FEET
CALDED  .IN        : CALIPER FROM DENSITY LOG [ADJ TO GRRED]
CALWS   .IN        : CALIPER [CALDED]
CNCED   .V/V       : NEUTRON POROSITY SANDSTONE FROM DENSITY LOG [ADJ TO GRRED]
CNCLSED .V/V       : NEUTRON POROSITY LIMESTONE FROM DENSITY LOG [ADJ TO GRRED]
CONDWS  .MMHO      : CONDUCTIVITY [1000/DRESWS]
CORRED  .G/C3      : DENSITY CORRECTION FROM DENSITY LOG [ADJ TO GRRED]
DCORWS  .G/C3      : DENSITY CORRECTION [CORRED]
DENED   .G/C3      : BULK DENSITY FROM DENSITY LOG [ADJ TO GRRED]
DENWS   .G/C3      : BULK DENSITY [M=2.65 F=1.0] [DENED]
DPOWS   .V/V       : DENSITY POROSITY [M=2.65 F=1.0] [SPL PORDED <7162.5F> PORDLSED]
DRESWS  .OHMM      : DEEP RESISTIVITY [RILDED]
GRDED   .GAPI      : GAMMA RAY FROM DENSITY LOG [ADJ TO GRRED]
GRRED   .GAPI      : GAMMA RAY FROM RESISTIVITY LOG
GRTED   .GAPI      : GAMMA RAY FROM TDT LOG [ADJ TO GRRED]
GRWS    .GAPI      : GAMMA RAY [GRRED, CSG ABOVE 1500F]
MRESWS  .OHMM      : MEDIUM RESISTIVITY [RILMED]
NPOWS   .V/V       : NEUTRON POROSITY [SPL CNCED <7155F> CNCLSED, CSG ABOVE 1500F]
PORDED  .V/V       : DENSITY POROSITY [M=2.65 F=1.0] FROM DENSITY LOG [ADJ TO GRRED]
PORDLSED.V/        : DENSITY POROSITY [M=2.71 F=1.0] FROM DENSITY LOG [ADJ TO GRRED]
RATIOED .UNITLESS  : RATIO FROM TDT LOG [ADJ TO GRRED]
RFOCED  .OHMM      : FOCUSED RESISTIVITY
RILDED  .OHMM      : INDUCTION LOG DEEP RESISTIVITY
RILMED  .OHMM      : INDUCTION LOG MEDIUM RESISTIVITY
SIGMED  .CU        : NEUTRON CAPTURE CROSS SECTION FROM TDT LOG [ADJ TO GRRED]
SPRED   .MV        : SPONTANEOUS POTENTIAL FROM RESISTIVITY LOG
SPWS    .MV        : SPONTANEOUS POTENTIAL [BASELINE 0 MV] [SPRED]
SRESWS  .OHMM      : SHALLOW RESISTIVITY [RFOCED]
TENDED  .LBF       : TENSION FROM DENSITY LOG [ADJ TO GRRED]
TENRED  .LBF       : TENSION FROM RESISTIVITY LOG
TENTED  .LBF       : TENSION FROM TDT LOG [ADJ TO GRRED]
~Params ----------------------------------------------------
PD  .                     GL : PERMANENT DATUM
EPD .FT                244.7 : ELEVATION PERMANENT DATUM
LMF .                     KB : LOG MEASURED FROM
DAPD.FT                23.58 : FEET ABOVE PERMANENT DATUM
DMF .                     KB : DRILLING MEASURED FROM
EKB .FT               268.29 : KELLY BUSHING
EDF .FT               267.28 : DRILLING FLOOR
EGL .FT                244.7 : GROUND LEVEL
DATE.               07/17/84 : RUN DATE
RUN .                      1 : RUN NUMBER
DD  .FT                 8835 : DEPTH DRILLER
DL  .FT                 8824 : DEPTH LOGGER
BLI .FT                 8822 : BOTTOM LOG INTERVAL
TLI .FT                 1500 : TOP LOG INTERVAL
CS  .IN                8.625 : CASING SIZE
CBD .FT                 1500 : CASING BOTTOM DRILLER
CBL .FT                 1500 : CASING BOTTOM LOGGER
BS  .IN                7.875 : BIT SIZE
BSD .FT                 8825 : BIT SIZE AT DEPTH
DFT .                 LO SOL : DRILLING FLUID TYPE
DFD .                    9.2 : DRILLING FLUID DENSITY
DFV .                     47 : DRILLING FLUID VISCOSITY
DFPH.                    8.9 : DRILLING FLUID PH
DFL .                    9.2 : DRILLING FLUID LOSS
MSS .               FLOWLINE : MUD SAMPLE SOURCE
RMS .OHMM               3.38 : RESISTIVITY MUD SAMPLE
MST .DEGF                 75 : MUD SAMPLE TEMPERATURE
RMF .OHMM               2.74 : RESISTIVITY MUD FILTRATE SAMPLE
MFST.DEGF                 75 : MUD FILTRATE SAMPLE TEMPERATURE
RMC .OHMM               4.23 : RESISTIVITY MUD CAKE
MCST.DEGF                 75 : MUD CAKE SAMPLE TEMPERATURE
MFSS.               MEASURED : MUD FILTRATE SAMPLE SOURCE
MCSS.             CALCULATED : MUD CAKE SAMPLE SOURCE
RMB .OHMM               1.33 : RESISTIVITY MUD AT BHT
TCS .HRS                   5 : TIME CIRCULATED STOPPED
LUN .                HL 6300 : LOGGING UNIT NUMBER
LUL .                  BRYAN : LOGGING UNIT LOCATION
ENGI.                 WRIGHT : RECORDING ENGINEER
WITN.               DEPAOLIS : WITNESSED BY
CLNT.                A2DTECH : CLIENT CODE
ORIG.            2" 5" PRINT : ORIGIN OF DATA
UWI .         42041311700000 : UNIQUE WELL ID
DICO. A2D Technologies, Inc. : DIGITIZING COMPANY
~Other -----------------------------------------------------
~ASCII -----------------------------------------------------
# ...
 2700.00000   11.22080   11.22080    0.48120    -999.25  276.07530    0.12200    0.12200    2.25660    2.26080    0.23590    3.62220   88.43230  100.97410    -999.25  100.97410    3.36060    0.48120    0.23590    -999.25    -999.25    4.79600    3.62220    3.36060    -999.25  -45.72120   -0.41800    4.79600    3.56960   12.35560    -999.25
 2750.00000   10.75400   10.75400    0.40310    -999.25   50.34820    0.06310    0.06310    2.15280    2.15070    0.30260   19.86170   59.86280   63.13090    -999.25   63.13090   16.31810    0.40310    0.30260    -999.25    -999.25   14.31760   19.86170   16.31810    -999.25  -57.54140  -12.22730   14.31760    3.31980   10.88440    -999.25
 2800.00000   10.50210   10.50210    0.40020    -999.25   37.02460    0.05370    0.05370    2.09660    2.09410    0.33690   27.00910   47.64330   64.08040    -999.25   64.08040   25.47440    0.40020    0.33690    -999.25    -999.25   18.32380   27.00910   25.47440    -999.25  -55.10210   -9.68310   18.32380    0.14690    9.68350    -999.25
 2850.00000   11.70790   11.70790    0.38020    -999.25  131.90350    0.10010    0.10010    2.24140    2.24430    0.24590    7.58130   71.20090   79.73940    -999.25   79.73940    8.27510    0.38020    0.24590    -999.25    -999.25    7.90230    7.58130    8.27510    -999.25  -58.03470  -12.51070    7.90230    7.78190    9.86100    -999.25
 2900.00000   10.10490   10.10490    0.40250    -999.25   33.94700    0.10840    0.10840    2.07160    2.07040    0.35130   29.45770   51.49850   53.42140    -999.25   53.42140   26.13370    0.40250    0.35130    -999.25    -999.25   18.98720   29.45770   26.13370    -999.25  -54.60720   -8.97820   18.98720    0.00000    7.01750    -999.25
 2950.00000    9.14510    9.14510    0.33930    -999.25   78.04330    0.15240    0.15240    2.18640    2.18800    0.28000   12.81340   71.07910   84.20470    -999.25   84.20470   14.15610    0.33930    0.28000    -999.25    -999.25   11.96870   12.81340   14.15610    -999.25  -55.51340   -9.77940   11.96870   10.11920   12.97650    -999.25
 3000.00000    9.63480    9.63480    0.36020    -999.25   53.26800    0.05960    0.05960    2.10270    2.10480    0.33040   18.77300   49.34190   63.58300    -999.25   63.58300   19.71570    0.36020    0.33040    -999.25    -999.25   15.44000   18.77300   19.71570    -999.25  -53.49160   -7.65270   15.44000    7.25900   11.60980    -999.25
 3050.00000    9.06720    9.06720    0.31730    -999.25   69.12430    0.09270    0.09270    2.10010    2.10070    0.33290   14.46670   70.99450   79.86380    -999.25   79.86380   15.95260    0.31730    0.33290    -999.25    -999.25   12.98360   14.46670   15.95260    -999.25  -57.15700  -11.21310   12.98360    8.08160   13.71560    -999.25
 3100.00000   12.02170   12.02170    0.58200    -999.25   35.21240   -0.02020   -0.02020    1.44550    1.65920    0.60050   28.39910   17.57350   23.49250    -999.25   23.49250  104.86640    0.58200    0.60050    -999.25    -999.25   49.71510   28.39910  104.86640    -999.25  -58.32960  -12.28070   49.71510   26.62560   12.51050    -999.25
 3150.00000   10.06860   10.06860    0.32770    -999.25  124.07720    0.12000    0.12000    2.26530    2.26520    0.23320    8.05950   94.74420   96.74310    -999.25   96.74310    8.34750    0.32770    0.23320    -999.25    -999.25    7.24530    8.05950    8.34750    -999.25  -58.20910  -12.05520    7.24530    0.00000    3.36700    -999.25
 3200.00000   10.58580   10.58580    0.37850    -999.25   99.66020    0.09850    0.09850    2.07730    2.07810    0.34660   10.03410   38.43820   48.15540    -999.25   48.15540   12.29870    0.37850    0.34660    -999.25    -999.25   10.94460   10.03410   12.29870    -999.25  -64.92300  -18.66410   10.94460    8.67030    8.05380    -999.25
 3250.00000    8.59390    8.59390    0.30470    -999.25  119.35880    0.06150    0.06150    2.21410    2.22310    0.25870    8.37810   92.90520   95.83750    -999.25   95.83750    9.56510    0.30470    0.25870    -999.25    -999.25   10.19090    8.37810    9.56510    -999.25  -72.23710  -25.87330   10.19090    8.01950   15.86200    -999.25
 3300.00000    8.49770    8.49770    0.29600    -999.25  146.66840    0.04030    0.04030    2.20240    2.19870    0.27350    6.81810   54.05480   63.51640    -999.25   63.51640    8.98300    0.29600    0.27350    -999.25    -999.25    9.38030    6.81810    8.98300    -999.25  -73.87970  -27.41090    9.38030    0.00000   14.68350    -999.25
 3350.00000    8.98250    8.98250    0.33510    -999.25  263.57410    0.12900    0.12900    2.20210    2.18680    0.28070    3.79400   76.66220   85.94300    -999.25   85.94300    4.13380    0.33510    0.28070    -999.25    -999.25    5.73790    3.79400    4.13380    -999.25  -56.80810  -10.23430    5.73790    4.82250   16.50020    -999.25
 3400.00000    8.56620    8.56620    0.32410    -999.25  243.41560    0.04100    0.04100    2.30370    2.29950    0.21240    4.10820   92.90130  108.89340    -999.25  108.89340    3.98650    0.32410    0.21240    -999.25    -999.25    4.22860    4.10820    3.98650    -999.25  -49.97190   -3.29310    4.22860    0.00000   13.60060    -999.25
 3450.00000    8.38370    8.38370    0.32400    -999.25  170.25910    0.07650    0.07650    2.15280    2.14820    0.30410    5.87340   66.68800   82.04630    -999.25   82.04630    7.32030    0.32400    0.30410    -999.25    -999.25    8.75190    5.87340    7.32030    -999.25  -81.84780  -35.06400    8.75190    1.60380   12.88100    -999.25
 3500.00000    8.61020    8.61020    0.30610    -999.25  188.40200    0.03830    0.03830    2.20900    2.20850    0.26760    5.30780   55.71810   60.25990    -999.25   60.25990    6.28610    0.30610    0.26760    -999.25    -999.25    7.19120    5.30780    6.28610    -999.25  -75.89700  -29.00830    7.19120   12.10000    8.12710    -999.25
 3550.00000    8.08070    8.08070    0.30330    -999.25  175.04240    0.12730    0.12730    2.23110    2.23090    0.25400    5.71290   69.32070   78.63310    -999.25   78.63310    6.71410    0.30330    0.25400    -999.25    -999.25    7.76680    5.71290    6.71410    -999.25  -74.78900  -27.79530    7.76680    0.00000   15.36250    -999.25
 3600.00000    8.23780    8.23780    0.26820    -999.25  178.75980    0.06910    0.06910    2.40570    2.41900    0.14000    5.59410   53.58930   54.05520    -999.25   54.05520    7.19430    0.26820    0.14000    -999.25    -999.25   11.75010    5.59410    7.19430    -999.25  -81.06410  -33.96540   11.75010    0.00000    7.20340    -999.25
 3650.00000    8.34980    8.34980    0.29920    -999.25  269.91280    0.07730    0.07730    2.30730    2.30760    0.20750    3.70490   73.01140   84.85490    -999.25   84.85490    4.18540    0.29920    0.20750    -999.25    -999.25    4.48900    3.70490    4.18540    -999.25  -68.57280  -21.33530    4.48900    0.63620   16.49720    -999.25
 3700.00000    8.96420    8.96420    0.31210    -999.25  383.68570    0.14750    0.14750    2.24960    2.25680    0.23830    2.60630   83.04910   94.63070    -999.25   94.63070    3.03990    0.31210    0.23830    -999.25    -999.25    4.01700    2.60630    3.03990    -999.25  -56.60310   -8.95280    4.01700    2.08180   11.79250    -999.25
 3750.00000    9.17840    9.17840    0.32940    -999.25  409.31600    0.04970    0.04970    2.34830    2.35100    0.18120    2.44310   93.81990   95.43510    -999.25   95.43510    2.51760    0.32940    0.18120    -999.25    -999.25    3.06470    2.44310    2.51760    -999.25  -52.83550   -4.77240    3.06470    4.36880   19.87080    -999.25
 3800.00000    9.56030    9.56030    0.32470    -999.25  426.98550    0.14500    0.14500    2.16300    2.16470    0.29410    2.34200   73.86610   92.20410    -999.25   92.20410    2.42500    0.32470    0.29410    -999.25    -999.25    2.53270    2.34200    2.42500    -999.25  -53.93090   -5.45500    2.53270    8.99890   21.77980    -999.25
 3850.00000    9.24580    9.24580    0.33160    -999.25  479.77740    0.15300    0.15300    2.29330    2.29430    0.21560    2.08430   84.15100   94.70800    -999.25   94.70800    2.14090    0.33160    0.21560    -999.25    -999.25    2.63910    2.08430    2.14090    -999.25  -55.65030   -6.76160    2.63910    1.89030   12.49420    -999.25
