~Version ---------------------------------------------------
VERS. 2.0 : CWLS log ASCII Standard -VERSION 2.0
WRAP.  NO : One line per depth step
~Well ------------------------------------------------------
STRT.FT                     1500.0 : START DEPTH
STOP.FT                     8900.0 : STOP DEPTH
STEP.FT                   50.00000 : STEP LENGTH
NULL.                      -999.25 : NULL VALUE
COMP. PAN AMERICAN PETROLEUM CORP. : COMPANY
WELL.       FROST NATIONAL BANK #1 : WELL
FLD .                           WC : FIELD
LOC .                              : LOCATION
CNTY.                       DIMMIT : COUNTY
STAT.                        TEXAS : STATE
CTRY.     UNITED STATES OF AMERICA : COUNTRY
SRVC.                              : SERVICE COMPANY
DATE.                              : LOGDATE
API .               42127301140000 : API NUMBER
UWI .               42127301140000 : UNIQUE WELL ID
SLAT.WGS84           28.4914048015 : SURFACE LATITUDE
SLON.WGS84           -99.834117977 : SURFACE LONGITUDE
~Curve Information -----------------------------------------
DEPT  .FT                                                 : DEPTH
CALSED.IN                                                 : CALIPER FROM SONIC LOG
GRDED .GAPI                                               : GAMMA RAY FROM DENSITY LOG
NPHIED.V/V                                                : NEUTRON POROSITY LIMESTONE FROM DENSITY LOG
SPRED .MV                                                 : SPONTANEOUS POTENTIAL FROM RESISTIVITY LOG [MECH. SHIFT REMOVED@4750 (-16MV)]
CILDED.MMHO                                               : CONDUCTIVITY FROM RESISTIVITY LOG
SPWS  .MV :   SPONTANEOUS POTENTIAL [FROM SPRED. BASELINE : 0MV]
CALDED.IN                                                 : CALIPER FROM DENSITY LOG
ILDED .OHMM                                               : INDUCTION LOG DEEP RESISTIVITY
ALL8ED.OHMM                                               : AMPLIFIED LATEROLOG 8
DTED  .US/F                                               : DELTA TIME FROM SONIC LOG
SPSED .MV                                                 : SPONTANEOUS POTENTIAL FROM SONIC LOG
CALWS .IN                                                 : CALIPER [CALSED]
GRWS  .GAPI                                               : GAMMA RAY [GRDED]
NPOWS .V/V                                                : NEUTRON POROSITY LIMESTONE [NPHIED]
DTWS  .US/F                                               : DELTA TIME [DTED]
DRESWS.OHMM                                               : DEEP RESISTIVITY [=1000/CILDED IF ILDED < 1. ELSE ILDED]
MRESWS.OHMM                                               : MEDIUM RESISTIVITY [ALL8ED]
CONDWS.MMHO                                               : CONDUCTIVITY [1000/DRESWS]
~Params ----------------------------------------------------
EKB .F                 603.3 : Kelly bushing
EGL .F                 590.3 : Ground level
EDF .F                   0.0 : Drilling floor
EPD .F                 590.8 : Permanent datum
TD  .F                8898.0 : Total depth
DATE.            21-NOV-1970 : Date logged
CLNT.                A2DTECH : Client Code
SL  .  660' FNEL & 600' FSEL : Surface Location
PD  .                     GL : Permanent Datum
LMF .                     KB : Log Measured From
DMF .                     KB : Drilling Measured From
DAPD.F                  12.5 : Feet Above Permanent Datum
DD  .F                  8898 : Depth driller
DL  .F                  8894 : Depth logger
BLI .F                  8893 : Bottom log interval
TLI .F                  1500 : Top log interval
CS1 .IN                10.75 : Casing size
CBD1.         10.75" @ 1500' : Casing driller 1
CBL1.F                  1500 : Casing logger 1
BS1 .IN                 8.75 : Bit size
BSD1.F                  8898 : Depth drilled with bit1
DFT .     LOW SOLIDS/POLYMER : Type fluid in hole
DFD .                   10.5 : Density
DFV .                     80 : Viscosity
DFPH.                    8.0 : pH
DFL .                    8.0 : Fluid loss
MSS .               FLOWLINE : Source of sample
RMS .OHMM               1.05 : Rm
RMF .OHMM               1.21 : Rmf
RMC .OHMM               2.42 : Rmc
MFSS.                   MEAS : Source Rmf.
MCSS.                   CALC : Source Rmc.
RMB .OHMM               0.51 : Rm. at BHT
BHT .F                   198 : BHT.
TCS .HRS                   7 : Time Circ. stopped
LUN .                   7027 : Logging unit number
LUL .                  PHARD : Logging unit location
ENGI.                   FETT : Recorded By
WITN.           LEANS/FOCSOM : Witnessed by
ORIG.          5" & 1" PRINT : Origin of data
UWI .         42127301140000 : Unique Well ID
DICO. A2D TECHNOLOGIES, INC. : Digitizing Company
~Other -----------------------------------------------------
~ASCII -----------------------------------------------------
 1500.00000    -999.25    -999.25    -999.25    -999.25    -999.25    -999.25    -999.25    -999.25    -999.25  101.79370    -999.25    -999.25    -999.25    -999.25  101.79370    -999.25    -999.25    -999.25
 1550.00000    -999.25    -999.25    -999.25    -999.25    -999.25    -999.25    -999.25    -999.25    -999.25   92.52620    -999.25    -999.25    -999.25    -999.25   92.52620    -999.25    -999.25    -999.25
 1600.00000   10.29440    -999.25    -999.25  -37.27600  264.00000   -6.62120    -999.25    4.22900    4.38100   93.27390  -20.45120   10.29440    -999.25    -999.25   93.27390    4.22900    4.38100  236.46250
 1650.00000    9.97750    -999.25    -999.25  -33.20000  324.00000   -3.82760    -999.25    3.66200    3.55300  100.00020  -20.75190    9.97750    -999.25    -999.25  100.00020    3.66200    3.55300  273.07480
 1700.00000    8.33890    -999.25    -999.25  -33.20000  445.00000   -4.07180    -999.25    3.11400    2.79800  111.21080  -20.75240    8.33890    -999.25    -999.25  111.21080    3.11400    2.79800  321.13040
 1750.00000    8.50750    -999.25    -999.25  -33.99200  259.00000   -4.32370    -999.25    4.60800    4.31400   91.25560  -22.10530    8.50750    -999.25    -999.25   91.25560    4.60800    4.31400  217.01390
 1800.00000    8.59770    -999.25    -999.25  -38.71200  265.00000   -8.11720    -999.25    4.17400    4.30200   91.06210  -24.05980    8.59770    -999.25    -999.25   91.06210    4.17400    4.30200  239.57840
 1850.00000    7.84690    -999.25    -999.25  -35.08000  612.00000   -3.62640    -999.25    1.80000    2.08300  108.62100  -20.00000    7.84690    -999.25    -999.25  108.62100    1.80000    2.08300  555.55550
 1900.00000    8.29740   50.07510    0.18240  -39.73000  275.00000   -8.02570   12.76480    3.77600    4.10800   88.56410  -21.65410    8.29740   50.07510    0.18240   88.56410    3.77600    4.10800  264.83050
 1950.00000    8.38740   61.16920    0.22390  -38.01100  464.00000   -5.79480   11.50150    2.65700    2.59600   95.21630  -22.55520    8.38740   61.16920    0.22390   95.21630    2.65700    2.59600  376.36430
 2000.00000    8.37240   22.82280    0.10930  -62.94600  155.00000  -29.17250   12.17720    6.79100    8.88600   78.77360  -32.17780    8.37240   22.82280    0.10930   78.77360    6.79100    8.88600  147.25370
 2050.00000    7.90410   29.12910    0.12260  -64.44900  170.00000  -29.11830   12.98800    5.57500    6.72000   81.05320  -33.08270    7.90410   29.12910    0.12260   81.05320    5.57500    6.72000  179.37220
 2100.00000    8.46250   29.38530    0.08790  -49.12800  119.00000  -12.24000   13.25830    7.30000    9.37500   75.03770  -27.21730    8.46250   29.38530    0.08790   75.03770    7.30000    9.37500  136.98630
 2150.00000    9.00290   33.43330    0.14780  -42.88500  236.00000   -4.43980   13.64860    4.41600    5.15200   89.26740  -23.57210    9.00290   33.43330    0.14780   89.26740    4.41600    5.15200  226.44930
 2200.00000    8.74700   25.18740    0.08610  -49.32300  141.00000   -9.32050   12.44740    6.73000    8.86900   75.13230  -22.83340    8.74700   25.18740    0.08610   75.13230    6.73000    8.86900  148.58840
 2250.00000    8.88260   44.07800    0.18460  -43.59500  291.00000   -2.95210   11.93690    3.70200    4.61000   90.28660  -22.07730    8.88260   44.07800    0.18460   90.28660    3.70200    4.61000  270.12430
 2300.00000    8.49250   18.14080    0.17520 -132.65200  229.00000  -92.80280    9.62460    4.30000   12.24000   76.38340  -58.11390    8.49250   18.14080    0.17520   76.38340    4.30000   12.24000  232.55810
 2350.00000    9.78390   47.52620    0.16710  -46.81300  270.00000   -7.75740   10.91600    3.90200    5.24500   90.35950  -23.35270    9.78390   47.52620    0.16710   90.35950    3.90200    5.24500  256.27880
 2400.00000    9.10780   46.32680    0.30070  -45.76800  238.00000   -7.50610   10.00000    4.03400    4.95600   89.48810  -22.20210    9.10780   46.32680    0.30070   89.48810    4.03400    4.95600  247.89290
 2450.00000    8.47750   24.73790    0.19090  -87.53900  133.00000  -50.07070    9.29430    6.38900   16.87200   70.28440  -41.74200    8.47750   24.73790    0.19090   70.28440    6.38900   16.87200  156.51900
 2500.00000    9.54380   56.52170    0.19860  -42.16500  279.00000   -5.73340    9.94240    3.95300    5.08500   93.57210  -22.66550    9.54380   56.52170    0.19860   93.57210    3.95300    5.08500  252.97240
 2550.00000    9.45350   44.52700    0.19540  -37.16700  233.00000   -1.93050   10.00000    4.04500    4.98800   84.10620  -21.80580    9.45350   44.52700    0.19540   84.10620    4.04500    4.98800  247.21880
 2600.00000    9.12310   49.02620    0.19630  -39.13000  200.00000   -4.05720   10.46550    5.11700    6.11000   79.61990  -21.05390    9.12310   49.02620    0.19630   79.61990    5.11700    6.11000  195.42700
 2650.00000    9.10040    -999.25    -999.25  -38.79600  300.00000   -3.88680    -999.25    3.88900    3.98500   88.96640  -21.77830    9.10040    -999.25    -999.25   88.96640    3.88900    3.98500  257.13550
 2700.00000    9.45320    -999.25    -999.25  -38.80300  401.00000   -4.05750    -999.25    2.69500    3.08100   97.12310  -21.32280    9.45320    -999.25    -999.25   97.12310    2.69500    3.08100  371.05750
 2750.00000    9.30280    -999.25    -999.25  -41.20000  316.00000   -6.61810    -999.25    3.29900    3.84000   89.79340  -22.52850    9.30280    -999.25    -999.25   89.79340    3.29900    3.84000  303.12220
 2800.00000    8.87790    -999.25    -999.25  -37.96300  421.00000   -3.54470    -999.25    2.70000    3.09900  101.49980  -20.27690    8.87790    -999.25    -999.25  101.49980    2.70000    3.09900  370.37040
 2850.00000    9.20850    -999.25    -999.25  -38.41800  409.00000   -4.55420    -999.25    2.69900    3.31900   98.95550  -20.27890    9.20850    -999.25    -999.25   98.95550    2.69900    3.31900  370.50760
 2900.00000    9.13300    -999.25    -999.25  -37.25400  435.00000   -5.61080    -999.25    2.50000    3.01900  100.00400  -20.42880    9.13300    -999.25    -999.25  100.00400    2.50000    3.01900  400.00000
 2950.00000    9.04820    -999.25    -999.25  -31.59600  490.00000   -1.77040    -999.25    2.50000    2.92000  102.87650  -20.56950    9.04820    -999.25    -999.25  102.87650    2.50000    2.92000  400.00000
 3000.00000    8.94290   60.26990    0.26750  -31.60000  386.00000   -2.44510    -999.25    2.69800    3.43000   97.83260  -20.26740    8.94290   60.26990    0.26750   97.83260    2.69800    3.43000  370.64490
 3050.00000    9.17690   44.22790    0.15790  -41.21300  208.00000  -10.94020   10.27030    4.79100    6.08300   78.56260  -24.32240    9.17690   44.22790    0.15790   78.56260    4.79100    6.08300  208.72470
 3100.00000    9.40910   50.97460    0.20240  -38.80000  365.00000   -7.06860   11.18620    3.64700    3.96600   92.44780  -22.65710    9.40910   50.97460    0.20240   92.44780    3.64700    3.96600  274.19800
 3150.00000    8.88820   65.21740    0.21720  -43.21800  354.00000  -10.02800   10.00000    3.47300    3.55300   90.80330  -22.20870    8.88820   65.21740    0.21720   90.80330    3.47300    3.55300  287.93550
 3200.00000    9.01890   54.87330    0.23290  -47.09100  318.00000  -12.44240   10.24040    3.48300    4.61500   83.18050  -24.71280    9.01890   54.87330    0.23290   83.18050    3.48300    4.61500  287.10880
 3250.00000    8.32740   25.18740    0.18980 -151.58600  355.00000 -115.47880    9.08410    3.30000    8.36300   79.82070  -76.91060    8.32740   25.18740    0.18980   79.82070    3.30000    8.36300  303.03030
 3300.00000    7.30590   52.77360    0.28010  -73.26400  263.00000  -36.23120   12.65770    3.81100    5.30300   92.82640  -24.26110    7.30590   52.77360    0.28010   92.82640    3.81100    5.30300  262.39830
 3350.00000    7.48610   59.97000    0.32100  -41.19700  545.00000   -4.54360   13.07810    2.30000    2.17900  113.39950  -21.18310    7.48610   59.97000    0.32100  113.39950    2.30000    2.17900  434.78260
 3400.00000    9.25800   90.10520    0.31430  -38.67100  545.00000   -2.39710   11.47150    2.61100    2.45100  107.56050  -19.37470    9.25800   90.10520    0.31430  107.56050    2.61100    2.45100  382.99500
