~Version ---------------------------------------------------
VERS.      2.0 : CWLS log ASCII Standard -VERSION 2.0
WRAP.      YES : Multiple lines per depth step
CREA. 09/28/17 : LAS Creation Date
~Well ------------------------------------------------------
STRT.FT                  2150.0 : START DEPTH
STOP.FT                 11650.0 : STOP DEPTH
STEP.FT                50.00000 : STEP LENGTH
NULL.                   -999.25 : NULL VALUE
COMP. BURK ROYALTY COMPANY, LTD : COMPANY
WELL.               STERLING #1 : WELL
FLD .                           : FIELD
LOC .                           : LOCATION
CNTY.                   MADISON : COUNTY
STAT.                     TEXAS : STATE
CTRY.  UNITED STATES OF AMERICA : COUNTRY
SRVC.               HALLIBURTON : SERVICE COMPANY
DATE.               31-May-2014 : LOGDATE
API .            42313311010000 : API NUMBER
UWI .            42313311010000 : UNIQUE WELL ID
SLAT.WGS84     30.9882730389083 : SURFACE LATITUDE
SLON.WGS84    -95.6985448660659 : SURFACE LONGITUDE
~Curve Information -----------------------------------------
DEPT    .FT    : DEPTH FEET
CALRED  .IN    : CALIPER FROM RESISTIVITY LOG
CALWS   .IN    : CALIPER [CALRED]
CONDWS  .MMHO  : DEEP CONDUCTIVITY [1000/DRESWS]
DCALRED .IN    : DIFFERENTIAL CALIPER FROM RESISTIVITY LOG
DCORWS  .G/C3  : DENSITY CORRECTION [DRHOED]
DENWS   .G/C3  : BULK DENSITY [RHOBED]
DPHILSED.V/V   : DENSITY POROSITY (LS) [M=2.71 F=1.00]
DPOLSWS .V/V   : DENSITY POROSITY (LS) [M=2.71 F=1.00] [DPHILSED]
DRESWS  .OHMM  : DEEP RESISTIVITY [RT90ED]
DRHOED  .G/C3  : DENSITY CORRECTION FROM DENSITY LOG
GRRED   .GAPI  : GAMMA RAY FROM RESISTIVITY LOG
GRWS    .GAPI  : GAMMA RAY [GRRED]
MINVED  .OHMM  : MICROINVERSE RESISTIVITY
MNORED  .OHMM  : MICRONORMAL RESISTIVITY
MRESWS  .OHMM  : MEDIUM RESISTIVITY [RT30ED]
NPHILSED.V/V   : NEUTRON POROSITY LIMESTONE
NPOLSWS .V/V   : NEUTRON POROSITY LIMESTONE [NPHILSED]
PEED    .B/E   : PHOTOELECTRIC FACTOR FROM DENSITY LOG
PEFWS   .B/E   : PHOTOELECTRIC FACTOR [PEED]
RHOBED  .G/C3  : BULK DENSITY FROM DENSITY LOG
RT10ED  .OHMM  : 10 INCH RESISTIVITY TWO FOOT RESOLUTION
RT20ED  .OHMM  : 20 INCH RESISTIVITY TWO FOOT RESOLUTION
RT30ED  .OHMM  : 30 INCH RESISTIVITY TWO FOOT RESOLUTION
RT60ED  .OHMM  : 60 INCH RESISTIVITY TWO FOOT RESOLUTION
RT90ED  .OHMM  : 90 INCH RESISTIVITY TWO FOOT RESOLUTION
SPRED   .MV    : SPONTANEOUS POTENTIAL FROM RESISTIVITY LOG
SPWS    .MV    : SPONTANEOUS POTENTIAL [BASELINE 0 MV] [SPRED]
SRESWS  .OHMM  : SHALLOW RESISTIVITY [RT10ED]
TENRED  .LBF   : TENSION FROM RESISTIVITY LOG
~Params ----------------------------------------------------
PD  .                     GL : PERMANENT DATUM
EPD .FT                  159 : ELEVATION PERMANENT DATUM
LMF .                     KB : LOG MEASURED FROM
DAPD.FT                   30 : FEET ABOVE PERMANENT DATUM
DMF .                     KB : DRILLING MEASURED FROM
EKB .FT                  189 : KELLY BUSHING
EDF .FT                  188 : DRILLING FLOOR
EGL .FT                  159 : GROUND LEVEL
DATE.              5/31/2014 : RUN DATE
RUN .                      1 : RUN NUMBER
DD  .FT                11688 : DEPTH DRILLER
DL  .FT                11682 : DEPTH LOGGER
BLI .FT                11679 : BOTTOM LOG INTERVAL
TLI .FT                 2195 : TOP LOG INTERVAL
CS  .IN                9.625 : CASING SIZE
CBD .FT                 2195 : CASING BOTTOM DRILLER
CBL .FT                 2195 : CASING BOTTOM LOGGER
BS  .IN                 8.75 : BIT SIZE
BSD .FT                11688 : BIT SIZE AT DEPTH
DFT .        WATER BASED MUD : DRILLING FLUID TYPE
DFD .                    9.8 : DRILLING FLUID DENSITY
DFV .                     65 : DRILLING FLUID VISCOSITY
DFPH.                    9.4 : DRILLING FLUID PH
DFL .                    4.4 : DRILLING FLUID LOSS
MSS .               MUD TANK : MUD SAMPLE SOURCE
RMS .OHMM               1.31 : RESISTIVITY MUD SAMPLE
MST .DEGF                 71 : MUD SAMPLE TEMPERATURE
RMF .OHMM               1.12 : RESISTIVITY MUD FILTRATE SAMPLE
MFST.DEGF                 72 : MUD FILTRATE SAMPLE TEMPERATURE
RMC .OHMM               1.83 : RESISTIVITY MUD CAKE
MCST.DEGF                 72 : MUD CAKE SAMPLE TEMPERATURE
MFSS.                   MEAS : MUD FILTRATE SAMPLE SOURCE
MCSS.                   MEAS : MUD CAKE SAMPLE SOURCE
RMB .OHMM               0.73 : RESISTIVITY MUD AT BHT
TCS .HRS                 700 : TIME CIRCULATED STOPPED
TLAB.HRS                 630 : TIME LOGGER AT BOTTOM
LUN .               10549594 : LOGGING UNIT NUMBER
LUL .                KILGORE : LOGGING UNIT LOCATION
ENGI.                 ALLALI : RECORDING ENGINEER
WITN.                KIMBELL : WITNESSED BY
CLNT.                A2DTECH : CLIENT CODE
ORIG.       1", 2", 5" PRINT : ORIGIN OF DATA
UWI .         42313311010000 : UNIQUE WELL ID
DICO. A2D Technologies, Inc. : DIGITIZING COMPANY
~Other -----------------------------------------------------
ALL LOGS RAN ON COMBO.
LOADED ALL CURVES FROM BOREHOLE DATA SET.
GAPS ON CURVES AROUND 11450'-11510' DUE TO TOOL PULLED.
~ASCII -----------------------------------------------------
# ...
 9650.00000   11.90860   11.90860  279.16590    3.15860    0.30820    2.33170    0.22120    0.22120    3.58210    0.30820   67.62550   67.62550    1.12010    0.77810    3.19690    0.42260    0.42260    5.47430    5.47430    2.33170    2.94660    3.07240    3.19690    3.38280    3.58210   -5.27250   -6.07780    2.94660 4947.74460
 9700.00000   12.87250   12.87250  397.63010    4.12250    0.18270    2.04910    0.38650    0.38650    2.51490    0.18270   69.63280   69.63280    0.76600    0.64160    2.13510    0.44980    0.44980    5.93850    5.93850    2.04910    1.55830    1.85520    2.13510    2.34590    2.51490   -7.94150   -9.62000    1.55830 5024.06490
 9750.00000    9.31130    9.31130  255.19970    0.56130    0.13530    2.13480    0.33630    0.33630    3.91850    0.13530   62.78340   62.78340    0.87240    1.03630    3.74710    0.25960    0.25960    5.42020    5.42020    2.13480    3.36640    3.50650    3.74710    3.90650    3.91850  -17.95530  -20.05320    3.36640 5172.61380
 9800.00000    8.70980    8.70980   25.39530   -0.04020    0.05490    2.69330    0.00980    0.00980   39.37740    0.05490   11.02680   11.02680   24.15900   10.88390   44.54820    0.02710    0.02710    4.62410    4.62410    2.69330   55.12220   50.17680   44.54820   41.21540   39.37740  -38.50410  -40.76620   55.12220 5003.80570
 9850.00000    8.72100    8.72100   25.33260   -0.02900    0.02680    2.69590    0.00830    0.00830   39.47490    0.02680   17.25220   17.25220   47.21290   27.56270   40.07960    0.01830    0.01830    4.76100    4.76100    2.69590   40.22410   40.16470   40.07960   39.93410   39.47490  -44.02520  -46.45150   40.22410 5134.54790
 9900.00000    8.68540    8.68540   12.65850   -0.06460    0.01180    2.68670    0.01360    0.01360   78.99810    0.01180    9.84680    9.84680   48.27160   32.40720   78.25740    0.01110    0.01110    4.39300    4.39300    2.68670   91.91080   82.38230   78.25740   79.42130   78.99810  -65.65100  -68.24160   91.91080 5193.87600
 9950.00000    8.67500    8.67500   24.53080   -0.07500    0.01460    2.70770    0.00140    0.00140   40.76500    0.01460   13.48850   13.48850   34.10740   37.70180   42.25060    0.01000    0.01000    4.97450    4.97450    2.70770   42.39700   42.33700   42.25060   42.08460   40.76500  -57.51410  -60.26890   42.39700 5163.00390
 10000.00000    8.67930    8.67930   36.87070   -0.07070   -0.00360    2.69580    0.00830    0.00830   27.12180   -0.00360   17.55740   17.55740   47.34930   22.66800   27.92440    0.01790    0.01790    4.35710    4.35710    2.69580   28.35120   28.13580   27.92440   27.73790   27.12180  -30.48300  -33.40200   28.35120 5303.98240
 10050.00000    8.68470    8.68470   14.31950   -0.06530   -0.00540    2.67000    0.02340    0.02340   69.83480   -0.00540    7.75130    7.75130   50.71860   28.81900   65.94930    0.00930    0.00930    4.42780    4.42780    2.67000   59.29640   62.00110   65.94930   70.08140   69.83480  -87.19700  -90.28020   59.29640 5330.09030
 10100.00000    8.65190    8.65190   18.77160   -0.09810    0.00250    2.68310    0.01570    0.01570   53.27190    0.00250   13.85470   13.85470   67.43810   39.59140   52.80840    0.01390    0.01390    4.20510    4.20510    2.68310   57.92100   54.68670   52.80840   53.79190   53.27190  -59.28770  -62.53510   57.92100 5297.51950
 10150.00000    8.32240    8.32240   22.36870   -0.42760    0.05770    2.71110   -0.00060   -0.00060   44.70540    0.05770   19.67320   19.67320    2.89870    3.41230   45.37380    0.01950    0.01950    4.92600    4.92600    2.71110   45.85390   45.64790   45.37380   45.73470   44.70540  -56.24300  -59.65470   45.85390 5386.78860
 10200.00000    8.62070    8.62070    8.22060   -0.12930    0.02140    2.71500   -0.00290   -0.00290  121.64590    0.02140   11.84060   11.84060   55.09610   45.06210   99.05130    0.01040    0.01040    4.77690    4.77690    2.71500   84.93230   91.78410   99.05130  113.42400  121.64590  -92.13890  -95.71480   84.93230 5386.42330
 10250.00000    8.64460    8.64460  121.13140   -0.10540    0.01850    2.67170    0.02240    0.02240    8.25550    0.01850   67.86960   67.86960   15.48620    6.89150    8.81850    0.07240    0.07240    4.23820    4.23820    2.67170    9.67720    9.28990    8.81850    8.41310    8.25550   -1.20720   -4.94730    9.67720 5445.93990
 10300.00000    8.67820    8.67820  200.31250   -0.07180    0.04390    2.65320    0.03320    0.03320    4.99220    0.04390   54.03530   54.03530   10.88930    5.83490    5.19670    0.11890    0.11890    4.00570    4.00570    2.65320    5.86500    5.41220    5.19670    5.09800    4.99220   -0.57170   -4.18730    5.86500 5407.04790
 10350.00000    8.67610    8.67610  194.41260   -0.07390    0.01160    2.64640    0.03720    0.03720    5.14370    0.01160   54.23870   54.23870    8.58910    3.15040    5.40850    0.11090    0.11090    3.84540    3.84540    2.64640    5.92350    5.63370    5.40850    5.27390    5.14370   -4.04840   -7.43790    5.92350 5447.18950
 10400.00000    8.62590    8.62590  271.48090   -0.12410    0.04740    2.61930    0.05300    0.05300    3.68350    0.04740   55.07280   55.07280    2.96500    2.12730    3.82390    0.15630    0.15630    4.08340    4.08340    2.61930    4.28300    4.04150    3.82390    3.74090    3.68350   -3.80100   -6.96450    4.28300 5496.09330
 10450.00000    8.64330    8.64330   98.40200   -0.10670    0.02540    2.68330    0.01560    0.01560   10.16240    0.02540   51.63460   51.63460    9.97430    6.81150   10.75880    0.06360    0.06360    4.18140    4.18140    2.68330   12.10010   11.38520   10.75880   10.46900   10.16240   -8.62870  -11.56620   12.10010 5542.96830
 10500.00000    8.64590    8.64590  166.30630   -0.10410    0.01700    2.70160    0.00490    0.00490    6.01300    0.01700   40.58750   40.58750   18.39260    8.11380    6.44560    0.08240    0.08240    4.38280    4.38280    2.70160    7.64270    6.88180    6.44560    6.22960    6.01300  -20.99840  -23.70990    7.64270 5606.65920
 10550.00000    8.59500    8.59500   43.08100   -0.15500    0.03370    2.71590   -0.00340   -0.00340   23.21210    0.03370   48.80670   48.80670   24.66720   23.13920   23.87780    0.03790    0.03790    4.23080    4.23080    2.71590   26.38370   25.59870   23.87780   22.83910   23.21210  -12.34340  -14.82890   26.38370 5674.29980
 10600.00000    8.62180    8.62180  127.04060   -0.12820    0.00470    2.64370    0.03880    0.03880    7.87150    0.00470   44.10710   44.10710   10.33610    4.17910    8.15780    0.09030    0.09030    3.99920    3.99920    2.64370    9.11800    8.54500    8.15780    8.02700    7.87150  -22.75160  -25.01110    9.11800 5625.56250
 10650.00000    8.62830    8.62830   39.85000   -0.12170    0.00960    2.67180    0.02230    0.02230   25.09410    0.00960   29.52000   29.52000   27.99120   15.67250   27.58020    0.02800    0.02800    4.41040    4.41040    2.67180   32.31970   30.33740   27.58020   25.81980   25.09410  -34.30420  -36.33770   32.31970 5593.14500
 10700.00000    8.62670    8.62670  140.64500   -0.12330    0.01810    2.70250    0.00440    0.00440    7.11010    0.01810   37.04750   37.04750   11.48810    7.32860    7.51730    0.06950    0.06950    4.30170    4.30170    2.70250    8.28610    7.93730    7.51730    7.29860    7.11010  -10.98150  -12.97430    8.28610 5559.92580
 10750.00000    8.49050    8.49050  312.43170   -0.25950    0.05900    2.67570    0.02000    0.02000    3.20070    0.05900   56.84280   56.84280    4.09740    1.86630    3.29340    0.15110    0.15110    3.62730    3.62730    2.67570    3.48800    3.43740    3.29340    3.22890    3.20070   -4.63540   -6.62820    3.48800 5674.20650
 10800.00000    9.64230    9.64230  804.57000    0.89230    0.25960    2.39300    0.18540    0.18540    1.24290    0.25960   78.77430   78.77430    0.69650    0.67140    1.29760    0.34440    0.34440    4.65940    4.65940    2.39300    1.26490    1.33530    1.29760    1.26560    1.24290   -4.43500   -6.42780    1.26490 5626.02200
 10850.00000    8.57240    8.57240  156.51660   -0.17760    0.05380    2.66100    0.02870    0.02870    6.38910    0.05380   29.58110   29.58110    7.20860    4.09280    6.58610    0.07110    0.07110    4.18370    4.18370    2.66100    7.07070    7.08760    6.58610    6.39870    6.38910   -7.11970   -9.34980    7.07070 5514.75980
