~Version ---------------------------------------------------
VERS.      2.0 : CWLS log ASCII Standard -VERSION 2.0
WRAP.      YES : Multiple lines per depth step
CREA. 02/26/13 : LAS Creation Date
~Well ------------------------------------------------------
STRT.FT                 2300.0 : START DEPTH
STOP.FT                 9950.0 : STOP DEPTH
STEP.FT               50.00000 : STEP LENGTH
NULL.                  -999.25 : NULL VALUE
COMP.       APACHE CORPORATION : COMPANY
WELL.             C. BARRON #3 : WELL
FLD .                   JEWETT : FIELD
LOC .                          : LOCATION
CNTY.                     LEON : COUNTY
STAT.                    TEXAS : STATE
CTRY. UNITED STATES OF AMERICA : COUNTRY
SRVC.             Schlumberger : SERVICE COMPANY
DATE.              10-Jan-1991 : LOGDATE
API .           42289310950000 : API NUMBER
UWI .           42289310950000 : UNIQUE WELL ID
SLAT.WGS84       31.3592876733 : SURFACE LATITUDE
SLON.WGS84      -96.1250620138 : SURFACE LONGITUDE
~Curve Information -----------------------------------------
DEPT    .FT    : DEPTH FEET
CALDED  .IN    : CALIPER FROM DENSITY LOG
CALWS   .IN    : CALIPER [CALDED]
CONDWS  .MMHO  : CONDUCTIVITY [1000/DRESWS]
DCALED  .IN    : DIFFERENTIAL CALIPER FROM RESISTIVITY LOG
DCORWS  .G/C3  : DENSITY CORRECTION [DRHOED]
DENWS   .G/C3  : FORMATION BULK DENSITY [RHOBED]
DPHILSED.V/V   : DENSITY POROSITY LIME [M=2.71, F=1.0] FROM DENSITY LOG
DPOWS   .V/V   : DENSITY POROSITY LIME [DPHILSED]
DRESWS  .OHMM  : DEEP RESISTIVITY [ILDED]
DRHOED  .G/C3  : BULK DENSITY CORRECTION FROM DENSITY LOG
GRDED   .GAPI  : GAMMA RAY FROM DENSITY LOG
GRWS    .GAPI  : GAMMA RAY [GRDED]
ILDED   .OHMM  : DEEP INDUCTION FROM RESISTIVITY LOG
ILMED   .OHMM  : MEDIUM INDUCTION FROM RESISTIVITY LOG
MRESWS  .OHMM  : MEDIUM RESISTIVITY [ILMED]
NPHILSED.V/V   : NEUTRON POROSITY LIME FROM DENSITY LOG
NPOWS   .V/V   : NEUTRON POROSITY LIME [NPHILSED]
PEFED   .B/E   : PHOTOELECTRIC FACTOR FROM DENSITY LOG
PEFWS   .B/E   : PHOTOELECTRIC FACTOR [PEFED]
RHOBED  .G/C3  : BULK DENSITY FROM DENSITY LOG
SFLUED  .OHMM  : SHALLOW FOCUSED RESISTIVITY (UNAVERAGED) FROM RESISTIVITY LOG
SPRED   .MV    : SPONTANEOUS POTENTIAL FROM RESISTIVITY LOG
SPWS    .MV    : SPONTANEOUS POTENTIAL [BASELINE 0 MV, SPRED]
SRESWS  .OHMM  : SHALLOW RESISTIVITY [SFLUED]
TENDED  .LBF   : TENSION FROM DENSITY LOG
~Params ----------------------------------------------------
PD  .                     GL : PERMANENT DATUM
EPD .FT                  485 : ELEVATION PERMANENT DATUM
LMF .                     KB : LOG MEASURED FROM
DAPD.FT                   12 : FEET ABOVE PERMANENT DATUM
DMF .                     KB : DRILLING MEASURED FROM
EKB .FT                  497 : KELLY BUSHING
EDF .FT                  498 : DRILLING FLOOR
EGL .FT                  485 : GROUND LEVEL
DATE.               01/10/91 : RUN DATE
RUN .                      1 : RUN NUMBER
DD  .FT                 9950 : DEPTH DRILLER
DL  .FT                 9957 : DEPTH LOGGER
BLI .FT                 9946 : BOTTOM LOG INTERVAL
TLI .FT                 2234 : TOP LOG INTERVAL
CS  .IN                9.625 : CASING SIZE
CBD .FT                 2298 : CASING BOTTOM DRILLER
CBL .FT                 2294 : CASING BOTTOM LOGGER
BS  .IN                 6.75 : BIT SIZE
BSD .FT                 9950 : BIT SIZE AT DEPTH
DFT .           LIGHTLY DISP : DRILLING FLUID TYPE
DFD .                   10.3 : DRILLING FLUID DENSITY
DFV .                     60 : DRILLING FLUID VISCOSITY
DFPH.                    9.5 : DRILLING FLUID PH
DFL .                     74 : DRILLING FLUID LOSS
MSS .               FLOWLINE : MUD SAMPLE SOURCE
RMS .OHMM               2.45 : RESISTIVITY MUD SAMPLE
MST .DEGF                 75 : MUD SAMPLE TEMPERATURE
MFST.DEGF                 75 : MUD FILTRATE SAMPLE TEMPERATURE
RMC .OHMM               2.75 : RESISTIVITY MUD CAKE
MCST.DEGF                 75 : MUD CAKE SAMPLE TEMPERATURE
MFSS.                   MEAS : MUD FILTRATE SAMPLE SOURCE
MCSS.                   CALC : MUD CAKE SAMPLE SOURCE
RMB .OHMM                885 : RESISTIVITY MUD AT BHT
TCS .HRS                1700 : TIME CIRCULATED STOPPED
LUN .                   8407 : LOGGING UNIT NUMBER
LUL .                  TYLER : LOGGING UNIT LOCATION
CLNT.                A2DTECH : CLIENT CODE
ORIG.          1" 2.5" PRINT : ORIGIN OF DATA
UWI .         42289310950000 : UNIQUE WELL ID
DICO. A2D Technologies, Inc. : DIGITIZING COMPANY
~Other -----------------------------------------------------
TOOL RUN:DISFL-CN-LDT LOG
~ASCII -----------------------------------------------------
# ...
 6500.00000   11.85120   11.85120  197.17640    3.11560    0.03990    2.55150    0.09800    0.09800    5.07160    0.03990   44.82800   44.82800    5.07160    3.77450    3.77450    0.13740    0.13740    3.57120    3.57120    2.55150    4.54690  -36.93790   -4.39410    4.54690 3046.94430
 6550.00000   10.54280   10.54280   59.09820    1.85520   -0.00900    2.64730    0.03560    0.03560   16.92100   -0.00900   22.94120   22.94120   16.92100   18.03680   18.03680    0.01840    0.01840    4.79330    4.79330    2.64730   20.05930  -41.19180   -5.80500   20.05930 3027.95430
 6600.00000   10.62210   10.62210   57.18170    1.87980    0.01150    2.64080    0.03410    0.03410   17.48810    0.01150   13.12980   13.12980   17.48810   18.06490   18.06490    0.01130    0.01130    5.16120    5.16120    2.64080   22.59240  -61.17980  -23.94140   22.59240 3040.96680
 6650.00000   10.79990   10.79990   71.69330    2.06530    0.00690    2.64800    0.03570    0.03570   13.94830    0.00690   16.60430   16.60430   13.94830   13.55970   13.55970    0.01650    0.01650    4.53760    4.53760    2.64800   18.16420  -54.62990  -17.85280   18.16420 3041.62430
 6700.00000   10.64220   10.64220   66.66620    1.94600   -0.00050    2.63210    0.04430    0.04430   15.00010   -0.00050   15.34720   15.34720   15.00010   16.65410   16.65410    0.01700    0.01700    4.66900    4.66900    2.63210   19.52050  -49.67640  -13.36060   19.52050 3071.17700
 6750.00000   10.35130   10.35130   80.75200    1.60740    0.00330    2.62420    0.04680    0.04680   12.38360    0.00330   18.06520   18.06520   12.38360   14.88440   14.88440    0.01990    0.01990    4.62840    4.62840    2.62420   23.40180  -49.56610  -14.48350   23.40180 3051.74170
 6800.00000   10.65450   10.65450   66.70270    1.95910    0.00560    2.64930    0.03550    0.03550   14.99190    0.00560   16.09180   16.09180   14.99190   13.35500   13.35500    0.01450    0.01450    4.86990    4.86990    2.64930   21.65950  -49.72440  -16.51250   21.65950 3929.26930
 6850.00000   11.07300   11.07300  149.72300    2.33010   -0.00430    2.65640    0.03020    0.03020    6.67900   -0.00430   32.10570   32.10570    6.67900    6.94540    6.94540    0.07000    0.07000    4.39410    4.39410    2.65640    6.53970  -34.08700   -2.32770    6.53970 3109.60160
 6900.00000   10.85850   10.85850  172.03120    2.16320    0.00000    2.63150    0.05360    0.05360    5.81290    0.00000   33.42650   33.42650    5.81290    6.05720    6.05720    0.09460    0.09460    4.56720    4.56720    2.63150    6.40170  -37.35100   -4.60390    6.40170 3085.42290
 6950.00000   10.29360   10.29360   80.90610    1.57680   -0.00670    2.65520    0.02620    0.02620   12.36000   -0.00670   20.65470   20.65470   12.36000   15.45490   15.45490    0.03180    0.03180    4.51940    4.51940    2.65520   29.96250  -34.98650   -4.10080   29.96250 3076.73120
 7000.00000   13.00740   13.00740  532.70830    4.32930    0.01290    2.45780    0.13580    0.13580    1.87720    0.01290   65.27590   65.27590    1.87720    2.17440    2.17440    0.15820    0.15820    3.30350    3.30350    2.45780    5.66310  -31.68350   -1.97240    5.66310 3185.81740
 7050.00000   11.24000   11.24000   59.85160    2.53300    0.00020    2.66990    0.02040    0.02040   16.70800    0.00020   32.30310   32.30310   16.70800   18.60210   18.60210    0.01580    0.01580    4.46660    4.46660    2.66990   27.76280  -51.22530  -22.30610   27.76280 3399.40970
 7100.00000   11.21870   11.21870  303.96980    2.52270   -0.00020    2.50380    0.13380    0.13380    3.28980   -0.00020   55.05550   55.05550    3.28980    3.61570    3.61570    0.16440    0.16440    3.61110    3.61110    2.50380    3.20830  -31.42180   -3.33070    3.20830 3437.29390
 7150.00000   11.84390   11.84390  150.48230    3.09070   -0.01060    2.59080    0.07130    0.07130    6.64530   -0.01060   40.32950   40.32950    6.64530    7.77480    7.77480    0.04450    0.04450    4.13400    4.13400    2.59080   11.86360  -31.24830   -4.18880   11.86360 3504.33590
 7200.00000   10.50950   10.50950  118.50310    1.78880   -0.00300    2.64520    0.03670    0.03670    8.43860   -0.00300   40.28560   40.28560    8.43860    9.16260    9.16260    0.05200    0.05200    4.05970    4.05970    2.64520   11.00440  -32.61280   -4.72710   11.00440 3500.62450
 7250.00000   10.68850   10.68850  478.35450    1.93330    0.04130    2.60130    0.05050    0.05050    2.09050    0.04130   56.31660   56.31660    2.09050    2.72020    2.72020    0.09680    0.09680    3.75570    3.75570    2.60130    4.66770  -33.29760   -5.15390    4.66770 3456.94040
 7300.00000   15.58870   15.58870  609.53310    6.84640    0.14580    2.24130    0.27670    0.27670    1.64060    0.14580   72.22690   72.22690    1.64060    1.72160    1.72160    0.34990    0.34990    2.77110    2.77110    2.24130    1.91070  -32.51590   -4.89880    1.91070 3570.01930
 7350.00000   10.41110   10.41110  126.23230    1.60780    0.08440    2.60920    0.04560    0.04560    7.92190    0.08440   35.26410   35.26410    7.92190    9.11430    9.11430    0.05140    0.05140    4.42870    4.42870    2.60920   12.07630  -30.83100   -3.74060   12.07630 3475.20040
 7400.00000   10.99690   10.99690  242.49480    2.28850    0.05120    2.55100    0.08680    0.08680    4.12380    0.05120   43.07050   43.07050    4.12380    4.40040    4.40040    0.12670    0.12670    3.86290    3.86290    2.55100    4.93990  -28.20430   -1.64070    4.93990 3561.00460
 7450.00000   15.24020   15.24020  649.73040    6.47120    0.12870    2.17940    0.31210    0.31210    1.53910    0.12870   55.35010   55.35010    1.53910    1.65110    1.65110    0.24290    0.24290    2.72840    2.72840    2.17940    3.05340  -31.09340   -4.93420    3.05340 3635.00950
 7500.00000   15.53700   15.53700  852.00650    6.62640    0.11300    2.22720    0.27780    0.27780    1.17370    0.11300   48.12360   48.12360    1.17370    1.30870    1.30870    0.30700    0.30700    3.13190    3.13190    2.22720    2.69850  -32.88690   -7.00980    2.69850 3661.81450
 7550.00000   11.73710   11.73710  329.96770    2.93390    0.01830    2.43870    0.15720    0.15720    3.03060    0.01830   41.42790   41.42790    3.03060    3.33340    3.33340    0.09480    0.09480    3.60260    3.60260    2.43870    6.21360  -31.13940   -5.22480    6.21360 3720.32030
 7600.00000   13.78000   13.78000 1014.91930    4.93120    0.08070    2.10430    0.35380    0.35380    0.98530    0.08070   54.29360   54.29360    0.98530    1.07770    1.07770    0.36100    0.36100    2.89900    2.89900    2.10430    1.57790  -32.96350   -6.69230    1.57790 3665.42720
 7650.00000   10.85310   10.85310  167.94300    2.08020    0.01820    2.60060    0.06050    0.06050    5.95440    0.01820   31.24500   31.24500    5.95440    6.32410    6.32410    0.10710    0.10710    4.00580    4.00580    2.60060    7.78830  -29.72030   -2.91400    7.78830 3653.91630
 7700.00000   11.42940   11.42940  112.44040    2.65870   -0.00220    2.64330    0.03940    0.03940    8.89360   -0.00220   25.77950   25.77950    8.89360    9.89070    9.89070    0.07840    0.07840    4.68260    4.68260    2.64330   15.62470  -29.90570   -3.76590   15.62470 3688.04370
 7750.00000   11.82980   11.82980  308.26140    3.09810   -0.00900    2.63210    0.04560    0.04560    3.24400   -0.00900   35.24680   35.24680    3.24400    3.39260    3.39260    0.16620    0.16620    4.16180    4.16180    2.63210    3.94830  -28.97820   -2.03270    3.94830 3653.78080
 7800.00000   11.09930   11.09930  167.57160    2.37120   -0.01660    2.64410    0.03720    0.03720    5.96760   -0.01660   30.47680   30.47680    5.96760    6.33680    6.33680    0.08070    0.08070    4.32150    4.32150    2.64410    8.46920  -31.32250   -4.04300    8.46920 3679.77560
 7850.00000   11.38750   11.38750  189.31860    2.63920   -0.00620    2.65520    0.03090    0.03090    5.28210   -0.00620   38.44300   38.44300    5.28210    5.50970    5.50970    0.11360    0.11360    4.23070    4.23070    2.65520    6.14450  -30.39930   -2.78580    6.14450 3720.87720
