~Version ---------------------------------------------------
VERS. 2.0 : CWLS log ASCII Standard -VERSION 2.0
WRAP.  NO : ONE LINE PER DEPTH STEP
~Well ------------------------------------------------------
STRT.F                     300.0 : START DEPTH
STOP.F                   14450.0 : STOP DEPTH
STEP.F                  50.00000 : STEP LENGTH
NULL.                    -999.25 : NULL VALUE
COMP. CHAMPLIN PETROLEUM COMPANY : COMPANY
WELL.          LEDWIG CAROLYN #1 : WELL
FLD .      YORKTOWN-N.E. EDWARDS : FIELD
LOC .                            : LOCATION
CNTY.                    DE WITT : COUNTY
STAT.                      TEXAS : STATE
CTRY.   UNITED STATES OF AMERICA : COUNTRY
SRVC.               Schlumberger : SERVICE COMPANY
DATE.                01-Jan-1979 : LOGDATE
API .             42123309360000 : API NUMBER
UWI .             42123309360000 : UNIQUE WELL ID
SLAT.WGS84         29.0138346697 : SURFACE LATITUDE
SLON.WGS84        -97.4746712486 : SURFACE LONGITUDE
~Curve Information -----------------------------------------
DEPT .F                 : 
CILD .MMHO 07 110 46 00 : CONDUCTIVITY INDUCTION LOG DEEP
LL8  .OHMM 07 220 08 00 : LATEROLOG-8 RES.
GRR  .GAPI 07 310 01 00 : GAMMA RAY FROM RES. LOG
ILM  .OHMM 07 120 44 00 : INDUCTION LOG MEDIUM
SFLU .OHMM 07 220 01 00 : SPHERICALLY FOCUSED LOG UNAVERAGED RESISTIVITY
ILD  .OHMM 07 120 46 00 : INDUCTION LOG DEEP
DT   .US/F 60 520 00 00 : INTERVAL TRANSIT TIME
SPR  .MV   07 010 01 00 : SPONTANEOUS POTENTIAL FROM RES. LOG
CALD .IN   45 280 60 00 : CALIPER FROM DENSITY LOG
CORR .G/C3 45 356 01 00 : DENSITY CORRECTION
GRD  .GAPI 45 310 01 00 : GAMMA RAY FROM DENSITY LOG
DPHI .DEC  45 890 12 00 : DENSITY POROSITY SANDSTONE MATRIX CHANGE TO AT 13170 LIMESTONE
NPHI .DEC  42 890 03 00 : NEUTRON POROSITY SANDSTONE MATRIX CHANGE AT 13170 TO LIMESTONE
RHOB .G/C3 45 350 01 00 : BULK DENSITY
ASFL .OHMM 07 221 06 00 : AMPLIFIED SHALLOW FOCUSED LOG RESISTIVITY
RILD .OHMM 07 120 46 00 : INDUCTION LOG DEEP RESISTIVITY
NEUT .NAPI 35 330 01 00 : NEUTRON
GRN  .GAPI 35 310 01 00 : GAMMA RAY
NEUT1.NAPI 35 330 01 00 : NEUTRON DEFAULT SCALE & UNIT 0/1000
GRN1 .GAPI 35 310 01 00 : GAMMA RAY DEFAULT SCALE & UNIT 0/100
~Params ----------------------------------------------------
PD  .                     GL : PERMANENT DATUM
EPD .FT                355.1 : ELEVATION PERMANENT DATUM
LMF .                     KB : LOG MEASURED FROM
DAPD.FT                   20 : FEET ABOVE PERMANENT DATUM
DMF .                     KB : DRILLING MEASURED FROM
EKB .FT                375.1 : KELLY BUSHING
EDF .FT                374.1 : DRILLING FLOOR
EGL .FT                355.1 : GROUND LEVEL
DATE.               01/01/79 : RUN DATE
RUN .                      3 : RUN NUMBER
DD  .FT                14460 : DEPTH DRILLER
DL  .FT                14470 : DEPTH LOGGER
BLI .FT                14460 : BOTTOM LOG INTERVAL
TLI .FT                 9970 : TOP LOG INTERVAL
CS  .IN                10.75 : CASING SIZE
CBD .FT                 2500 : CASING BOTTOM DRILLER
BS  .IN                 8.75 : BIT SIZE
BSD .FT                14460 : BIT SIZE AT DEPTH
DFT .        IMCO SALT WATER : DRILLING FLUID TYPE
DFD .                   11.3 : DRILLING FLUID DENSITY
DFV .                     60 : DRILLING FLUID VISCOSITY
DFPH.                  11.35 : DRILLING FLUID PH
DFL .                    7.6 : DRILLING FLUID LOSS
MSS .               CIRC PIT : MUD SAMPLE SOURCE
RMS .OHMM              0.104 : RESISTIVITY MUD SAMPLE
MST .DEGF                 48 : MUD SAMPLE TEMPERATURE
RMF .OHMM              0.079 : RESISTIVITY MUD FILTRATE SAMPLE
MFST.DEGF                 48 : MUD FILTRATE SAMPLE TEMPERATURE
RMC .OHMM              0.156 : RESISTIVITY MUD CAKE
MCST.DEGF                 48 : MUD CAKE SAMPLE TEMPERATURE
MFSS.                      M : MUD FILTRATE SAMPLE SOURCE
MCSS.                      C : MUD CAKE SAMPLE SOURCE
RMB .OHMM              0.016 : RESISTIVITY MUD AT BHT
MRT .DEGF                304 : MAXIMUM RECORDED TEMPERATURE
LUN .                   8015 : LOGGING UNIT NUMBER
LUL .               VICTORIA : LOGGING UNIT LOCATION
ENGI.               BUCHANAN : RECORDING ENGINEER
WITN.              PRITCHARD : WITNESSED BY
CLNT.                A2DTECH : CLIENT CODE
ORIG.            2" 5" PRINT : ORIGIN OF DATA
UWI .         42123309360000 : UNIQUE WELL ID
DICO. A2D Technologies, Inc. : DIGITIZING COMPANY
~Other -----------------------------------------------------
~ASCII -----------------------------------------------------
# ...
 7300.00000    -999.25    1.40250   73.05390    1.24750    -999.25    1.92790   82.55150   15.30760    9.75990    0.03310   81.87480    0.15500    0.26620    2.42190    -999.25    -999.25    -999.25    -999.25    -999.25    -999.25
 7350.00000    -999.25    0.67690   54.93620    0.99350    -999.25    1.47840   80.69370   13.26480    9.58120    0.02690   63.22950    0.20450    0.26530    2.35290    -999.25    -999.25    -999.25    -999.25    -999.25    -999.25
 7400.00000    -999.25    1.04600   97.18200    2.11240    -999.25    2.87590   82.10770   11.33770    9.82630    0.06140   92.84830    0.12130    0.30690    2.47990    -999.25    -999.25    -999.25    -999.25    -999.25    -999.25
 7450.00000    -999.25    0.97840   93.56290    2.50460    -999.25    3.44700   82.01820    3.36460   10.61620    0.02060  103.68910    0.08760    0.24470    2.54170    -999.25    -999.25    -999.25    -999.25    -999.25    -999.25
 7500.00000    -999.25    0.87020   86.82630    2.58520    -999.25    2.90320   85.60810   -0.33930   10.52980    0.01690  103.59680    0.09370    0.26320    2.51940    -999.25    -999.25    -999.25    -999.25    -999.25    -999.25
 7550.00000    -999.25    0.76510   97.50860    1.71830    -999.25    1.99630   94.63380   -1.60770   10.85780    0.01160  107.76410    0.11140    0.32200    2.49310    -999.25    -999.25    -999.25    -999.25    -999.25    -999.25
 7600.00000    -999.25    0.85190   80.03960    2.26410    -999.25    2.67630   85.84260    0.27410   10.50120   -0.00080   97.01660    0.13270    0.26800    2.46160    -999.25    -999.25    -999.25    -999.25    -999.25    -999.25
 7650.00000    -999.25    1.10240   72.09820    1.40950    -999.25    1.90540   82.36410   12.71280    9.57570    0.05960   70.29440    0.14730    0.26810    2.43090    -999.25    -999.25    -999.25    -999.25    -999.25    -999.25
 7700.00000    -999.25    0.89750   81.71160    3.24180    -999.25    3.43210   83.63270    2.41210   10.05360    0.01270   94.23040    0.12850    0.26840    2.46830    -999.25    -999.25    -999.25    -999.25    -999.25    -999.25
 7750.00000    -999.25    0.89850   91.33860    3.05880    -999.25    3.39860   87.22760    3.51650    9.88490    0.02730   97.34010    0.10450    0.31150    2.51300    -999.25    -999.25    -999.25    -999.25    -999.25    -999.25
 7800.00000    -999.25    0.80840   53.96800    2.45450    -999.25    2.89520   75.36970    7.10270    9.94050    0.03380   71.25400    0.12780    0.24660    2.47230    -999.25    -999.25    -999.25    -999.25    -999.25    -999.25
 7850.00000    -999.25    0.97400   87.47510    3.07950    -999.25    3.31360   80.71080    7.72600    9.91470    0.01100  103.41970    0.11730    0.26250    2.47700    -999.25    -999.25    -999.25    -999.25    -999.25    -999.25
 7900.00000    -999.25    0.93850   76.58940    4.22380    -999.25    4.18450   80.31080    0.43500    9.90750    0.01440   86.17020    0.09170    0.25110    2.52710    -999.25    -999.25    -999.25    -999.25    -999.25    -999.25
 7950.00000    -999.25    0.62620   65.71860    1.32500    -999.25    1.53580   79.15320   16.76250    9.41090    0.05910   78.07360    0.17460    0.28140    2.39060    -999.25    -999.25    -999.25    -999.25    -999.25    -999.25
 8000.00000    -999.25    0.92680   88.77250    2.61770    -999.25    3.03280   86.67090    0.32450    9.89090    0.01070  101.09230    0.11620    0.30220    2.48960    -999.25    -999.25    -999.25    -999.25    -999.25    -999.25
 8050.00000    -999.25    0.87240   86.83420    3.64560    -999.25    3.85090   83.61030    0.80670    9.97340    0.03250   98.04410    0.08130    0.31550    2.54350    -999.25    -999.25    -999.25    -999.25    -999.25    -999.25
 8100.00000    -999.25    0.88670   93.42390    4.10880    -999.25    4.93900   82.85200    0.64650   10.39680    0.02080  111.79070    0.06090    0.28440    2.56850    -999.25    -999.25    -999.25    -999.25    -999.25    -999.25
 8150.00000    -999.25    0.91490   86.65840    2.86320    -999.25    2.64200   90.60630    0.32350   10.00870    0.04640  109.40450    0.11590    0.29390    2.48590    -999.25    -999.25    -999.25    -999.25    -999.25    -999.25
 8200.00000    -999.25    0.85980   94.17820    2.86690    -999.25    2.79180   87.45120   -2.59250    9.94830    0.01510  109.50830    0.08880    0.31420    2.53240    -999.25    -999.25    -999.25    -999.25    -999.25    -999.25
 8250.00000    -999.25    0.79270   81.88620    2.65740    -999.25    2.60940   83.23350   -1.93610    9.89620    0.05390   96.66930    0.07140    0.26440    2.56410    -999.25    -999.25    -999.25    -999.25    -999.25    -999.25
 8300.00000    -999.25    0.99870   87.51300    2.83730    -999.25    3.92970   83.23350   -0.45990   10.35120    0.03880   98.49580    0.09010    0.28830    2.53480    -999.25    -999.25  468.79070  102.50690    -999.25    -999.25
 8350.00000    -999.25    0.86770   62.44510    1.77860    -999.25    2.91780   78.13750   13.70260    9.95030    0.04080   78.82030    0.11720    0.22960    2.48360    -999.25    -999.25  509.34460  109.21460    -999.25    -999.25
 8400.00000    -999.25    0.88870   73.50300    4.15900    -999.25    4.11120   79.41230    2.46540    9.94890    0.01260   87.46050    0.11160    0.23950    2.49480    -999.25    -999.25  520.56150   91.04050    -999.25    -999.25
 8450.00000    -999.25    0.96550   91.86330    4.22380    -999.25    5.05690   79.59870    2.35910   10.03370   -0.00090   98.80640    0.08830    0.24290    2.53390    -999.25    -999.25  396.73430  107.11010    -999.25    -999.25
 8500.00000    -999.25    0.91150   96.16590    2.25930    -999.25    2.40310   92.06300   -2.01870   10.00380    0.03010   99.02870    0.11140    0.29230    2.48310    -999.25    -999.25  324.78170  103.04280    -999.25    -999.25
 8550.00000    -999.25    0.87960   89.12570    5.21890    -999.25    4.80450   83.45580   -2.55840    9.95000    0.02650   90.86640    0.07450    0.29180    2.55700    -999.25    -999.25  418.13880  101.01140    -999.25    -999.25
 8600.00000    -999.25    0.95170   95.13140    4.81440    -999.25    5.05400   80.92070    1.41930   10.06300    0.00750  105.56570    0.09560    0.27220    2.52040    -999.25    -999.25  461.99010  118.59050  301.19880   64.88930
 8650.00000    -999.25    0.85980   98.35330    3.51560    -999.25    3.61880   85.43710   -2.81710   10.01830    0.02000  126.36370    0.08070    0.28700    2.54080    -999.25    -999.25  362.17810   95.26590  276.63100   62.28180
 8700.00000    -999.25    0.60910   40.74640    1.22990    -999.25    1.63730   75.65130   25.33180    9.47820    0.05790   49.49770    0.16230    0.21180    2.40210    -999.25    -999.25  564.64880   77.96440  285.62890   13.25250
 8750.00000    -999.25    0.99230   89.86320    5.07720    -999.25    5.38310   78.37240    3.19630    9.92620    0.01280  105.05800    0.09610    0.22440    2.52030    -999.25    -999.25  466.60410  113.68820  303.51430   51.05480
 8800.00000    -999.25    1.12270   98.20780    2.52020    -999.25    3.22350   79.86780   20.39290    9.73670    0.04870   89.65620    0.12950    0.23630    2.44460    -999.25    -999.25  637.21590   84.31440  328.00620   56.29960
 8850.00000    -999.25    0.80270   99.96260    3.04360    -999.25    3.22290   89.02200   -2.17980   10.06480    0.01620  114.28520    0.08480    0.29800    2.54630    -999.25    -999.25  344.07350  113.68500  242.56700   67.68610
 8900.00000    -999.25    0.87620   88.55810    3.64670    -999.25    4.80450   79.24150   14.15110   10.15350    0.01700   85.30130    0.13500    0.26080    2.46510    -999.25    -999.25  481.73520  118.55640  326.72310   49.20660
 8950.00000    -999.25    1.01370  107.33530    3.11770    -999.25    5.43170   82.68580   20.02570    9.93780    0.04490  124.13400    0.07990    0.27270    2.54130    -999.25    -999.25  528.45120  140.86920  300.07720   67.64480
 9000.00000    -999.25    0.88590  108.30840    2.59370    -999.25    3.41820   88.10490   -0.09170   10.47020    0.01810  115.50900    0.08080    0.27990    2.54560    -999.25    -999.25  247.46640  101.44240  267.75400   69.80180
