~Version ---------------------------------------------------
VERS.      2.0 : CWLS log ASCII Standard -VERSION 2.0
WRAP.      YES : Multiple lines per depth step
CREA. 08/01/20 : LAS Creation Date
~Well ------------------------------------------------------
STRT.FT                       3500.0 : START DEPTH
STOP.FT                       9850.0 : STOP DEPTH
STEP.FT                     50.00000 : STEP LENGTH
NULL.                        -999.25 : NULL VALUE
COMP. INTERNATIONAL DRILLING SYSTEMS : COMPANY
WELL.                        COOK #1 : WELL
FLD .                         KURTEN : FIELD
LOC .                                : LOCATION
CNTY.                         BRAZOS : COUNTY
STAT.                          TEXAS : STATE
CTRY.       UNITED STATES OF AMERICA : COUNTRY
SRVC.                   Schlumberger : SERVICE COMPANY
DATE.                    18-Apr-1986 : LOGDATE
API .                 42041313380000 : API NUMBER
UWI .                 42041313380000 : UNIQUE WELL ID
SLAT.WGS84             30.6850268218 : SURFACE LATITUDE
SLON.WGS84            -96.2700084962 : SURFACE LONGITUDE
~Curve Information -----------------------------------------
DEPT    .FT    : DEPTH FEET
BITSED  .IN    : BIT SIZE
CALWS   .IN    : CALIPER [DCALRED+BITS]
CILDED  .MMHO  : CONDUCTIVITY FROM DIL-SFL-CDL-CNL LOG FROM 2" SECTION
CONDWS  .MMHO  : CONDUCTIVITY [1000/DRESWS]
DCALRED .IN    : DIFFERENTIAL CALIPER FROM DIL-SFL-CDL-CNL LOG
DCORWS  .G/C3  : DENSITY CORRECTION [DRHOED]
DENWS   .G/C3  : FORMATION BULK DENSITY [CALC. DPOLSWS M=2.71, F=1.0]
DPHILSED.V/V   : DENSITY POROSITY LIMESTONE [ M=2.71,F=1.0] FROM DIL-SFL-CDL-CNL LOG
DPHISSED.V/V   : DENSITY POROSITY SANDSTONE [ M=2.68,F=1.0] FROM DIL-SFL-CDL-CNL LOG
DPOLSWS .V/V   : DENSITY POROSITY LIMESTONE [TOP DPHILSED 9130' DPHISSED CONVERTED TO LIMESTONE MATRIX M=2.71,F=1.0, SPL. TO 9741' DPHILSED TD]
DRESWS  .OHMM  : DEEP RESISTIVITY [ILDED]
DRHOED  .G/C3  : BULK DENSITY CORRECTION FROM DIL-SFL-CDL-CNL LOG
GRRED   .GAPI  : GAMMA RAY FROM DIL-SFL-CDL-CNL LOG
GRWS    .GAPI  : GAMMA RAY [GRRED]
ILD1ED  .OHMM  : DEEP INDUCTION RESISTIVITY FROM DIL-SFL-CDL-CNL LOG FROM 2" SECTION
ILDED   .OHMM  : DEEP INDUCTION RESISTIVITY FROM DIL-SFL-CDL-CNL LOG
ILMED   .OHMM  : MEDIUM INDUCTION RESISTIVITY FROM DIL-SFL-CDL-CNL LOG
MRESWS  .OHMM  : MEDIUM RESISTIVITY [ILMED]
NPHILSED.V/V   : NEUTRON POROSITY LIMESTONE FROM DIL-SFL-CDL-CNL LOG
NPHISSED.V/V   : NEUTRON POROSITY SANDSTONE FROM DIL-SFL-CDL-CNL LOG
NPOLSWS .V/V   : NEUTRON POROSITY LIMESTONE [TOP NPHILSED 9125' MATRIX CONVERSION FOR LIMESTONE (SLB-CNL) SPL. TO 9741' NPHILSED TD]
PEED    .B/E   : PHOTO ELECTRIC CROSS SECTION FROM DIL-SFL-CDL-CNL LOG
PEFWS   .B/E   : PHOTO ELECTRIC FACTOR [PEED]
SFLAED  .OHMM  : SPHERICALLY FOCUSED LOG RESISTIVITY FROM DIL-SFL-CDL-CNL LOG FROM 2" SECTION
SFLED   .OHMM  : SPHERICALLY FOCUSED LOG RESISTIVITY FROM DIL-SFL-CDL-CNL LOG
SPRED   .MV    : SPONTANEOUS POTENTIAL FROM DIL-SFL-CDL-CNL LOG
SPWS    .MV    : SPONTANEOUS POTENTIAL [BASELINE 0MV, SPRED]
SRESWS  .OHMM  : SHALLOW RESISTIVITY [SFLED]
TENRED  .LBF   : TENSION  FROM DIL-SFL-CDL-CNL LOG
~Params ----------------------------------------------------
PD  .                     GL : PERMANENT DATUM
EPD .FT                  300 : ELEVATION PERMANENT DATUM
LMF .                     KB : LOG MEASURED FROM
DAPD.FT                 18.6 : FEET ABOVE PERMANENT DATUM
DMF .                     KB : DRILLING MEASURED FROM
EKB .FT                318.6 : KELLY BUSHING
EDF .FT                317.6 : DRILLING FLOOR
EGL .FT                  300 : GROUND LEVEL
DATE.               04/18/86 : RUN DATE
RUN .                      1 : RUN NUMBER
DD  .FT                 9899 : DEPTH DRILLER
DL  .FT                 9877 : DEPTH LOGGER
BLI .FT                 9871 : BOTTOM LOG INTERVAL
TLI .FT                 3533 : TOP LOG INTERVAL
CS  .IN                9.625 : CASING SIZE
CBD .FT                 3532 : CASING BOTTOM DRILLER
CBL .FT                 3533 : CASING BOTTOM LOGGER
BS  .IN                 8.75 : BIT SIZE
BSD .FT                 9899 : BIT SIZE AT DEPTH
DFT .                  BENEX : DRILLING FLUID TYPE
DFD .                    9.2 : DRILLING FLUID DENSITY
DFV .                     44 : DRILLING FLUID VISCOSITY
DFPH.                      9 : DRILLING FLUID PH
DFL .                    5.8 : DRILLING FLUID LOSS
MSS .              CIRC TANK : MUD SAMPLE SOURCE
RMS .OHMM               3.66 : RESISTIVITY MUD SAMPLE
MST .DEGF                 96 : MUD SAMPLE TEMPERATURE
RMF .OHMM               2.67 : RESISTIVITY MUD FILTRATE SAMPLE
MFST.DEGF                 80 : MUD FILTRATE SAMPLE TEMPERATURE
RMC .OHMM               5.49 : RESISTIVITY MUD CAKE
MCST.DEGF                 96 : MUD CAKE SAMPLE TEMPERATURE
MFSS.                  PRESS : MUD FILTRATE SAMPLE SOURCE
MCSS.                  CHART : MUD CAKE SAMPLE SOURCE
RMB .OHMM               1.77 : RESISTIVITY MUD AT BHT
TCS .HRS                 600 : TIME CIRCULATED STOPPED
TLAB.HRS                1100 : TIME LOGGER AT BOTTOM
LUN .                   8137 : LOGGING UNIT NUMBER
LUL .                BRENHAM : LOGGING UNIT LOCATION
ENGI.                   ONEY : RECORDING ENGINEER
WITN.                MITCHAM : WITNESSED BY
CLNT.                A2DTECH : CLIENT CODE
ORIG.         1" 2" 5" PRINT : ORIGIN OF DATA
UWI .         42041313380000 : UNIQUE WELL ID
DICO. A2D Technologies, Inc. : DIGITIZING COMPANY
~Other -----------------------------------------------------
DIL-SFL-CDL-CNL LOG RUN.
SFLA_1,ILD_1,CILD VERYFIED FROM 2" LINEAR SECTION.
~ASCII -----------------------------------------------------
# ...
 7250.00000    8.75000   10.93740  652.98220  646.99790    2.18740    -999.25    -999.25    -999.25    -999.25    -999.25    1.54560    -999.25   97.78780   97.78780    1.55780    1.54560    1.58060    1.58060    -999.25    -999.25    -999.25    -999.25    -999.25    1.86060    1.83060   -3.68760   -7.05340    1.83060 4424.88540
 7300.00000    8.75000    9.93230  571.69420  572.63930    1.18230    -999.25    -999.25    -999.25    -999.25    -999.25    1.74630    -999.25   90.25400   90.25400    1.69010    1.74630    1.78580    1.78580    -999.25    -999.25    -999.25    -999.25    -999.25    2.13600    2.33810   -1.58400   -4.88250    2.33810 4403.64620
 7350.00000    8.75000    9.74680  575.62460  592.06630    0.99680    -999.25    -999.25    -999.25    -999.25    -999.25    1.68900    -999.25  105.37400  105.37400    1.66780    1.68900    1.72720    1.72720    -999.25    -999.25    -999.25    -999.25    -999.25    2.04500    2.01990   -1.06820   -4.29930    2.01990 4335.38360
 7400.00000    8.75000   11.07240  654.39270  647.87820    2.32240    -999.25    -999.25    -999.25    -999.25    -999.25    1.54350    -999.25  100.45270  100.45270    1.54690    1.54350    1.58140    1.58140    -999.25    -999.25    -999.25    -999.25    -999.25    1.86420    1.82770   -3.80920   -6.97290    1.82770 4434.76880
 7450.00000    8.75000   11.82430  656.83410  658.80490    3.07430    -999.25    -999.25    -999.25    -999.25    -999.25    1.51790    -999.25  101.15900  101.15900    1.50970    1.51790    1.55220    1.55220    -999.25    -999.25    -999.25    -999.25    -999.25    1.83620    1.76560   -4.05530   -7.15170    1.76560 4430.44070
 7500.00000    8.75000   11.97760  675.15930  654.70730    3.22760    -999.25    -999.25    -999.25    -999.25    -999.25    1.52740    -999.25   90.95060   90.95060    1.49560    1.52740    1.55990    1.55990    -999.25    -999.25    -999.25    -999.25    -999.25    1.79600    1.81720   -3.21160   -6.24060    1.81720 4531.12660
 7550.00000    8.75000   11.99530  674.40800  645.49440    3.24530    -999.25    -999.25    -999.25    -999.25    -999.25    1.54920    -999.25   93.97650   93.97650    1.52850    1.54920    1.58380    1.58380    -999.25    -999.25    -999.25    -999.25    -999.25    1.80180    1.83310   -5.30850   -8.27020    1.83310 4628.29470
 7600.00000    8.75000   11.21850  754.24430  745.87900    2.46850    -999.25    -999.25    -999.25    -999.25    -999.25    1.34070    -999.25  102.27580  102.27580    1.30780    1.34070    1.37100    1.37100    -999.25    -999.25    -999.25    -999.25    -999.25    1.60740    1.61450   -3.83330   -6.72760    1.61450 4719.88670
 7650.00000    8.75000   10.39620  676.88990  668.85160    1.64620    -999.25    -999.25    -999.25    -999.25    -999.25    1.49510    -999.25  119.75480  119.75480    1.42960    1.49510    1.52900    1.52900    -999.25    -999.25    -999.25    -999.25    -999.25    1.81500    1.80310   -3.94420   -6.77110    1.80310 4668.73990
 7700.00000    8.75000    9.55790  585.03300  568.92530    0.80790    -999.25    -999.25    -999.25    -999.25    -999.25    1.75770    -999.25   99.96910   99.96910    1.75390    1.75770    1.79760    1.79760    -999.25    -999.25    -999.25    -999.25    -999.25    2.15300    2.17160   -4.23550   -6.99510    2.17160 4688.72350
 7750.00000    8.75000    9.02920  515.85180  499.30100    0.27920    -999.25    -999.25    -999.25    -999.25    -999.25    2.00280    -999.25  148.18600  148.18600    1.88570    2.00280    2.04820    2.04820    -999.25    -999.25    -999.25    -999.25    -999.25    2.41370    2.43720   -2.41710   -5.10930    2.43720 4730.52580
 7800.00000    8.75000    9.89110  523.45390  518.96830    1.14110    0.09180    2.56530    0.08460    -999.25    0.08460    1.92690    0.09180  117.79600  117.79600    1.93260    1.92690    1.97050    1.97050    0.26590    -999.25    0.26590    3.01360    3.01360    2.34650    2.29880   -3.41870   -6.04350    2.29880 4805.11190
 7850.00000    8.75000   10.65590  559.73930  546.11980    1.90590    0.07450    2.52550    0.10790    -999.25    0.10790    1.83110    0.07450  106.63390  106.63390    1.80870    1.83110    1.87360    1.87360    0.25060    -999.25    0.25060    3.16500    3.16500    2.15450    2.15970   -2.42140   -4.97890    2.15970 4701.37700
 7900.00000    8.75000   10.31590  534.66890  540.77440    1.56590    0.05040    2.58940    0.07050    -999.25    0.07050    1.84920    0.05040   97.73440   97.73440    1.84010    1.84920    1.89120    1.89120    0.25430    -999.25    0.25430    3.25380    3.25380    2.33010    2.34880   -3.67070   -6.16080    2.34880 4572.62800
 7950.00000    8.75000    9.18900  462.43700  474.27080    0.43900    0.08440    2.51750    0.11260    -999.25    0.11260    2.10850    0.08440   97.48760   97.48760    2.14630    2.10850    2.15810    2.15810    0.22970    -999.25    0.22970    2.97240    2.97240    2.52390    2.50820   -2.46100   -4.88370    2.50820 4689.96680
 8000.00000    8.75000    9.50830  541.93790  553.28100    0.75830    0.01050    2.39500    0.18420    -999.25    0.18420    1.80740    0.01050  111.40810  111.40810    1.90590    1.80740    2.03360    2.03360    0.24100    -999.25    0.24100    2.80500    2.80500    2.66790    2.70000   -4.73190   -7.08730    2.70000 4472.58650
 8050.00000    8.75000   10.13740  465.62950  461.93640    1.38740    0.03320    2.54840    0.09450    -999.25    0.09450    2.16480    0.03320  107.36870  107.36870    2.23440    2.16480    2.21390    2.21390    0.22640    -999.25    0.22640    3.13110    3.13110    2.44900    2.31200   -3.02600   -5.31400    2.31200 4665.26100
 8100.00000    8.75000   11.06570  574.54670  557.91120    2.31570    0.08410    2.52040    0.11090    -999.25    0.11090    1.79240    0.08410   94.81140   94.81140    1.77950    1.79240    1.89370    1.89370    0.24500    -999.25    0.24500    3.01910    3.01910    2.22270    2.20400   -5.39400   -7.61460    2.20400 4841.28130
 8150.00000    8.75000    9.80360  352.19640  392.00310    1.05360    0.00070    2.53900    0.10000    -999.25    0.10000    2.55100    0.00070   86.98350   86.98350    2.77830    2.55100    2.66790    2.66790    0.20000    -999.25    0.20000    3.51780    3.51780    3.17140    3.10460   -3.93640   -6.08970    3.10460 4823.43800
 8200.00000    8.75000    9.06210  359.92890  359.76400    0.31210   -0.00290    2.61220    0.05720    -999.25    0.05720    2.77960   -0.00290   64.37730   64.37730    2.80850    2.77960    2.88220    2.88220    0.15930    -999.25    0.15930    4.65690    4.65690    3.59450    3.54490   -2.84180   -4.92770    3.54490 4950.05210
 8250.00000    8.75000    8.90600  281.86310  288.24260    0.15600   -0.00680    2.63850    0.04180    -999.25    0.04180    3.46930   -0.00680   56.65660   56.65660    3.54790    3.46930    3.62630    3.62630    0.16300    -999.25    0.16300    4.01140    4.01140    4.59800    4.62200   -3.55210   -5.57070    4.62200 4948.74440
 8300.00000    8.75000    9.50890  421.32840  422.13690    0.75890    0.00320    2.59120    0.06950    -999.25    0.06950    2.36890    0.00320   83.86200   83.86200    2.41070    2.36890    2.42390    2.42390    0.19400    -999.25    0.19400    3.87690    3.87690    3.20240    3.51430   -0.36600   -2.31720    3.51430 4966.92540
 8350.00000    8.75000    9.77080  509.65530  505.71460    1.02080    0.08470    2.55130    0.09280    -999.25    0.09280    1.97740    0.08470   93.16420   93.16420    2.03070    1.97740    2.02220    2.02220    0.25500    -999.25    0.25500    3.03000    3.03000    2.56980    2.56020   -1.97850   -3.86230    2.56020 4931.56650
 8400.00000    8.75000   11.01210  553.18780  560.00450    2.26210    0.08550    2.50340    0.12080    -999.25    0.12080    1.78570    0.08550   92.50290   92.50290    1.86730    1.78570    1.93880    1.93880    0.26740    -999.25    0.26740    3.07140    3.07140    2.36980    2.34640   -1.75260   -3.56910    2.34640 5187.06310
 8450.00000    8.75000   11.57310  556.77630  554.32370    2.82310    0.09120    2.54720    0.09520    -999.25    0.09520    1.80400    0.09120   97.09090   97.09090    1.84290    1.80400    1.84480    1.84480    0.25820    -999.25    0.25820    2.82510    2.82510    2.23370    2.32210   -3.86200   -5.61110    2.32210 5248.83530
