~Version ---------------------------------------------------
VERS. 2.0 : CWLS log ASCII Standard -VERSION 2.0
WRAP.  NO : ONE LINE PER DEPTH STEP
~Well ------------------------------------------------------
STRT.F                  1850.0 : START DEPTH
STOP.F                 10750.0 : STOP DEPTH
STEP.F                50.00000 : STEP LENGTH
NULL.                  -999.25 : NULL VALUE
COMP.     GULF OIL CORPORATION : COMPANY
WELL.      W T HURT ET AL #3-R : WELL
FLD .                  FASHING : FIELD
LOC .                          : LOCATION
CNTY.                 ATASCOSA : COUNTY
STAT.                    TEXAS : STATE
CTRY. UNITED STATES OF AMERICA : COUNTRY
SRVC.            Dresser Atlas : SERVICE COMPANY
DATE.              28-Jun-1972 : LOGDATE
API .           42013301930000 : API NUMBER
UWI .           42013301930000 : UNIQUE WELL ID
SLAT.WGS84       28.7802385159 : SURFACE LATITUDE
SLON.WGS84      -98.2085261172 : SURFACE LONGITUDE
~Curve Information -----------------------------------------
DEPT.F                 : 
GRT .GAPI 51 310 00 00 : THEORETICAL GAMMA RAY VALUE TDT
SPR .MV   05 010 01 00 : SPONTANEOUS POTENTIAL FROM RESISTIVITY LOG
ASN .OHMM 05 041 16 00 : AMPLIFIED SHORT NORMAL RESISTIVITY
IL  .OHMM 05 120 45 00 : INDUCTION LOG RESISTIVITY
CIL .MMHO 05 110 45 00 : INDUCTION CONDUCTIVITY
CALD.IN   45 280 60 00 : CALIPER FROM DENSITY LOG
RHOB.G/C3 45 350 01 00 : BULK DENSITY
NEUT.NAPI 42 330 01 00 : NEUTRON
CORR.G/C3 45 356 01 00 : DENSITY CORRECTION
AC  .US/F 60 500 32 00 : ACOUSTIC
~Params ----------------------------------------------------
PD  .                     GL : PERMANENT DATUM
EPD .F                363.46 : ELEVATION PERMANENT DATUM
LMF .                     KB : LOG MEASURED FROM
DAPD.F                 15.54 : FEET ABOVE PERMANENT DATUM
DMF .                     KB : DRILLING MEASURED FROM
EKB .F                   379 : KELLING BUSHING
EGL .F                363.46 : GROUND LEVEL
DATE.               06/28/72 : RUN DATE
RUN .                      1 : RUN NUMBER
DD  .F                 10775 : DEPTH DRILLER
DL  .F                 10760 : DEPTH LOGGER
BLI .F                 10755 : BOTTOM LOG INTERVAL
TLI .F                  1817 : TOP LOG INTERVAL
CS  .IN                9.875 : CASING SIZE
CBD .F                  1817 : CASING BOTTOM DRILLER
CBL .F                  1817 : CASING BOTTOM LOGGER
BS  .IN                 8.75 : BIT SIZE
BSD .F                 10775 : BIT SIZE AT DEPTH
DFT .         LIGNOSULFONATE : DRILLING FLUID TYPE
DFD .                   10.6 : DRILLING FLUID DENSITY
DFV .                     43 : DRILLING FLUID VISCOSITY
DFPH.                     10 : DRILLING FLUID PH
DFL .                    4.8 : DRILLING FLUID LOSS
MSS .               FLOWLINE : MUD SAMPLE SOURCE
RMS .OHMM               0.85 : RESISTIVITY MUD SAMPLE
MST .F                    90 : MUD SAMPLE TEMPERATURE
RMF .OHMM               0.68 : RESISTIVITY MUD FILTRATE SAMPLE
MFST.F                    90 : MUD FILTRATE SAMPLE TEMPERATURE
RMC .OHMM               1.06 : RESISTIVITY MUD CAKE
MCST.F                    90 : MUD CAKE SAMPLE TEMPERATURE
MFSS.                   MEAS : MUD FILTRATE SAMPLE SOURCE
MCSS.                   MEAS : MUD CAKE SAMPLE SOURCE
RMB .OHMM               0.33 : RESISTIVITY MUD AT BHT
TCS .HRS                  11 : TIME CURCULATED STOPPED
LUN .                   6068 : LOGGING UNIT NUMBER
LUL .                    VIC : LOGGING UNIT LOCATION
ENGI.               MC MAHON : RECORDING ENGINEER
WITN.                JENKINS : WITNESSED BY
CLNT.                A2DTECH : CLIENT CODE
ORIG.            1" 5" PRINT : ORIGIN OF DATA
UWI .         42013301930000 : UNIQUE WELL ID
DICO. A2D Technologies, Inc. : DIGITIZING COMPANY
~Other -----------------------------------------------------
~ASCII -----------------------------------------------------
 1850.00000    -999.25  -19.00950    2.14030    1.50110  748.79980    8.48400    1.95670  345.38540    0.03040  174.75760
 1900.00000    -999.25  -20.47430    2.16330    1.82660  586.70030   12.30560    1.91560  341.33780    0.04270  158.91350
 1950.00000    -999.25  -21.00040    2.05080    1.83690  639.82540   14.05110    1.92240  333.58650    0.06160  165.09650
 2000.00000    -999.25  -21.48310    2.12170    1.90400  609.00000   13.63740    2.04900  323.55100    0.11290  174.99220
 2050.00000    -999.25  -21.64470    2.09430    2.02070  574.33220   13.31910    2.05850  367.03390    0.10720  158.58580
 2100.00000    -999.25  -22.46760    2.41340    2.31690  484.12660   12.53320    2.07070  381.26810    0.10320  145.27270
 2150.00000    -999.25  -48.56480    4.33670    3.37540  315.00000   10.04990    2.07020  538.51720   -0.00410  116.78670
 2200.00000    -999.25  -31.03100    3.07410    2.64500  433.00000    9.55300    2.16350  470.37100    0.01450  125.64740
 2250.00000    -999.25  -24.42070    2.64730    2.43930  455.43300   13.03860    1.91410  328.05670    0.02420  154.19060
 2300.00000    -999.25  -21.91950    1.68620    1.66290  652.87190    9.75940    2.07150  373.12430    0.04010    -999.25
 2350.00000    -999.25  -22.39710    1.51570    1.43180  800.60340    8.98880    2.06120  419.18850    0.09660  175.44820
 2400.00000    -999.25  -30.33350    1.93570    1.76470  646.47270    8.81630    2.09400  417.56110    0.02050  135.50030
 2450.00000    -999.25  -43.10990    3.71540    3.17370  331.71930    9.09270    2.09360  500.15770   -0.03920  115.00360
 2500.00000    -999.25  -45.10860    3.44190    3.25670  340.66540    8.90410    2.09420  526.91100   -0.03990  118.86590
 2550.00000    -999.25  -44.92110    4.04630    2.97170  378.40080    8.91170    2.20950  458.70280   -0.01690  110.67660
 2600.00000    -999.25  -41.68320    3.70640    2.90130  385.73020    8.92570    2.13010  510.39860   -0.02680  116.15260
 2650.00000    -999.25  -36.19290    3.50040    2.86320  373.57670    9.46980    2.13850  453.46310   -0.00030  122.89150
 2700.00000    -999.25  -33.15300    3.05840    2.38770  449.00000    9.03410    2.21540  459.26060   -0.00540  124.64460
 2750.00000    -999.25  -46.90090    3.47490    3.51660  293.08830    8.64490    2.19630  555.40520   -0.02040  113.32010
 2800.00000    -999.25  -57.35170    3.79200    2.97130  352.72200    8.50030    2.11090  511.09990   -0.04640  108.72140
 2850.00000    -999.25  -34.62480    2.52610    2.52420  417.00000    8.55890    2.16000  492.88110   -0.01210  115.38550
 2900.00000    -999.25  -59.00910    2.80060    2.61690  409.96690    8.52740    2.09090  473.77520   -0.01160  117.54820
 2950.00000    -999.25  -36.70850    2.74770    2.47460  460.94120    8.64130    2.18570  500.97260   -0.01760  112.37630
 3000.00000    -999.25  -46.08030    3.21620    2.01730  500.00450    8.95330    2.13940  468.23450    0.00080  115.79930
 3050.00000    -999.25  -29.04620    1.94860    1.60890  676.98440    9.53830    2.11980  395.67130    0.07340  136.06550
 3100.00000    -999.25  -38.91070    2.37960    1.92320  607.00640    8.54510    2.20020  457.71930   -0.00390  114.54180
 3150.00000    -999.25  -28.22240    2.41070    1.97640  557.32280    8.46720    2.20480  479.64250    0.05400  102.13200
 3200.00000    -999.25  -37.70380    2.65810    2.20840  489.84180    8.42670    2.25050  472.43270   -0.00100  109.88050
 3250.00000    -999.25  -52.52050    4.12630    2.14580  495.47310    8.19410    2.13310  526.98610   -0.06620  104.23050
 3300.00000    -999.25  -25.02580    1.55920    1.28110  924.74350    8.53040    2.14570  426.10420    0.04230  126.30190
 3350.00000    -999.25  -28.30870    2.45610    2.21760  562.98210    9.11640    2.26020  438.61510    0.08980  106.94410
 3400.00000    -999.25  -28.86930    2.48820    2.04970  503.92940    9.14510    2.17550  463.87750    0.06890  118.20710
 3450.00000    -999.25  -24.33600    1.32610    1.11810 1007.40000    8.76120    2.14920  414.83910    0.07790  130.21430
 3500.00000    -999.25  -24.73690    1.41860    1.05490  996.73380    8.45520    2.07610  421.71140    0.06830  146.54240
 3550.00000    -999.25  -24.70010    1.06780    0.98710 1174.00940    8.59560    2.00440  426.20230    0.05490  161.87850
 3600.00000    -999.25  -25.39180    2.48730    2.02340  537.29050    9.99520    2.16160  428.62770    0.12190  114.77840
 3650.00000    -999.25  -37.09080    4.11220    3.91290  293.99500    9.25550    2.32370  524.62620    0.06190  107.36320
 3700.00000    -999.25  -31.18770    4.89470    5.34980  279.14290    8.01500    2.22500  555.49410    0.02540  103.18410
 3750.00000    -999.25  -35.46390    4.57310    4.31230  232.13160    8.02870    2.21710  501.10090    0.00180  113.33330
 3800.00000    -999.25  -34.42660    9.72210    9.09030  105.00000    8.03500    2.29490  545.46870    0.01920   97.21390
 3850.00000    -999.25  -28.57340   11.95150   11.09980   85.95310    7.87000    2.13960  546.28310   -0.04060  105.30920
 3900.00000    -999.25  -27.57550   12.51200   12.47310   78.60620    7.87540    2.14210  578.40920   -0.01450  105.63030
 3950.00000    -999.25  -33.54720    9.52250    7.08750  145.32620    8.12500    2.30400  501.01780   -0.02890  106.37200
 4000.00000    -999.25  -29.48640   12.92550   11.10680   97.08120    7.81630    2.27740  576.44730    0.06690  105.37310
 4050.00000    -999.25  -28.68920   14.17260   12.11100   79.00000    7.97560    2.20290  562.83010   -0.01660  102.93790
 4100.00000    -999.25  -20.67270   14.40390   12.81490   77.01600    7.96640    2.11770  559.72130   -0.02670  106.97100
 4150.00000    -999.25  -19.51850   12.46100   12.28910   81.82790    7.99300    2.29590  623.30960   -0.01050   99.99800
 4200.00000    -999.25  -25.29820   10.95440    9.35980  105.63010    7.92730    2.24540  539.31880    0.00610  108.69930
 4250.00000    -999.25  -22.66330   13.35050   11.38730   86.53430    7.98520    2.19220  551.35170   -0.03560  102.84500
 4300.00000    -999.25  -18.49010   14.87100   14.31970   66.75840    7.97160    2.15360  591.05280   -0.03840  104.67660
 4350.00000    -999.25  -20.80170    9.36450    7.74960  116.24460    8.14650    2.30320  559.85310    0.05080  103.39330
 4400.00000    -999.25  -21.11940   15.14650   13.83540   70.30540    8.03750    2.21010  602.43420   -0.01500   99.50250
 4450.00000    -999.25  -21.89450    8.04820    5.46960  176.43960    8.19030    2.36560  538.46390   -0.05260   98.10670
 4500.00000    -999.25  -23.23070   13.25980   12.59360   82.19440    7.93150    2.29060  593.44900    0.00720   98.72460
 4550.00000    -999.25  -27.44490   10.74580   10.08480   97.31880    7.82100    2.20060  540.73910   -0.02290  103.64620
 4600.00000    -999.25  -29.66800    7.58310    6.21240  165.08230    8.24440    2.29240  561.08200   -0.02990  101.76480
 4650.00000    -999.25  -24.39540   11.29860   10.73730   91.00000    7.88300    2.18470  531.79000   -0.03380  101.07160
 4700.00000    -999.25  -27.06420    8.83240    8.25750  115.81080    7.95310    2.22710  578.58040   -0.01370  104.67660
 4750.00000    -999.25  -32.38060   10.43520   11.02980   81.47480    8.24510    2.32470  750.34750    0.02650   91.76910
 4800.00000    -999.25  -22.44740    3.90530    3.79760  287.12590    9.21160    2.38540  544.23600    0.06320  102.05600
 4850.00000    -999.25  -22.14130    3.29260    3.22870  311.00000    9.13970    2.33940  524.41180    0.07720  114.72640
 4900.00000    -999.25  -19.41050    2.88860    2.79430  439.60870    9.09920    2.24570  574.09390    0.02910   98.66510
 4950.00000    -999.25  -23.91420    3.16460    2.91720  361.62240    9.14770    2.28510  499.00690    0.09930  105.07980
 5000.00000    -999.25  -25.54830    4.46400    4.27920  271.02870    8.41730    2.33100  499.43290    0.06530  104.27860
 5050.00000    -999.25  -29.96250    5.11070    4.27580  258.53850    8.02850    2.28490  513.42600    0.00580   99.26270
 5100.00000    -999.25  -59.68660    5.71860    3.40110  331.96720    8.04540    2.20980  575.77980   -0.02540  101.29350
