~Version ---------------------------------------------------
VERS. 2.0 : CWLS log ASCII Standard -VERSION 2.0
WRAP. YES : Multiple lines per depth step
~Well ------------------------------------------------------
STRT.FT                   3800.0 : START DEPTH
STOP.FT                   8500.0 : STOP DEPTH
STEP.FT                 50.00000 : STEP LENGTH
NULL.                    -999.25 : NULL VALUE
COMP. CHAMPLIN PETROLEUM COMPANY : COMPANY
WELL.          WILLIAM A LANG #1 : WELL
FLD .                   GIDDINGS : FIELD
LOC .                            : LOCATION
CNTY.                   BURLESON : COUNTY
STAT.                      TEXAS : STATE
CTRY.   UNITED STATES OF AMERICA : COUNTRY
SRVC.               Schlumberger : SERVICE COMPANY
DATE.                24-Jul-1980 : LOGDATE
API .             42051308420000 : API NUMBER
UWI .             42051308420000 : UNIQUE WELL ID
SLAT.WGS84         30.3748097121 : SURFACE LATITUDE
SLON.WGS84        -96.7279740326 : SURFACE LONGITUDE
~Curve Information -----------------------------------------
DEPT    .FT    : DEPTH FEET
CALDED  .IN    : CALIPER FROM SIMULTANEOUS CNL-FDC LOG  [ADJ. TO GRRED]
CALWS   .IN    : CALIPER [CALDED]
CONDWS  .MMHO  : CONDUCTIVITY [1000/DRESWS]
DCORWS  .G/C3  : DENSITY CORRECTION [DROHED]
DENWS   .G/C3  : FORMATION BULK DENSITY [RHOBED]
DPHILSED.V/V   : DENSITY POROSITY LIMESTONE [M=2.71 F=1.0] FROM SIMULTANEOUS CNL-FDC LOG  [ADJ. TO GRRED]
DPHISSED.V/V   : DENSITY POROSITY SANDSTONE [M=2.68 F=1.0] FROM SIMULTANEOUS CNL-FDC LOG  [ADJ. TO GRRED]
DPOWS   .V/V   : DENSITY POROSITY LIMESTONE [M=2.71 F=1.0] [CALCULATED FROM DENWS]
DRESWS  .OHMM  : DEEP RESISTIVITY [ILDED]
DRHOED  .G/C3  : BULK DENSITY CORRECTION FROM SIMULTANEOUS CNL-FDC LOG  [ADJ. TO GRRED]
DTED    .US/F  : DELTA-T FROM DIL-SFL-SONIC LOG
DTWS    .US/F  : COMPRESSIONAL SONIC [DTED]
GRDED   .GAPI  : GAMMA RAY FROM SIMULTANEOUS CNL-FDC LOG [ADJ. TO GRRED]
GRRED   .GAPI  : GAMMA RAY FROM DIL-SFL-SONIC LOG
GRWS    .GAPI  : GAMMA RAY [GRRED SPL.TO GRDED @ 8483']
ILDED   .OHMM  : DEEP INDUCTION FROM DIL-SFL-SONIC LOG
ILMED   .OHMM  : MEDIUM INDUCTION FROM DIL-SFL-SONIC LOG
MRESWS  .OHMM  : MEDIUM RESISTIVTY [ILMED]
NPHILSED.V/V   : NEUTRON POROSITY LIMESTONE FROM SIMULTANEOUS CNL-FDC LOG [ADJ. TO GRRED/RHOBED]
NPHISSED.V/V   : NEUTRON POROSITY SANDSTONE FROM SIMULTANEOUS CNL-FDC LOG  [ADJ. TO GRRED/RHOBED]
NPOWS   .V/V   : NEUTRON POROSITY LIMESTONE [NPHISSED MATRIX CONVERTED TO LIMESTONE & SPL. TO NPHILSED @ 6800.5']
RHOBED  .G/C3  : BULK DENSITY FROM SIMULTANEOUS CNL-FDC LOG  [ADJ. TO GRRED]
SFLUED  .OHMM  : SHALLOW FOCUSED RESISTIVITY FROM DIL-SFL-SONIC LOG
SPHILSED.V/V   : SONIC POROSITY LIMESTONE SONIC-DENSITY POROSITY LOG[DTM=47.6.6;DTF=189]
SPRED   .MV    : SPONTANEOUS POTENTIAL FROM DIL-SFL-SONIC LOG
SPWS    .MV    : SPONTANEOUS POTENTIAL [BASELINE 0 MV, SPRED]
SRESWS  .OHMM  : SHALLOW RESISTIVITY [SFLUED]
~Params ----------------------------------------------------
PD  .                     GL : PERMANENT DATUM
EPD .FT                  372 : ELEVATION PERMANENT DATUM
LMF .                     KB : LOG MEASURED FROM
DAPD.FT                   19 : FEET ABOVE PERMANENT DATUM
DMF .                     KB : DRILLING MEASURED FROM
EKB .FT                  391 : KELLY BUSHING
EDF .FT                  390 : DRILLING FLOOR
EGL .FT                  372 : GROUND LEVEL
DATE.               07/24/80 : RUN DATE
RUN .                      1 : RUN NUMBER
DD  .FT                 8548 : DEPTH DRILLER
DL  .FT                 8547 : DEPTH LOGGER
BLI .FT                 8544 : BOTTOM LOG INTERVAL
TLI .FT                 3800 : TOP LOG INTERVAL
CS  .IN                9.625 : CASING SIZE
CBD .FT                 3804 : CASING BOTTOM DRILLER
CBL .FT                 3800 : CASING BOTTOM LOGGER
BS  .IN                 8.75 : BIT SIZE
BSD .FT                 8548 : BIT SIZE AT DEPTH
DFT .                  BEN X : DRILLING FLUID TYPE
DFD .                    9.3 : DRILLING FLUID DENSITY
DFV .                     40 : DRILLING FLUID VISCOSITY
DFPH.                     10 : DRILLING FLUID PH
DFL .                      9 : DRILLING FLUID LOSS
MSS .              CIRC TANK : MUD SAMPLE SOURCE
RMS .OHMM               1.73 : RESISTIVITY MUD SAMPLE
MST .DEGF                 75 : MUD SAMPLE TEMPERATURE
RMF .OHMM                1.3 : RESISTIVITY MUD FILTRATE SAMPLE
MFST.DEGF                 75 : MUD FILTRATE SAMPLE TEMPERATURE
RMC .OHMM                2.6 : RESISTIVITY MUD CAKE
MCST.DEGF                 75 : MUD CAKE SAMPLE TEMPERATURE
MFSS.                      M : MUD FILTRATE SAMPLE SOURCE
MCSS.                      C : MUD CAKE SAMPLE SOURCE
RMB .OHMM              0.705 : RESISTIVITY MUD AT BHT
TCS .HRS                1400 : TIME CIRCULATED STOPPED
TLAB.HRS                2100 : TIME LOGGER AT BOTTOM
LUN .                   8015 : LOGGING UNIT NUMBER
LUL .               VICTORIA : LOGGING UNIT LOCATION
ENGI.         SHEA LANGHAMER : RECORDING ENGINEER
WITN.           DAVID SCHELL : WITNESSED BY
CLNT.                A2DTECH : CLIENT CODE
ORIG.            2" 5" PRINT : ORIGIN OF DATA
UWI .         42051308420000 : UNIQUE WELL ID
DICO. A2D Technologies, Inc. : DIGITIZING COMPANY
~Other -----------------------------------------------------
DENSITY POROSITY READING APPROX 3 UNITS LOW OVER SECTION 7990'- 7950'
~ASCII -----------------------------------------------------
# ...
 7700.00000   11.29970   11.29970  125.17210    0.05150    2.58540    0.07240    -999.25    0.07290    7.98900    0.05150   63.85720   63.85720   42.22270   44.36200   44.36200    7.98900    8.71400    8.71400    0.05220    -999.25    0.05220    2.58540   15.31150    0.11360  -32.57890  -10.53420   15.31150
 7750.00000   11.22050   11.22050  125.24890    0.00580    2.63300    0.04140    -999.25    0.04500    7.98410    0.00580   65.33240   65.33240   25.29770   34.07760   34.07760    7.98410    8.51120    8.51120    0.05060    -999.25    0.05060    2.63300    9.29690    0.12390  -32.95850  -11.83760    9.29690
 7800.00000   10.84650   10.84650  165.14190   -0.00020    2.63960    0.04050    -999.25    0.04120    6.05540   -0.00020   64.48550   64.48550   40.24080   42.55990   42.55990    6.05540    6.41580    6.41580    0.05930    -999.25    0.05930    2.63960    8.02000    0.12000  -30.60840  -10.41130    8.02000
 7850.00000   10.22440   10.22440  171.92770    0.00280    2.64190    0.04000    -999.25    0.03980    5.81640    0.00280   66.38900   66.38900   29.24290   35.68310   35.68310    5.81640    6.39620    6.39620    0.06800    -999.25    0.06800    2.64190    7.29180    0.13250  -33.83230  -14.55900    7.29180
 7900.00000    9.98960    9.98960  120.74380   -0.00350    2.64300    0.03800    -999.25    0.03920    8.28200   -0.00350   65.20920   65.20920   35.98930   41.39330   41.39330    8.28200    8.66250    8.66250    0.05830    -999.25    0.05830    2.64300    9.08810    0.12690  -32.58130  -14.23170    9.08810
 7950.00000    9.61540    9.61540   58.77170    0.00110    2.62150    0.05270    -999.25    0.05180   17.01500    0.00110   64.00640   64.00640   51.98340   50.62190   50.62190   17.01500   18.39430   18.39430    0.05570    -999.25    0.05570    2.62150   21.84170    0.11740  -36.96770  -19.54190   21.84170
 8000.00000    9.61940    9.61940   64.60320    0.03030    2.50960    0.11680    -999.25    0.11720   15.47910    0.03030   66.19090   66.19090   43.76280   52.46800   52.46800   15.47910   16.35670   16.35670    0.09170    -999.25    0.09170    2.50960   17.38960    0.13500  -46.66630  -30.16430   17.38960
 8050.00000    9.49030    9.49030   36.22820    0.00800    2.60140    0.06050    -999.25    0.06350   27.60280    0.00800   63.60310   63.60310   49.89650   58.73550   58.73550   27.60280   29.98230   29.98230    0.06650    -999.25    0.06650    2.60140   31.47890    0.11350  -43.60090  -28.02270   31.47890
 8100.00000    9.49020    9.49020   42.58930   -0.00960    2.58360    0.07510    -999.25    0.07390   23.48010   -0.00960   63.39100   63.39100   22.77220   23.24820   23.24820   23.48010   20.46280   20.46280    0.04280    -999.25    0.04280    2.58360   26.85440    0.11060  -37.27670  -22.62230   26.85440
 8150.00000   14.28660   14.28660  179.03180    0.09350    2.07450    0.37270    -999.25    0.37160    5.58560    0.09350  101.19440  101.19440   88.54690   96.05740   96.05740    5.58560    3.79320    3.79320    0.34450    -999.25    0.34450    2.07450    4.54420    0.37510  -23.98840  -10.25770    4.54420
 8200.00000   13.62110   13.62110  114.15660    0.14260    2.27710    0.25580    -999.25    0.25320    8.75990    0.14260  102.37650  102.37650   93.89080  100.29670  100.29670    8.75990    5.21660    5.21660    0.34760    -999.25    0.34760    2.27710    6.41050    0.38800  -27.84110  -15.03420    6.41050
 8250.00000    9.52700    9.52700  108.81160    0.05450    2.45560    0.14470    -999.25    0.14880    9.19020    0.05450   92.22360   92.22360  105.75100  132.40250  132.40250    9.19020    8.47190    8.47190    0.27170    -999.25    0.27170    2.45560    9.57490    0.31410  -19.57980   -7.69670    9.57490
 8300.00000    9.54750    9.54750   76.66070    0.01610    2.56150    0.08360    -999.25    0.08680   13.04450    0.01610   85.24510   85.24510  153.82860  155.38140  155.38140   13.04450   11.66170   11.66170    0.22690    -999.25    0.22690    2.56150   22.43740    -999.25  -14.61430   -3.92710   22.43740
 8350.00000   11.63610   11.63610  308.08100    0.11160    2.18610    0.30800    -999.25    0.30640    3.24590    0.11160   95.41670   95.41670   92.04260  104.18060  104.18060    3.24590    3.11820    3.11820    0.30360    -999.25    0.30360    2.18610    4.86230    -999.25  -21.75550  -12.57100    4.86230
 8400.00000    9.52130    9.52130   19.22240    0.00220    2.68170    0.01670    -999.25    0.01650   52.02260    0.00220   54.73290   54.73290   16.93900   17.15180   17.15180   52.02260   50.06140   50.06140    0.01020    -999.25    0.01020    2.68170   96.83770    -999.25  -27.91930  -20.23750   96.83770
 8450.00000    9.48870    9.48870   74.68990   -0.00850    2.71240   -0.00230    -999.25   -0.00140   13.38870   -0.00850   55.36240   55.36240   36.74020   35.07890   35.07890   13.38870   12.48000   12.48000    0.02010    -999.25    0.02010    2.71240   22.02870    -999.25  -13.85920   -7.25940   22.02870
 8500.00000    9.34400    9.34400   12.64220    0.00410    2.70220    0.00250    -999.25    0.00460   79.10020    0.00410   51.95280   51.95280   18.50170   13.65930   18.50170   79.10020   77.94100   77.94100    0.00000    -999.25    0.00000    2.70220   77.94610    -999.25  -29.81350  -23.21370   77.94610
