~Version ---------------------------------------------------
VERS. 2.0 : CWLS log ASCII Standard -VERSION 2.0
WRAP.  NO : ONE LINE PER DEPTH STEP
~Well ------------------------------------------------------
STRT.F                           1350.0 : START DEPTH
STOP.F                           6850.0 : STOP DEPTH
STEP.F                         50.00000 : STEP LENGTH
NULL.                           -999.25 : NULL VALUE
COMP. TEXLARK EXPLORATION COMPANY, INC. : COMPANY
WELL.                      KOTZUR E. #1 : WELL
FLD .                   MARCELINA CREEK : FIELD
LOC .                                   : LOCATION
CNTY.                            WILSON : COUNTY
STAT.                             TEXAS : STATE
CTRY.          UNITED STATES OF AMERICA : COUNTRY
SRVC.                             Welex : SERVICE COMPANY
DATE.                       05-Dec-1985 : LOGDATE
API .                    42493318190000 : API NUMBER
UWI .                    42493318190000 : UNIQUE WELL ID
SLAT.WGS84                29.0784069305 : SURFACE LATITUDE
SLON.WGS84               -98.1103547654 : SURFACE LONGITUDE
~Curve Information -----------------------------------------
DEPT  .F    0   1   0  0 : 1 MEASURED DEPTH
GRR   .GAPI 07 310 01 00 : GAMMA RAY FROM RESISTIVITY LOG
CALR  .IN   07 280 01 00 : CALIPER FROM RESISTIVITY LOG
SPR   .MV   07 010 01 00 : SPONTANEOUS POTENTIAL FROM RESISTIVITY LOG
ILD   .OHMM 07 120 46 00 : INDUCTION DEEP RESISTIVITY
ILM   .OHMM 07 120 44 00 : INDUCTION MEDIUM RESISTIVITY
SGUARD.OHMM 07 120 05 00 : SHALLOW/SHORT GUARD RESISTIVITY
~Params ----------------------------------------------------
PD  .                     GL : PERMANENT DATUM
EPD .FT                  406 : ELEVATION PERMANENT DATUM
LMF .                    TKB : LOG MEASURED FROM
DAPD.FT                 12.8 : FEET ABOVE PERMANENT DATUM
DMF .                    TKB : DRILLING MEASURED FROM
EKB .FT                418.8 : KELLY BUSHING
EDF .FT                417.8 : DRILLING FLOOR
EGL .FT                  406 : GROUND LEVEL
DATE.               12/05/85 : RUN DATE
RUN .                      1 : RUN NUMBER
DD  .FT                 6900 : DEPTH DRILLER
DL  .FT                 6900 : DEPTH LOGGER
BLI .FT                 6897 : BOTTOM LOG INTERVAL
TLI .FT                 1363 : TOP LOG INTERVAL
CS  .IN                8.625 : CASING SIZE
CBD .FT                 1363 : CASING BOTTOM DRILLER
CBL .FT                 1363 : CASING BOTTOM LOGGER
BS  .IN                7.875 : BIT SIZE
BSD .FT                 6900 : BIT SIZE AT DEPTH
DFT .       BASIC K MODIFIED : DRILLING FLUID TYPE
DFD .                    9.8 : DRILLING FLUID DENSITY
DFV .                     54 : DRILLING FLUID VISCOSITY
DFPH.                    9.5 : DRILLING FLUID PH
DFL .                    7.1 : DRILLING FLUID LOSS
MSS .              FLOW LINE : MUD SAMPLE SOURCE
RMS .OHMM               0.65 : RESISTIVITY MUD SAMPLE
MST .DEGF                 75 : MUD SAMPLE TEMPERATURE
RMF .OHMM               0.58 : RESISTIVITY MUD FILTRATE SAMPLE
MFST.DEGF                 75 : MUD FILTRATE SAMPLE TEMPERATURE
RMC .OHMM                1.3 : RESISTIVITY MUD CAKE
MCST.DEGF                 75 : MUD CAKE SAMPLE TEMPERATURE
MFSS.                   MEAS : MUD FILTRATE SAMPLE SOURCE
MCSS.                   MEAS : MUD CAKE SAMPLE SOURCE
RMB .OHMM               0.29 : RESISTIVITY MUD AT BHT
TCS .HRS                   3 : TIME CIRCULATED STOPPED
TLAB.HRS                 530 : TIME LOGGER AT BOTTOM
LUN .                   1122 : LOGGING UNIT NUMBER
LUL .                   VICT : LOGGING UNIT LOCATION
ENGI.                 SOLARI : RECORDING ENGINEER
WITN.               RICKAWAY : WITNESSED BY
CLNT.                A2DTECH : CLIENT CODE
ORIG.               5" PRINT : ORIGIN OF DATA
UWI .         42493318190000 : UNIQUE WELL ID
DICO. A2D Technologies, Inc. : DIGITIZING COMPANY
~Other -----------------------------------------------------
~ASCII -----------------------------------------------------
 1350.00000   42.13460    -999.25    -999.25    -999.25    -999.25    -999.25
 1400.00000   43.54570   14.85470  -56.48630    2.65570    2.13180    2.58580
 1450.00000   36.42180   11.85370  -20.74390    8.55950    4.26440    7.43560
 1500.00000   45.58180   12.28070  -36.30740    8.30530    4.75830    7.17980
 1550.00000   32.92850   11.80620  -38.87760    8.33720    4.78570    7.59150
 1600.00000   23.46330   11.93790   -5.20190   14.21880    5.25660   14.37060
 1650.00000   30.33040   12.15290  -10.26860   10.85110    4.21610   12.86490
 1700.00000   61.13730   13.36160  -43.41000    5.71400    4.26120    8.30710
 1750.00000   31.42850   12.35220   -4.78010   16.65210    6.50720   21.79360
 1800.00000   33.22150   11.88820  -17.73370   11.76250    4.73240   11.96620
 1850.00000   19.44310   11.85740   -3.22090   11.36470    4.18330   14.31210
 1900.00000   19.84920   12.34450   -6.79400   13.12370    4.62050   14.37960
 1950.00000   29.30700   12.34470   -9.76370   13.91920    4.90340   15.07740
 2000.00000   48.24370   11.49620  -26.41230   18.69740    9.43180   14.55310
 2050.00000   51.95110    9.32360   -6.93980   21.84880    8.30000   17.07100
 2100.00000   54.02990   10.00680  -14.47050   19.37740    8.29870   16.03100
 2150.00000   42.63930   10.28700   -5.94030   18.62100    7.28110   16.78610
 2200.00000   34.51590   10.31570   -2.94720   20.59860    8.33030   17.08590
 2250.00000   41.86100    9.46520   -3.06200   19.85210    8.73950   17.82290
 2300.00000   40.44400    9.44950   -7.77790   16.64210    7.44490   12.53890
 2350.00000   55.63360    8.82250  -39.91960    7.10100    6.14310    8.87090
 2400.00000   53.36240    9.21530  -38.43320    7.15610    6.39340    7.06070
 2450.00000   67.39030    8.78600  -47.75440    3.32180    3.18070    3.66700
 2500.00000   70.14750    8.45750  -47.45620    3.43850    3.28560    3.66060
 2550.00000   76.51160    9.63940  -46.77350    4.11840    3.64650    4.05230
 2600.00000   63.30670    9.84810  -47.61290    6.01780    6.11730   11.32380
 2650.00000   81.47670    8.96080  -47.47320    3.09970    3.00680    3.63570
 2700.00000   74.72680    8.74220  -47.48990    2.99800    2.86810    3.26840
 2750.00000   67.56610    8.60340  -47.74070    3.08930    2.92050    2.82720
 2800.00000   73.02490    9.50710  -46.72290    2.05650    1.97410    1.98770
 2850.00000   61.38350    9.21660  -35.99190    4.42480    4.17060    4.85600
 2900.00000   71.49400   10.10650  -38.92420    3.91880    3.63030    4.18580
 2950.00000   89.75390   10.65860  -44.87070    4.30830    4.04050    4.46770
 3000.00000   62.84870    9.62860  -30.04220    6.20450    4.95590    5.56720
 3050.00000   59.56440    9.79610  -16.37240    8.31420    5.78760    6.34510
 3100.00000   56.74890    8.69060  -23.17780   17.46080   16.58910   72.59310
 3150.00000   75.65870    8.12240  -33.82260    3.46750    3.12300    3.56940
 3200.00000   89.71170    7.84060  -37.73730    4.35290    3.82600    4.44390
 3250.00000   64.90020    7.77350  -37.70290    5.02090    4.80290    5.54280
 3300.00000   73.02780    9.15460  -39.45890    4.21470    3.81820    4.53640
 3350.00000   57.65270    8.62900  -31.48850    4.77570    4.13240    4.83760
 3400.00000   81.77770    9.24850  -30.26300    5.69440    5.03940    5.46190
 3450.00000   56.85800    9.07720  -21.70850    6.79850    5.52350    5.86230
 3500.00000   40.64390    7.61830  -11.84870    9.77230    6.96240    7.21500
 3550.00000   75.75490    9.64160  -36.77530    1.83480    1.53370    1.74120
 3600.00000   44.90310    8.87490  -20.03110    8.15750    6.22640    7.00380
 3650.00000   51.58180    8.35570  -26.27300    6.16930    5.13520    5.32450
 3700.00000   41.51500    8.36560  -12.43470    7.48390    6.30080    6.87930
 3750.00000   36.52920    7.37850  -13.41130    9.11510    6.55670    7.11020
 3800.00000   33.88760    8.35640   -9.52770   10.67870    7.90670    8.18460
 3850.00000   32.29930    7.31240   -9.36480    9.43750    7.23470    7.64330
 3900.00000   45.65850    8.38700  -13.54610   10.25900    7.42610    8.21680
 3950.00000   45.17720    8.82760  -12.93200    8.32790    7.12940    7.41250
 4000.00000   34.83670    8.12030  -10.18800    7.86790    6.52470    6.44430
 4050.00000   86.52490    9.45900  -30.05790    5.76770    5.55460    6.16970
 4100.00000   79.73650   11.41600  -31.93690    1.37540    1.42380    1.70850
 4150.00000   84.19210   10.69240  -32.50080    2.15140    2.18450    2.59280
 4200.00000   86.07520    9.70050  -33.75720    2.67430    2.76450    3.43900
 4250.00000   94.39540    8.52230  -32.70170    2.45350    2.57280    3.04480
 4300.00000   86.37640    8.31010  -32.42990    2.28950    2.37950    2.86370
 4350.00000   84.51690    9.25040  -31.51980    2.52480    2.60820    3.09220
 4400.00000   95.22040    9.45980  -30.50510    2.02660    2.07210    2.32590
 4450.00000   86.16450    9.76800  -29.65290    1.63230    1.67370    2.01720
 4500.00000   85.85100    9.30060  -28.58420    1.61720    1.65840    1.92670
 4550.00000   80.17590    9.98910  -28.34360    1.60300    1.65820    1.91200
 4600.00000   91.45460   11.00060  -28.61690    1.26800    1.29760    1.57640
 4650.00000   80.73550   10.27180  -27.98810    1.31630    1.37050    1.57720
 4700.00000   78.19040    9.01500  -27.67060    1.21250    1.26390    1.46840
 4750.00000   90.49440   11.48350  -31.49210    1.01160    1.02860    1.12690
 4800.00000   87.42270   12.66680  -30.03350    0.93910    0.96370    1.14000
 4850.00000   80.39700   11.61810  -28.68030    0.76020    0.79530    0.92030
 4900.00000   60.66510   10.84820  -31.30430    1.50340    1.50460    1.44850
 4950.00000   61.05630   12.05140  -28.61560    1.27920    1.31420    1.58760
 5000.00000   81.77350   10.26610  -26.16700    1.74170    1.84930    2.08840
 5050.00000   69.64850   11.58750  -26.18430    1.58650    1.63990    1.84240
 5100.00000   79.34330    9.84640  -26.37040    1.12130    1.59130    2.32420
 5150.00000   74.64000   10.69950  -27.67040    1.19380    1.26820    1.63160
 5200.00000   65.08210   11.71840  -26.76550    1.12200    1.15730    1.52240
 5250.00000   69.78730   13.17420  -27.94680    0.90540    0.93950    1.17170
 5300.00000   72.39390   12.75660  -26.51400    0.94730    1.00540    1.18410
 5350.00000   67.45600   11.37600  -24.71320    1.08310    1.12090    1.25000
 5400.00000   67.28650    9.27410  -23.83920    1.18460    1.25500    1.40470
 5450.00000   68.74700   11.56380  -26.67930    1.12380    1.18640    1.48660
 5500.00000   64.57710    9.30360  -22.34120    1.86630    2.03530    2.69650
 5550.00000   66.09350   10.59340  -24.96690    1.45210    1.50100    1.74180
 5600.00000   72.09790   12.37650  -28.57680    1.09540    1.17220    1.48890
 5650.00000  101.36340    9.78720  -24.35980    1.53900    1.63340    2.30230
 5700.00000   80.68270    9.65140  -23.28430    1.42530    1.53080    1.85400
 5750.00000   91.87310    8.98650  -24.57670    1.02070    1.09390    1.33590
 5800.00000   86.44130   10.59720  -24.46890    1.23320    1.31490    1.60680
 5850.00000  101.58010   11.84140  -23.61210    1.21590    1.24690    1.48250
 5900.00000  106.49720   11.94910  -26.05540    1.09970    1.17490    1.41000
 5950.00000   96.33390    9.46550  -22.80870    1.69130    1.82610    2.12370
 6000.00000  108.78360   12.77940  -26.72350    0.88660    0.96260    1.15170
 6050.00000  117.07010   11.40250  -23.70570    1.05400    1.13080    1.32790
 6100.00000  105.32650   11.78410  -35.72100    1.36240    1.45800    1.71210
 6150.00000  112.32510   12.56140  -39.02960    1.15340    1.21080    1.32460
 6200.00000  107.34220   10.12610  -36.31380    2.39520    2.56350    2.86240
 6250.00000   94.48710   11.29460  -36.12680    1.12020    1.19630    1.48530
 6300.00000   97.58790   10.40310  -30.73840    1.35660    1.44810    1.89770
 6350.00000   64.59470   11.62040  -26.57360    1.83550    1.95330    2.57820
 6400.00000   57.73070   11.42870  -25.84400    2.43420    2.57600    3.45030
 6450.00000   68.44800   10.53140  -24.45870    2.03810    2.12610    2.92130
