~Version ---------------------------------------------------
VERS. 2.0 : CWLS log ASCII Standard -VERSION 2.0
WRAP.  NO : ONE LINE PER DEPTH STEP
~Well ------------------------------------------------------
STRT.FT                  2450.0 : START DEPTH
STOP.FT                  6950.0 : STOP DEPTH
STEP.FT                50.00000 : STEP LENGTH
NULL.                   -999.25 : NULL VALUE
COMP. EVERGREEN OIL CORPORATION : COMPANY
WELL.       GILLETTE ELEANOR #2 : WELL
FLD .                      COST : FIELD
LOC .                           : LOCATION
CNTY.                  GONZALES : COUNTY
STAT.                     TEXAS : STATE
CTRY.  UNITED STATES OF AMERICA : COUNTRY
SRVC.              Schlumberger : SERVICE COMPANY
DATE.               23-Mar-1981 : LOGDATE
API .            42177308170000 : API NUMBER
UWI .            42177308170000 : UNIQUE WELL ID
SLAT.WGS84        29.3955893297 : SURFACE LATITUDE
SLON.WGS84       -97.5864825388 : SURFACE LONGITUDE
~Curve Information -----------------------------------------
DEPT  .FT    : DEPTH FEET
SPWS  .MV    : SPONTANEOUS POTENTIAL [BASELINE 0 MV] [SPRED]
GRRED .GAPI  : GAMMA RAY FROM RESISTIVITY LOG
GRWS  .GAPI  : GAMMA RAY [GRRED]
DRHOED.G/C3  : DENSITY CORRECTION FROM DENSITY LOG
DCALED.IN    : DIFFERENTIAL CALIPER FROM DENSITY LOG
ILDED .OHMM  : INDUCTION LOG DEEP RESISTIVITY
ILMED .OHMM  : INDUCTION LOG MEDIUM RESISTIVITY
SFLUED.OHMM  : SPHERICALLY FOCUSED LOG RESISTIVITY
SPRED .MV    : SPONTANEOUS POTENTIAL FROM RESISTIVITY LOG
TENRED.LBF   : TENSION FROM RESISTIVITY LOG
NPHIED.V/V   : NEUTRON POROSITY FROM DENSITY LOG
DPHIED.V/V   : DENSITY POROSITY FROM DENSITY LOG
CALWS .IN    : CALIPER [DCALED+BIT]
DCORWS.G/C3  : DENSITY CORRECTION [DRHOED]
DRESWS.OHMM  : DEEP RESISTIVITY [ILDED]
MRESWS.OHMM  : MEDIUM RESISTIVITY [ILMED]
SRESWS.OHMM  : SHALLOW RESISTIVITY [SFLUED]
CONDWS.MMHO  : CONDUCTIVITY [1000/DRESWS]
DENWS .G/C3  : BULK DENSITY [CALCULATED FROM DPHIED]2446-6329' (SS_2.68);6329-TD (LS_2.71)
DPOWS .V/V   : DENSITY POROSITY LIME [CALCULATED FROM DENWS]
NPOWS .V/V   : NEUTRON POROSITY LIME [CONV NPHIED] 2446-6329' (SS_2.68);6329-TD (LS_2.71)
~Params ----------------------------------------------------
PD  .                     GL : PERMANENT DATUM
EPD .FT                  307 : ELEVATION PERMANENT DATUM
LMF .                     KB : LOG MEASURED FROM
DAPD.FT                   15 : FEET ABOVE PERMANENT DATUM
DMF .                     KB : DRILLING MEASURED FROM
EKB .FT                  322 : KELLY BUSHING
EDF .FT                  321 : DRILLING FLOOR
EGL .FT                  307 : GROUND LEVEL
DATE.               03/23/81 : RUN DATE
RUN .                      1 : RUN NUMBER
DD  .FT                 6945 : DEPTH DRILLER
DL  .FT                 6970 : DEPTH LOGGER
BLI .FT                 6964 : BOTTOM LOG INTERVAL
TLI .FT                 2446 : TOP LOG INTERVAL
CS  .IN                8.625 : CASING SIZE
CBD .FT                 2446 : CASING BOTTOM DRILLER
CBL .FT                 2446 : CASING BOTTOM LOGGER
BS  .IN                7.875 : BIT SIZE
BSD .FT                 6945 : BIT SIZE AT DEPTH
DFT .            ASTRA VIS V : DRILLING FLUID TYPE
DFD .                    9.6 : DRILLING FLUID DENSITY
DFV .                     34 : DRILLING FLUID VISCOSITY
DFPH.                    8.5 : DRILLING FLUID PH
DFL .                    6.8 : DRILLING FLUID LOSS
MSS .               CIRC PIT : MUD SAMPLE SOURCE
RMS .OHMM               3.54 : RESISTIVITY MUD SAMPLE
MST .DEGF                 75 : MUD SAMPLE TEMPERATURE
RMF .OHMM               3.76 : RESISTIVITY MUD FILTRATE SAMPLE
MFST.DEGF                 75 : MUD FILTRATE SAMPLE TEMPERATURE
RMC .OHMM               5.31 : RESISTIVITY MUD CAKE
MCST.DEGF                 75 : MUD CAKE SAMPLE TEMPERATURE
MFSS.                      M : MUD FILTRATE SAMPLE SOURCE
MCSS.                      C : MUD CAKE SAMPLE SOURCE
RMB .OHMM               1.56 : RESISTIVITY MUD AT BHT
TCS .HRS                 800 : TIME CIRCULATED STOPPED
TLAB.HRS                1330 : TIME LOGGER AT BOTTOM
LUN .                   8038 : LOGGING UNIT NUMBER
LUL .                   2303 : LOGGING UNIT LOCATION
ENGI.                   FAIR : RECORDING ENGINEER
CLNT.                A2DTECH : CLIENT CODE
ORIG.            1" 5" PRINT : ORIGIN OF DATA
UWI .         42177308170000 : UNIQUE WELL ID
DICO. A2D Technologies, Inc. : DIGITIZING COMPANY
~Other -----------------------------------------------------
ALL LOGS RUN IN COMBO.
MTRX CHANGE 2446-6329' (SS_2.68);6329-TD (LS_2.71).
~ASCII -----------------------------------------------------
# ...
 5750.00000   -2.04920   75.48950   75.48950    0.09580    3.48500    1.19420    1.42630    1.38700    7.61620 2269.13650    0.35980    0.13360   11.36000    0.09580    1.19420    1.42630    1.38700  837.38070    2.45560    0.14880    0.31630
 5800.00000   -1.26690   89.89170   89.89170    0.10000    4.60040    0.98390    1.13840    1.22180    8.60380 2295.95630    0.33580    0.18890   12.47540    0.10000    0.98390    1.13840    1.22180 1016.36350    2.36260    0.20310    0.29200
 5850.00000   -1.86600   87.46450   87.46450    0.09620    3.22650    1.28940    1.52730    1.47300    7.85100 2294.45680    0.33800    0.11700   11.10150    0.09620    1.28940    1.52730    1.47300  775.55450    2.48340    0.13250    0.29420
 5900.00000   -2.07400   75.60870   75.60870    0.08720    3.38880    1.29780    1.55560    1.52010    6.87800 2265.23140    0.28920    0.12740   11.26380    0.08720    1.29780    1.55560    1.52010  770.53480    2.46600    0.14270    0.24520
 5950.00000   -2.38930   80.68330   80.68330    0.08990    2.85080    1.39960    1.69250    1.58030    5.79770 2305.35520    0.30180    0.11580   10.72580    0.08990    1.39960    1.69250    1.58030  714.48990    2.48550    0.13130    0.25780
 6000.00000   -3.70350   66.02480   66.02480    0.10020    3.75820    1.28490    1.52450    1.49650    4.34410 2357.61720    0.37180    0.11890   11.63320    0.10020    1.28490    1.52450    1.49650  778.27070    2.48020    0.13440    0.32840
 6050.00000   -2.33140   73.31580   73.31580    0.06440    2.89810    1.48180    1.69760    1.63340    6.36560 2346.67380    0.30860    0.11320   10.77310    0.06440    1.48180    1.69760    1.63340  674.85490    2.48980    0.12880    0.26470
 6100.00000   -1.23490   82.82620   82.82620    0.04510    3.68630    1.40080    1.68450    1.55820    7.60800 2367.59940    0.30170    0.14240   11.56130    0.04510    1.40080    1.68450    1.55820  713.87780    2.44080    0.15740    0.25770
 6150.00000   -3.28570   70.52510   70.52510    0.09560    4.85740    1.55980    1.92900    1.85690    4.64160 2359.43090    0.25750    0.09220   12.73240    0.09560    1.55980    1.92900    1.85690  641.10780    2.52510    0.10810    0.21360
 6200.00000   -3.61210   73.91420   73.91420    0.08720    5.96600    1.25250    1.54500    1.50300    2.66370 2387.57350    0.32300    0.12710   13.84100    0.08720    1.25250    1.54500    1.50300  798.40310    2.46650    0.14240    0.27910
 6250.00000   -2.39090   75.79140   75.79140    0.07400    7.64300    1.28840    1.63530    1.56040   -0.65600 2412.12940    0.32790    0.14410   15.51800    0.07400    1.28840    1.63530    1.56040  776.15640    2.43790    0.15910    0.28410
 6300.00000   -2.51710   80.24930   80.24930    0.09580    7.98730    1.01020    1.35370    1.28740   -4.77820 2407.56690    0.37470    0.19900   15.86230    0.09580    1.01020    1.35370    1.28740  989.90300    2.34570    0.21310    0.33140
 6350.00000   -2.55030   85.70840   85.70840    0.10070    4.34540    1.45430    1.72680    1.77680   -6.99330 2451.55660    -999.25    0.12720   12.22040    0.10070    1.45430    1.72680    1.77680  687.61600    2.49250    0.12720    -999.25
 6400.00000   -3.09880   61.03540   61.03540    0.00780    4.24570    3.03020    3.49020    2.92880   -6.33940 2490.83540    0.19340    0.08980   12.12070    0.00780    3.03020    3.49020    2.92880  330.01120    2.55640    0.08980    0.19340
 6450.00000   -6.01130   46.68250   46.68250   -0.00520    4.65270    4.54230    5.40870    5.23400  -14.59530 2497.11690    0.12810    0.08870   12.52770   -0.00520    4.54230    5.40870    5.23400  220.15280    2.55830    0.08870    0.12810
 6500.00000  -15.27400   29.60630   29.60630    0.04910    3.57510    7.66100    8.17210    9.92890  -29.20140 2508.57690    0.13450    0.05510   11.45010    0.04910    7.66100    8.17210    9.92890  130.53130    2.61580    0.05510    0.13450
 6550.00000   -6.07910   34.71930   34.71930   -0.00980    2.69680    2.53470    2.99410   12.99530  -25.79440 2522.56010    0.08200    0.10110   10.57180   -0.00980    2.53470    2.99410   12.99530  394.52400    2.53710    0.10110    0.08200
 6600.00000   -1.45440   30.58320   30.58320    0.01160    2.50300    7.02100    8.10440   10.09110  -30.15440 2515.08570    0.04360    0.05500   10.37800    0.01160    7.02100    8.10440   10.09110  142.42990    2.61600    0.05500    0.04360
 6650.00000  -26.23860   15.27560   15.27560    0.00260    2.53270   10.90540   19.79120   30.72240  -68.78630 2603.45290    0.03160    0.04160   10.40770    0.00260   10.90540   19.79120   30.72240   91.69770    2.63890    0.04160    0.03160
 6700.00000  -20.88500   33.17930   33.17930    0.05640    2.12810    7.64190    9.14550    9.94930  -77.28040 2537.53640    0.07110    0.02720   10.00310    0.05640    7.64190    9.14550    9.94930  130.85750    2.66350    0.02720    0.07110
 6750.00000   -6.17440   59.59240   59.59240    0.00550    1.84530   27.46870   27.46870   25.18690  -76.41740 2588.41990    0.11820    0.04070    9.72030    0.00550   27.46870   27.46870   25.18690   36.40510    2.64040    0.04070    0.11820
 6800.00000   -7.26520   81.18040   81.18040    0.01520    1.72990   29.22560   34.15140   42.90200  -77.02710 2554.40990    0.17200    0.11680    9.60490    0.01520   29.22560   34.15140   42.90200   34.21660    2.51030    0.11680    0.17200
 6850.00000  -21.34140   27.11420   27.11420   -0.00370    0.79580   11.43060   11.80460   11.99260  -88.11860 2573.34250    0.08090    0.02690    8.67080   -0.00370   11.43060   11.80460   11.99260   87.48450    2.66400    0.02690    0.08090
 6900.00000  -30.97220   18.73210   18.73210   -0.00150    3.59010   25.83440   27.58970   28.43640  -89.39920 2601.25240    0.03300    0.00640   11.46510   -0.00150   25.83440   27.58970   28.43640   38.70810    2.69910    0.00640    0.03300
 6950.00000  -70.34860    -999.25    -999.25    -999.25   -0.19130   21.49840   20.64830   27.05590 -131.56960 2627.72920    -999.25    -999.25    7.68370    -999.25   21.49840   20.64830   27.05590   46.51510    -999.25    -999.25    -999.25
