~Version ---------------------------------------------------
VERS. 2.0 : CWLS log ASCII Standard -VERSION 2.0
WRAP.  NO : ONE LINE PER DEPTH STEP
~Well ------------------------------------------------------
STRT.F                     3750.0 : START DEPTH
STOP.F                    10950.0 : STOP DEPTH
STEP.F                   50.00000 : STEP LENGTH
NULL.                     -999.25 : NULL VALUE
COMP. SOHIO PETROLEUM CORPORATION : COMPANY
WELL.           REBECCA GLUECK #1 : WELL
FLD .                     WILDCAT : FIELD
LOC .                             : LOCATION
CNTY.                    LA SALLE : COUNTY
STAT.                       TEXAS : STATE
CTRY.    UNITED STATES OF AMERICA : COUNTRY
SRVC.                     Unknown : SERVICE COMPANY
DATE.                 03-Apr-1981 : LOGDATE
API .              42283307300000 : API NUMBER
UWI .              42283307300000 : UNIQUE WELL ID
SLAT.WGS84          28.5523951731 : SURFACE LATITUDE
SLON.WGS84         -98.8996844596 : SURFACE LONGITUDE
~Curve Information -----------------------------------------
DEPT.F                 : 
SP  .MV   07 010 01 00 : SPONTANEOUS POTENTIAL
ILM .OHMM 07 120 44 00 : MEDIUM INDUCTION RESISTIVITY
ILD .OHMM 07 120 46 00 : DEEP INDUCTION RESISTIVITY
SFL .OHMM 07 220 01 00 : SPHERICAL FOCUSED RESISTIVITY
GR  .GAPI 07 310 01 00 : CALIPER
DT  .US/F 60 520 00 00 : NO SPACING
~Params ----------------------------------------------------
EKB .F                 408.0 : KELLY BUSHING
EGL .F                   390 : ELEVATION GROUND LEVEL
EDF .F                   407 : ELEVATION DERRICK FLOOR
EPD .F                   390 : ELEVATION PERMANENT DATUM
TD  .F               11005.0 : TOTAL DEPTH
DATE.            03-APR-1981 : DATE LOGGED
CLNT.                A2DTECH : CLIENT CODE
SL  .   5000' FNL & 890' FSL : SURFACE LOCATION
PD  .                     GL : PERMANENT DATUM
LMF .                     KB : LOG MEASURED FROM
DMF .                     KB : DRILLING MEASURED FROM
DAPD.F                    18 : FEET ABOVE PERMANENT DATUM
DD  .F                 11005 : DEPTH DRILLER
DL  .F                 10978 : DEPTH LOGGER
BLI .F                 10972 : BOTTOM LOG INTERVAL
TLI .F                  3723 : TOP LOG INTERVAL
CS1 .IN                10.75 : CASING SIZE
CBD1.         10.75" @ 3724' : CASING DRILLER 1
CBL1.F                  3723 : CASING LOGGER 1
BS1 .IN                9.875 : BIT SIZE
BSD1.F                 11005 : DEPTH DRILLED WITH BIT1
DFT .                    CLS : TYPE FLUID IN HOLE
DFD .                     11 : DENSITY
DFV .                     45 : VISCOSITY
DFPH.                   11.7 : PH
DFL .                    3.9 : FLUID LOSS
MSS .               FLOWLINE : SOURCE OF SAMPLE
RMS .OHMM               0.68 : RM
RMF .OHMM               0.44 : RMF
RMC .OHMM                0.4 : RMC
MFSS.                   MEAS : SOURCE RMF.
MCSS.                   CALC : SOURCE RMC.
RMB .OHMM               0.27 : RM. AT BHT
BHT .F                   225 : BHT.
TCS .HRS                   0 : TIME CIRC. STOPPED
TLAB.                    600 : TIME LOGGER AT BOTTOM
LUN .                   8180 : LOGGING UNIT NUMBER
LUL .                 LAREDO : LOGGING UNIT LOCATION
ENGI.             HAMAK/MOON : RECORDED BY
WITN.                KRANCER : WITNESSED BY
ORIG.               5" PRINT : ORIGIN OF DATA
UWI .         42283307300000 : UNIQUE WELL ID
DICO. A2D TECHNOLOGIES, INC. : DIGITIZING COMPANY
~Other -----------------------------------------------------
~ASCII -----------------------------------------------------
 3750.00000  -30.29850    4.21400    4.92040    3.46360   51.24620   94.73280
 3800.00000  -37.47250    4.17430    4.76130    3.85950   82.82210   92.59540
 3850.00000  -34.81320    2.03240    2.09740    1.95150   82.51530  110.25450
 3900.00000  -37.93560    2.07260    2.20350    1.99300   87.63950  103.57970
 3950.00000  -39.81450    3.51410    3.87210    3.42470   87.01430   93.17180
 4000.00000  -41.76490    4.85170    5.16070    4.53680   81.28780   87.55770
 4050.00000  -35.75760    3.30760    3.61730    3.28330   78.99510   92.55770
 4100.00000  -32.43650    2.19770    2.44430    1.97910   83.52320   93.33240
 4150.00000  -37.30280    3.58330    3.64060    3.37690   90.71350   91.95120
 4200.00000  -37.78680    3.42780    3.66010    3.07320   78.05450   91.37550
 4250.00000  -36.95770    3.17380    3.23940    3.08200   85.78350   96.67940
 4300.00000  -48.00750    3.20120    3.24680    3.08190   55.46410   87.14510
 4350.00000  -33.66190    2.23810    2.23900    2.06720   85.45640   97.14390
 4400.00000  -39.70820    3.72370    3.63400    3.55450   75.43020   93.22680
 4450.00000  -33.93860    1.47330    1.60470    1.80620   84.97010  105.34380
 4500.00000  -44.35110    3.09040    2.99760    2.70560   69.89840   92.90140
 4550.00000  -38.81860    2.49850    2.73970    1.91060   82.77150  104.96210
 4600.00000  -46.46310    2.90580    2.94170    2.87270   49.16740   86.92960
 4650.00000  -56.42800    3.52690    3.17870    3.37690   44.63200   87.86310
 4700.00000  -37.48090    2.19000    2.71970    1.93770   82.79980  107.07110
 4750.00000  -54.03930    3.26400    2.75310    3.06030   59.66160   90.73850
 4800.00000  -42.51910    2.48380    2.50340    2.18370   88.22040   95.76340
 4850.00000  -63.76000    3.94990    3.47900    3.69990   97.23930   82.24900
 4900.00000  -43.34080    3.38690    3.58910    2.58500   88.42680   91.13450
 4950.00000  -42.72950    3.41080    3.59490    3.01760   86.67390   90.29260
 5000.00000  -38.66500    4.01120    3.98500    4.02820   89.49390   85.79650
 5050.00000  -34.58090    3.01210    3.06440    2.75400   80.13760   88.02870
 5100.00000  -34.71860    2.14480    2.16700    2.07890   83.60600   94.70270
 5150.00000  -35.51450    1.99620    2.10580    1.93770   85.73620   96.21660
 5200.00000  -37.98450    2.24010    2.55090    2.35930   83.31010   91.90430
 5250.00000  -40.45810    2.02850    2.08070    2.20080   70.51380   89.12360
 5300.00000  -43.00670    2.53620    2.51520    2.47840   69.79960   86.07640
 5350.00000  -44.07170    2.64060    2.63650    2.34280   68.99910   87.45120
 5400.00000  -42.51110    2.05910    2.06930    2.03550   69.97610   90.30530
 5450.00000  -44.14900    2.59120    2.63640    2.32640   73.08570   87.09920
 5500.00000  -42.67180    2.28240    2.19980    2.35930   68.18920   89.09620
 5550.00000  -41.66670    1.43190    1.42060    1.40230   75.64860   97.65420
 5600.00000  -41.18860    1.10800    1.24850    1.13560   91.10390  112.45780
 5650.00000  -41.46910    1.64730    1.67610    1.63690   80.21500   96.56490
 5700.00000  -53.75990    3.05210    2.98330    2.85250   54.90790   76.28020
 5750.00000  -44.12160    2.07690    2.24060    2.01420   72.99070   91.10660
 5800.00000  -43.12950    1.69540    1.75530    1.74950   77.76860   98.01760
 5850.00000  -45.41960    2.46650    2.63020    2.10110   69.01840   88.28420
 5900.00000  -45.13220    2.59120    2.57360    2.04290   70.21950   87.70990
 5950.00000  -44.85820    3.45920    2.85570    2.14600   64.11040   89.84650
 6000.00000  -45.39090    2.44630    2.44520    2.23860   67.78630   88.15150
 6050.00000  -44.35110    1.81850    1.87040    1.78690   75.45990   96.10690
 6100.00000  -45.95900    2.98460    3.35600    2.80430   67.03430   83.58930
 6150.00000  -45.57470    1.49550    1.57920    1.60780   80.52020   98.85450
 6200.00000  -46.64790    1.93760    1.99300    1.93090   80.01770   94.71140
 6250.00000  -49.39560    2.60960    2.89050    2.13090   71.32910   95.04000
 6300.00000  -48.37150    2.19020    2.37720    2.16110   61.37510   90.14880
 6350.00000  -48.47330    2.31500    2.56900    2.36820   66.87690   89.62500
 6400.00000  -47.49370    2.52470    3.04280    2.78470   72.85500   80.39600
 6450.00000  -45.49730    2.34970    2.51480    2.31880   73.20190   88.32250
 6500.00000  -43.58880    2.23480    2.36050    2.17640   77.22280   90.08140
 6550.00000  -44.07350    1.95470    1.97900    1.83800   84.27060   94.62360
 6600.00000  -43.84840    2.40010    2.85040    2.63200   74.29560   87.48040
 6650.00000  -43.28220    2.72960    2.88650    2.55890   67.50380   88.40460
 6700.00000  -44.29940    3.41780    3.78640    3.25110   60.77340   82.14840
 6750.00000  -42.82440    3.11120    3.01790    3.41540   68.71140   84.49650
 6800.00000  -52.69620    2.49510    2.40040    2.05710   81.36590   86.03000
 6850.00000  -57.94120    2.74140    2.69700    2.54110   60.42980   82.58650
 6900.00000  -58.26040    2.52070    2.50510    2.52320   59.57700   76.25870
 6950.00000  -52.29180    3.00450    2.97040    2.59530   62.27010   80.06530
 7000.00000  -48.10110    3.38690    3.53890    3.43960   61.37160   76.68680
 7050.00000  -44.46760    2.33100    2.27990    2.31870   83.23660   83.41460
 7100.00000  -44.94190    1.74630    1.68270    1.55210   83.02940   92.84340
 7150.00000  -45.11670    2.33000    2.53300    2.13090   74.45050   85.05240
 7200.00000  -46.02520    2.29750    2.29640    2.20710   82.84090   86.48800
 7250.00000  -46.06870    2.01190    2.03560    1.86940   80.02820   91.72990
 7300.00000  -47.40410    3.45920    3.43020    2.92530   81.55520   78.00220
 7350.00000  -47.71100    3.33150    3.43030    3.28280   77.91410   78.50050
 7400.00000  -48.62600    3.19180    3.51670    3.32060   73.19900   77.63360
 7450.00000  -50.18180    3.38860    3.66760    3.16080   76.60970   77.99730
 7500.00000  -49.55920    2.98340    3.19120    2.72640   80.48430   80.83970
 7550.00000  -47.94770    2.57300    2.82520    2.48790   69.15960   82.86390
 7600.00000  -47.94790    2.26640    2.72770    2.28380   73.92740   87.50620
 7650.00000  -48.06280    2.42870    2.58120    2.17640   88.21560   90.22800
 7700.00000  -50.80160    3.99120    4.02130    4.01600   76.53410   76.73450
 7750.00000  -50.45950    3.67490    3.89460    3.63890   78.57810   76.74220
 7800.00000  -50.00030    3.73800    3.78640    3.36770   74.49340   78.33990
 7850.00000  -50.10210    3.98280    3.90130    3.03010   75.84360   80.42380
 7900.00000  -50.00010    3.15850    3.33500    3.07320   74.27910   80.58870
 7950.00000  -50.15470    3.58030    3.75200    3.63890   78.53410   79.27050
 8000.00000  -51.98760    3.42470    3.33490    3.41540   73.46890   80.38170
 8050.00000  -57.25330    2.51540    2.77290    2.63200   74.53980   86.95390
 8100.00000  -56.03600    3.84490    3.93300    3.66460   76.48120   78.38790
 8150.00000  -57.43870    5.18720    4.89810    3.76930   60.16100   78.39670
 8200.00000  -57.65250    4.85420    4.89490    4.46330   55.40070   75.09560
 8250.00000  -58.50140    7.88950    8.82570    6.30230   64.34420   71.96570
 8300.00000  -60.66580   16.65050   16.88590   19.03810   32.71050   59.69140
 8350.00000  -57.72560    8.28830    8.01580    8.35300   38.38200   65.98820
 8400.00000  -58.77840   10.42360   10.41440   12.83440   34.31620   65.57340
 8450.00000  -58.65100    3.44310    5.70100    4.55860   58.41240   78.70200
 8500.00000  -57.40950    5.86830    4.45300    5.75110   65.45360   76.74740
 8550.00000  -59.97420    4.80180    4.81220    5.13820   56.89480   78.77660
 8600.00000  -61.21380   11.72800   11.64560   15.14250   40.18520   63.89210
 8650.00000  -62.29080    6.59560    9.64400    9.65390   43.05390   62.18680
 8700.00000  -66.00550    3.48370    4.70890    3.39140   60.81270   65.26660
 8750.00000  -69.77100   20.62370   23.02960   15.96510   27.40160   58.62520
 8800.00000  -71.35290   19.77640   18.70970   18.12240   25.13750   62.40680
 8850.00000  -67.33220   99.43400   56.84250   88.91450   21.95880   59.26670
