~Version ---------------------------------------------------
VERS. 2.0 : CWLS log ASCII Standard -VERSION 2.0
WRAP. YES : MULTIPLE LINES PER DEPTH STEP
~Well ------------------------------------------------------
STRT.FT                  300.0 : START DEPTH
STOP.FT                14000.0 : STOP DEPTH
STEP.FT               50.00000 : STEP LENGTH
NULL.                  -999.25 : NULL VALUE
COMP.      MGF OIL CORPORATION : COMPANY
WELL.                 BOONE #1 : WELL
FLD .                  WILDCAT : FIELD
LOC .                          : LOCATION
CNTY.                      BEE : COUNTY
STAT.                    TEXAS : STATE
CTRY. UNITED STATES OF AMERICA : COUNTRY
SRVC.             Schlumberger : SERVICE COMPANY
DATE.              11-Feb-1976 : LOGDATE
API .           42025304380000 : API NUMBER
UWI .           42025304380000 : UNIQUE WELL ID
SLAT.WGS84       28.6868031711 : SURFACE LATITUDE
SLON.WGS84       -97.929230078 : SURFACE LONGITUDE
~Curve Information -----------------------------------------
DEPT    .FT    : DEPTH FEET
ALL8ED  .OHMM  : AMP. LATEROLOG 8
CALDED  .IN    : CALIPER FROM DENSITY LOG
CALSED  .IN    : CALIPER FROM SONIC LOG
CALWS   .IN    : CALIPER [CALDED]
CILDED  .MMHO  : CONDUCTIVITY FROM RESISTIVITY LOG
CONDWS  .MMHO  : CONDUCTIVITY [1000/DRESWS]
CORRED  .G/C3  : DENSITY CORRECTION FROM DENSITY LOG
DCORWS  .G/C3  : DENSITY CORRECTION [CORRED]
DENWS   .G/C3  : BULK DENSITY [M=2.65/2.71 FROM 13350-TD F=1.0] [RHOBED]
DPHILSED.V/V   : DENSITY POROSITY LIMESTONE FROM DENSITY LOG
DPHISSED.V/V   : DENSITY POROSITY SANDSTONE FROM DENSITY LOG
DPOWS   .V/V   : DENSITY POROSITY [M=2.65/2.71 FROM 13350-TD F=1.0] [CALCULATED FROM DENWS]
DRESWS  .OHMM  : DEEP RESISTIVITY [ILDED] FROM 3588 IF ILDED<1;1000/CILDED;ELSE ILDED
DTED    .US/F  : DELTA TIME FROM SONIC LOG [DEPTH ADJ TO ALL8]
DTWS    .US/F  : DELTA TIME [DTED]
GRDED   .GAPI  : GAMMA RAY FROM DENSITY LOG [DEPTH ADJ TO SPR]
GRSED   .GAPI  : GAMMA RAY FROM SONIC LOG
GRWS    .GAPI  : GAMMA RAY [GRDED]
ILDED   .OHMM  : INDUCTION LOG DEEP RESISTIVITY
NPHILSED.V/V   : NEUTRON POROSITY LIMESTONE FROM DENSITY LOG
NPHISSED.V/V   : NEUTRON POROSITY SANDSTONE FROM DENSITY LOG
NPOWS   .V/V   : NEUTRON POROSITY [MERGED NPHISSED/NPHILSED FROM 13350-TD]
RHOBED  .G/C3  : BULK DENSITY FROM DENSITY LOG
SPRED   .MV    : SPONTANEOUS POTENTIAL FROM RESISTIVITY LOG SHIFTED
SPWS    .MV    : SPONTANEOUS POTENTIAL [SHIFTED/BASELINE 0 MV] [SPRED]
SRESWS  .OHMM  : SHALLOW RESISTIVITY [ALL8ED]
~Params ----------------------------------------------------
PD  .                     GL : PERMANENT DATUM
EPD .FT                  503 : ELEVATION PERMANENT DATUM
LMF .                     KB : LOG MEASURED FROM
DAPD.FT                   21 : FEET ABOVE PERMANENT DATUM
DMF .                     KB : DRILLING MEASURED FROM
EKB .FT                  524 : KELLY BUSHING
EDF .FT                  523 : DRILLING FLOOR
EGL .FT                  503 : GROUND LEVEL
DATE.               02/11/76 : RUN DATE
RUN .                      2 : RUN NUMBER
DD  .FT                14000 : DEPTH DRILLER
DL  .FT                14017 : DEPTH LOGGER
BLI .FT                14014 : BOTTOM LOG INTERVAL
TLI .FT                 3588 : TOP LOG INTERVAL
CS  .IN                10.75 : CASING SIZE
CBD .FT                 3536 : CASING BOTTOM DRILLER
CBL .FT                 3588 : CASING BOTTOM LOGGER
BS  .IN                 8.75 : BIT SIZE
BSD .FT                14000 : BIT SIZE AT DEPTH
DFT .             RD 111 OIL : DRILLING FLUID TYPE
DFD .                   11.1 : DRILLING FLUID DENSITY
DFV .                     59 : DRILLING FLUID VISCOSITY
DFPH.                    9.5 : DRILLING FLUID PH
DFL .                    3.7 : DRILLING FLUID LOSS
MSS .             RETURN PIT : MUD SAMPLE SOURCE
RMS .OHMM               0.59 : RESISTIVITY MUD SAMPLE
MST .DEGF                101 : MUD SAMPLE TEMPERATURE
RMF .OHMM               0.62 : RESISTIVITY MUD FILTRATE SAMPLE
MFST.DEGF                 76 : MUD FILTRATE SAMPLE TEMPERATURE
RMC .OHMM               0.75 : RESISTIVITY MUD CAKE
MCST.DEGF                101 : MUD CAKE SAMPLE TEMPERATURE
MFSS.                   MEAS : MUD FILTRATE SAMPLE SOURCE
MCSS.                  CHART : MUD CAKE SAMPLE SOURCE
RMB .OHMM               0.19 : RESISTIVITY MUD AT BHT
TCS .HRS                  24 : TIME CIRCULATED STOPPED
LUN .                   7676 : LOGGING UNIT NUMBER
LUL .                  PLEAS : LOGGING UNIT LOCATION
ENGI.                 POWELL : RECORDING ENGINEER
WITN.                  ADAMS : WITNESSED BY
CLNT.                A2DTECH : CLIENT CODE
ORIG.               1" PRINT : ORIGIN OF DATA
UWI .         42025304380000 : UNIQUE WELL ID
DICO. A2D Technologies, Inc. : DIGITIZING COMPANY
~Other -----------------------------------------------------
~ASCII -----------------------------------------------------
# ...
 9750.00000    1.59620    -999.25   10.24550   10.24550  812.16140  812.16140    -999.25    -999.25    -999.25    -999.25    -999.25    -999.25    1.23130   98.16180   98.16180    -999.25   75.56740   75.56740    1.26500    -999.25    -999.25    -999.25    -999.25    1.49250   -3.76440    1.59620
 9800.00000    1.95240    -999.25   10.07180   10.07180  687.59340  687.59340    -999.25    -999.25    -999.25    -999.25    -999.25    -999.25    1.45430   94.92170   94.92170    -999.25   89.33860   89.33860    1.53320    -999.25    -999.25    -999.25    -999.25    1.64180   -3.52240    1.95240
 9850.00000    1.89580    -999.25   10.20930   10.20930  686.09860  686.09860    -999.25    -999.25    -999.25    -999.25    -999.25    -999.25    1.45750   96.84330   96.84330    -999.25   84.18460   84.18460    1.45830    -999.25    -999.25    -999.25    -999.25    0.44780   -4.62370    1.89580
 9900.00000    1.82740    -999.25   10.64300   10.64300  706.53000  706.53000    -999.25    -999.25    -999.25    -999.25    -999.25    -999.25    1.41540   97.25290   97.25290    -999.25   80.38090   80.38090    1.36900    -999.25    -999.25    -999.25    -999.25   -0.74630   -5.72510    1.82740
 9950.00000    1.83040    -999.25   11.13920   11.13920  718.98350  718.98350    -999.25    -999.25    -999.25    -999.25    -999.25    -999.25    1.39090   96.23120   96.23120    -999.25   81.94180   81.94180    1.33940    -999.25    -999.25    -999.25    -999.25    0.44780   -4.43830    1.83040
 10000.00000    1.73900    -999.25   11.49190   11.49190  753.36330  753.36330    -999.25    -999.25    -999.25    -999.25    -999.25    -999.25    1.32740   90.96080   90.96080    -999.25   73.20900   73.20900    1.45700    -999.25    -999.25    -999.25    -999.25    2.20140   -2.59200    1.73900
 10050.00000    1.96730    -999.25   10.23860   10.23860  669.65630  669.65630    -999.25    -999.25    -999.25    -999.25    -999.25    -999.25    1.49330   92.55530   92.55530    -999.25   81.71030   81.71030    1.56250    -999.25    -999.25    -999.25    -999.25    1.19400   -3.50660    1.96730
 10100.00000    1.83930    -999.25   11.01490   11.01490  705.53060  705.53060    -999.25    -999.25    -999.25    -999.25    -999.25    -999.25    1.41740   94.95950   94.95950    -999.25   76.32980   76.32980    1.39880    -999.25    -999.25    -999.25    -999.25    0.74630   -3.86160    1.83930
 10150.00000    2.00100    -999.25   10.62400   10.62400  654.70850  654.70850    -999.25    -999.25    -999.25    -999.25    -999.25    -999.25    1.52740   93.83550   93.83550    -999.25   77.66010   77.66010    1.59230    -999.25    -999.25    -999.25    -999.25    2.68660   -1.82860    2.00100
 10200.00000    1.90860    -999.25   11.40240   11.40240  676.56680  676.56680    -999.25    -999.25    -999.25    -999.25    -999.25    -999.25    1.47810   92.70270   92.70270    -999.25   74.72760   74.72760    1.37010    -999.25    -999.25    -999.25    -999.25    1.88380   -2.53870    1.90860
 10250.00000    2.05360    -999.25   11.28310   11.28310  633.78170  633.78170    -999.25    -999.25    -999.25    -999.25    -999.25    -999.25    1.57780   91.58100   91.58100    -999.25   72.40290   72.40290    1.57740    -999.25    -999.25    -999.25    -999.25    1.04480   -3.28500    2.05360
 10300.00000    1.83330    -999.25   11.82040   11.82040  741.40520  741.40520    -999.25    -999.25    -999.25    -999.25    -999.25    -999.25    1.34880   91.61890   91.61890    -999.25   68.26110   68.26110    1.42860    -999.25    -999.25    -999.25    -999.25    2.23880   -1.99830    1.83330
 10350.00000    1.72030    -999.25   11.25330   11.25330  765.32140  765.32150    -999.25    -999.25    -999.25    -999.25    -999.25    -999.25    1.30660   95.39910   95.39910    -999.25   79.47100   79.47100    1.45830    -999.25    -999.25    -999.25    -999.25    0.99510   -3.14930    1.72030
 10400.00000    2.22620    -999.25    9.22340    9.22340  581.93990  581.93990    -999.25    -999.25    -999.25    -999.25    -999.25    -999.25    1.71840   89.18110   89.18110    -999.25   73.64380   73.64380    1.68650    -999.25    -999.25    -999.25    -999.25    1.06540   -2.98620    2.22620
 10450.00000    2.56550    -999.25    9.22300    9.22300  541.10620  541.10620    -999.25    -999.25    -999.25    -999.25    -999.25    -999.25    1.84810   89.10360   89.10360    -999.25   72.51740   72.51740    2.08830    -999.25    -999.25    -999.25    -999.25    3.28360   -0.67530    2.56550
 10500.00000    1.90480    -999.25   10.84990   10.84990  719.47880  719.47880    -999.25    -999.25    -999.25    -999.25    -999.25    -999.25    1.38990   94.88640   94.88640    -999.25   69.60030   69.60030    1.39880    -999.25    -999.25    -999.25    -999.25    0.74630   -3.11990    1.90480
 10550.00000    2.07740    -999.25   10.11940   10.11940  579.96420  579.96420    -999.25    -999.25    -999.25    -999.25    -999.25    -999.25    1.72420   87.15580   87.15580    -999.25   65.33030   65.33030    1.72120    -999.25    -999.25    -999.25    -999.25    1.19400   -2.57950    2.07740
 10600.00000    1.79760    -999.25   11.19220   11.19220  741.40510  741.40510    -999.25    -999.25    -999.25    -999.25    -999.25    -999.25    1.34880   95.48700   95.48700    -999.25   74.97530   74.97530    1.40260    -999.25    -999.25    -999.25    -999.25    0.40690   -3.27390    1.79760
 10650.00000    2.08730    -999.25    9.71560    9.71560  615.84450  615.84450    -999.25    -999.25    -999.25    -999.25    -999.25    -999.25    1.62380   90.15680   90.15680    -999.25   81.28060   81.28060    1.72620    -999.25    -999.25    -999.25    -999.25    1.49250   -2.09560    2.08730
 10700.00000    2.03570    -999.25    9.73300    9.73300  663.67710  663.67710    -999.25    -999.25    -999.25    -999.25    -999.25    -999.25    1.50680   91.28310   91.28310    -999.25   79.68820   79.68820    1.60710    -999.25    -999.25    -999.25    -999.25    0.14920   -3.34620    2.03570
 10750.00000    1.95240    -999.25   11.01400   11.01400  673.64220  673.64220    -999.25    -999.25    -999.25    -999.25    -999.25    -999.25    1.48450   92.78450   92.78450    -999.25   74.76330   74.76330    1.54760    -999.25    -999.25    -999.25    -999.25    0.00000   -3.40260    1.95240
 10800.00000    2.13330    -999.25   10.53690   10.53690  643.53520  643.53520    -999.25    -999.25    -999.25    -999.25    -999.25    -999.25    1.55390   90.06880   90.06880    -999.25   68.94230   68.94230    1.56750    -999.25    -999.25    -999.25    -999.25    1.04480   -2.26510    2.13330
 10850.00000    2.60120    -999.25    9.99960    9.99960  531.63630  531.63630    -999.25    -999.25    -999.25    -999.25    -999.25    -999.25    1.88100   84.86380   84.86380    -999.25   74.62670   74.62670    1.83530    -999.25    -999.25    -999.25    -999.25    1.19400   -2.02320    2.60120
 10900.00000    2.05950    -999.25   10.39940   10.39940  624.81320  624.81320    -999.25    -999.25    -999.25    -999.25    -999.25    -999.25    1.60050   87.60110   87.60110    -999.25   68.71850   68.71850    1.63690    -999.25    -999.25    -999.25    -999.25    0.14930   -2.97520    2.05950
 10950.00000    1.99610    -999.25   10.65990   10.65990  638.26610  638.26610    -999.25    -999.25    -999.25    -999.25    -999.25    -999.25    1.56670   92.40680   92.40680    -999.25   77.12240   77.12240    1.56260    -999.25    -999.25    -999.25    -999.25    0.89550   -2.13630    1.99610
 11000.00000    2.38300    -999.25   10.73000   10.73000  550.07470  550.07470    -999.25    -999.25    -999.25    -999.25    -999.25    -999.25    1.81790   85.72070   85.72070    -999.25   70.53770   70.53770    1.96410    -999.25    -999.25    -999.25    -999.25    1.59590   -1.34320    2.38300
 11050.00000    2.29760    -999.25   10.87290   10.87290  542.60270  542.60270    -999.25    -999.25    -999.25    -999.25    -999.25    -999.25    1.84300   88.23710   88.23710    -999.25   70.67130   70.67130    1.98410    -999.25    -999.25    -999.25    -999.25    0.29850   -2.54790    2.29760
