~Version ---------------------------------------------------
VERS.      2.0 : CWLS log ASCII Standard -VERSION 2.0
WRAP.      YES : Multiple lines per depth step
CREA. 06/29/18 : LAS Creation Date
~Well ------------------------------------------------------
STRT.FT                  800.0 : START DEPTH
STOP.FT                11000.0 : STOP DEPTH
STEP.FT               50.00000 : STEP LENGTH
NULL.                  -999.25 : NULL VALUE
COMP.    CHEVRON U. S. A. INC. : COMPANY
WELL.     TARTT EMMA ET AL #10 : WELL
FLD .                  FASHING : FIELD
LOC .                          : LOCATION
CNTY.                 ATASCOSA : COUNTY
STAT.                    TEXAS : STATE
CTRY. UNITED STATES OF AMERICA : COUNTRY
SRVC.                  Unknown : SERVICE COMPANY
DATE.              06-Sep-1992 : LOGDATE
API .           42013339770000 : API NUMBER
UWI .           42013339770000 : UNIQUE WELL ID
SLAT.WGS84       28.7945179412 : SURFACE LATITUDE
SLON.WGS84      -98.1956258756 : SURFACE LONGITUDE
~Curve Information -----------------------------------------
DEPT    .FT    : DEPTH FEET
CALDED  .IN    : CALIPER FROM DENSITY LOG
CALWS   .IN    : CALIPER [DCALED+8.5]
CONDWS  .MMHO  : DEEP CONDUCTIVITY [1000/DRESWS]
DCALED  .IN    : DIFFERENTIAL CALIPER FROM DENSITY LOG
DCORED  .G/C3  : DENSITY CORRECTION FROM DENSITY LOG
DCORWS  .G/C3  : DENSITY CORRECTION [DCORED]
DENWS   .G/C3  : BULK DENSITY [CALC. FROM DPOLSWS M=2.71 F=1.0]
DFLED   .OHMM  : DIGITALLY FOCUSED LATEROLOG
DPOLSWS .V/V   : DENSITY POROSITY (LS) [M=2.71 F=1.00] [DPORLSED]
DPORLSED.V/V   : DENSITY POROSITY (LS) [M=2.71 F=1.00]
DRESED  .OHMM  : DEEP RESISTIVITY
DRESWS  .OHMM  : DEEP RESISTIVITY [DRESED]
DTED    .US/F  : DELTA TIME FROM SONIC LOG, DEPTH ADJUSTED WITH [GRRED]
DTWS    .US/F  : DELTA TIME COMPRESSIONAL [DTED]
GRDED   .GAPI  : GAMMA RAY FROM DENSITY LOG
GRED    .GAPI  : GAMMA RAY, DEPTH ADJUSTED WITH [GRRED]
GRRED   .GAPI  : GAMMA RAY FROM RESISTIVITY LOG
GRSED   .GAPI  : GAMMA RAY FROM SONIC LOG, DEPTH ADJUSTED WITH [GRRED]
GRWS    .GAPI  : GAMMA RAY [GRED] 1000 [GRRED]
MRESED  .OHMM  : MEDIUM RESISTIVITY
MRESWS  .OHMM  : MEDIUM RESISTIVITY [MRESED]
NPOLSWS .V/V   : NEUTRON POROSITY LIMESTONE [NPORLSED]
NPORLSED.V/V   : NEUTRON POROSITY LIMESTONE
PEED    .B/E   : PHOTOELECTRIC FACTOR FROM DENSITY LOG
PEFWS   .B/E   : PHOTOELECTRIC FACTOR [PEED]
RHOBED  .G/C3  : BULK DENSITY FROM DENSITY LOG
SPRED   .MV    : SPONTANEOUS POTENTIAL FROM RESISTIVITY LOG
SPWS    .MV    : SPONTANEOUS POTENTIAL [BASELINE 0 MV] [SPRED]
SRESWS  .OHMM  : SHALLOW RESISTIVITY [DFLED]
TENDED  .LBF   : TENSION FROM DENSITY LOG
TENRED  .LBF   : TENSION FROM RESISTIVITY LOG
TENSED  .LBF   : TENSION FROM SONIC LOG, DEPTH ADJUSTED WITH [GRRED]
~Params ----------------------------------------------------
PD  .                     GL : PERMANENT DATUM
EPD .F                   443 : ELEVATION PERMANENT DATUM
LMF .                    TKB : LOG MEASURED FROM
DAPD.F                    22 : FEET ABOVE PERMANENT DATUM
DMF .                    TKB : DRILLING MEASURED FROM
EKB .F                   465 : KELLING BUSHING
EDF .F                   464 : DRILLING FLOOR
EGL .F                   443 : GROUND LEVEL
DATE.               09/06/92 : RUN DATE
RUN .                      1 : RUN NUMBER
DD  .F                 11000 : DEPTH DRILLER
DL  .F                 11005 : DEPTH LOGGER
BLI .F                 11000 : BOTTOM LOG INTERVAL
TLI .F                  4800 : TOP LOG INTERVAL
CS  .IN                9.625 : CASING SIZE
CBD .F                  2000 : CASING BOTTOM DRILLER
CBL .F                  1997 : CASING BOTTOM LOGGER
BS  .IN                  8.5 : BIT SIZE
BSD .F                 11000 : BIT SIZE AT DEPTH
DFT .             WATER BASE : DRILLING FLUID TYPE
DFD .                   10.3 : DRILLING FLUID DENSITY
DFV .                     44 : DRILLING FLUID VISCOSITY
DFPH.                   11.8 : DRILLING FLUID PH
DFL .                      5 : DRILLING FLUID LOSS
MSS .               FLOWLINE : MUD SAMPLE SOURCE
RMS .OHMM               1.07 : RESISTIVITY MUD SAMPLE
MST .F                    75 : MUD SAMPLE TEMPERATURE
RMF .OHMM               0.85 : RESISTIVITY MUD FILTRATE SAMPLE
MFST.F                    75 : MUD FILTRATE SAMPLE TEMPERATURE
RMC .OHMM               1.28 : RESISTIVITY MUD CAKE
MCST.F                    75 : MUD CAKE SAMPLE TEMPERATURE
MFSS.                  MEAS. : MUD FILTRATE SAMPLE SOURCE
MCSS.                  MEAS. : MUD CAKE SAMPLE SOURCE
RMB .OHMM               0.36 : RESISTIVITY MUD AT BHT
TCS .HRS                  14 : TIME CURCULATED STOPPED
TLAB.HRS               12:00 : TIME LOGGER AT BOTTOM
LUN .                  51731 : LOGGING UNIT NUMBER
LUL .                  ALICE : LOGGING UNIT LOCATION
ENGI.                  MEYER : RECORDING ENGINEER
WITN.       HOIN/LONG/GUERIN : WITNESSED BY
CLNT.                A2DTECH : CLIENT CODE
ORIG.               5" PRINT : ORIGIN OF DATA
UWI .         42013339770000 : UNIQUE WELL ID
DICO. A2D Technologies, Inc. : DIGITIZING COMPANY
~Other -----------------------------------------------------
~ASCII -----------------------------------------------------
# ...
 9600.00000   12.90250   12.82440  491.03850    4.32440    0.17880    0.17880    2.48120    2.07370    0.13380    0.13380    2.03650    2.03650   86.63260   86.63260  107.93200   91.71510  105.10840  102.84250  105.10840    2.03250    2.03250    0.27560    0.27560    4.20450    4.20450    2.48110 -112.34650   -4.75750    2.07370 3956.69140 3964.46700 3383.17530
 9650.00000   11.80220   11.73610  324.39100    3.23610    0.04690    0.04690    2.53540    3.32140    0.10210    0.10210    3.08270    3.08270  159.78920  159.78920  102.96060   89.19320  103.45650   98.81660  103.45650    3.12810    3.12810    0.19910    0.19910    3.24980    3.24980    2.53330 -109.05680   -1.13800    3.32140 3883.15280 3936.15500 3427.32230
 9700.00000   11.01980   10.95080  291.54520    2.45080    0.04980    0.04980    2.52940    3.70180    0.10560    0.10560    3.43000    3.43000   97.11310   97.11310   89.28040   80.50340   89.78610   86.46410   89.78610    3.44820    3.44820    0.19140    0.19140    3.36800    3.36800    2.52550 -110.54460   -2.29590    3.70180 3890.76170 3810.70170 3365.26710
 9750.00000   11.03960   10.95110  312.46090    2.45110    0.06710    0.06710    2.52720    3.56870    0.10690    0.10690    3.20040    3.20040   82.44790   82.44790   94.46620   69.34960   92.82200   93.69550   92.82200    3.33790    3.33790    0.20120    0.20120    3.38990    3.38990    2.52190 -111.80810   -3.22950    3.56870 3865.31620 3968.72800 4148.72270
 9800.00000    9.37530    9.33180  193.87360    0.83180    0.04040    0.04040    2.56070    6.70900    0.08730    0.08730    5.15800    5.15800   89.55360   89.55360   82.05340   78.88450   82.27140   73.47210   82.27140    4.61340    4.61340    0.16970    0.16970    4.58320    4.58320    2.55940 -112.91270   -4.00430    6.70900 3830.39160 3889.93210 3495.64550
 9850.00000    9.59820    9.53230  244.83400    1.03230    0.01690    0.01690    2.55700    4.83230    0.08950    0.08950    4.08440    4.08440   77.06630   77.06630   79.52110   80.01690   77.72190   83.15280   77.72190    4.05620    4.05620    0.13560    0.13560    4.63890    4.63890    2.55460 -112.00610   -2.76780    4.83230 3936.03760 3918.95680 3637.12060
 9900.00000    9.55360    9.50080  244.88200    1.00080    0.01570    0.01570    2.55520    4.59750    0.09050    0.09050    4.08360    4.08360   80.50600   80.50600   84.39190   77.39530   84.35680   91.70600   84.35680    4.25580    4.25580    0.16270    0.16270    4.32960    4.32960    2.53570 -111.73270   -2.16450    4.59750 4018.17290 4022.82080 3469.85670
 9950.00000    9.39600    9.34310  159.48710    0.84310    0.00130    0.00130    2.58710    7.55890    0.07190    0.07190    6.27010    6.27010   74.33570   74.33570   67.06740   53.93430   63.07890   61.20440   63.07890    6.66240    6.66240    0.10890    0.10890    4.66420    4.66420    2.58580 -113.70590   -3.80790    7.55890 4158.97070 4180.74660 3497.88120
 10000.00000    9.73260    9.69180  174.89240    1.19180    0.01030    0.01030    2.61080    7.33560    0.05800    0.05800    5.71780    5.71780   73.18450   73.18450   72.29330   56.71310   75.00140   68.40670   75.00140    5.35290    5.35290    0.13810    0.13810    4.58560    4.58560    2.60560 -114.50810   -4.28020    7.33560 3960.25830 4030.57350 3548.51390
 10050.00000    9.12330    9.10800   16.95980    0.60800    0.00830    0.00830    2.60190   74.02580    0.06320    0.06320   58.96280   58.96280   56.64570   56.64570   21.51960   18.30260   21.82420   27.19640   21.82420   51.57600   51.57600    0.04210    0.04210    5.15870    5.15870    2.60120 -120.04980   -9.49210   74.02580 3828.97560 3915.09670 3562.66820
 10100.00000   10.02820    9.91820   38.98650    1.41820   -0.00100   -0.00100    2.57510   28.42820    0.07890    0.07890   25.64990   25.64990   61.28400   61.28400   49.80120   35.31470   50.60540   47.51420   50.60540   25.89610   25.89610    0.07230    0.07230    4.97860    4.97860    2.57470 -116.48560   -5.59800   28.42820 4006.87920 4004.91090 3526.48050
 10150.00000   10.01010    9.85290  105.47190    1.35290    0.03460    0.03460    2.45610   16.31630    0.14850    0.14850    9.48120    9.48120  155.06950  155.06950   92.47460   92.66220   93.54420   91.52020   93.54420    9.64050    9.64050    0.19630    0.19630    4.30300    4.30300    2.42800 -115.29700   -3.67030   16.31630 3972.05640 4080.65700 3531.76730
 10200.00000    9.53410    9.49940   17.00080    0.99940    0.03690    0.03690    2.51150   55.04250    0.11610    0.11610   58.82080   58.82080   71.30900   71.30900   72.30910   53.06520   71.27850   70.43690   71.27850   38.94040   38.94040    0.14230    0.14230    4.52190    4.52190    2.49850 -117.27720   -4.24370   55.04250 4005.33370 4169.85550 3576.63110
 10250.00000    8.79970    8.71560   24.57660    0.21560    0.02060    0.02060    2.63510   63.38880    0.04380    0.04380   40.68910   40.68910   63.40570   63.40570   31.23500   24.06570   30.16640   26.87280   30.16640   35.63010   35.63010    0.03970    0.03970    4.95960    4.95960    2.62560 -121.64460   -7.20420   63.38880 3981.30640 4008.23880 3646.33240
 10300.00000    9.17820    9.18620   10.71110    0.68620    0.03020    0.03020    2.60710   97.08900    0.06020    0.06020   93.36090   93.36090   54.44910   54.44910   20.39090   24.43900   21.76290   23.07420   21.76290   54.16360   54.16360    0.02220    0.02220    4.96900    4.96900    2.60230 -129.28330  -13.43610   97.08900 4039.24950 4124.04690 3681.13300
 10350.00000   10.24840   10.17230  216.03400    1.67230    0.12910    0.12910    2.53440    5.53440    0.10270    0.10270    4.62890    4.62890   53.15250   53.15250   64.34970   64.69120   64.30270   69.03280   64.30270    5.05120    5.05120    0.16270    0.16270    4.72060    4.72060    2.53030 -120.66620   -3.41220    5.53440 4024.79320 4095.64260 3677.00760
 10400.00000    9.42310    9.40030    1.26390    0.90030    0.00100    0.00100    2.63000  360.10800    0.04680    0.04680  791.18770  791.18770   53.06550   53.06550   25.99860   28.53840   30.59300   28.86060   30.59300  142.36140  142.36140    0.00910    0.00910    5.24000    5.24000    2.62790 -133.11880  -14.45800  360.10800 4026.14580 4222.97460 3700.49120
 10450.00000    9.68070    9.69510    9.50490    1.19510    0.00890    0.00890    2.65850  114.60660    0.03010    0.03010  105.20870  105.20870   51.94700   51.94700   24.48000   33.55310   29.98790   26.81300   29.98790   67.26690   67.26690    0.01260    0.01260    5.07150    5.07150    2.65730 -132.90300  -12.83530  114.60660 4048.93750 4180.51320 3747.68530
 10500.00000    8.30700    8.32950    0.50230   -0.17050   -0.00550   -0.00550    2.47320  212.10150    0.13850    0.13850 1990.97290 1990.97290   64.33920   64.33920   27.40460   25.24900   29.88750   27.79780   29.88750  930.69950  930.69950    0.07580    0.07580    5.21660    5.21660    2.47620 -215.22530  -93.75080  212.10150 4033.89110 4089.23660 3722.93820
 10550.00000    8.30570    8.27560    0.50230   -0.22440   -0.00300   -0.00300    2.51470  233.25320    0.11420    0.11420 1990.97290 1990.97290   55.32740   55.32740   30.83670   24.35260   33.18150   30.73910   33.18150 1895.45100 1895.45100    0.05470    0.05470    5.18680    5.18680    2.51270 -233.85900 -110.97770  233.25320 3966.47730 4114.98540 3770.01930
 10600.00000    8.70120    8.56300    0.50000    0.06300    0.01520    0.01520    2.59990  217.12660    0.06440    0.06440 2000.00000 2000.00000   55.20830   55.20830   30.45310   38.99820   31.11210   27.65810   31.11210  452.23140  452.23140    0.02910    0.02910    5.58400    5.58400    2.59170 -239.24260 -114.95440  217.12660 4009.75050 4116.87110 3716.50460
 10650.00000    8.25030    8.32350  129.98490   -0.17650   -0.00290   -0.00290    2.48090   59.49700    0.13400    0.13400    7.69320    7.69320   62.94640   62.94640   22.40160   24.28230   22.68140   22.95430   22.68140   12.53930   12.53930    0.10300    0.10300    4.92860    4.92860    2.46750 -254.70570 -129.01070   59.49700 4114.17820 4143.48830 3726.78270
