~Version ---------------------------------------------------
VERS. 2.0 : CWLS log ASCII Standard -VERSION 2.0
WRAP.  NO : ONE LINE PER DEPTH STEP
~Well ------------------------------------------------------
STRT.F                  3700.0 : START DEPTH
STOP.F                  8300.0 : STOP DEPTH
STEP.F                50.00000 : STEP LENGTH
NULL.                  -999.25 : NULL VALUE
COMP.      SAGE ENERGY COMPANY : COMPANY
WELL.             HITCHCOCK #1 : WELL
FLD .             CALDWELL, NE : FIELD
LOC .                          : LOCATION
CNTY.                 BURLESON : COUNTY
STAT.                    TEXAS : STATE
CTRY. UNITED STATES OF AMERICA : COUNTRY
SRVC.            Dresser Atlas : SERVICE COMPANY
DATE.              19-Apr-1984 : LOGDATE
API .           42051325270000 : API NUMBER
UWI .           42051325270000 : UNIQUE WELL ID
SLAT.WGS84       30.5575226526 : SURFACE LATITUDE
SLON.WGS84      -96.5775275659 : SURFACE LONGITUDE
~Curve Information -----------------------------------------
DEPT  .F    0   1   0  0 : 1 MEASURED DEPTH
GRN   .GAPI 35 310 01 00 : GAMMA RAY FROM GRN LOG
NEUT  .NAPI 35 330 01 00 : NEUTRON
GRR   .GAPI 07 310 01 00 : GAMMA RAY FROM RESISTIVITY LOG
RFOC  .OHMM 07 220 06 00 : SHALLOW FOCUSED LOG RESISTIVITY
RILD  .OHMM 07 120 46 00 : RAW DEEP INDUCTION RESISTIVITY
RILM  .OHMM 07 120 44 00 : RAW MEDIUM INDUCTION RESISTIVITY
SPR   .MV   07 010 01 00 : SPONTANEOUS POTENTIAL FROM RESISTIVITY LOG
CALR  .IN   07 280 01 00 : CALIPER FROM RESISTIVITY LOG
CN_SS .DEC  42 890 03 00 : COMPENSATED NEUTRON POROSITY SANDSTONE
CDL_SS.DEC  45 890 12 00 : COMPENSATED DENSITY POROSITY SANDSTONE
CN_LS .DEC  42 890 01 00 : COMPENSATED NEUTRON POROSITY LIMESTONE
CDL_LS.DEC  45 890 10 00 : COMPENSATED DENSITY POROSITY LIMESTONE
~Params ----------------------------------------------------
PD  .                     GL : PERMANENT DATUM
EPD .FT                  310 : ELEVATION PERMANENT DATUM
LMF .                     KB : LOG MEASURED FROM
DAPD.FT                   16 : FEET ABOVE PERMANENT DATUM
DMF .                     KB : DRILLING MEASURED FROM
EKB .FT                  324 : KELLY BUSHING
EDF .FT                  328 : DRILLING FLOOR
EGL .FT                  310 : GROUND LEVEL
DATE.               04/19/84 : RUN DATE
RUN .                      1 : RUN NUMBER
DD  .FT                 8311 : DEPTH DRILLER
DL  .FT                 8328 : DEPTH LOGGER
BLI .FT                 8326 : BOTTOM LOG INTERVAL
TLI .FT                 3668 : TOP LOG INTERVAL
CS  .IN                8.625 : CASING SIZE
CBD .FT                 3660 : CASING BOTTOM DRILLER
CBL .FT                 3668 : CASING BOTTOM LOGGER
BS  .IN                7.875 : BIT SIZE
BSD .FT                 8311 : BIT SIZE AT DEPTH
DFT .              LIGNOSULF : DRILLING FLUID TYPE
DFD .                    9.3 : DRILLING FLUID DENSITY
DFV .                     46 : DRILLING FLUID VISCOSITY
DFPH.                    9.6 : DRILLING FLUID PH
DFL .                      8 : DRILLING FLUID LOSS
MSS .                   TANK : MUD SAMPLE SOURCE
RMS .OHMM               2.55 : RESISTIVITY MUD SAMPLE
MST .DEGF                 75 : MUD SAMPLE TEMPERATURE
RMF .OHMM               2.15 : RESISTIVITY MUD FILTRATE SAMPLE
MFST.DEGF                 75 : MUD FILTRATE SAMPLE TEMPERATURE
RMC .OHMM               3.19 : RESISTIVITY MUD CAKE
MCST.DEGF                 75 : MUD CAKE SAMPLE TEMPERATURE
MFSS.                      M : MUD FILTRATE SAMPLE SOURCE
MCSS.                      C : MUD CAKE SAMPLE SOURCE
RMB .OHMM               1.08 : RESISTIVITY MUD AT BHT
TCS .HRS                   4 : TIME CIRCULATED STOPPED
LUN .                HL 6300 : LOGGING UNIT NUMBER
LUL .                  BRYAN : LOGGING UNIT LOCATION
ENGI.                 THOMAS : RECORDING ENGINEER
WITN.                  BOTTO : WITNESSED BY
CLNT.                A2DTECH : CLIENT CODE
ORIG.            2" 5" PRINT : ORIGIN OF DATA
UWI .         42051325270000 : UNIQUE WELL ID
DICO. A2D Technologies, Inc. : DIGITIZING COMPANY
~Other -----------------------------------------------------
~ASCII -----------------------------------------------------
# ...
 6500.00000    -999.25    -999.25   54.95010    3.42080    2.98030    3.22610  -18.71210    7.92880    -999.25    -999.25    -999.25    -999.25
 6550.00000    -999.25    -999.25   48.63900    4.42160    3.51480    3.75510  -21.22550    7.90400    -999.25    -999.25    -999.25    -999.25
 6600.00000    -999.25    -999.25   96.82340    2.73300    2.04840    2.27340  -11.94440    7.95150    -999.25    -999.25    -999.25    -999.25
 6650.00000    -999.25    -999.25   91.35470    2.70490    2.11600    2.29870  -10.14750    7.94280    -999.25    -999.25    -999.25    -999.25
 6700.00000    -999.25    -999.25   79.92620    3.09080    2.59630    2.76880  -11.32680    7.91240    -999.25    -999.25    -999.25    -999.25
 6750.00000    -999.25    -999.25   76.24850    3.20300    2.67460    2.87850   -9.35270    7.94090    -999.25    -999.25    -999.25    -999.25
 6800.00000   44.40680  508.15220   95.52790    2.32170    1.66150    1.86420   -7.36660    8.17390    -999.25    -999.25    -999.25    -999.25
 6850.00000   48.52750  223.53070   90.87430    2.18100    1.65390    1.74300   -6.78370    8.38160    -999.25    -999.25    -999.25    -999.25
 6900.00000   46.70180  209.57690   97.30320    2.17000    1.64380    1.72060   -7.31160    8.64990    -999.25    -999.25    -999.25    -999.25
 6950.00000   67.39890  279.30130  107.37800    2.15420    1.63540    1.73320   -6.28410    8.12270    -999.25    -999.25    -999.25    -999.25
 7000.00000   56.03650  288.05490   90.52210    2.24530    1.69430    1.83340   -4.11770    8.20930    -999.25    -999.25    -999.25    -999.25
 7050.00000   56.02060  309.75190   93.51040    2.13900    1.60790    1.68260   -4.53430    8.25330    -999.25    -999.25    -999.25    -999.25
 7100.00000   59.04570  173.90200   97.39550    2.05650    1.51930    1.60020   -4.59680    8.24290    -999.25    -999.25    -999.25    -999.25
 7150.00000   46.06480  229.75170   95.15070    2.00330    1.46490    1.53260   -4.56510    8.63330    -999.25    -999.25    -999.25    -999.25
 7200.00000   50.49550  165.63920   94.88550    2.00770    1.47930    1.55740   -4.08200    8.42600    -999.25    -999.25    -999.25    -999.25
 7250.00000   52.78240  230.62430   98.47280    2.04970    1.53350    1.61050   -3.21310    8.29360    -999.25    -999.25    -999.25    -999.25
 7300.00000   63.35870  203.59380   99.84850    1.99950    1.43210    1.49830   -4.61210    8.78730    -999.25    -999.25    -999.25    -999.25
 7350.00000   62.66850  189.44050  106.56420    1.99760    1.43140    1.49800   -3.64900    8.28820    -999.25    -999.25    -999.25    -999.25
 7400.00000   47.15400  200.02540   97.70110    2.02100    1.44960    1.53340   -4.68050    8.11270    -999.25    -999.25    -999.25    -999.25
 7450.00000   62.16820  214.86260   96.82610    2.26440    1.70480    1.78310   -3.18350    7.94890    -999.25    -999.25    -999.25    -999.25
 7500.00000   53.30840  273.32960   94.19300    2.29190    1.63080    1.76010   -3.62050    7.98250    -999.25    -999.25    -999.25    -999.25
 7550.00000   44.65750  257.78680   81.05070    2.79030    2.01020    2.25970   -4.82930    8.00850    0.47270    0.23360    -999.25    -999.25
 7600.00000   25.48920  583.12300   39.61010    9.81370   10.56930   10.91920  -43.47320    7.70030    0.26700    0.21570    -999.25    -999.25
 7650.00000   12.55710  341.05130   31.94740   15.61380   16.43420   25.72260  -46.97620    7.80600    0.39930    0.31290    -999.25    -999.25
 7700.00000    9.04580  316.55400   20.71390   32.02460   12.94370   17.69870  -42.85480    8.17200    0.26010    0.26970    -999.25    -999.25
 7750.00000   58.31390   28.61470   99.96820    3.05540    1.64980    1.48920  -25.78480   10.49640    0.39360    0.20330    -999.25    -999.25
 7800.00000   61.12720   38.19900  103.95540    3.51930    3.91670    3.21300  -17.04810   10.52200    0.38620    0.22800    -999.25    -999.25
 7850.00000   66.53780  124.74600  105.91760    3.80510    2.43510    2.35160  -18.29310    8.67920    0.27010    0.08950    -999.25    -999.25
 7900.00000   84.31360  101.10930  124.04710    4.95800    3.25070    3.40900   -8.08500    8.00360    0.33700    0.10560    -999.25    -999.25
 7950.00000   75.55850  189.66340  119.86530   11.60340    7.59760    9.00780  -13.16770    8.26520    0.22940    0.10120    -999.25    -999.25
 8000.00000   54.93920  154.04720  110.13910    5.97390    3.70840    4.25430  -11.51790    9.20920    0.29030    0.06150    -999.25    -999.25
 8050.00000   30.02570  211.13210   72.07910    6.00640    3.91640    4.91950   -8.14490    8.49530    -999.25    -999.25    0.13140    0.05070
 8100.00000   16.44090  653.32250   16.36920   59.50150   22.94150   32.85680  -37.32810    8.06830    -999.25    -999.25    0.03800    0.04800
 8150.00000    6.01290  762.65220   16.03480   28.24020   22.07810   27.06090  -53.83550    7.82290    -999.25    -999.25    0.02720    0.02430
 8200.00000    6.26250  696.40410   18.10000   48.87530   25.83630   36.01210  -53.61060    7.86510    -999.25    -999.25    0.02200    0.00830
 8250.00000   11.76070  781.42410   15.54290   62.83360   32.23380   47.08400  -62.33560    7.70730    -999.25    -999.25    0.01170    0.02410
 8300.00000   14.81990  753.31920   33.52540   24.82320   15.29150   19.81400  -37.09670    6.50350    -999.25    -999.25    0.02800    0.11980
