~Version ---------------------------------------------------
VERS. 2.0 : CWLS log ASCII Standard -VERSION 2.0
WRAP. YES : MULTIPLE LINES PER DEPTH STEP
~Well ------------------------------------------------------
STRT.FT                 1650.0 : START DEPTH
STOP.FT                 6350.0 : STOP DEPTH
STEP.FT               50.00000 : STEP LENGTH
NULL.                  -999.25 : NULL VALUE
COMP.  JENNINGS EXPLORATION CO : COMPANY
WELL.       BROLL HENRY JR. #1 : WELL
FLD .                       WC : FIELD
LOC .                          : LOCATION
CNTY.                   WILSON : COUNTY
STAT.                    TEXAS : STATE
CTRY. UNITED STATES OF AMERICA : COUNTRY
SRVC.               Computalog : SERVICE COMPANY
DATE.              23-Sep-1990 : LOGDATE
API .           42493322270000 : API NUMBER
UWI .           42493322270000 : UNIQUE WELL ID
SLAT.WGS84        29.059677326 : SURFACE LATITUDE
SLON.WGS84      -98.2105069587 : SURFACE LONGITUDE
~Curve Information -----------------------------------------
DEPT    .FT                                                                                               : DEPTH FEET
BITED   .IN                                                                                               : BIT SIZE FROM LOG HEADER
CALWS   .IN                                                                                               : CALIPER [DCALED+BITED]
CONDWS  .MMHO                                                                                             : CONDUCTIVITY [1000/DRESWS]
DCALED  .IN                                                                                               : DIFFERENTIAL CALIPER FROM DENSITY LOG
DCORWS  .G/C3                                                                                             : DENSITY CORRECTION [DRHOED]
DENWS   .G/C3 :   BULK DENSITY [CALCULATED FROM DPHISSED: M=2.65 F=1.0 TO 5330] [CALCULATED FROM DPHILSED : M=2.71, F=1 (5330 TO TD)]
DPHILSED.V/V                                                                                              : DENSITY POROSITY LIMESTONE
DPHISSED.V/V                                                                                              : DENSITY POROSITY SANDSTONE
DPOWS   .V/V                                   :   DENSITY POROSITY [M=2.71 F=1.0] [CALCULATED FROM DENWS : WELLTOP TO TD]
DRESWS  .OHMM                                                                                             : DEEP RESISTIVITY [ILDED]
DRHOED  .G/C3                                                                                             : DENSITY CORRECTION FROM DENSITY LOG
GRRED   .GAPI                                                                                             : GAMMA RAY FROM RESISTIVITY LOG
GRWS    .GAPI                                                                                             : GAMMA RAY [GRRED]
ILDED   .OHMM                                                                                             : INDUCTION LOG DEEP RESISTIVITY
ILMED   .OHMM                                                                                             : INDUCTION LOG MEDIUM RESISTIVITY
LL3ED   .OHMM                                                                                             : LATEROLOG 3 RESISTIVITY
MRESWS  .OHMM                                                                                             : MEDIUM RESISTIVITY [ILMED]
NPHILSED.V/V                                                                                              : NEUTRON POROSITY LIMESTONE
NPHISSED.V/V                                                                                              : NEUTRON POROSITY SANDSTONE
NPOWS   .V/V                                                                                              : NEUTRON POROSITY LIMESTONE [CONVERTED FROM NPHISSED (WELLTOP TO 5330), THEN EQUALS NPHILSED TO TD. SEE OTHER INFORMATION BELOW ON CONVERSION PARMS]
SPRED   .MV                                                                                               : SPONTANEOUS POTENTIAL FROM RESISTIVITY LOG
SPWS    .MV                                                                                               : SPONTANEOUS POTENTIAL [BASELINE 0 MV] [SPRED]
SRESWS  .OHMM                                                                                             : SHALLOW RESISTIVITY [LL3ED]
TENRED  .LBF                                                                                              : TENSION FROM RESISTIVITY LOG
~Params ----------------------------------------------------
PD  .                     GL : PERMANENT DATUM
EPD .FT                  461 : ELEVATION PERMANENT DATUM
LMF .                    TKB : LOG MEASURED FROM
DAPD.FT                    8 : FEET ABOVE PERMANENT DATUM
DMF .                    TKB : DRILLING MEASURED FROM
EKB .FT                  469 : KELLY BUSHING
EDF .FT                  468 : DRILLING FLOOR
EGL .FT                  461 : GROUND LEVEL
DATE.               09/23/90 : RUN DATE
RUN .                      1 : RUN NUMBER
DD  .FT                 6390 : DEPTH DRILLER
DL  .FT                 6372 : DEPTH LOGGER
BLI .FT                 6369 : BOTTOM LOG INTERVAL
TLI .FT                 1640 : TOP LOG INTERVAL
CS  .IN                8.625 : CASING SIZE
CBD .FT                 1640 : CASING BOTTOM DRILLER
CBL .FT                 1640 : CASING BOTTOM LOGGER
BS  .IN                7.875 : BIT SIZE
BSD .FT                 6390 : BIT SIZE AT DEPTH
DFT .                    WBM : DRILLING FLUID TYPE
DFD .                   9.85 : DRILLING FLUID DENSITY
DFV .                     50 : DRILLING FLUID VISCOSITY
DFPH.                      9 : DRILLING FLUID PH
DFL .                    7.6 : DRILLING FLUID LOSS
MSS .             CIRCULATED : MUD SAMPLE SOURCE
RMS .OHMM               3.65 : RESISTIVITY MUD SAMPLE
MST .DEGF                106 : MUD SAMPLE TEMPERATURE
RMF .OHMM               3.21 : RESISTIVITY MUD FILTRATE SAMPLE
MFST.DEGF                106 : MUD FILTRATE SAMPLE TEMPERATURE
RMC .OHMM               4.05 : RESISTIVITY MUD CAKE
MCST.DEGF                106 : MUD CAKE SAMPLE TEMPERATURE
MFSS.                   MEAS : MUD FILTRATE SAMPLE SOURCE
MCSS.                   MEAS : MUD CAKE SAMPLE SOURCE
RMB .OHMM               2.36 : RESISTIVITY MUD AT BHT
TCS .HRS                   6 : TIME CIRCULATED STOPPED
LUN .                   3049 : LOGGING UNIT NUMBER
LUL .                    SEG : LOGGING UNIT LOCATION
ENGI.              DEVILBISS : RECORDING ENGINEER
WITN.               JENNINGS : WITNESSED BY
CLNT.                A2DTECH : CLIENT CODE
ORIG.               5" PRINT : ORIGIN OF DATA
UWI .         42493322270000 : UNIQUE WELL ID
DICO. A2D Technologies, Inc. : DIGITIZING COMPANY
~Other -----------------------------------------------------
1. NPOWS converted from NPHISSED (welltop to 5330) with following parms: Logging Co. = Computalog. Tool = CNS. Input Matrix: Quartz. Output Matrix: Limestone. Rest of NPOWS = NPHILSED (5330 to TD).
2. DENWS calculated from DPHISSED (welltop TO 5330) M=2.65, F=1. Then calculated from DPHILSED (5330 to TD) M=2.71, F=1.
3. DPOWS then calculated from DENWS (welltop to TD) M=2.71, F=1.
~ASCII -----------------------------------------------------
# ...
 4550.00000    7.87500   11.34660  654.92170    3.47160    0.14470    2.32100    -999.25    0.19940    0.22750    1.52690    0.14470   76.14880   76.14880    1.52690    1.54110    2.18030    1.54110    -999.25    0.49090    0.44590 -104.14950  -12.10880    2.18030 2585.69600
 4600.00000    7.87500   11.19160  677.18560    3.31660    0.18340    2.32330    -999.25    0.19800    0.22610    1.47670    0.18340   75.27420   75.27420    1.47670    1.49810    2.17210    1.49810    -999.25    0.42520    0.38020 -108.52470  -16.56950    2.17210 2657.80590
 4650.00000    7.87500   11.79980  608.67980    3.92480    0.14860    2.34210    -999.25    0.18660    0.21510    1.64290    0.14860   75.60740   75.60740    1.64290    1.66110    2.18010    1.66110    -999.25    0.44190    0.39690 -110.91800  -19.04820    2.18010 2658.82420
 4700.00000    7.87500   11.84050  661.63820    3.96550    0.14230    2.31880    -999.25    0.20070    0.22870    1.51140    0.14230   78.72980   78.72980    1.51140    1.53030    2.26640    1.53030    -999.25    0.44510    0.40010 -107.29930  -15.51490    2.26640 2704.14600
 4750.00000    7.87500   11.19150  885.81810    3.31650    0.14170    2.25630    -999.25    0.23860    0.26530    1.12890    0.14170   82.19830   82.19830    1.12890    1.16860    1.86360    1.16860    -999.25    0.52430    0.47930 -107.59550  -15.89660    1.86360 2709.85550
 4800.00000    7.87500    9.85500  671.41130    1.98000    0.18630    2.33170    -999.25    0.19290    0.22120    1.48940    0.18630   74.35180   74.35180    1.48940    1.50980    2.14310    1.50980    -999.25    0.40480    0.35980 -107.58380  -15.97030    2.14310 2698.52390
 4850.00000    7.87500   10.47560  592.24160    2.60060    0.18440    2.39740    -999.25    0.15310    0.18280    1.68850    0.18440   72.76440   72.76440    1.68850    1.70420    2.38010    1.70420    -999.25    0.38280    0.33780 -107.12170  -15.59360    2.38010 2783.66060
 4900.00000    7.87500   11.08040  562.33480    3.20540    0.14360    2.38120    -999.25    0.16290    0.19230    1.77830    0.14360   76.37570   76.37570    1.77830    1.80680    2.46590    1.80680    -999.25    0.39770    0.35270 -107.38740  -15.94480    2.46590 2771.43290
 4950.00000    7.87500   11.61230  626.21330    3.73730    0.19950    2.32510    -999.25    0.19690    0.22510    1.59690    0.19950   75.75890   75.75890    1.59690    1.61180    2.29560    1.61180    -999.25    0.42260    0.37760 -106.79570  -15.43850    2.29560 2765.07670
 5000.00000    7.87500    9.74460  581.19260    1.86960    0.15420    2.36620    -999.25    0.17200    0.20110    1.72060    0.15420   70.10950   70.10950    1.72060    1.73750    2.50180    1.73750    -999.25    0.37150    0.32650 -102.38000  -11.10830    2.50180 2808.47220
 5050.00000    7.87500    8.39110  325.11870    0.51610   -0.02260    2.50220    -999.25    0.08960    0.12150    3.07580   -0.02260   68.47340   68.47340    3.07580    2.95820    4.08040    2.95820    -999.25    0.25510    0.21010  -97.53860   -6.35230    4.08040 2805.47630
 5100.00000    7.87500   11.99910  707.31360    4.12410    0.16180    2.25190    -999.25    0.24130    0.26790    1.41380    0.16180   79.59780   79.59780    1.41380    1.46110    2.42030    1.46110    -999.25    0.45020    0.40520 -105.13200  -14.03110    2.42030 2894.29250
 5150.00000    7.87500   11.28900  599.73610    3.41400    0.18650    2.34950    -999.25    0.18210    0.21080    1.66740    0.18650   88.00160   88.00160    1.66740    1.68510    2.15920    1.68510    -999.25    0.41000    0.36500  -99.70390   -8.68850    2.15920 2862.54690
 5200.00000    7.87500    8.80160  572.31160    0.92660    0.02470    2.41830    -999.25    0.14040    0.17060    1.74730    0.02470   90.49760   90.49760    1.74730    1.76340    2.26460    1.76340    -999.25    0.31710    0.27210  -96.55470   -5.62470    2.26460 2928.25830
 5250.00000    7.87500   13.16460 1098.65960    5.28960    0.15600    2.27210    -999.25    0.22900    0.25610    0.91020    0.15600   86.45990   86.45990    0.91020    0.97130    1.53680    0.97130    -999.25    0.49340    0.44840  -92.59440   -1.74980    1.53680 2868.42800
 5300.00000    7.87500   14.32110 1031.99170    6.44610    0.07320    2.25140    -999.25    0.24160    0.26820    0.96900    0.07320   83.05680   83.05680    0.96900    1.00580    1.44670    1.00580    -999.25    0.45980    0.41480  -96.69580   -6.55990    1.44670 2888.41160
 5350.00000    7.87500   14.96740  880.28170    7.09240    0.06460    2.33590    0.21880    -999.25    0.21880    1.13600    0.06460   81.42700   81.42700    1.13600    1.14740    1.58580    1.14740    0.42050    -999.25    0.42050  -96.13590   -6.72790    1.58580 2914.25680
 5400.00000    7.87500   12.53980  991.86670    4.66480    0.10740    2.24680    0.27090    -999.25    0.27090    1.00820    0.10740   92.68800   92.68800    1.00820    1.01740    1.40150    1.01740    0.42760    -999.25    0.42760  -91.21460   -2.53450    1.40150 2956.07620
 5450.00000    7.87500   13.05610  904.32270    5.18110    0.13760    2.34030    0.21620    -999.25    0.21620    1.10580    0.13760   93.14320   93.14320    1.10580    1.11970    1.48520    1.11970    0.37650    -999.25    0.37650  -91.29770   -3.34550    1.48520 2957.12670
 5500.00000    7.87500   12.94180  683.29350    5.06680    0.10490    2.39450    0.18450    -999.25    0.18450    1.46350    0.10490   80.25370   80.25370    1.46350    1.50960    1.69780    1.50960    0.38800    -999.25    0.38800  -92.40260   -6.34740    1.69780 2976.54810
 5550.00000    7.87500   17.85940 1101.32160    9.98440    0.17730    2.13510    0.33620    -999.25    0.33620    0.90800    0.17730   73.56470   73.56470    0.90800    1.00550    1.34160    1.00550    0.28640    -999.25    0.28640  -93.73970   -9.72590    1.34160 2957.88620
 5600.00000    7.87500   16.90140  802.56820    9.02640    0.14280    2.38440    0.19040    -999.25    0.19040    1.24600    0.14280   76.92460   76.92460    1.24600    1.38050    1.61490    1.38050    0.31720    -999.25    0.31720  -94.17800  -12.20560    1.61490 3007.14820
 5650.00000    7.87500   10.30380  447.00730    2.42880    0.00050    2.47730    0.13610    -999.25    0.13610    2.23710    0.00050   85.86400   85.86400    2.23710    2.25810    2.28340    2.25810    0.27990    -999.25    0.27990  -86.97010   -7.03910    2.28340 3044.79320
 5700.00000    7.87500   15.36060  659.41310    7.48560    0.11470    2.43160    0.16280    -999.25    0.16280    1.51650    0.11470   79.81260   79.81260    1.51650    1.55560    1.77630    1.55560    0.40540    -999.25    0.40540  -90.95590  -13.06630    1.77630 3025.93730
 5750.00000    7.87500   12.27200  551.35910    4.39700    0.10140    2.42610    0.16600    -999.25    0.16600    1.81370    0.10140   80.15320   80.15320    1.81370    1.92400    2.15390    1.92400    0.31370    -999.25    0.31370  -84.83090   -8.98270    2.15390 3060.45210
 5800.00000    7.87500   10.31820  342.78270    2.44320    0.03180    2.46320    0.14430    -999.25    0.14430    2.91730    0.03180   67.52770   67.52770    2.91730    2.73250    3.20800    2.73250    0.24090    -999.25    0.24090  -77.54590   -3.73920    3.20800 3074.88450
 5850.00000    7.87500   11.22340  378.30070    3.34840   -0.00040    2.53760    0.10080    -999.25    0.10080    2.64340   -0.00040   63.92130   63.92130    2.64340    2.71320    2.91420    2.71320    0.27290    -999.25    0.27290  -75.39820   -3.97700    2.91420 3167.89210
 5900.00000    7.87500   10.58190  363.64960    2.70690   -0.00940    2.58330    0.07410    -999.25    0.07410    2.74990   -0.00940   58.26590   58.26590    2.74990    2.76980    3.13120    2.76980    0.22910    -999.25    0.22910  -72.85210   -5.19270    3.13120 3147.64500
 5950.00000    7.87500   11.25840  295.84050    3.38340   -0.00660    2.37690    0.19480    -999.25    0.19480    3.38020   -0.00660   67.05460   67.05460    3.38020    3.21270    3.08540    3.21270    0.26120    -999.25    0.26120  -69.98450   -6.08690    3.08540 3194.27930
