~Version ---------------------------------------------------
VERS. 2.0 : CWLS log ASCII Standard -VERSION 2.0
WRAP.  NO : ONE LINE PER DEPTH STEP
~Well ------------------------------------------------------
STRT.F                   2550.0 : START DEPTH
STOP.F                  14350.0 : STOP DEPTH
STEP.F                 50.00000 : STEP LENGTH
NULL.                   -999.25 : NULL VALUE
COMP. GENERAL CRUDE OIL COMPANY : COMPANY
WELL.    A G HENKES GAS UNIT #1 : WELL
FLD .                   WILDCAT : FIELD
LOC .                           : LOCATION
CNTY.                    LAVACA : COUNTY
STAT.                     TEXAS : STATE
CTRY.  UNITED STATES OF AMERICA : COUNTRY
SRVC.                   Unknown : SERVICE COMPANY
DATE.               29-Aug-1977 : LOGDATE
API .            42285307220000 : API NUMBER
UWI .            42285307220000 : UNIQUE WELL ID
SLAT.WGS84        29.3839239903 : SURFACE LATITUDE
SLON.WGS84       -96.9359395822 : SURFACE LONGITUDE
~Curve Information -----------------------------------------
DEPT   .F    0   1   0  0 : 1 MEASURED DEPTH
SPR    .MV   06 010 01 00 : SPONTANEOUS POTENTIAL FROM RESISTIVITY LOG
CALR   .IN   06 280 01 00 : CALIPER FROM RESISTIVITY LOG
ILD    .OHMM 06 120 46 00 : INDUCTION DEEP RESISTIVITY
ILM    .OHMM 06 120 44 00 : INDUCTION MEDIUM RESISTIVITY
LL8    .OHMM 06 220 08 00 : LATEROLOG 8
DT     .US/F 60 500 00 00 : DELTA-T (INTERVAL TRANSIT TIME)
CALD   .IN   45 280 60 00 : CALIPER FROM DENSITY LOG
DPHI_SS.DEC  45 890 10 00 : DENSITY POROSITY SANDSTONE
NPHI_LS.DEC  42 890 01 00 : NEUTRON POROSITY LIMESTONE
DPHI_LS.DEC  45 890 10 00 : DENSITY POROSITY LIMESTONE
RHOB   .G/C3 45 350 01 00 : BULK DENSITY
CORR   .G/C3 45 356 01 00 : DENSITY CORRECTION
GRD    .GAPI 45 310 01 00 : GAMMA RAY FROM DENSITY LOG
~Params ----------------------------------------------------
PD  .                     GL : PERMANENT DATUM
EPD .FT                  260 : ELEVATION PERMANENT DATUM
LMF .                     KB : LOG MEASURED FROM
DAPD.FT                   18 : FEET ABOVE PERMANENT DATUM
DMF .                     KB : DRILLING MEASURED FROM
EKB .FT                  278 : KELLY BUSHING
EDF .FT                  277 : DRILLING FLOOR
EGL .FT                  260 : GROUND LEVEL
DATE.              8-29-1977 : RUN DATE
RUN .                      4 : RUN NUMBER
DD  .FT                14505 : DEPTH DRILLER
DL  .FT                14401 : DEPTH LOGGER
BLI .FT                14394 : BOTTOM LOG INTERVAL
TLI .FT                13663 : TOP LOG INTERVAL
CS  .IN                    7 : CASING SIZE
CBD .FT                13646 : CASING BOTTOM DRILLER
CBL .FT                13663 : CASING BOTTOM LOGGER
BS  .IN                    6 : BIT SIZE
DFT .                CLS-LIG : DRILLING FLUID TYPE
DFD .                    1.6 : DRILLING FLUID DENSITY
DFV .                     45 : DRILLING FLUID VISCOSITY
DFPH.                    1.0 : DRILLING FLUID PH
DFL .                    3.8 : DRILLING FLUID LOSS
MSS .               CIRC PIT : MUD SAMPLE SOURCE
RMS .OHMM              0.865 : RESISTIVITY MUD SAMPLE
MST .DEGF                 75 : MUD SAMPLE TEMPERATURE
RMF .OHMM               0.57 : RESISTIVITY MUD FILTRATE SAMPLE
MFST.DEGF                 75 : MUD FILTRATE SAMPLE TEMPERATURE
RMC .OHMM                1.3 : RESISTIVITY MUD CAKE
MCST.DEGF                 75 : MUD CAKE SAMPLE TEMPERATURE
MFSS.               MEASURED : MUD FILTRATE SAMPLE SOURCE
MCSS.             CALCULATED : MUD CAKE SAMPLE SOURCE
LUN .                   8005 : LOGGING UNIT NUMBER
LUL .                   VICT : LOGGING UNIT LOCATION
CLNT.                A2DTECH : CLIENT CODE
ORIG.            2" 5" PRINT : ORIGIN OF DATA
UWI .         42285307220000 : UNIQUE WELL ID
DICO. A2D Technologies, Inc. : DIGITIZING COMPANY
~Other -----------------------------------------------------
~ASCII -----------------------------------------------------
# ...
 12950.00000  -17.43550    -999.25    2.55290    2.64710    3.06050   83.46770   12.69040    0.06490    0.20410    -999.25    2.56870    0.01640    -999.25
 13000.00000  -17.75600    -999.25    3.40440    3.47350    4.28340   76.06690   12.18900    0.04120    0.17240    -999.25    2.60500   -0.00100    -999.25
 13050.00000  -17.61150    -999.25    2.82100    2.89110    3.44700   79.71050   12.30730    0.03670    0.18250    -999.25    2.62040   -0.00810    -999.25
 13100.00000  -17.61440    -999.25    3.00380    3.05840    3.94360   80.82410   12.25030    0.04340    0.18440    -999.25    2.60820   -0.00980    -999.25
 13150.00000  -17.97690    -999.25    4.37780    4.45900    4.62380   73.64930   12.28800    0.03280    0.14130    -999.25    2.62410   -0.00890    -999.25
 13200.00000  -17.12810    -999.25    4.86080    4.97290    5.22780   72.71920   11.09980    0.03520    0.09560    -999.25    2.61660   -0.00890    -999.25
 13250.00000  -16.74880    -999.25    4.39330    4.57960    4.92600   76.83820   11.23980    0.04640    0.13000    -999.25    2.60600   -0.00690    -999.25
 13300.00000  -17.10410    -999.25    3.45580    3.52240    4.57920   78.18630   10.58240    0.05200    0.16190    -999.25    2.59050   -0.01160    -999.25
 13350.00000  -16.46940    -999.25    5.85540    6.02370    7.76810   70.91700   10.44460    0.04610    0.11830    -999.25    2.60430   -0.01390    -999.25
 13400.00000  -16.42830    -999.25    4.21750    4.39140    5.86800   74.74740   10.42440    0.04690    0.14240    -999.25    2.59620   -0.00900    -999.25
 13450.00000  -16.44850    -999.25    3.32720    3.56260    5.04190   77.11320   10.31420    0.09030    0.22600    -999.25    2.53280   -0.01860    -999.25
 13500.00000  -16.19290    -999.25    2.74560    2.82860    4.02040   83.68610   10.38870    0.05090    0.20520    -999.25    2.59190    0.00040    -999.25
 13550.00000  -16.30910    -999.25    2.74990    2.87930    4.30370   84.11410    9.82130    0.05610    0.21460    -999.25    2.58420   -0.01010    -999.25
 13600.00000  -16.38010    -999.25    2.87860    3.02080    4.13660   83.53170    -999.25    -999.25    -999.25    -999.25    -999.25    -999.25    -999.25
 13650.00000  -15.65520    -999.25    8.67800    9.85920   16.14040   57.39510    -999.25    -999.25    0.11990    -999.25    -999.25    -999.25   31.58580
 13700.00000  -24.28930    -999.25   14.87400   14.02850   26.27300   63.97680    7.02050    -999.25    0.05900    0.02130    2.67520    0.02540   46.84640
 13750.00000  -19.92810    -999.25   16.56700   14.71640   22.74470   65.19340    6.99980    -999.25    0.05560    0.03220    2.65150    0.00670   46.31750
 13800.00000  -19.66700    -999.25   30.42070   29.45870   96.04120   58.54070    7.01950    -999.25    0.02500    0.03510    2.65390   -0.00280   25.21540
 13850.00000  -19.34080    -999.25   34.87020   39.17720   97.48140   58.52080    7.00770    -999.25    0.02790    0.01910    2.67810    0.00770   29.27150
 13900.00000  -17.38590    -999.25   25.77510   29.52350 1064.74180   58.42970    7.01500    -999.25    0.02890    0.03210    2.63990   -0.01500   44.33790
 13950.00000  -18.39120    -999.25    4.02750    4.07430    6.60060   85.46620    8.81400    -999.25    0.24160    0.16260    2.42800    0.05390   83.37800
 14000.00000   -8.64960    -999.25   58.35840   53.94020   81.39580   53.19670    6.97420    -999.25    0.02460   -0.00140    2.71690   -0.00720   27.92540
 14050.00000  -14.72660    -999.25  231.85630  193.57070  259.58350   60.37280    6.59080    -999.25    0.01790    0.04960    2.62220    0.00930   19.48740
 14100.00000  -25.65930    -999.25  250.72180  390.56340  447.86720   51.63980    6.70270    -999.25    0.00870    0.05130    2.62580    0.00140   11.86450
 14150.00000    0.60890    -999.25  116.32300  167.42470  218.31140   51.35550    6.79490    -999.25    0.00850    0.02050    2.67130    0.00070   17.44520
 14200.00000  -23.56610    -999.25   14.83890   19.05170   43.79300   53.58700    6.33200    -999.25    0.02030    0.04760    2.62810    0.04730   10.82000
 14250.00000  -23.77860    -999.25   24.03170   29.09780   84.25940   53.47690    -999.25    -999.25    -999.25    -999.25    -999.25    -999.25    -999.25
 14300.00000  -16.38070    -999.25   46.50840   42.61540   58.99450   54.14290    -999.25    -999.25    -999.25    -999.25    -999.25    -999.25    -999.25
 14350.00000  -25.16370    -999.25   11.31380   14.90630   44.12150   53.90030    -999.25    -999.25    -999.25    -999.25    -999.25    -999.25    -999.25
