~Version ---------------------------------------------------
VERS. 2.0 : CWLS log ASCII Standard -VERSION 2.0
WRAP.  NO : ONE LINE PER DEPTH STEP
~Well ------------------------------------------------------
STRT.F                    2000.0 : START DEPTH
STOP.F                   13500.0 : STOP DEPTH
STEP.F                  50.00000 : STEP LENGTH
NULL.                    -999.25 : NULL VALUE
COMP. CHAMPLIN PETROLEUM COMPANY : COMPANY
WELL.            J. M. EDWARD #1 : WELL
FLD .      EAST EDGE AREA BRAZOS : FIELD
LOC .                            : LOCATION
CNTY.                     BRAZOS : COUNTY
STAT.                      TEXAS : STATE
CTRY.   UNITED STATES OF AMERICA : COUNTRY
SRVC.              Dresser Atlas : SERVICE COMPANY
DATE.                20-Dec-1978 : LOGDATE
API .             42041304220000 : API NUMBER
UWI .             42041304220000 : UNIQUE WELL ID
SLAT.WGS84         30.9316789084 : SURFACE LATITUDE
SLON.WGS84        -96.2220478989 : SURFACE LONGITUDE
~Curve Information -----------------------------------------
DEPT.F                 : 
SP  .MV   07 010 01 00 : SPONTANEOUS POTENTIAL FROM DUAL INDUCTION LOG
ILM .OHMM 07 120 44 00 : INDUCTION LOG, MEDIUM (5FF40) FROM DUAL INDUCTION LOG
ILD .OHMM 07 120 46 00 : DEEP (6FF40) FROM DUAL INDUCTION LOG
SFL .OHMM 07 220 01 00 : SPHERICALLY FOCUSED RESISTIVITY FROM DUAL INDUCTION LOG
CALD.IN   42 280 60 00 : CALIPER
GRD .GAPI 45 310 01 00 : GAMMA RAY
NPHI.DEC  42 890 01 00 : NEUTRON POROSITY LIME
DPHI.DEC  45 890 10 00 : DENSITY POROSITY LIME
DT  .US/F 60 520 24 00 : SPECIFIC ACOUSTIC TIME
~Params ----------------------------------------------------
EKB .F                           277.0 : KELLY BUSHING
EGL .F                             261 : ELEVATION GROUND LEVEL
EDF .F                             276 : ELEVATION DERRICK FLOOR
EPD .F                             261 : ELEVATION PERMANENT DATUM
TD  .F                         12090.0 : TOTAL DEPTH
DATE.                      29-NOV-1978 : DATE LOGGED
CLNT.                          A2DTECH : CLIENT CODE
PD  .                               GL : PERMANENT DATUM
LMF .                               KB : LOG MEASURED FROM
DMF .                               KB : DRILLING MEASURED FROM
DAPD.F                              15 : FEET ABOVE PERMANENT DATUM
DD  .F                           12078 : DEPTH DRILLER
DL  .F                           12090 : DEPTH LOGGER
BLI .F                           12089 : BOTTOM LOG INTERVAL
TLI .F                            2018 : TOP LOG INTERVAL
CS1 .IN                          10.75 : CASING SIZE
CBD1.                   10.75" @ 2000' : CASING DRILLER 1
CBL1.F                            2018 : CASING LOGGER 1
BS1 .IN                          9.875 : BIT SIZE
BSD1.F                           12078 : DEPTH DRILLED WITH BIT1
DFT .                            LIGNO : TYPE FLUID IN HOLE
DFD .                              9.3 : DENSITY
DFV .                               40 : VISCOSITY
DFPH.                               10 : PH
DFL .                              6.4 : FLUID LOSS
MSS .                         FLOWLINE : SOURCE OF SAMPLE
RMS .OHMM                         1.38 : RM
RMF .OHMM                         1.03 : RMF
RMC .OHMM                         1.72 : RMC
MFSS.                             CALC : SOURCE RMF.
MCSS.                             CALC : SOURCE RMC.
RMB .OHMM                         0.42 : RM. AT BHT
BHT .F                             209 : BHT.
TCS .HRS                             4 : TIME CIRC. STOPPED
LUN .                             6082 : LOGGING UNIT NUMBER
LUL .                             PEAR : LOGGING UNIT LOCATION
ENGI.                  FISHER/JOHNSTON : RECORDED BY
WITN. REVE/PRITCHARD/STILLWELL/FARNHAM : WITNESSED BY
ORIG.                         5" PRINT : ORIGIN OF DATA
UWI .                   42041304220000 : UNIQUE WELL ID
DICO.           A2D TECHNOLOGIES, INC. : DIGITIZING COMPANY
~Other -----------------------------------------------------
# THIS JOB HAS CURVE NPHI LIMESTONE AND DPHI LIMESTONE.
~ASCII -----------------------------------------------------
# ...
 9300.00000  -46.32800   11.66100    9.87800   10.40700    9.95710   27.77970    0.06870    0.01100   61.45090
 9350.00000  -46.04600    4.70200    3.87400    5.67500   10.59740   37.96480    0.16260    0.17230   76.79410
 9400.00000  -50.50900   40.45300   50.69900   75.73800    9.72080   28.47520    0.06370    0.00440   51.29670
 9450.00000  -50.12200   51.30100   49.97800   37.84100    9.74340   27.08520    0.05630    0.02710   52.17150
 9500.00000  -46.49200    9.99900    9.74000    9.98830    9.85500   34.95670    0.22510    0.04100   63.61160
 9550.00000  -47.21000   15.88300   12.20300   17.01700    9.65470   33.79670    0.06020    0.02570   58.82320
 9600.00000  -44.38200   11.61900   10.01200   12.56800    9.63580   34.49490    0.45000    0.03870   63.57640
 9650.00000  -41.21800    3.62800    3.46500    5.79700   10.55900   49.30610    0.26350    0.20330   83.73720
 9700.00000  -50.64900   41.25800   27.41900   30.47700    9.77530   40.04610    0.06260    0.03130   54.81560
 9750.00000  -47.98500   16.72300   13.04300   40.16600    -999.25   43.29040    0.10580    0.05030   57.60510
 9800.00000  -47.43000   42.61600   43.62900   46.49800    9.81030   37.26890    0.07930    0.01180   54.15920
 9850.00000  -44.25700   11.56000    9.84800   13.99600   10.16590   47.68890    0.14430    0.04710   66.16640
 9900.00000  -58.65570   18.15200   17.76200   17.86200   11.41900   46.29860    0.15440    0.37810   59.60420
 9950.00000    -999.25   18.69500   17.29900   18.11600    9.88240   43.52120    0.07400    0.04850   61.96520
 10000.00000    -999.25   79.09300   64.32300   66.51090    9.82750   31.02040    0.03550    0.02060   52.42280
 10050.00000    -999.25   64.51000   72.09500   71.26200    9.99950   43.28700    0.06290    0.02060   52.03670
 10100.00000  -93.82690   14.29800   13.93400   27.74900   10.22650   20.37190    0.09330    0.11240   56.82100
 10150.00000  -38.63500   53.15600   65.53600   46.68700    9.92120   34.02930    0.05780    0.01370   53.12940
 10200.00000  -37.36200   33.10500   33.99900   49.75000   10.06850   22.68670    0.03390   -0.00390   53.73380
 10250.00000  -36.26800   21.38000   19.65900   31.86500   10.03590   40.04630    0.10250    0.01180   57.74690
 10300.00000  -36.28600   22.41800   17.24400   44.85500   10.55830   48.38110    0.15910    0.21720   55.58020
 10350.00000  -36.30300   23.76800   19.10600   24.13300    9.89230   34.49220    0.07240    0.02200   58.07850
 10400.00000  -37.46500   20.49900   18.90200   19.79700    9.83720   33.56630    0.06340    0.03040   58.51750
 10450.00000  -50.60700  113.00500  105.43500   78.18400    9.97670   20.83450    0.03180    0.01790   50.58120
 10500.00000  -49.17800  171.50500  144.17200   81.48900   10.72840   31.48000    0.03670    0.00770   49.76680
 10550.00000  -70.30300  106.22200  112.95900   63.08900   10.74070   23.38020    0.02070    0.00260   50.46580
 10600.00000  -46.59800   73.79000   74.39100   55.08400   10.60260   40.97000    0.04670    0.02730   51.11110
 10650.00000  -55.25600   48.15500   55.50700   42.90500   10.15700   33.79360    0.04640    0.01040   52.47820
 10700.00000  -67.82700   71.64300   96.04300   64.35200   10.28140   18.98020    0.01930    0.00490   51.96840
 10750.00000  -95.44020   28.82100   32.57200   37.50800    9.94500   16.89830    0.04480    0.03040   51.97190
 10800.00000  -66.38330   79.68700  125.15100  104.26000   10.12800   30.32590    0.04440    0.04820   50.03390
 10850.00000  -65.68000   52.35700   79.50100   70.11500   10.09450   40.51110    0.07880    0.02390   51.49260
 10900.00000  -26.85230   10.10800    9.56200   17.27800   10.20390   50.69600    0.14800    0.03270   67.00620
 10950.00000  -96.29630   71.20700   61.47900   82.30700   10.04320   31.71370    0.02970    0.03460   50.86250
 11000.00000  -27.34980   46.17500   39.41300   42.30810    9.75000   32.63890    0.06340    0.00490   54.19780
 11050.00000  -31.66410  106.99500   76.74000   52.87290    9.98150   42.12960    0.05550   -0.00280   51.42020
 11100.00000  -14.56110    3.69100    2.83400    6.88600   11.90550   68.51960    0.29880    0.18400   82.04790
 11150.00000  -14.25150   15.30100   13.14600   17.51300    9.96600   38.42670    0.08060    0.04980   59.50820
 11200.00000  -34.12920    4.14700    3.55200    5.60400   11.27330   64.12000    0.26020    0.26170   80.61750
 11250.00000  -32.98900    5.82700    5.18300    6.54900   11.89530   73.84180    0.23570    0.10730   74.64170
 11300.00000  -34.32500    3.10000    2.76100    3.85100   13.94160   80.55590    0.36950    0.20890   93.81230
 11350.00000  -37.77200   20.30400   18.45500   19.37000   10.00830   30.78780    0.07120    0.01880   59.31430
 11400.00000  -36.46800   17.23500   11.72100   32.59900   10.12860   37.96320    0.11930    0.02990   53.26240
 11450.00000  -36.52000   28.57100   25.25400   23.53670   10.04020   26.85260    0.07210    0.03220   55.43260
 11500.00000  -26.35240    5.09600    4.34400    5.81300   10.86260   62.26890    0.17660    0.06930   73.92520
 11550.00000 -100.00000  143.59800   69.27100   52.99800   10.28930   25.98410    0.05170    0.02740   50.33050
 11600.00000    -999.25   12.38800   12.14500   17.98200   10.05720   26.15960    0.02810    0.02390   52.93250
 11650.00000  -41.19900   16.21800   15.77700   16.81400   10.12030   54.39820    0.04980    0.01040   57.61780
 11700.00000  -86.41980   73.35300   55.60300   66.26000   10.62730   33.33560    0.03050    0.03450   50.92860
 11750.00000  -54.32100   51.71900   48.63300   31.14600   10.45990   36.11220    0.03740   -0.00350   52.30180
 11800.00000  -69.28940   15.64000   15.27310   65.18190   10.28430   45.13960    0.04800    0.01690   53.78630
 11850.00000  -41.88600   19.50500   12.42500   26.57000   10.48140   32.63960    0.03340    0.03500   57.08560
 11900.00000  -63.03800   82.00600   72.11800   70.95900   10.49840   33.79820    0.04020    0.01880   50.30360
 11950.00000  -38.63400   47.46900   29.70800   44.54100   10.83020   34.72450    0.03740    0.02520   53.13570
 12000.00000  -28.26400   11.72900   10.63500   25.80630   11.38580   46.99150    0.09650    0.05070   55.69140
 12050.00000  -28.46180   46.47120   46.41100   47.10460   11.11350   35.87960    0.05930    0.06300   52.03670
 12100.00000    -999.25    -999.25    -999.25    -999.25   11.00310   37.26890    0.04120    0.00890    -999.25
 12150.00000    -999.25    -999.25    -999.25    -999.25   13.10390   46.29690    0.11120    0.02220    -999.25
 12200.00000    -999.25    -999.25    -999.25    -999.25   10.14710   46.52740    0.05420    0.09340    -999.25
 12250.00000    -999.25    -999.25    -999.25    -999.25   11.09250   79.63260    0.16490    0.06040    -999.25
 12300.00000    -999.25    -999.25    -999.25    -999.25   10.71760   53.70520    0.09090    0.04620    -999.25
 12350.00000    -999.25    -999.25    -999.25    -999.25   10.18260   53.47220    0.09460    0.08970    -999.25
 12400.00000    -999.25    -999.25    -999.25    -999.25   10.05490   76.39000    0.15030    0.10730    -999.25
 12450.00000    -999.25    -999.25    -999.25    -999.25   10.39270   70.83390    0.14500    0.09460    -999.25
 12500.00000    -999.25    -999.25    -999.25    -999.25   10.04470   45.60130    0.07080    0.07760    -999.25
 12550.00000    -999.25    -999.25    -999.25    -999.25   10.92300   82.17590    0.15510    0.08410    -999.25
 12600.00000    -999.25    -999.25    -999.25    -999.25   10.47600   86.34450    0.14190    0.09870    -999.25
 12650.00000    -999.25    -999.25    -999.25    -999.25    9.88280   45.83390    0.05730    0.06420    -999.25
 12700.00000    -999.25    -999.25    -999.25    -999.25   10.22970   56.94370    0.07700    0.05770    -999.25
 12750.00000    -999.25    -999.25    -999.25    -999.25    9.98300   83.33330    0.10660    0.08550    -999.25
 12800.00000    -999.25    -999.25    -999.25    -999.25    9.95220   88.65910    0.16350    0.09620    -999.25
 12850.00000    -999.25    -999.25    -999.25    -999.25    9.84120   81.48020    0.11560    0.07160    -999.25
