~Version ---------------------------------------------------
VERS. 2.0 : CWLS log ASCII Standard -VERSION 2.0
WRAP. YES : MULTIPLE LINES PER DEPTH STEP
~Well ------------------------------------------------------
STRT.FT                  3250.0 : START DEPTH
STOP.FT                  7950.0 : STOP DEPTH
STEP.FT                50.00000 : STEP LENGTH
NULL.                   -999.25 : NULL VALUE
COMP. EVERGREEN OIL CORPORATION : COMPANY
WELL.           HAMILTON R C #1 : WELL
FLD .                      COST : FIELD
LOC .                           : LOCATION
CNTY.                  GONZALES : COUNTY
STAT.                     TEXAS : STATE
CTRY.  UNITED STATES OF AMERICA : COUNTRY
SRVC.              Schlumberger : SERVICE COMPANY
DATE.               15-Dec-1980 : LOGDATE
API .            42177307020000 : API NUMBER
UWI .            42177307020000 : UNIQUE WELL ID
SLAT.WGS84        29.2306839754 : SURFACE LATITUDE
SLON.WGS84       -97.6857640562 : SURFACE LONGITUDE
~Curve Information -----------------------------------------
DEPT    .FT    : DEPTH FEET
CALDED  .IN    : CALIPER FROM DENSITY LOG
CALWS   .IN    : CALIPER [CALDED]
CONDWS  .MMHO  : CONDUCTIVITY [1000/DRESWS]
DCALED  .IN    : DIFFERENTIAL CALIPER FROM DENSITY LOG
DCORWS  .G/C3  : DENSITY CORRECTION [DRHOED]
DENWS   .G/C3  : BULK DENSITY [M=2.71 F=1.0] [RHOBED]
DPHILSED.V/V   : DENSITY POROSITY [M=2.71 F=1.0] FROM DENSITY LOG
DPHISSED.V/V   : DENSITY POROSITY [M=2.68 F=1.0] FROM DENSITY LOG
DPOLSWS .V/V   : DENSITY POROSITY [M=2.71 F=1.0] [CAL FR DENWS]
DRESWS  .OHMM  : DEEP RESISTIVITY [ILDED IS PATCHED TO REMOVE DUBIOUS SPIKES]
DRHOED  .G/C3  : DENSITY CORRECTION FROM DENSITY LOG
GRDED   .GAPI  : GAMMA RAY FROM DENSITY LOG
GRRED   .GAPI  : GAMMA RAY FROM RESISTIVITY LOG
GRWS    .GAPI  : GAMMA RAY [3234 GRDED 7734 GRRED]
ILDED   .OHMM  : INDUCTION LOG DEEP RESISTIVITY
ILMED   .OHMM  : INDUCTION LOG MEDIUM RESISTIVITY
MRESWS  .OHMM  : MEDIUM RESISTIVITY [ILMED IS PATCHED TO REMOVE DUBIOUS SPIKES]
NPHILSED.V/V   : NEUTRON POROSITY LIMESTONE FROM DENSITY LOG
NPHISSED.V/V   : NEUTRON POROSITY SANDSTONE FROM DENSITY LOG
NPOLSWS .V/V   : NEUTRON POROSITY LIMESTONE [3234 NPHILS_CAL 7394.5 NPHILSED][NPHISSED IS CONVERTED TO NPHILS_CAL USING POWERLOG MODULE]
RHOBED  .G/C3  : BULK DENSITY FROM DENSITY LOG [SOME PEAKS ARE DEPTH MATCHED TO DPHIED]
SFLUED  .OHMM  : SPHERICALLY FOCUSED LOG RESISTIVITY
SPRED   .MV    : SPONTANEOUS POTENTIAL FROM RESISTIVITY LOG
SPWS    .MV    : SPONTANEOUS POTENTIAL [BASELINE 0 MV] [SPRED]
SRESWS  .OHMM  : SHALLOW RESISTIVITY [SFLUED]
TENRED  .LBF   : TENSION FROM RESISTIVITY LOG
~Params ----------------------------------------------------
PD  .                     GL : PERMANENT DATUM
EPD .FT                  262 : ELEVATION PERMANENT DATUM
LMF .                     KB : LOG MEASURED FROM
DAPD.FT                   15 : FEET ABOVE PERMANENT DATUM
DMF .                     KB : DRILLING MEASURED FROM
EKB .FT                  277 : KELLY BUSHING
EDF .FT                  276 : DRILLING FLOOR
EGL .FT                  262 : GROUND LEVEL
DATE.               12/15/80 : RUN DATE
RUN .                      1 : RUN NUMBER
DD  .FT                 7980 : DEPTH DRILLER
DL  .FT                 7972 : DEPTH LOGGER
BLI .FT                 7966 : BOTTOM LOG INTERVAL
TLI .FT                 3249 : TOP LOG INTERVAL
CS  .IN                8.625 : CASING SIZE
CBD .FT                 2258 : CASING BOTTOM DRILLER
CBL .FT                 3249 : CASING BOTTOM LOGGER
BS  .IN                7.875 : BIT SIZE
BSD .FT                 7980 : BIT SIZE AT DEPTH
DFD .                    9.5 : DRILLING FLUID DENSITY
DFV .                     54 : DRILLING FLUID VISCOSITY
DFPH.                      9 : DRILLING FLUID PH
DFL .                    8.0 : DRILLING FLUID LOSS
MSS .               FLOWLINE : MUD SAMPLE SOURCE
RMS .OHMM               2.65 : RESISTIVITY MUD SAMPLE
MST .FT                   75 : MUD SAMPLE TEMPERATURE
RMF .OHMM               2.61 : RESISTIVITY MUD FILTRATE SAMPLE
MFST.FT                   75 : MUD FILTRATE SAMPLE TEMPERATURE
RMC .OHMM               3.97 : RESISTIVITY MUD CAKE
MCST.FT                   75 : MUD CAKE SAMPLE TEMPERATURE
MFSS.                      M : MUD FILTRATE SAMPLE SOURCE
MCSS.                      C : MUD CAKE SAMPLE SOURCE
RMB .OHMM                1.0 : RESISTIVITY MUD AT BHT
TCS .HRS                2400 : TIME CURCULATED STOPPED
TLAB.HRS                 600 : TIME LOGGER AT BOTTOM
LUN .                   8011 : LOGGING UNIT NUMBER
LUL .               VICTORIA : LOGGING UNIT LOCATION
ENGI.              PISHVAVOV : RECORDING ENGINEER
WITN.                 GERJES : WITNESSED BY
CLNT.                A2DTECH : CLIENT CODE
ORIG.            1" 5" PRINT : ORIGIN OF DATA
UWI .         42177307020000 : UNIQUE WELL ID
DICO. A2D Technologies, Inc. : DIGITIZING COMPANY
~Other -----------------------------------------------------
~ASCII -----------------------------------------------------
# ...
 4600.00000    9.06820    9.06820  206.24080    1.24330    0.00840    2.27100    -999.25    0.25850    0.25670    4.84870    0.00840   55.55830   52.54910   55.55830    4.84870    5.94730    5.94730    -999.25    0.29100    0.24700    2.27100    6.77770  -17.45540  -15.97770    6.77770 1492.83530
 4650.00000   11.34320   11.34320  291.26500    3.51660    0.11860    2.37290    -999.25    0.19190    0.19710    3.43330    0.11860   66.33860   69.56480   66.33860    3.43330    4.05140    4.05140    -999.25    0.28530    0.24130    2.37290    4.66420   -5.44710   -3.65020    4.66420 1520.01940
 4700.00000    9.29710    9.29710  170.33160    1.36110   -0.00120    2.26060    -999.25    0.26420    0.26280    5.87090   -0.00120   65.82880   62.31230   65.82880    5.87090    7.10280    7.10280    -999.25    0.30380    0.25980    2.26060    8.73010  -16.78480  -15.30160    8.73010 1509.15160
 4750.00000    8.96980    8.96980  227.65040    1.03140    0.01790    2.27130    -999.25    0.26300    0.25650    4.39270    0.01790   71.33810   67.84260   71.33810    4.39270    4.87540    4.87540    -999.25    0.31240    0.26850    2.27130    4.14490  -11.82150  -10.66480    4.14490 1608.47960
 4800.00000    8.64320    8.64320  186.34470    0.77750    0.00850    2.27350    -999.25    0.25490    0.25530    5.36640    0.00850   63.46360   58.51170   63.46360    5.36640    6.38810    6.38810    -999.25    0.27760    0.23360    2.27350    7.13590  -14.71220  -13.88210    7.13590 1597.20320
 4850.00000    9.13380    9.13380  250.90950    1.30710    0.02310    2.30220    -999.25    0.23500    0.23850    3.98550    0.02310   92.95500   87.09760   92.95500    3.98550    4.40630    4.40630    -999.25    0.34670    0.30300    2.30220    4.29030  -11.73630  -11.23270    4.29030 1593.68270
 4900.00000    9.61970    9.61970  237.78950    1.76600    0.01690    2.32580    -999.25    0.22690    0.22470    4.20540    0.01690   84.90280   80.85530   84.90280    4.20540    4.50630    4.50630    -999.25    0.27100    0.22700    2.32580    5.47780   -8.55620   -8.37920    5.47780 1628.45010
 4950.00000   10.99400   10.99400  413.78740    3.21520    0.03230    2.39580    -999.25    0.18660    0.18370    2.41670    0.03230   88.82980   93.08570   88.82980    2.41670    2.60290    2.60290    -999.25    0.31060    0.26670    2.39580    3.11210   -2.37990   -2.21600    3.11210 1623.89040
 5000.00000   10.88880   10.88880  482.02060    2.96530    0.05960    2.32320    -999.25    0.22260    0.22620    2.07460    0.05960  100.10800  102.82910  100.10800    2.07460    2.15310    2.15310    -999.25    0.41760    0.37510    2.32320    1.92320   -1.45790   -1.29400    1.92320 1623.76040
 5050.00000   11.22810   11.22810  527.34270    3.30250    0.05010    2.44970    -999.25    0.15130    0.15220    1.89630    0.05010  104.23390  110.04240  104.23390    1.89630    1.96140    1.96140    -999.25    0.35420    0.31060    2.44970    2.01120   -2.45110   -2.39680    2.01120 1692.52190
 5100.00000   11.59870   11.59870  569.76810    3.77630    0.02120    2.44280    -999.25    0.15670    0.15630    1.75510    0.02120  110.36180  119.64330  110.36180    1.75510    1.83700    1.83700    -999.25    0.39150    0.34850    2.44280    2.10400   -1.94440   -2.08260    2.10400 1687.63720
 5150.00000   10.30480   10.30480  328.89330    2.39640    0.00200    2.42050    -999.25    0.16800    0.16930    3.04050    0.00200   91.70470   92.66630   91.70470    3.04050    3.17880    3.17880    -999.25    0.26150    0.21750    2.42050    3.77300   -3.70980   -4.04040    3.77300 1740.55210
 5200.00000    8.94260    8.94260  315.91580    1.00050    0.02230    2.31570    -999.25    0.23390    0.23060    3.16540    0.02230   77.81570   72.15540   77.81570    3.16540    4.46260    4.46260    -999.25    0.24240    0.19850    2.31570    8.29320  -27.36230  -27.88530    8.29320 1753.41410
 5250.00000   10.48030   10.48030  509.45030    2.70020    0.03210    2.45870    -999.25    0.14560    0.14700    1.96290    0.03210  104.91890  106.29760  104.91890    1.96290    2.02200    2.02200    -999.25    0.29350    0.24950    2.45870    2.28900   -1.84070   -2.55610    2.28900 1755.13480
 5300.00000    9.79530    9.79530  364.67070    1.84780    0.02320    2.46810    -999.25    0.14170    0.14150    2.74220    0.02320  109.37110  105.68860  109.37110    2.74220    2.83610    2.83610    -999.25    0.28110    0.23710    2.46810    2.99770   -2.15750   -3.06530    2.99770 1786.39060
 5350.00000    9.60480    9.60480  452.07960    1.70880    0.04510    2.51350    -999.25    0.12120    0.11490    2.21200    0.04510  109.39930  105.10690  109.39930    2.21200    2.29620    2.29620    -999.25    0.30640    0.26240    2.51350    2.24500   -1.34160   -2.44180    2.24500 1791.01460
 5400.00000    9.31690    9.31690  385.17830    1.37270    0.05790    2.53690    -999.25    0.10200    0.10120    2.59620    0.05790   91.79850   87.51010   91.79850    2.59620    2.71960    2.71960    -999.25    0.23300    0.18920    2.53690    2.86030   -1.37690   -2.66950    2.86030 1788.09510
 5450.00000   10.16570   10.16570  456.28760    2.41710    0.03500    2.48570    -999.25    0.13460    0.13120    2.19160    0.03500  104.96280  104.62260  104.96280    2.19160    2.22640    2.22640    -999.25    0.28580    0.24180    2.48570    2.27990   -0.43070   -1.91570    2.27990 1799.74760
 5500.00000   10.67070   10.67070  669.47850    2.84280    0.03890    2.43920    -999.25    0.15650    0.15840    1.49370    0.03890  104.03620  106.34160  104.03620    1.49370    1.56860    1.56860    -999.25    0.34140    0.29770    2.43920    1.76840   -2.35490   -4.03230    1.76840 1831.64840
 5550.00000   10.89910   10.89910  685.21310    3.10430    0.08610    2.50680    -999.25    0.11930    0.11880    1.45940    0.08610  106.83030  110.34800  106.83030    1.45940    1.53520    1.53520    -999.25    0.32480    0.28090    2.50680    1.73850   -2.71560   -4.58550    1.73850 1839.25790
 5600.00000   11.39070   11.39070  735.94340    3.56480    0.04950    2.44750    -999.25    0.15570    0.15350    1.35880    0.04950  107.54390  114.44010  107.54390    1.35880    1.43500    1.43500    -999.25    0.34370    0.30000    2.44750    1.72270   -3.62520   -5.66140    1.72270 1838.09720
 5650.00000   11.38750   11.38750  809.71660    3.54040    0.05790    2.39700    -999.25    0.18200    0.18300    1.23500    0.05790  107.52250  115.41160  107.52250    1.23500    1.30130    1.30130    -999.25    0.39400    0.35100    2.39700    1.52910   -3.05250   -5.15690    1.52910 1872.55260
 5700.00000   11.36190   11.36190  859.25420    3.51900    0.07590    2.32740    -999.25    0.22230    0.22370    1.16380    0.07590  104.14880  109.90270  104.14880    1.16380    1.21790    1.21790    -999.25    0.37410    0.33080    2.32740    1.38110   -4.49380   -6.66640    1.38110 1852.90340
 5750.00000   11.48190   11.48190  845.16560    3.64630    0.05330    2.40570    -999.25    0.17770    0.17800    1.18320    0.05330  103.90050  111.82640  103.90050    1.18320    1.22790    1.22790    -999.25    0.33990    0.29620    2.40570    1.36170   -4.45030   -6.69110    1.36170 1897.59780
 5800.00000   11.50240   11.50240  940.46830    3.70400    0.06100    2.42530    -999.25    0.17160    0.16650    1.06330    0.06100   94.71780  101.30730   94.71780    1.06330    1.13380    1.13380    -999.25    0.35570    0.31210    2.42530    1.27730   -1.59210   -3.90120    1.27730 1949.00540
 5850.00000   10.72660   10.72660  865.65090    2.90220    0.04460    2.40750    -999.25    0.17600    0.17690    1.15520    0.04460   91.82890   92.87390   91.82890    1.15520    1.23000    1.23000    -999.25    0.30740    0.26340    2.40750    1.31090   -1.68880   -4.06610    1.31090 1909.54020
 5900.00000   10.15410   10.15410  869.33840    2.33620    0.03140    2.42590    -999.25    0.16660    0.16610    1.15030    0.03140   87.06340   86.74840   87.06340    1.15030    1.20450    1.20450    -999.25    0.29230    0.24830    2.42590    1.32420   -2.48070   -4.92620    1.32420 1938.71860
