~Version ---------------------------------------------------
VERS.      2.0 : CWLS log ASCII Standard -VERSION 2.0
WRAP.      YES : Multiple lines per depth step
CREA. 06/29/18 : LAS Creation Date
~Well ------------------------------------------------------
STRT.FT                  800.0 : START DEPTH
STOP.FT                11000.0 : STOP DEPTH
STEP.FT               50.00000 : STEP LENGTH
NULL.                  -999.25 : NULL VALUE
COMP.    CHEVRON U. S. A. INC. : COMPANY
WELL.     TARTT EMMA ET AL #10 : WELL
FLD .                  FASHING : FIELD
LOC .                          : LOCATION
CNTY.                 ATASCOSA : COUNTY
STAT.                    TEXAS : STATE
CTRY. UNITED STATES OF AMERICA : COUNTRY
SRVC.                  Unknown : SERVICE COMPANY
DATE.              06-Sep-1992 : LOGDATE
API .           42013339770000 : API NUMBER
UWI .           42013339770000 : UNIQUE WELL ID
SLAT.WGS84       28.7945179412 : SURFACE LATITUDE
SLON.WGS84      -98.1956258756 : SURFACE LONGITUDE
~Curve Information -----------------------------------------
DEPT    .FT    : DEPTH FEET
CALDED  .IN    : CALIPER FROM DENSITY LOG
CALWS   .IN    : CALIPER [DCALED+8.5]
CONDWS  .MMHO  : DEEP CONDUCTIVITY [1000/DRESWS]
DCALED  .IN    : DIFFERENTIAL CALIPER FROM DENSITY LOG
DCORED  .G/C3  : DENSITY CORRECTION FROM DENSITY LOG
DCORWS  .G/C3  : DENSITY CORRECTION [DCORED]
DENWS   .G/C3  : BULK DENSITY [CALC. FROM DPOLSWS M=2.71 F=1.0]
DFLED   .OHMM  : DIGITALLY FOCUSED LATEROLOG
DPOLSWS .V/V   : DENSITY POROSITY (LS) [M=2.71 F=1.00] [DPORLSED]
DPORLSED.V/V   : DENSITY POROSITY (LS) [M=2.71 F=1.00]
DRESED  .OHMM  : DEEP RESISTIVITY
DRESWS  .OHMM  : DEEP RESISTIVITY [DRESED]
DTED    .US/F  : DELTA TIME FROM SONIC LOG, DEPTH ADJUSTED WITH [GRRED]
DTWS    .US/F  : DELTA TIME COMPRESSIONAL [DTED]
GRDED   .GAPI  : GAMMA RAY FROM DENSITY LOG
GRED    .GAPI  : GAMMA RAY, DEPTH ADJUSTED WITH [GRRED]
GRRED   .GAPI  : GAMMA RAY FROM RESISTIVITY LOG
GRSED   .GAPI  : GAMMA RAY FROM SONIC LOG, DEPTH ADJUSTED WITH [GRRED]
GRWS    .GAPI  : GAMMA RAY [GRED] 1000 [GRRED]
MRESED  .OHMM  : MEDIUM RESISTIVITY
MRESWS  .OHMM  : MEDIUM RESISTIVITY [MRESED]
NPOLSWS .V/V   : NEUTRON POROSITY LIMESTONE [NPORLSED]
NPORLSED.V/V   : NEUTRON POROSITY LIMESTONE
PEED    .B/E   : PHOTOELECTRIC FACTOR FROM DENSITY LOG
PEFWS   .B/E   : PHOTOELECTRIC FACTOR [PEED]
RHOBED  .G/C3  : BULK DENSITY FROM DENSITY LOG
SPRED   .MV    : SPONTANEOUS POTENTIAL FROM RESISTIVITY LOG
SPWS    .MV    : SPONTANEOUS POTENTIAL [BASELINE 0 MV] [SPRED]
SRESWS  .OHMM  : SHALLOW RESISTIVITY [DFLED]
TENDED  .LBF   : TENSION FROM DENSITY LOG
TENRED  .LBF   : TENSION FROM RESISTIVITY LOG
TENSED  .LBF   : TENSION FROM SONIC LOG, DEPTH ADJUSTED WITH [GRRED]
~Params ----------------------------------------------------
PD  .                     GL : PERMANENT DATUM
EPD .F                   443 : ELEVATION PERMANENT DATUM
LMF .                    TKB : LOG MEASURED FROM
DAPD.F                    22 : FEET ABOVE PERMANENT DATUM
DMF .                    TKB : DRILLING MEASURED FROM
EKB .F                   465 : KELLING BUSHING
EDF .F                   464 : DRILLING FLOOR
EGL .F                   443 : GROUND LEVEL
DATE.               09/06/92 : RUN DATE
RUN .                      1 : RUN NUMBER
DD  .F                 11000 : DEPTH DRILLER
DL  .F                 11005 : DEPTH LOGGER
BLI .F                 11000 : BOTTOM LOG INTERVAL
TLI .F                  4800 : TOP LOG INTERVAL
CS  .IN                9.625 : CASING SIZE
CBD .F                  2000 : CASING BOTTOM DRILLER
CBL .F                  1997 : CASING BOTTOM LOGGER
BS  .IN                  8.5 : BIT SIZE
BSD .F                 11000 : BIT SIZE AT DEPTH
DFT .             WATER BASE : DRILLING FLUID TYPE
DFD .                   10.3 : DRILLING FLUID DENSITY
DFV .                     44 : DRILLING FLUID VISCOSITY
DFPH.                   11.8 : DRILLING FLUID PH
DFL .                      5 : DRILLING FLUID LOSS
MSS .               FLOWLINE : MUD SAMPLE SOURCE
RMS .OHMM               1.07 : RESISTIVITY MUD SAMPLE
MST .F                    75 : MUD SAMPLE TEMPERATURE
RMF .OHMM               0.85 : RESISTIVITY MUD FILTRATE SAMPLE
MFST.F                    75 : MUD FILTRATE SAMPLE TEMPERATURE
RMC .OHMM               1.28 : RESISTIVITY MUD CAKE
MCST.F                    75 : MUD CAKE SAMPLE TEMPERATURE
MFSS.                  MEAS. : MUD FILTRATE SAMPLE SOURCE
MCSS.                  MEAS. : MUD CAKE SAMPLE SOURCE
RMB .OHMM               0.36 : RESISTIVITY MUD AT BHT
TCS .HRS                  14 : TIME CURCULATED STOPPED
TLAB.HRS               12:00 : TIME LOGGER AT BOTTOM
LUN .                  51731 : LOGGING UNIT NUMBER
LUL .                  ALICE : LOGGING UNIT LOCATION
ENGI.                  MEYER : RECORDING ENGINEER
WITN.       HOIN/LONG/GUERIN : WITNESSED BY
CLNT.                A2DTECH : CLIENT CODE
ORIG.               5" PRINT : ORIGIN OF DATA
UWI .         42013339770000 : UNIQUE WELL ID
DICO. A2D Technologies, Inc. : DIGITIZING COMPANY
~Other -----------------------------------------------------
~ASCII -----------------------------------------------------
# ...
 8500.00000    -999.25    9.72960  513.76900    1.22960    -999.25    -999.25    -999.25    2.15480    -999.25    -999.25    1.94640    1.94640    -999.25    -999.25    -999.25    -999.25   85.94120    -999.25   85.94120    1.91850    1.91850    -999.25    -999.25    -999.25    -999.25    -999.25 -105.59330   -5.63030    2.15480    -999.25 3608.34960    -999.25
 8550.00000    -999.25   10.37090  372.42560    1.87090    -999.25    -999.25    -999.25    2.50810    -999.25    -999.25    2.68510    2.68510    -999.25    -999.25    -999.25    -999.25  102.94990    -999.25  102.94990    2.73090    2.73090    -999.25    -999.25    -999.25    -999.25    -999.25 -105.61350   -5.21520    2.50810    -999.25 3587.48460    -999.25
 8600.00000    -999.25   11.06850  406.05840    2.56850    -999.25    -999.25    -999.25    2.29070    -999.25    -999.25    2.46270    2.46270    -999.25    -999.25    -999.25    -999.25   82.18850    -999.25   82.18850    2.40900    2.40900    -999.25    -999.25    -999.25    -999.25    -999.25 -107.20420   -6.37060    2.29070    -999.25 3558.61720    -999.25
 8650.00000    -999.25   10.97010  354.53450    2.47010    -999.25    -999.25    -999.25    3.23060    -999.25    -999.25    2.82060    2.82060    -999.25    -999.25    -999.25    -999.25   91.97320    -999.25   91.97320    2.80980    2.80980    -999.25    -999.25    -999.25    -999.25    -999.25 -104.89740   -3.62850    3.23060    -999.25 3557.34160    -999.25
 8700.00000    -999.25   10.63630  379.59310    2.13630    -999.25    -999.25    -999.25    2.75980    -999.25    -999.25    2.63440    2.63440    -999.25    -999.25    -999.25    -999.25   86.66860    -999.25   86.66860    2.61390    2.61390    -999.25    -999.25    -999.25    -999.25    -999.25 -108.40760   -6.75610    2.75980    -999.25 3729.90970    -999.25
 8750.00000    -999.25   10.82410  460.76580    2.32410    -999.25    -999.25    -999.25    2.37510    -999.25    -999.25    2.17030    2.17030    -999.25    -999.25    -999.25    -999.25  108.71470    -999.25  108.71470    2.28430    2.28430    -999.25    -999.25    -999.25    -999.25    -999.25 -107.96660   -5.98520    2.37510    -999.25 3654.38180    -999.25
 8800.00000    -999.25   11.54730  442.83060    3.04730    -999.25    -999.25    -999.25    2.46370    -999.25    -999.25    2.25820    2.25820    -999.25    -999.25    -999.25    -999.25   96.86070    -999.25   96.86070    2.17790    2.17790    -999.25    -999.25    -999.25    -999.25    -999.25 -106.40560   -4.09440    2.46370    -999.25 3694.64670    -999.25
 8850.00000    -999.25   12.27740  452.63210    3.77740    -999.25    -999.25    -999.25    2.33160    -999.25    -999.25    2.20930    2.20930    -999.25    -999.25    -999.25    -999.25   96.38750    -999.25   96.38750    2.23710    2.23710    -999.25    -999.25    -999.25    -999.25    -999.25 -105.22670   -2.58560    2.33160    -999.25 3744.68580    -999.25
 8900.00000    -999.25   11.03470  449.88300    2.53470    -999.25    -999.25    -999.25    2.38270    -999.25    -999.25    2.22280    2.22280    -999.25    -999.25    -999.25   99.03510  102.46230    -999.25  102.46230    2.28100    2.28100    -999.25    -999.25    -999.25    -999.25    -999.25 -105.96240   -2.99140    2.38270    -999.25 3653.05250    -999.25
 8950.00000    -999.25   10.84230  408.74720    2.34230    -999.25    -999.25    -999.25    2.74510    -999.25    -999.25    2.44650    2.44650    -999.25    -999.25    -999.25  104.73110   99.75300    -999.25   99.75300    2.39930    2.39930    -999.25    -999.25    -999.25    -999.25    -999.25 -106.41880   -3.11800    2.74510    -999.25 3693.19750    -999.25
 9000.00000    -999.25   13.13070  617.66520    4.63070    -999.25    -999.25    -999.25    1.89430    -999.25    -999.25    1.61900    1.61900    -999.25    -999.25    -999.25   83.29030   93.26560    -999.25   93.26560    1.66090    1.66090    -999.25    -999.25    -999.25    -999.25    -999.25 -106.79360   -3.16290    1.89430    -999.25 3744.67430    -999.25
 9050.00000    -999.25   12.42070  482.74200    3.92070    -999.25    -999.25    -999.25    2.23940    -999.25    -999.25    2.07150    2.07150    -999.25    -999.25    -999.25   95.16930  106.47400    -999.25  106.47400    2.09010    2.09010    -999.25    -999.25    -999.25    -999.25    -999.25 -105.21880   -1.25830    2.23940    -999.25 3940.19260    -999.25
 9100.00000    -999.25   13.06840  449.68070    4.56840    -999.25    -999.25    -999.25    2.35370    -999.25    -999.25    2.22380    2.22380    -999.25    -999.25    -999.25   94.80630   99.17640    -999.25   99.17640    2.17990    2.17990    -999.25    -999.25    -999.25    -999.25    -999.25 -106.80820   -2.51780    2.35370    -999.25 3721.97530    -999.25
 9150.00000    -999.25   13.53970  417.24040    5.03970    -999.25    -999.25    -999.25    2.64350    -999.25    -999.25    2.39670    2.39670    -999.25    -999.25    -999.25   92.59380  104.57710    -999.25  104.57710    2.34340    2.34340    -999.25    -999.25    -999.25    -999.25    -999.25 -106.32330   -1.70300    2.64350    -999.25 3803.27880    -999.25
 9200.00000    -999.25   14.14900  495.24560    5.64900    -999.25    -999.25    -999.25    2.20680    -999.25    -999.25    2.01920    2.01920    -999.25    -999.25    -999.25  100.63000  106.69060    -999.25  106.69060    1.99640    1.99640    -999.25    -999.25    -999.25    -999.25    -999.25 -106.70700   -1.75690    2.20680    -999.25 3835.49000    -999.25
 9250.00000    -999.25   13.85360  490.94210    5.35360    -999.25    -999.25    -999.25    2.22900    -999.25    -999.25    2.03690    2.03690    -999.25    -999.25    -999.25   86.50400  104.96300    -999.25  104.96300    1.96090    1.96090    -999.25    -999.25    -999.25    -999.25    -999.25 -107.11000   -1.83000    2.22900    -999.25 3871.66380    -999.25
 9300.00000    -999.25   11.61540  413.47940    3.11540    -999.25    -999.25    -999.25    2.57660    -999.25    -999.25    2.41850    2.41850    -999.25    -999.25    -999.25  100.03800   91.43790    -999.25   91.43790    2.36520    2.36520    -999.25    -999.25    -999.25    -999.25    -999.25 -108.18930   -2.57950    2.57660    -999.25 3771.01340    -999.25
 9350.00000    -999.25   11.85310  440.39280    3.35310    -999.25    -999.25    -999.25    2.48570    -999.25    -999.25    2.27070    2.27070    -999.25    -999.25    -999.25   77.83860  106.27570    -999.25  106.27570    2.22970    2.22970    -999.25    -999.25    -999.25    -999.25    -999.25 -106.70010   -0.76040    2.48570    -999.25 3802.34280    -999.25
 9400.00000    -999.25   11.26270  557.35150    2.76270    -999.25    -999.25    -999.25    1.98670    -999.25    -999.25    1.79420    1.79420    -999.25    -999.25    -999.25  104.15250  126.97130    -999.25  126.97130    1.90550    1.90550    -999.25    -999.25    -999.25    -999.25    -999.25 -107.59610   -1.32650    1.98670    -999.25 3777.11450    -999.25
 9450.00000    -999.25   11.89210  444.52350    3.39210    -999.25    -999.25    2.47500    2.39670    0.13740    0.13740    2.24960    2.24960    -999.25    -999.25    -999.25   97.22360   96.16620    -999.25   96.16620    2.25380    2.25380    0.24840    0.24840    -999.25    -999.25    -999.25 -109.97030   -3.37090    2.39670    -999.25 3928.99490    -999.25
 9500.00000   11.15850   11.10990  415.33410    2.60990    0.16910    0.16910    2.51930    2.72040    0.11150    0.11150    2.40770    2.40770   79.91070   79.91070  112.49860   94.15340  111.99170  103.09360  111.99170    2.34130    2.34130    0.23150    0.23150    3.81020    3.81020    2.51460 -109.96970   -3.04040    2.72040 3968.37520 4012.71460 3436.88890
 9550.00000   11.04060   10.99090  452.63210    2.49090    0.19760    0.19760    2.49010    2.41560    0.12860    0.12860    2.20930    2.20930   87.11310   87.11310  110.49190   95.95070  111.05630  102.45510  111.05630    2.19970    2.19970    0.26390    0.26390    4.00700    4.00700    2.48900 -109.95990   -2.70080    2.41560 3790.26900 3931.35620 3472.02830
