~Version ---------------------------------------------------
VERS. 2.0 : CWLS log ASCII Standard -VERSION 2.0
WRAP.  NO : ONE LINE PER DEPTH STEP
~Well ------------------------------------------------------
STRT.FT                   3550.0 : START DEPTH
STOP.FT                   8500.0 : STOP DEPTH
STEP.FT                 50.00000 : STEP LENGTH
NULL.                    -999.25 : NULL VALUE
COMP. CHAMPLIN PETROLEUM COMPANY : COMPANY
WELL.         P RUFFINO III D #1 : WELL
FLD .                     KURTEN : FIELD
LOC .                            : LOCATION
CNTY.                     BRAZOS : COUNTY
STAT.                      TEXAS : STATE
CTRY.   UNITED STATES OF AMERICA : COUNTRY
SRVC.               CRC WIRELINE : SERVICE COMPANY
DATE.                15-Mar-1984 : LOGDATE
API .             42041310960000 : API NUMBER
UWI .             42041310960000 : UNIQUE WELL ID
SLAT.WGS84         30.7427052503 : SURFACE LATITUDE
SLON.WGS84        -96.4033018152 : SURFACE LONGITUDE
~Curve Information -----------------------------------------
DEPT  .FT    : DEPTH FEET
GRWS  .GAPI  : GAMMA RAY [SPL GRRED 7400 GRDED(RESCALED 0/100 TO 0/150)]
SPWS  .MV    : SPONTANEOUS POTENTIAL [BASELINE 0 MV] [SPRED]
DRESWS.OHMM  : DEEP RESISTIVITY [RILDED]
GRRED .GAPI  : GAMMA RAY FROM RESISTIVITY LOG
SPRED .MV    : SPONTANEOUS POTENTIAL FROM RESISTIVITY LOG
RILDED.OHMM  : INDUCTION LOG DEEP RESISTIVITY
RILMED.OHMM  : INDUCTION LOG MEDIUM RESISTIVITY
RLLED .OHMM  : LATEROLOG RESISTIVITY
GRDED .GAPI  : GAMMA RAY FROM DENSITY LOG [DEPTH ADJ TO RES LOG]
NPHIED.V/V   : NEUTRON POROSITY LIMESTONE FROM DENSITY LOG [DEPTH ADJ TO RES LOG]
MRESWS.OHMM  : MEDIUM RESISTIVITY [RILMED]
SRESWS.OHMM  : SHALLOW RESISTIVITY [RLLED]
NPOWS .V/V   : NEUTRON POROSITY [NPHIED]
CONDWS.MMHO  : CONDUCTIVITY [1000/DRESWS]
~Params ----------------------------------------------------
PD  .                     GL : PERMANENT DATUM
EPD .F                   344 : ELEVATION PERMANENT DATUM
LMF .                     KB : LOG MEASURED FROM
DAPD.F                    23 : FEET ABOVE PERMANENT DATUM
DMF .                     KB : DRILLING MEASURED FROM
EKB .F                   368 : KELLING BUSHING
EDF .F                   367 : DRILLING FLOOR
EGL .F                   344 : GROUND LEVEL
DATE.               03/15/84 : RUN DATE
RUN .                      1 : RUN NUMBER
DD  .F                  8650 : DEPTH DRILLER
DL  .F                  8500 : DEPTH LOGGER
BLI .F                  8504 : BOTTOM LOG INTERVAL
TLI .F                  6500 : TOP LOG INTERVAL
CS  .IN                  5.5 : CASING SIZE
BS  .IN                 8.75 : BIT SIZE
BSD .F                  3560 : BIT SIZE AT DEPTH
DFT .            FRESH WATER : DRILLING FLUID TYPE
ENGI.                   DEES : RECORDING ENGINEER
WITN.                 BOOHER : WITNESSED BY
CLNT.                A2DTECH : CLIENT CODE
ORIG.               5" PRINT : ORIGIN OF DATA
UWI .         42041310960000 : UNIQUE WELL ID
DICO. A2D Technologies, Inc. : DIGITIZING COMPANY
~Other -----------------------------------------------------
~ASCII -----------------------------------------------------
 3550.00000    -999.25    -999.25    -999.25    -999.25    -999.25    -999.25    -999.25    -999.25    -999.25    -999.25    -999.25    -999.25    -999.25    -999.25
 3600.00000   53.52390  -41.09810    5.31150   53.52390 -103.32300    5.31150    6.39490   10.01050    -999.25    -999.25    6.39490   10.01050    -999.25  188.27070
 3650.00000   55.51410  -36.56510    5.34530   55.51410 -100.14240    5.34530    6.92930   15.75740    -999.25    -999.25    6.92930   15.75740    -999.25  187.08020
 3700.00000   47.77800  -52.66650    3.58760   47.77800 -119.03330    3.58760    4.77180   10.98330    -999.25    -999.25    4.77180   10.98330    -999.25  278.73790
 3750.00000   69.98460   -1.03490    3.14410   69.98460  -66.56620    3.14410    3.15690    4.14260    -999.25    -999.25    3.15690    4.14260    -999.25  318.05610
 3800.00000   78.57920   -1.03830    2.32850   78.57920  -61.73820    2.32850    2.34410    2.71930    -999.25    -999.25    2.34410    2.71930    -999.25  429.46100
 3850.00000   81.87940   -1.14420    2.26800   81.87940  -62.40600    2.26800    2.31130    2.75220    -999.25    -999.25    2.31130    2.75220    -999.25  440.91710
 3900.00000   77.84980   -4.36830    2.21290   77.84980  -65.87090    2.21290    2.36260    2.65570    -999.25    -999.25    2.36260    2.65570    -999.25  451.89570
 3950.00000   69.91760   -1.56040    2.33610   69.91760  -62.87810    2.33610    2.38890    2.70190    -999.25    -999.25    2.38890    2.70190    -999.25  428.06380
 4000.00000   70.01900   -6.80690    2.60360   70.01900  -67.93970    2.60360    2.72370    2.95130    -999.25    -999.25    2.72370    2.95130    -999.25  384.08360
 4050.00000   77.32510   -1.69960    2.41920   77.32510  -62.64750    2.41920    2.47710    2.69510    -999.25    -999.25    2.47710    2.69510    -999.25  413.35980
 4100.00000   72.08580   -4.32000    2.30870   72.08580  -65.08300    2.30870    2.30240    2.66950    -999.25    -999.25    2.30240    2.66950    -999.25  433.14420
 4150.00000   73.03090   -4.11200    2.40600   73.03090  -64.69020    2.40600    2.53380    2.63840    -999.25    -999.25    2.53380    2.63840    -999.25  415.62760
 4200.00000   72.48950   -1.43080    2.24180   72.48950  -61.73580    2.24180    2.32580    2.52670    -999.25    -999.25    2.32580    2.52670    -999.25  446.07010
 4250.00000   76.76220   -1.90320    2.11450   76.76220  -61.87620    2.11450    2.19250    2.25940    -999.25    -999.25    2.19250    2.25940    -999.25  472.92500
 4300.00000   83.15610   -0.69650    1.59970   83.15610  -60.33750    1.59970    1.63290    1.87190    -999.25    -999.25    1.63290    1.87190    -999.25  625.11720
 4350.00000   77.27130   -4.38870    1.46220   77.27130  -63.69780    1.46220    1.52290    1.73170    -999.25    -999.25    1.52290    1.73170    -999.25  683.90090
 4400.00000   86.58180   -1.95620    1.49780   86.58180  -60.93330    1.49780    1.58600    1.78050    -999.25    -999.25    1.58600    1.78050    -999.25  667.64590
 4450.00000   85.95210   -1.77790    1.47710   85.95210  -60.42300    1.47710    1.51500    1.75340    -999.25    -999.25    1.51500    1.75340    -999.25  677.00220
 4500.00000   92.24680   -0.63540    1.61190   92.24680  -58.94850    1.61190    1.65220    1.82810    -999.25    -999.25    1.65220    1.82810    -999.25  620.38590
 4550.00000   84.53890   -0.83910    1.61870   84.53890  -58.55300    1.61870    1.64440    1.93680    -999.25    -999.25    1.64440    1.93680    -999.25  617.77970
 4600.00000   81.06670   -3.50870    1.67390   81.06670  -60.57610    1.67390    1.69560    1.99210    -999.25    -999.25    1.69560    1.99210    -999.25  597.40720
 4650.00000   70.18550   -3.24310    1.84160   70.18550  -59.66410    1.84160    1.90050    2.01790    -999.25    -999.25    1.90050    2.01790    -999.25  543.00610
 4700.00000   74.58630   -2.21780    1.22220   74.58630  -57.99240    1.22220    1.24100    1.58130    -999.25    -999.25    1.24100    1.58130    -999.25  818.19670
 4750.00000   77.04570   -1.30530    0.96930   77.04570  -56.43350    0.96930    0.97730    1.19280    -999.25    -999.25    0.97730    1.19280    -999.25 1031.67240
 4800.00000   73.36050   -2.06270    0.89000   73.36050  -57.18540    0.89000    0.90490    1.11080    -999.25    -999.25    0.90490    1.11080    -999.25 1123.59560
 4850.00000   67.97100   -3.87700    1.39160   67.97100  -59.33920    1.39160    1.40940    1.58220    -999.25    -999.25    1.40940    1.58220    -999.25  718.59730
 4900.00000   79.90890   -0.23540    1.14770   79.90890  -56.03710    1.14770    1.32290    1.58700    -999.25    -999.25    1.32290    1.58700    -999.25  871.30790
 4950.00000   69.94390   -3.21830    1.24400   69.94390  -59.35950    1.24400    1.29390    1.60370    -999.25    -999.25    1.29390    1.60370    -999.25  803.85850
 5000.00000   58.37010   -3.95650    1.54200   58.37010  -60.43730    1.54200    1.40680    1.82230    -999.25    -999.25    1.40680    1.82230    -999.25  648.50840
 5050.00000   73.34340   -3.54050    1.05980   73.34340  -62.75210    1.05980    1.07690    1.38490    -999.25    -999.25    1.07690    1.38490    -999.25  943.57420
 5100.00000   73.10850   -3.12500    1.19380   73.10850  -61.51670    1.19380    1.21970    1.33280    -999.25    -999.25    1.21970    1.33280    -999.25  837.66130
 5150.00000   75.64660   -3.23130    1.11980   75.64660  -60.80320    1.11980    1.15180    1.43170    -999.25    -999.25    1.15180    1.43170    -999.25  893.01670
 5200.00000   78.10310   -0.30860    0.93190   78.10310  -57.06070    0.93190    0.94460    1.17450    -999.25    -999.25    0.94460    1.17450    -999.25 1073.07650
 5250.00000   77.48190   -2.62750    1.28570   77.48190  -58.55970    1.28570    1.33120    1.56960    -999.25    -999.25    1.33120    1.56960    -999.25  777.78640
 5300.00000   71.87170   -2.54810    1.77350   71.87170  -57.66050    1.77350    1.78580    2.07110    -999.25    -999.25    1.78580    2.07110    -999.25  563.85680
 5350.00000   73.72190   -3.00510    1.45410   73.72190  -57.27660    1.45410    1.49040    1.85370    -999.25    -999.25    1.49040    1.85370    -999.25  687.71060
 5400.00000   59.78310   -5.04640    1.74030   59.78310  -58.14730    1.74030    1.76960    2.04390    -999.25    -999.25    1.76960    2.04390    -999.25  574.61350
 5450.00000   66.42900   -1.24070    1.96970   66.42900  -53.17100    1.96970    1.88110    2.17930    -999.25    -999.25    1.88110    2.17930    -999.25  507.69150
 5500.00000   82.68680   -2.11220    1.02330   82.68680  -52.87180    1.02330    1.03770    1.31620    -999.25    -999.25    1.03770    1.31620    -999.25  977.23050
 5550.00000   71.15580   -2.61570    1.44190   71.15580  -55.26060    1.44190    1.44670    1.30740    -999.25    -999.25    1.44670    1.30740    -999.25  693.52940
 5600.00000   76.92380   -2.38110    1.16200   76.92380  -54.48730    1.16200    1.14740    1.33690    -999.25    -999.25    1.14740    1.33690    -999.25  860.58530
 5650.00000  114.91870   -0.10420    0.85320  114.91870  -51.67180    0.85320    0.88780    1.08470    -999.25    -999.25    0.88780    1.08470    -999.25 1172.05810
 5700.00000   87.64510   -1.14390    1.18540   87.64510  -55.85670    1.18540    1.21080    1.38730    -999.25    -999.25    1.21080    1.38730    -999.25  843.59710
 5750.00000   73.12890   -2.13780    1.15880   73.12890  -56.44810    1.15880    1.14760    1.15890    -999.25    -999.25    1.14760    1.15890    -999.25  862.96170
 5800.00000   95.24740   -1.79050    1.00600   95.24740  -55.69840    1.00600    1.00600    3.30770    -999.25    -999.25    1.00600    3.30770    -999.25  994.03580
 5850.00000   93.22300   -1.93230    0.89070   93.22300  -55.43770    0.89070    0.92400    0.86670    -999.25    -999.25    0.92400    0.86670    -999.25 1122.71250
 5900.00000   93.72610   -1.26650    1.02000   93.72610  -54.36950    1.02000    1.07720    1.01240    -999.25    -999.25    1.07720    1.01240    -999.25  980.39220
 5950.00000   81.96710   -4.65220    1.55980   81.96710  -57.35270    1.55980    1.63910    1.59570    -999.25    -999.25    1.63910    1.59570    -999.25  641.10780
