~Version ---------------------------------------------------
VERS. 2.0 : CWLS log ASCII Standard -VERSION 2.0
WRAP.  NO : ONE LINE PER DEPTH STEP
~Well ------------------------------------------------------
STRT.F                  2450.0 : START DEPTH
STOP.F                  8400.0 : STOP DEPTH
STEP.F                50.00000 : STEP LENGTH
NULL.                  -999.25 : NULL VALUE
COMP.      CANUS PETROLEUM INC : COMPANY
WELL.  GARNER RANCH DEEP #1-53 : WELL
FLD .                       WC : FIELD
LOC .                          : LOCATION
CNTY.                   DIMMIT : COUNTY
STAT.                    TEXAS : STATE
CTRY. UNITED STATES OF AMERICA : COUNTRY
SRVC.             Schlumberger : SERVICE COMPANY
DATE.              30-Dec-1977 : LOGDATE
API .           42127316180000 : API NUMBER
UWI .           42127316180000 : UNIQUE WELL ID
SLAT.WGS84       28.3600084245 : SURFACE LATITUDE
SLON.WGS84      -99.8483116297 : SURFACE LONGITUDE
~Curve Information -----------------------------------------
DEPT.F                 : 
SPR .MV   07 010 01 00 : SPONTANEOUS POTENTIAL
CILD.MMHO 07 110 46 00 : CONDUCTIVITY INDUCTION LOG DEEP
DPHI.DEC  45 890 12 00 : DENSITY POROSITY SANDSTONE
NPHI.DEC  42 890 03 00 : NEUTRON POROSITY SANDSTONE
CALD.IN   45 280 60 00 : CALIPER FROM DENSITY LOG
GRD .GAPI 45 310 01 00 : GAMMA RAY FROM DENSITY LOG
CORR.G/C3 45 356 01 00 : DENSITY CORRECTION
RHOB.G/C3 45 350 01 00 : BULK DENSITY
ILD .OHMM 07 120 46 00 : INDUCTION LOG DEEP
LL8 .OHMM 07 220 08 00 : LATEROLOG-8 RES.
~Params ----------------------------------------------------
PD  .                     GL : PERMANENT DATUM
EPD .F                   619 : ELEVATION PERMANENT DATUM
LMF .                     KB : LOG MEASURED FROM
DAPD.F                    14 : FEET ABOVE PERMANENT DATUM
DMF .                     KB : DRILLING MEASURED FROM
EKB .F                   633 : KELLING BUSHING
EDF .F                   632 : DRILLING FLOOR
EGL .F                   619 : GROUND LEVEL
DATE.            30-DEC-1977 : RUN DATE
RUN .                      1 : RUN NUMBER
DD  .F                  8400 : DEPTH DRILLER
DL  .F                  8422 : DEPTH LOGGER
BLI .F                  8416 : BOTTOM LOG INTERVAL
TLI .F                  2431 : TOP LOG INTERVAL
CS  .IN                8.625 : CASING SIZE
CBD .F                  2420 : CASING BOTTOM DRILLER
CBL .F                  2431 : CASING BOTTOM LOGGER
BS  .IN                7.875 : BIT SIZE
BSD .F                  8400 : BIT SIZE AT DEPTH
DFT .              LIGNOSULF : DRILLING FLUID TYPE
DFD .                    9.6 : DRILLING FLUID DENSITY
DFV .                     40 : DRILLING FLUID VISCOSITY
DFPH.                    9.0 : DRILLING FLUID PH
DFL .                    9.5 : DRILLING FLUID LOSS
MSS .                    PIT : MUD SAMPLE SOURCE
RMS .OHMM               1.53 : RESISTIVITY MUD SAMPLE
MST .F                    68 : MUD SAMPLE TEMPERATURE
RMF .OHMM               1.39 : RESISTIVITY MUD FILTRATE SAMPLE
MFST.F                    68 : MUD FILTRATE SAMPLE TEMPERATURE
RMB .OHMM               0.68 : RESISTIVITY MUD AT BHT
TCS .HRS                 100 : TIME CURCULATED STOPPED
TLAB.HRS                 600 : TIME LOGGER AT BOTTOM
LUN .                   7739 : LOGGING UNIT NUMBER
LUL .                 LAREDO : LOGGING UNIT LOCATION
ENGI.                HARILEY : RECORDING ENGINEER
WITN.                   DUNN : WITNESSED BY
CLNT.                A2DTECH : CLIENT CODE
ORIG.           2", 5" PRINT : ORIGIN OF DATA
UWI .         42127316180000 : UNIQUE WELL ID
DICO. A2D Technologies, Inc. : DIGITIZING COMPANY
~Other -----------------------------------------------------
~ASCII -----------------------------------------------------
# ...
 5750.00000  -52.03010  188.06150    0.05300    0.15040    9.40590   50.09040    0.01870    2.63840    4.35440    7.27140
 5800.00000  -52.98240  125.12980    0.05470    0.13650    9.22820   49.18920    0.02100    2.63470    7.50720   11.09450
 5850.00000  -54.83700  122.38730    0.03670    0.11310    9.01800   48.28830    0.01350    2.63760    8.18320   13.06850
 5900.00000  -58.04510   81.51770    0.05510    0.09190    8.74770   36.64280    0.02170    2.64440   13.56690   17.04230
 5950.00000  -58.19550   68.78070    0.04660    0.07660    8.80030   36.03630    0.00300    2.58510   15.99100   23.08820
 6000.00000  -52.03090  143.09310    0.05330    0.12910    9.15170   45.47790    0.04190    2.63390    6.60660    8.44580
 6050.00000  -52.03010  141.54150    0.05980    0.13830    9.25410   37.29730    0.01250    2.59560    6.33130   10.66970
 6100.00000  -52.03010  105.09970    0.07600    0.14730    9.00300   49.62470    0.03720    2.61290    9.83430   11.49430
 6150.00000  -54.28570  104.97550    0.07940    0.10370    9.02140   40.40560    0.10330    2.74720   10.41030   13.19360
 6200.00000  -54.18610   71.79090    0.04930    0.08310    8.73270   32.54380    0.08210    2.66020   14.65090   20.78930
 6250.00000  -53.38350   73.75100    0.04390    0.05390    8.64260   22.08350    0.01420    2.63690   15.39040   44.22790
 6300.00000  -55.03760   54.97990    0.03900    0.05230    8.56760   27.92790   -0.00390    2.62040   22.52460   32.18390
 6350.00000  -56.99250   36.19440    0.04910    0.05870    8.44740   27.09370    0.02870    2.61300   36.71270   67.59040
 6400.00000  -61.35340   39.55220    0.03380    0.03530    8.61260   24.19710    0.00450    2.61670   31.68300   38.50540
 6450.00000  -57.44360   39.92540    0.07260    0.05950    8.64260   15.13510    0.01120    2.59860   29.62960   55.59750
 6500.00000  -60.28600   47.76120    0.05020    0.04820    8.47750   21.61170    0.00970    2.62760   24.17420   32.58430
 6550.00000  -59.94990   68.40760    0.06140    0.04500    8.49250   17.29730    0.03370    2.66690   15.74070   17.61620
 6600.00000  -61.88420   42.53730    0.03170    0.03140    8.50750   18.48830    0.00900    2.62120   30.17890   44.47890
 6650.00000  -61.65410   33.58210    0.08540    0.07050    8.44740   62.97320    0.00150    2.57700   39.03900   71.21440
 6700.00000  -53.21720   47.76210    0.04160    0.08100    8.44740   41.98210    0.03450    2.61910   23.68820   45.67780
 6750.00000  -63.75940   22.76080    0.03220    0.06740    8.50610   35.79500    0.20660    2.61060   63.16110  144.12790
 6800.00000  -47.81950   29.03690    0.05380    0.05810    9.03300   27.56760    0.14300    2.62100   70.72070  191.04100
 6850.00000  -59.54890   22.63720    0.08750    0.09970    8.55260   32.07160    0.00520    2.56340   65.83990  109.00900
 6900.00000  -52.36150   43.28360    0.10380    0.11860    8.69620   38.71500    0.02540    2.56100   27.72670   50.40040
 6950.00000  -50.82710   57.96300    0.14420    0.15640    8.53750   35.62170    0.00170    2.53290   18.61850   75.55380
 7000.00000  -46.88200  120.52300    0.13880    0.18630    8.80780   54.54450    0.00520    2.47940    7.80780   14.86490
 7050.00000  -50.92730   32.83580    0.11960    0.17940    8.64260   62.52310    0.05220    2.46660   41.65420   88.23110
 7100.00000  -49.97960   33.95680    0.16270    0.21790    8.76750   56.21620    0.05160    2.40510   40.32980   62.71860
 7150.00000  -53.73420   26.86570    0.17050    0.12170    8.61260   63.06310    0.00970    2.44350   50.44980  133.68650
 7200.00000  -63.73150   25.29030    0.08620    0.00850   10.24270   12.61260    0.26870    2.46720   49.10120  127.15670
 7250.00000  -77.59370   10.07460    0.12180    0.00520   10.12410    6.52300    0.26720    2.60770  200.78910  200.99660
 7300.00000  -63.75940   18.07980   -0.02470    0.01190    8.37240   16.39640    0.03070    2.67520  119.82250  147.40080
 7350.00000  -33.68420  260.57210    0.11830    0.18430    9.91890   49.00900    0.14160    2.47600    2.96840    5.31450
 7400.00000  -32.78200  396.64250    0.16590    0.25500   12.78680   64.79910    0.26570    2.37730    1.72470    2.93430
 7450.00000  -30.97740  327.61190    0.23950    0.21860   10.86970   56.93310    0.25520    2.38780    2.47380    4.49130
 7500.00000  -29.17290  181.19260    0.05600    0.13850    8.53750   40.72070    0.06140    2.63080    5.50950   11.88620
 7550.00000  -46.76690   18.65670    0.11840    0.01710   11.58560   12.13130    0.24870    2.46960  147.30610  152.24550
 7600.00000  -75.67710   37.95020    0.32260    0.04870   10.87990   10.54850    0.22600    2.29860   37.10690   58.43960
 7650.00000  -67.36840   24.25370    0.35700    0.02930   13.99450   15.76580    0.23800    2.18000   61.69420   58.47730
 7700.00000  -70.01540   17.16420    0.28930    0.01340   14.87380   17.95610    0.23350    2.24100  114.40970   65.56870
 7750.00000  -52.38100   61.19480    0.18840    0.02020   11.88890   24.68500    0.26720    2.29990   15.92260   22.08150
 7800.00000  -59.88680   12.68660    0.12960    0.00510   10.05410   12.43240    -999.25    2.48690  169.81970  171.40810
 7850.00000  -86.01500   12.06510    0.23550    0.01560   11.24350   25.09510    0.26950    2.30610    -999.25    -999.25
 7900.00000  -61.12810   36.06830    0.13050    0.03080    9.19820   30.41800    0.18860    2.56310   33.20840   39.37100
 7950.00000  -59.69920   26.36660   -0.04900    0.01200    9.63360   42.36920    0.26650    2.67440   65.03680  165.04620
 8000.00000  -86.65000   10.44780   -0.09260    0.00440    8.23720   24.14490    0.01130    2.81850    -999.25    -999.25
 8050.00000  -22.40590   84.94870    0.02860    0.06260    8.17880   30.81080    0.00450    2.64440   11.81390   19.98410
 8100.00000  -32.03030  118.78610    0.03420    0.08030    8.14710   28.57770    0.02690    2.67520    7.83820   16.45260
 8150.00000  -21.35340   60.81980    0.03400    0.05150    8.31990   27.38740    0.12050    2.66580   19.11540   35.77810
 8200.00000  -32.48120   24.62690    0.08700    0.00560    8.28840   22.63360   -0.00370    2.66570   62.51850  200.59880
 8250.00000 -105.26320    7.83580   -0.10890    0.00160    8.30860   18.19820    0.02170    2.84250    -999.25    -999.25
 8300.00000  -41.20300   10.07520   -0.03980    0.00160    7.92190    9.00900   -0.00280    2.89070  200.75670    -999.25
 8350.00000  -68.02020   10.82090    0.02230    0.01600    7.77180   29.05220    0.06490    2.71740    -999.25    -999.25
 8400.00000  -97.89590   12.47040    0.06440    0.00780    8.50750   38.01800    0.27020    2.47640  201.12460  199.70060
