~Version ---------------------------------------------------
VERS. 2.0 : CWLS log ASCII Standard -VERSION 2.0
WRAP.  NO : ONE LINE PER DEPTH STEP
~Well ------------------------------------------------------
STRT.F                   300.0 : START DEPTH
STOP.F                 18600.0 : STOP DEPTH
STEP.F                50.00000 : STEP LENGTH
NULL.                  -999.25 : NULL VALUE
COMP.        SHELL OIL COMPANY : COMPANY
WELL. PAWELEK BEN A ET AL A #1 : WELL
FLD .    PERSON AREA (WILDCAT) : FIELD
LOC .                          : LOCATION
CNTY.                   KARNES : COUNTY
STAT.                    TEXAS : STATE
CTRY. UNITED STATES OF AMERICA : COUNTRY
SRVC.             Schlumberger : SERVICE COMPANY
DATE.              22-May-1978 : LOGDATE
API .           42255305980000 : API NUMBER
UWI .           42255305980000 : UNIQUE WELL ID
SLAT.WGS84       29.0241796548 : SURFACE LATITUDE
SLON.WGS84      -97.8796797249 : SURFACE LONGITUDE
~Curve Information -----------------------------------------
DEPT   .F    0   1   0  0 : 1 MEASURED DEPTH
ILD    .OHMM 07 120 46 00 : INDUCTION DEEP RESISTIVITY
ILM    .OHMM 07 120 44 00 : INDUCTION MEDIUM RESISTIVITY
SPR    .MV   07 010 01 00 : SPONTANEOUS POTENTIAL FROM RESISTIVITY LOG
SFL    .OHMM 07 220 01 00 : SPHERICALLY FOCUSED LOG
GRR    .GAPI 07 310 01 00 : GAMMA RAY FROM RESISTIVITY LOG
DPHI_SS.DEC  45 890 12 00 : DENSITY POROSITY SANDSTONE
NPHI_SS.DEC  42 890 03 00 : NEUTRON POROSITY SANDSTONE
NPHI_LS.DEC  42 890 01 00 : NEUTRON POROSITY LIMESTONE
DPHI_LS.DEC  45 890 10 00 : DENSITY POROSITY LIMESTONE
GRD    .GAPI 45 310 01 00 : GAMMA RAY FROM DENSITY LOG
RHOB   .G/C3 45 350 01 00 : BULK DENSITY
DRHO   .G/C3 45 356 01 00 : BULK DENSITY CORRECTION
CALD   .IN   45 280 60 00 : CALIPER FROM DENSITY LOG
TEND   .LB   45 635 00 00 : TENSION FROM DENSITY LOG
PROX   .OHMM 21 270 04 00 : PROXIMITY RESISTIVITY (MPT)
MCAL   .IN   15 280 01 00 : MLT (MICROLOG) CALIPER
GRS    .GAPI 60 310 01 00 : GAMMA RAY FROM SONIC LOG
DT     .US/F 60 500 00 00 : DELTA-T (INTERVAL TRANSIT TIME)
CALS   .IN   60 280 50 00 : CALIPER FROM SONIC LOG
~Params ----------------------------------------------------
PD  .                     GL : PERMANENT DATUM
EPD .FT                  335 : ELEVATION PERMANENT DATUM
LMF .                     KB : LOG MEASURED FROM
DAPD.FT                   28 : FEET ABOVE PERMANENT DATUM
DMF .                     KB : DRILLING MEASURED FROM
EKB .FT                  363 : KELLY BUSHING
EDF .FT                  362 : DRILLING FLOOR
EGL .FT                  335 : GROUND LEVEL
DATE.               05/22/78 : RUN DATE
RUN .                      4 : RUN NUMBER
DD  .FT                18626 : DEPTH DRILLER
DL  .FT                18642 : DEPTH LOGGER
BLI .FT                18637 : BOTTOM LOG INTERVAL
TLI .FT                17550 : TOP LOG INTERVAL
CS  .IN                    7 : CASING SIZE
CBD .FT                17544 : CASING BOTTOM DRILLER
CBL .FT                17550 : CASING BOTTOM LOGGER
BS  .IN                    6 : BIT SIZE
BSD .FT                18626 : BIT SIZE AT DEPTH
DFT .               INVERMUL : DRILLING FLUID TYPE
DFD .                   17.6 : DRILLING FLUID DENSITY
DFV .                     70 : DRILLING FLUID VISCOSITY
DFL .                      2 : DRILLING FLUID LOSS
LUN .                   7799 : LOGGING UNIT NUMBER
LUL .                  PLEAS : LOGGING UNIT LOCATION
ENGI.             TURBEVILLE : RECORDING ENGINEER
WITN.                JARRELL : WITNESSED BY
CLNT.                A2DTECH : CLIENT CODE
ORIG.            2" 5" PRINT : ORIGIN OF DATA
UWI .         42255305980000 : UNIQUE WELL ID
DICO. A2D Technologies, Inc. : DIGITIZING COMPANY
~Other -----------------------------------------------------
~ASCII -----------------------------------------------------
# ...
 7700.00000    1.19980    1.22480  -49.84800    1.72440    -999.25    0.15050    0.43660    -999.25    -999.25   98.72660    2.38440    0.10430   13.22980 9615.41700    1.48080   11.58650   96.62760   95.54330   12.23290
 7750.00000    1.58370    1.62030  -49.54510    1.93690    -999.25    0.15170    0.45570    -999.25    -999.25   89.89440    2.43560    0.08890   13.65720 9601.45310    1.66580   11.46630   90.60470   90.12860   12.62790
 7800.00000    1.16200    1.18670  -49.26450    1.55970    -999.25    0.21170    0.42290    -999.25    -999.25   86.64610    2.33720    0.06520   13.66270 9522.04590    1.32540   11.94260   87.34330   97.39830   12.44860
 7850.00000    1.02730    1.04850  -49.27000    1.41960    -999.25    0.20760    0.48590    -999.25    -999.25   82.92610    2.31820    0.06940   13.36780 9425.76370    1.19980   11.65850   92.17350  105.32840   12.29400
 7900.00000    1.07440    1.10140  -48.96670    1.41500    -999.25    0.27750    0.49860    -999.25    -999.25   87.76530    2.16240    0.06910   13.74940 9422.26860    1.15360   11.86580   98.16700  103.65730   12.83170
 7950.00000    1.03340    1.05500  -48.11770    1.43310    -999.25    0.23540    0.44410    -999.25    -999.25   78.76930    2.31290    0.07880   13.23420 9749.43550    1.24870   11.41130   74.93030   98.51160   12.15310
 8000.00000    2.01510    2.07360  -49.89750    2.63990    -999.25    0.21590    0.39650    -999.25    -999.25   68.95270    2.21590    0.09970   13.69890 9700.76860    4.51540   11.50090   77.42710   89.48230   12.01030
 8050.00000    1.47130    1.50840  -48.75810    2.01010    -999.25    0.15990    0.41250    -999.25    -999.25   78.96750    2.37630    0.08290   13.55470 9653.49410    1.57260   11.66040   83.86360   98.15410   12.25530
 8100.00000    2.31080    2.35940  -51.69460    3.04290    -999.25    0.16660    0.32160    -999.25    -999.25   77.86200    2.38720    0.09940   13.58720 9536.99510    1.45640   11.54250   78.63640   90.69790   12.66060
 8150.00000    1.23980    1.26680  -51.04640    1.58140    -999.25    0.13510    0.37290    -999.25    -999.25   75.67700    2.41910    0.07770   13.34600 9564.26270    1.34000   11.52710   80.40620  104.82800   12.16600
 8200.00000    1.79520    1.83700  -51.11610    2.17750    -999.25    0.26320    0.38750    -999.25    -999.25   73.79340    2.25900    0.10650   13.11010 9565.02440    1.85810   11.76740   79.38930   86.43240   12.26840
 8250.00000    1.19290    1.22110  -49.85380    1.64300    -999.25    0.22400    0.45300    -999.25    -999.25   69.83030    2.27990    0.09510   13.47160 9507.69430    1.32250   11.55930   74.14770  102.12240   12.37680
 8300.00000    1.13790    1.16400  -50.13230    1.43220    -999.25    0.18300    0.43940    -999.25    -999.25   78.86000    2.38220    0.08410   13.86150 9728.85250    1.27520   11.96970   80.78030  104.32280   12.47130
 8350.00000    1.68030    1.71760  -51.08810    2.15090    -999.25    0.14250    0.36310    -999.25    -999.25   69.50180    2.43390    0.06790   15.30930 9645.40530    1.61520   12.84720   75.58530   93.15610   12.79350
 8400.00000    1.66310    1.69750  -49.81450    2.16290    -999.25    0.14810    0.36030    -999.25    -999.25   71.21900    2.43360    0.06910   16.41020 9650.79790    1.04710   13.02660   78.90690   94.94040   13.47440
 8450.00000    1.53270    1.57680  -48.92930    2.05920    -999.25    0.14140    0.37110    -999.25    -999.25   78.90360    2.43670    0.11320   16.37690 9686.80080    0.83420   13.02880   73.92880   97.16870   13.22700
 8500.00000    1.69650    1.73260  -47.89680    2.19390    -999.25    0.12000    0.35470    -999.25    -999.25   68.71480    2.48670    0.09340   16.39240 9614.34570    0.90280   12.98350   73.09560   96.36050   13.92690
 8550.00000    1.44850    1.47960  -45.97750    1.95720    -999.25    0.14220    0.34610    -999.25    -999.25   72.81680    2.43340    0.06780   15.73620 9598.91020    0.99260   12.93370   79.86710  100.48370   13.35090
 8600.00000    1.68040    1.71560  -50.40780    2.31380    -999.25    0.12650    0.35660    -999.25    -999.25   66.04720    2.42600    0.09850   15.49270 9515.76270    1.21150   12.76160   73.15230   94.89580   13.33000
 8650.00000    2.78880    3.22310  -51.05680    4.27700    -999.25    0.10550    0.25600    -999.25    -999.25   66.52470    2.49640    0.05720   14.29880 9509.01070    2.48560   12.33040   73.29090   88.60800   10.38860
 8700.00000    2.42730    2.80380  -51.01130    3.02370    -999.25    0.11020    0.30140    -999.25    -999.25   68.79870    2.43810    0.03010   13.91280 9404.24710    4.28740   11.97290  101.81650  106.12670   10.77990
 8750.00000    2.61490    2.90770  -52.11100    3.69270    -999.25    0.12700    0.29680    -999.25    -999.25   71.17150    2.47160    0.07870   13.85790    -999.25    3.32110   11.95280   74.58050   88.10870   10.32910
 8800.00000    1.76760    1.84480  -48.94430    2.18670    -999.25    0.15060    0.34400    -999.25    -999.25   75.48590    2.43600    0.12400   14.13060 9671.43650    1.39000   12.18990   81.98950   89.03070   10.71530
 8850.00000    1.98370    2.08440  -47.52320    2.43580    -999.25    0.13000    0.36690    -999.25    -999.25   82.86640    2.42730    0.10070   13.82940 9598.68650    1.16460   11.92090   82.04940   83.09750   10.70470
 8900.00000    1.98810    2.02990  -45.56170    2.52430    -999.25    0.18860    0.35540    -999.25    -999.25   91.85160    2.33510    0.08610   13.55030 9601.63770    1.87660   12.10640  111.13310   85.19370   10.41530
 8950.00000    2.93770    3.50190  -49.69430    4.08900    -999.25    0.13010    0.25260    -999.25    -999.25   61.57990    2.42830    0.05940   13.23400 9560.29390    4.61240   11.70180   63.29720   85.16360   10.20190
 9000.00000    2.11280    2.29880  -47.34070    2.79000    -999.25    0.15380    0.35380    -999.25    -999.25   84.99590    2.45680    0.15490   14.20120 9493.79790    1.76030   12.33400   83.69690   86.63870   10.72730
 9050.00000    1.91030    2.08940  -44.68640    2.67600    -999.25    0.11120    0.30980    -999.25    -999.25   76.99560    2.48770    0.14080   14.60660 9507.77830    2.76930   13.01220   84.21820   83.80660   10.60790
 9100.00000    2.08280    2.35400  -43.48000    3.04910    -999.25    0.14830    0.36480    -999.25    -999.25   93.57620    2.43100    0.09540   14.72170 9482.78810    1.58140   13.15990  115.01680   89.38980   10.67510
 9150.00000    2.43660    2.60870  -51.17000    3.06440    -999.25    0.09920    0.26570    -999.25    -999.25   68.59040    2.48930    0.06300   15.06020 9437.18750    3.51780   13.14090   71.79240   80.87090   10.49300
 9200.00000    1.79500    1.83270  -47.93360    2.37750    -999.25    0.14870    0.34600    -999.25    -999.25   81.00850    2.42260    0.08100   16.11970 9411.53810    1.32560   13.82710   88.97820   90.43980   11.05580
 9250.00000    2.10910    2.15260  -47.80030    2.85610    -999.25    0.11770    0.32510    -999.25    -999.25   77.94980    2.48120    0.10580   16.19950 9747.06250    1.45160   13.95080   80.74620   85.53750   10.81840
 9300.00000    1.67400    1.85430  -45.58570    2.21790    -999.25    0.13110    0.34040    -999.25    -999.25   90.22250    2.44400    0.11710   16.11420 9744.53120    0.96850   13.83960  102.44310   92.25010   10.92780
 9350.00000    2.04960    2.09210  -45.12420    2.72820    -999.25    0.13880    0.33560    -999.25    -999.25  102.45350    2.47320    0.11100   15.15870 9656.11820    1.40530   13.54300  118.14140   89.18340   10.83270
 9400.00000    2.21240    2.26220  -43.84150    2.86530    -999.25    0.12110    0.34410    -999.25    -999.25   72.71640    2.46590    0.15710   14.76810 9650.16800    2.48000   13.54910   77.65000   85.47600   10.80420
 9450.00000    3.19280    3.25890  -52.26360    4.20720    -999.25    0.28190    0.39470    0.24180    0.13290   75.07320    2.47950    0.07170   13.72420 9644.58500    4.61270   12.91640   79.09800   81.38970   10.55610
 9500.00000    2.94920    3.13410  -51.80850    3.97180    -999.25    -999.25    -999.25    0.21340    0.11000   73.56960    2.48190    0.04660   13.70900 9605.94630    4.15330   12.75670   78.35790   80.44100   10.55190
