~Version ---------------------------------------------------
VERS. 2.0 : CWLS log ASCII Standard -VERSION 2.0
WRAP.  NO : ONE LINE PER DEPTH STEP
~Well ------------------------------------------------------
STRT.F                   300.0 : START DEPTH
STOP.F                 10950.0 : STOP DEPTH
STEP.F                50.00000 : STEP LENGTH
NULL.                  -999.25 : NULL VALUE
COMP.     THE PURE OIL COMPANY : COMPANY
WELL.          W. T. BRUTON #7 : WELL
FLD .            FORT TRINIDAD : FIELD
LOC .                          : LOCATION
CNTY.                  HOUSTON : COUNTY
STAT.                    TEXAS : STATE
CTRY. UNITED STATES OF AMERICA : COUNTRY
SRVC.             Schlumberger : SERVICE COMPANY
DATE.              29-Jan-1963 : LOGDATE
API .           42225004270000 : API NUMBER
UWI .           42225004270000 : UNIQUE WELL ID
SLAT.WGS84       31.0768046547 : SURFACE LATITUDE
SLON.WGS84      -95.6233840744 : SURFACE LONGITUDE
~Curve Information -----------------------------------------
DEPT.F    0   1   0  0 : 1 MEASURED DEPTH
MCAL.IN   15 280 01 00 : MLT (MICROLOG) CALIPER
DT  .US/F 60 500 31 00 : DELTA-T (INTERVAL TRANSIT TIME)
ASN .OHMM 05 041 16 00 : AMPLIFIED SHORT NORMAL RESISTIVITY
CILD.MMHO 05 110 46 00 : INDUCTION DEEP CONDUCTIVITY
ILD .OHMM 05 120 46 00 : INDUCTION DEEP RESISTIVITY
SPR .MV   05 010 01 00 : SPONTANEOUS POTENTIAL FROM RESISTIVITY LOG
LT18.OHMM 01 070 18 00 : LATERAL 18'
LN  .OHMM 01 060 64 00 : LONG NORMAL RESISTIVITY
GR  .GAPI 30 310 01 00 : GAMMA RAY
~Params ----------------------------------------------------
PD  .                     RT : PERMANENT DATUM
LMF .                    SCF : LOG MEASURED FROM
DAPD.FT                   16 : FEET ABOVE PERMANENT DATUM
DMF .                    SCF : DRILLING MEASURED FROM
EKB .FT                  195 : KELLY BUSHING
EDF .FT                  197 : DRILLING FLOOR
EGL .FT                  181 : GROUND LEVEL
DATE.               01/29/63 : RUN DATE
RUN .                      2 : RUN NUMBER
DD  .FT                10975 : DEPTH DRILLER
DL  .FT                10982 : DEPTH LOGGER
BLI .FT                10981 : BOTTOM LOG INTERVAL
TLI .FT                 9216 : TOP LOG INTERVAL
CBD .FT                 9215 : CASING BOTTOM DRILLER
CBL .FT                 9216 : CASING BOTTOM LOGGER
BS  .IN                6.125 : BIT SIZE
BSD .FT                10975 : BIT SIZE AT DEPTH
DFT .         LIGNOSULFONATE : DRILLING FLUID TYPE
DFD .                   10.4 : DRILLING FLUID DENSITY
DFV .                     52 : DRILLING FLUID VISCOSITY
DFPH.                     10 : DRILLING FLUID PH
DFL .                    4.6 : DRILLING FLUID LOSS
MSS .               FLOWLINE : MUD SAMPLE SOURCE
RMS .OHMM                1.7 : RESISTIVITY MUD SAMPLE
MST .DEGF                 75 : MUD SAMPLE TEMPERATURE
RMF .OHMM                1.5 : RESISTIVITY MUD FILTRATE SAMPLE
MFST.DEGF                 75 : MUD FILTRATE SAMPLE TEMPERATURE
RMC .OHMM                1.9 : RESISTIVITY MUD CAKE
MCST.DEGF                 75 : MUD CAKE SAMPLE TEMPERATURE
RMB .OHMM               0.49 : RESISTIVITY MUD AT BHT
TCS .HRS                   2 : TIME CIRCULATED STOPPED
LUN .                   4513 : LOGGING UNIT NUMBER
LUL .                HUNT SV : LOGGING UNIT LOCATION
ENGI.                PURCELL : RECORDING ENGINEER
WITN.             BLACKSTOCK : WITNESSED BY
CLNT.                A2DTECH : CLIENT CODE
ORIG.            2" 5" PRINT : ORIGIN OF DATA
UWI .         42225004270000 : UNIQUE WELL ID
DICO. A2D Technologies, Inc. : DIGITIZING COMPANY
~Other -----------------------------------------------------
~ASCII -----------------------------------------------------
  300.00000    -999.25    -999.25    5.05560  226.24900    5.14530  -47.44600    -999.25    -999.25    -999.25
  350.00000    -999.25    -999.25    3.08000  356.48510    3.40090  -48.57350    -999.25    -999.25    -999.25
  400.00000    -999.25    -999.25    3.97170  270.76000    4.37860  -49.53580    -999.25    -999.25    -999.25
  450.00000    -999.25    -999.25   12.40580   74.84450   15.32120  -55.18500    -999.25    -999.25    -999.25
  500.00000    -999.25    -999.25    6.46890  179.06450    6.83450  -52.78380    -999.25    -999.25    -999.25
  550.00000    -999.25    -999.25    2.36360  475.29790    2.49430  -49.54180    -999.25    -999.25    -999.25
  600.00000    -999.25    -999.25    2.38240  514.64040    2.29760  -48.56980    -999.25    -999.25    -999.25
  650.00000    -999.25    -999.25    4.23320  251.31530    4.49550  -47.99850    -999.25    -999.25    -999.25
  700.00000    -999.25    -999.25    5.64790  186.26830    5.82780  -49.40170    -999.25    -999.25    -999.25
  750.00000    -999.25    -999.25    7.45380  146.42270    7.76650  -49.37350    -999.25    -999.25    -999.25
  800.00000    -999.25    -999.25    8.76200  165.60430    8.28240  -47.17820    -999.25    -999.25    -999.25
  850.00000    -999.25    -999.25    9.56940  119.37090    9.51250  -50.74530    -999.25    -999.25    -999.25
  900.00000    -999.25    -999.25   35.63900   35.09190   40.54480  -30.38150    -999.25    -999.25    -999.25
  950.00000    -999.25    -999.25   58.40650   22.01060   96.99890  -15.34660    -999.25    -999.25    -999.25
 1000.00000    -999.25    -999.25   24.44060   34.65340   33.08720  -36.57350    -999.25    -999.25    -999.25
 1050.00000    -999.25    -999.25    4.71000  278.45430    4.13260  -49.21070    -999.25    -999.25    -999.25
 1100.00000    -999.25    -999.25    4.90960  211.18690    5.40640  -48.26370    -999.25    -999.25    -999.25
 1150.00000    -999.25    -999.25    4.67990  229.30620    5.02760  -48.24280    -999.25    -999.25    -999.25
 1200.00000    -999.25    -999.25   12.20030   79.17740   14.94950  -54.81440    -999.25    -999.25    -999.25
 1250.00000    -999.25    -999.25   12.44090   85.53740   13.47020  -58.76840    -999.25    -999.25    -999.25
 1300.00000    -999.25    -999.25    4.08600  286.11900    3.72100  -54.60320    -999.25    -999.25    -999.25
 1350.00000    -999.25    -999.25    4.44660  243.89710    3.82370  -54.23240    -999.25    -999.25    -999.25
 1400.00000    -999.25    -999.25    4.97930  230.03420    3.97490  -56.41980    -999.25    -999.25    -999.25
 1450.00000    -999.25    -999.25    3.02280  378.08800    2.55010  -53.80540    -999.25    -999.25    -999.25
 1500.00000    -999.25    -999.25    1.79070  668.39420    1.62390  -54.33520    -999.25    -999.25    -999.25
 1550.00000    -999.25    -999.25    1.78870  658.12130    1.97700  -53.39970    -999.25    -999.25    -999.25
 1600.00000    -999.25    -999.25    5.11030  225.05450    4.79400  -53.45100    -999.25    -999.25    -999.25
 1650.00000    -999.25    -999.25    6.22720  175.21540    5.69020  -53.74180    -999.25    -999.25    -999.25
 1700.00000    -999.25    -999.25   28.69270   38.57270   32.18170  -40.57220    -999.25    -999.25    -999.25
 1750.00000    -999.25    -999.25   25.34420   35.85700   28.95910  -39.91800    -999.25    -999.25    -999.25
 1800.00000    -999.25    -999.25   10.08970   93.14820    9.73530  -55.59570    -999.25    -999.25    -999.25
 1850.00000    -999.25    -999.25   11.65590   81.50440   11.18170  -57.32850    -999.25    -999.25    -999.25
 1900.00000    -999.25    -999.25    5.32170  185.58200    5.13240  -49.54060    -999.25    -999.25    -999.25
 1950.00000    -999.25    -999.25    3.48160  321.73730    3.55280  -48.54010    -999.25    -999.25    -999.25
 2000.00000    -999.25    -999.25    8.42400  129.37400    6.96670  -61.77510    -999.25    -999.25    -999.25
 2050.00000    -999.25    -999.25    5.83780  180.70310    5.11580  -60.81470    -999.25    -999.25    -999.25
 2100.00000    -999.25    -999.25    4.91780  211.98470    3.74700  -54.03630    -999.25    -999.25    -999.25
 2150.00000    -999.25    -999.25    6.60040  162.74040    4.35570  -64.70320    -999.25    -999.25    -999.25
 2200.00000    -999.25    -999.25    5.16790  196.96450    5.27120  -83.96660    4.48290    5.48750    -999.25
 2250.00000    -999.25    -999.25    5.22450  171.89840    5.92700  -85.82030    6.03250    5.63880    -999.25
 2300.00000    -999.25    -999.25    5.58000  161.81950    6.36810  -84.84300    5.65590    6.33610    -999.25
 2350.00000    -999.25    -999.25    3.95870  260.61670    4.04690  -83.23910    6.97750    5.29730    -999.25
 2400.00000    -999.25    -999.25    3.43100  273.07480    3.94350  -83.36380    4.35490    4.77070    -999.25
 2450.00000    -999.25    -999.25    5.55350  196.87980    5.27950  -87.25510    5.14110    5.18580    -999.25
 2500.00000    -999.25    -999.25    4.64490  221.24410    4.55650  -83.21250    5.04180    4.49270    -999.25
 2550.00000    -999.25    -999.25    3.62620  248.92830    4.15070  -82.17740    4.23190    3.92740    -999.25
 2600.00000    -999.25    -999.25    6.19750  176.70850    5.87480  -89.11800    4.94880    4.28820    -999.25
 2650.00000    -999.25    -999.25    3.27580  267.35850    3.79890  -83.98860    5.30170    3.49990    -999.25
 2700.00000    -999.25    -999.25    3.88280  266.94540    3.78880  -92.22610    3.32930    3.69620    -999.25
 2750.00000    -999.25    -999.25    2.88200  289.50070    3.61730  -87.31030    3.51120    3.52610    -999.25
 2800.00000    -999.25    -999.25    5.93890  199.53310    5.27720  -94.72380    3.19750    4.81100    -999.25
 2850.00000    -999.25    -999.25    5.57210  187.91030    5.35850  -89.19260    4.22650    5.04730    -999.25
 2900.00000    -999.25    -999.25    5.21680  190.50290    5.30350  -87.30620    3.94120    4.77660    -999.25
 2950.00000    -999.25    -999.25    6.59000  169.44930    6.08930  -95.21870    2.28200    6.62140    -999.25
 3000.00000    -999.25    -999.25    5.36660  186.87420    5.49520  -86.56010    6.08180    5.25020    -999.25
 3050.00000    -999.25    -999.25    4.51420  227.87660    4.63090  -82.83080    4.22780    4.38980    -999.25
 3100.00000    -999.25    -999.25    6.87480  170.49330    6.03980  -94.19660    3.80760    6.07170    -999.25
 3150.00000    -999.25    -999.25    2.66070  334.21730    2.99430  -81.01170    4.12540    3.53140    -999.25
 3200.00000    -999.25    -999.25    5.14300  216.88840    4.58770  -88.67840    4.78550    4.60630    -999.25
 3250.00000    -999.25    -999.25    4.96180  215.31950    4.70060  -87.57890    4.75660    4.54420    -999.25
 3300.00000    -999.25    -999.25    7.61960  149.95120    6.99760  -94.29950    2.90940    6.74890    -999.25
 3350.00000    -999.25    -999.25    3.90820  232.23260    4.92570  -84.35540    4.46500    5.29980    -999.25
 3400.00000    -999.25    -999.25    6.93170  168.89220    6.13070  -98.56980    3.27340    5.69770    -999.25
 3450.00000    -999.25    -999.25    8.17000  152.14930    7.26450  -92.97410    1.01170    7.25880    -999.25
 3500.00000    -999.25    -999.25    6.48290  182.13750    5.70920  -98.07130    5.48020    5.41870    -999.25
 3550.00000    -999.25    -999.25    8.84450  134.87520    8.00760 -100.80690    5.47160    6.57330    -999.25
 3600.00000    -999.25    -999.25    6.76820  164.59360    6.42220  -85.85990    5.02950    6.00620    -999.25
 3650.00000    -999.25    -999.25    6.41670  191.34110    5.56110  -86.01140    2.83770    6.02020    -999.25
 3700.00000    -999.25    -999.25    6.95330  168.37810    6.06870  -90.40720    5.00360    4.04090    -999.25
 3750.00000    -999.25    -999.25    6.31420  196.00920    5.29040  -85.99280    2.05550    5.80070    -999.25
 3800.00000    -999.25    -999.25    7.59110  173.45890    5.93070  -96.75720    4.96260    5.50990    -999.25
 3850.00000    -999.25    -999.25    7.47510  207.68020    4.89080  -98.59440    2.80780    5.53520    -999.25
 3900.00000    -999.25    -999.25    6.86100  276.12970    3.73090 -107.84750    3.15060    4.30910    -999.25
