~Version ---------------------------------------------------
VERS.      2.0 : CWLS log ASCII Standard -VERSION 2.0
WRAP.      YES : Multiple lines per depth step
CREA. 07/21/20 : LAS Creation Date
~Well ------------------------------------------------------
STRT.FT                  2100.0 : START DEPTH
STOP.FT                  6200.0 : STOP DEPTH
STEP.FT                50.00000 : STEP LENGTH
NULL.                   -999.25 : NULL VALUE
COMP. EVERGREEN OIL CORPORATION : COMPANY
WELL.         VICKERS OLYN P #1 : WELL
FLD .                      COST : FIELD
LOC .                           : LOCATION
CNTY.                  GONZALES : COUNTY
STAT.                     TEXAS : STATE
CTRY.  UNITED STATES OF AMERICA : COUNTRY
SRVC.              Schlumberger : SERVICE COMPANY
DATE.               11-Mar-1981 : LOGDATE
API .            42177308050000 : API NUMBER
UWI .            42177308050000 : UNIQUE WELL ID
SLAT.WGS84         29.460506946 : SURFACE LATITUDE
SLON.WGS84       -97.5902132456 : SURFACE LONGITUDE
~Curve Information -----------------------------------------
DEPT    .FT    : DEPTH FEET
BITSED  .IN    : BITS SIZE
CALRED  .IN    : CALIPER FROM DIL-SFL-FDC-CNL LOG
CALWS   .IN    : CALIPER [TOP DCALRED+BITS 5580', CALRDED TD]
CONDWS  .MMHO  : CONDUCTIVITY [1000/DRESWS]
DCALRED .IN    : DIFFERENTIAL CALIPER FROM DIL-SFL-FDC-CNL LOG
DCORWS  .G/C3  : DENSITY CORRECTION [DRHOED]
DENWS   .G/C3  : FORMATION BULK DENSITY [CALC. FROM DPOLSWS M=2.71, F=1.0]
DPHILSED.V/V   : DENSITY POROSITY LIMESTONE [M=2.71, F=1.0] FROM DIL-SFL-FDC-CNL LOG
DPHISSED.V/V   : DENSITY POROSITY SANDSTONE [M=2.68, F=1.0] FROM DIL-SFL-FDC-CNL LOG
DPOLSWS .V/V   : DENSITY POROSITY LIMESTONE [TOP DPHISSED MATRIX CONVERSION TO LIMESTONE (M=2.71,F=1.0) 5580', DPHILSED TD]
DRESWS  .OHMM  : DEEP RESISTIVITY [ILDED]
DRHOED  .G/C3  : DENSITY CORRECTION FROM DIL-SFL-FDC-CNL LOG
GRRED   .GAPI  : GAMMA RAY FROM DIL-SFL-FDC-CNL LOG
GRWS    .GAPI  : GAMMA RAY [GRRED]
ILDED   .OHMM  : DEEP INDUCTION RESISTIVITY FROM DIL-SFL-FDC-CNL LOG
ILMED   .OHMM  : MEDIUM INDUCTION RESISTIVITY FROM DIL-SFL-FDC-CNL LOG
MRESWS  .OHMM  : MEDIUM RESISTIVITY [ILMED]
NPHILSED.V/V   : NEUTRON POROSITY LIMESTONE FROM DIL-SFL-FDC-CNL LOG
NPHISSED.V/V   : NEUTRON POROSITY SANDSTONE FROM DIL-SFL-FDC-CNL LOG
NPOLSWS .V/V   : NEUTRON POROSITY LIMESTONE [TOP NPHISSED MATRIX CONVERSION TO LIMESTONE (SBL) 5580', NPHILSED TD]
RHOBED  .G/C3  : BULK DENSITY FROM DIL-SFL-FDC-CNL LOG
SFLUED  .OHMM  : SHALLOW FOCUSED RESISTIVITY FROM DIL-SFL-FDC-CNL LOG
SPRED   .MV    : SPONTANEOUS POTENTIAL FROM DIL-SFL-FDC-CNL LOG
SPWS    .MV    : SPONTANEOUS POTENTIAL [BASELINE 0MV, SPRED]
SRESWS  .OHMM  : SHALLOW RESISTIVITY [SFLUED]
~Params ----------------------------------------------------
PD  .                     GL : PERMANENT DATUM
EPD .FT                  404 : ELEVATION PERMANENT DATUM
LMF .                     KB : LOG MEASURED FROM
DAPD.FT                   12 : FEET ABOVE PERMANENT DATUM
DMF .                     KB : DRILLING MEASURED FROM
EKB .FT                  416 : KELLY BUSHING
EDF .FT                  415 : DRILLING FLOOR
EGL .FT                  404 : GROUND LEVEL
DATE.               03/11/81 : RUN DATE
RUN .                      1 : RUN NUMBER
DD  .FT                 6215 : DEPTH DRILLER
DL  .FT                 6215 : DEPTH LOGGER
BLI .FT                 6138 : BOTTOM LOG INTERVAL
TLI .FT                 2068 : TOP LOG INTERVAL
CS  .IN                8.625 : CASING SIZE
CBD .FT                 2054 : CASING BOTTOM DRILLER
CBL .FT                 2068 : CASING BOTTOM LOGGER
BS  .IN                7.875 : BIT SIZE
BSD .FT                 6215 : BIT SIZE AT DEPTH
MST .DEGF                 75 : MUD SAMPLE TEMPERATURE
MFST.DEGF                 75 : MUD FILTRATE SAMPLE TEMPERATURE
MCST.DEGF                 75 : MUD CAKE SAMPLE TEMPERATURE
WITN.                  EVANS : WITNESSED BY
CLNT.                A2DTECH : CLIENT CODE
ORIG.            1" 5" PRINT : ORIGIN OF DATA
UWI .         42177308050000 : UNIQUE WELL ID
DICO. A2D Technologies, Inc. : DIGITIZING COMPANY
~Other -----------------------------------------------------
DIL-SFL-FDC-CNL TOOL RUN
~ASCII -----------------------------------------------------
# ...
 4900.00000    7.87500    -999.25    9.09500  556.17350    1.22000    0.09200    2.08530    -999.25    0.35400    0.36530    1.79800    0.09200   97.62700   97.62700    1.79800    1.84700    1.84700    -999.25    0.39800    0.35510    -999.25    1.75800   -7.31100   -7.33440    1.75800
 4950.00000    7.87500    -999.25    8.35900  461.89380    0.48400    0.06700    2.43640    -999.25    0.14500    0.16000    2.16500    0.06700   87.75800   87.75800    2.16500    2.22300    2.22300    -999.25    0.30200    0.25800    -999.25    2.28600   -7.50800   -7.62520    2.28600
 5000.00000    7.87500    -999.25   10.33500  757.57580    2.46000    0.07000    2.30370    -999.25    0.22400    0.23760    1.32000    0.07000   80.85400   80.85400    1.32000    1.48500    1.48500    -999.25    0.39800    0.35510    -999.25    1.62000   -6.72500   -6.93600    1.62000
 5050.00000    7.87500    -999.25   11.13900  779.42320    3.26400    0.06500    2.31880    -999.25    0.21500    0.22880    1.28300    0.06500   93.64100   93.64100    1.28300    1.40100    1.40100    -999.25    0.40500    0.36220    -999.25    1.47700   -7.46800   -7.77280    1.47700
 5100.00000    7.87500    -999.25   11.17300  891.26560    3.29800    0.07000    2.23980    -999.25    0.26200    0.27490    1.12200    0.07000   95.33300   95.33300    1.12200    1.20000    1.20000    -999.25    0.43300    0.39090    -999.25    1.18800   -6.87600   -7.27460    1.18800
 5150.00000    7.87500    -999.25   10.91700  723.58900    3.04200    0.09200    2.40780    -999.25    0.16200    0.17670    1.38200    0.09200   95.75800   95.75800    1.38200    1.50300    1.50300    -999.25    0.35200    0.30840    -999.25    1.62500   -6.80100   -7.29340    1.62500
 5200.00000    7.87500    -999.25   11.19600  738.55240    3.32100    0.09400    2.38940    -999.25    0.17300    0.18750    1.35400    0.09400   90.03200   90.03200    1.35400    1.44500    1.44500    -999.25    0.36600    0.32260    -999.25    1.50700   -6.36800   -6.95410    1.50700
 5250.00000    7.87500    -999.25   11.25400  748.50300    3.37900    0.06900    2.40950    -999.25    0.16100    0.17570    1.33600    0.06900   90.38900   90.38900    1.33600    1.44600    1.44600    -999.25    0.35600    0.31240    -999.25    1.55500   -7.84300   -8.52290    1.55500
 5300.00000    7.87500    -999.25   10.77700  701.26230    2.90200    0.09700    2.36080    -999.25    0.19000    0.20420    1.42600    0.09700   88.86400   88.86400    1.42600    1.50300    1.50300    -999.25    0.35300    0.30940    -999.25    1.56900   -4.09300   -4.86670    1.56900
 5350.00000    7.87500    -999.25   11.87400  765.11090    3.99900    0.10200    2.36250    -999.25    0.18900    0.20320    1.30700    0.10200   99.23600   99.23600    1.30700    1.38400    1.38400    -999.25    0.40900    0.36630    -999.25    1.42500   -5.78100   -6.08090    1.42500
 5400.00000    7.87500    -999.25   11.86900  787.40160    3.99400    0.09100    2.40450    -999.25    0.16400    0.17870    1.27000    0.09100  102.94100  102.94100    1.27000    1.35800    1.35800    -999.25    0.38100    0.33780    -999.25    1.37800   -3.80200   -3.41800    1.37800
 5450.00000    7.87500    -999.25   11.63500  750.75080    3.76000    0.06600    2.45660    -999.25    0.13300    0.14820    1.33200    0.06600   95.15100   95.15100    1.33200    1.43400    1.43400    -999.25    0.38300    0.33980    -999.25    1.53200  -11.20400  -10.13620    1.53200
 5500.00000    7.87500    -999.25   11.80100 1131.22170    3.92600    0.09100    2.28520    -999.25    0.23500    0.24840    0.88400    0.09100   92.44600   92.44600    0.88400    0.94800    0.94800    -999.25    0.39000    0.34690    -999.25    0.91800   -7.59100   -5.83940    0.91800
 5550.00000    7.87500    -999.25   10.05800  595.94760    2.18300   -0.12800    1.68210    -999.25    0.59400    0.60110    1.67800   -0.12800   89.06300   89.06300    1.67800    1.81900    1.81900    -999.25    0.27500    0.23100    -999.25    1.98600  -26.97400  -17.16740    1.98600
 5600.00000    7.87500    8.56400    8.56400  350.26270    -999.25   -0.01200    2.52020    0.11100    -999.25    0.11100    2.85500   -0.01200   71.26300   71.26300    2.85500    2.92700    2.92700    0.16300    -999.25    0.16300    2.53000    3.51000  -22.86900   -2.85650    3.51000
 5650.00000    7.87500    8.32400    8.32400  207.85700    -999.25   -0.01600    2.57830    0.07700    -999.25    0.07700    4.81100   -0.01600   49.96800   49.96800    4.81100    5.04200    5.04200    0.13500    -999.25    0.13500    2.58000    6.03000  -25.74600   -6.83470    6.03000
 5700.00000    7.87500    8.26000    8.26000  193.23670    -999.25   -0.01100    2.58690    0.07200    -999.25    0.07200    5.17500   -0.01100   52.28200   52.28200    5.17500    5.46000    5.46000    0.12600    -999.25    0.12600    2.58800    5.91500  -23.61800   -5.80780    5.91500
 5750.00000    7.87500    7.99800    7.99800  153.11590    -999.25   -0.00600    2.60400    0.06200    -999.25    0.06200    6.53100   -0.00600   38.12300   38.12300    6.53100    6.44700    6.44700    0.11600    -999.25    0.11600    2.60300    5.63200  -21.29100   -4.58190    5.63200
 5800.00000    7.87500    7.89300    7.89300  137.00510    -999.25   -0.01300    2.59030    0.07000    -999.25    0.07000    7.29900   -0.01300   38.76600   38.76600    7.29900    7.51100    7.51100    0.08600    -999.25    0.08600    2.59100    7.51100  -23.44300   -7.83510    7.51100
 5850.00000    7.87500    7.61800    7.61800  185.90820    -999.25    0.00400    2.60230    0.06300    -999.25    0.06300    5.37900    0.00400   54.58900   54.58900    5.37900    5.58700    5.58700    0.09800    -999.25    0.09800    2.60300    5.91900  -27.02500  -12.93840    5.91900
 5900.00000    7.87500    7.64100    7.64100  232.23410    -999.25   -0.00800    2.58350    0.07400    -999.25    0.07400    4.30600   -0.00800   36.51500   36.51500    4.30600    4.54300    4.54300    0.09400    -999.25    0.09400    2.58400    5.48000  -25.20900  -18.22690    5.48000
 5950.00000    7.87500    7.51400    7.51400  139.35340    -999.25    0.01700    2.61420    0.05600    -999.25    0.05600    7.17600    0.01700   41.57000   41.57000    7.17600    7.27900    7.27900    0.10700    -999.25    0.10700    2.61650    8.05900  -23.50200  -23.62430    8.05900
 6000.00000    7.87500    7.44100    7.44100  156.15240    -999.25   -0.00300    2.48430    0.13200    -999.25    0.13200    6.40400   -0.00300   59.01900   59.01900    6.40400    6.52900    6.52900    0.20100    -999.25    0.20100    2.48600    8.46100   -7.30100  -14.52770    8.46100
 6050.00000    7.87500    7.40900    7.40900   67.34460    -999.25    0.00100    2.66900    0.02400    -999.25    0.02400   14.84900    0.00100   15.03200   15.03200   14.84900   15.38500   15.38500    0.02400    -999.25    0.02400    2.67800   23.81500  -26.15700  -36.86180   23.81500
 6100.00000    7.87500    7.34300    7.34300   41.56100    -999.25    0.00200    2.68260    0.01600    -999.25    0.01600   24.06100    0.00200   15.66500   15.66500   24.06100   26.60800   26.60800    0.03300    -999.25    0.03300    2.67900   26.64500  -33.84000  -40.66020   26.64500
 6150.00000    7.87500    7.32500    7.32500  253.87150    -999.25    0.00100    2.61590    0.05500    -999.25    0.05500    3.93900    0.00100   74.94100   74.94100    3.93900    4.42500    4.42500    0.18940    -999.25    0.18940    2.61350    4.49900   -3.88000   -6.81560    4.49900
 6200.00000    7.87500    -999.25    -999.25    -999.25    -999.25    -999.25    -999.25    -999.25    -999.25    -999.25    -999.25    -999.25    -999.25    -999.25    -999.25    -999.25    -999.25    -999.25    -999.25    -999.25    -999.25    -999.25  -17.17300  -19.37050    -999.25
