~Version ---------------------------------------------------
VERS.      2.0 : CWLS log ASCII Standard -VERSION 2.0
WRAP.      YES : Multiple lines per depth step
CREA. 01/19/13 : LAS Creation Date
~Well ------------------------------------------------------
STRT.FT                 1500.0 : START DEPTH
STOP.FT                10050.0 : STOP DEPTH
STEP.FT               50.00000 : STEP LENGTH
NULL.                  -999.25 : NULL VALUE
COMP.     MARATHON OIL COMPANY : COMPANY
WELL.              HOLMES S #1 : WELL
FLD .               BEAR GRASS : FIELD
LOC .                          : LOCATION
CNTY.                     LEON : COUNTY
STAT.                    TEXAS : STATE
CTRY. UNITED STATES OF AMERICA : COUNTRY
SRVC.             Schlumberger : SERVICE COMPANY
DATE.              05-Jul-1991 : LOGDATE
API .           42289311110000 : API NUMBER
UWI .           42289311110000 : UNIQUE WELL ID
SLAT.WGS84       31.3704869151 : SURFACE LATITUDE
SLON.WGS84      -96.2382553647 : SURFACE LONGITUDE
~Curve Information -----------------------------------------
DEPT    .FT    : DEPTH FEET
CALDED  .IN    : CALIPER FROM CN-LDT LOG
CALWS   .IN    : CALIPER [CALDED]
CONDWS  .MMHO  : CONDUCTIVITY [1000/DRESWS]
DCORWS  .G/C3  : DENSITY CORRECTION [DRHOED]
DENWS   .G/C3  : FORMATION BULK DENSITY [CALCULATED FROM DPOWS M=2.71, F=1.0]
DPHILSED.V/V   : DENSITY POROSITY LIMESTONE [M=2.71, F=1.0] FROM CN-LDT LOG
DPOWS   .V/V   : DENSITY POROSITY LIMESTONE [DPHILSED]
DRESWS  .OHMM  : DEEP RESISTIVITY [ILDED]
DRHOED  .G/C3  : BULK DENSITY CORRECTION FROM CN-LDT LOG
GRRED   .GAPI  : GAMMA RAY FROM DIL-SFL LOG
GRWS    .GAPI  : GAMMA RAY [GRRED]
ILDED   .OHMM  : DEEP INDUCTION FROM DIL-SFL LOG
ILMED   .OHMM  : MEDIUM INDUCTION FROM DIL-SFL LOG
MRESWS  .OHMM  : MEDIUM RESISTIVITY [ILMED]
NPHILSED.V/V   : NEUTRON POROSITY LIMESTONE FROM CN-LDT LOG
NPOWS   .V/V   : NEUTRON POROSITY LIMESTONE [NPHILSED]
RHOBED  .G/C3  : BULK DENSITY FROM CN-LDT LOG
SFLUED  .OHMM  : SHALLOW FOCUSED RESISTIVITY (UNAVERAGED) FROM DIL-SFL LOG
SPRED   .MV    : SPONTANEOUS POTENTIAL FROM DIL-SFL LOG
SPWS    .MV    : SPONTANEOUS POTENTIAL [BASELINE 0 MV, SPRED]
SRESWS  .OHMM  : SHALLOW RESISTIVITY [SFLUED]
TENRED  .LBF   : TENSION FROM DIL-SFL LOG
~Params ----------------------------------------------------
PD  .                     GL : PERMANENT DATUM
EPD .FT                  515 : ELEVATION PERMANENT DATUM
LMF .                     KB : LOG MEASURED FROM
DAPD.FT                   23 : FEET ABOVE PERMANENT DATUM
DMF .                     KB : DRILLING MEASURED FROM
EKB .FT                  538 : KELLY BUSHING
EDF .FT                  537 : DRILLING FLOOR
EGL .FT                  515 : GROUND LEVEL
DATE.               06/07/91 : RUN DATE
RUN .                      1 : RUN NUMBER
DD  .FT                10100 : DEPTH DRILLER
DL  .FT                10084 : DEPTH LOGGER
BLI .FT                10080 : BOTTOM LOG INTERVAL
TLI .FT                 4215 : TOP LOG INTERVAL
CS  .IN                8.625 : CASING SIZE
CBD .FT                 1528 : CASING BOTTOM DRILLER
CBL .FT                 1514 : CASING BOTTOM LOGGER
BS  .IN                7.875 : BIT SIZE
BSD .FT                10100 : BIT SIZE AT DEPTH
DFT .                    LIG : DRILLING FLUID TYPE
DFD .                   10.2 : DRILLING FLUID DENSITY
DFV .                     45 : DRILLING FLUID VISCOSITY
DFPH.                    9.8 : DRILLING FLUID PH
DFL .                     10 : DRILLING FLUID LOSS
MSS .                   TANK : MUD SAMPLE SOURCE
RMS .OHMM               3.28 : RESISTIVITY MUD SAMPLE
MST .DEGF                 75 : MUD SAMPLE TEMPERATURE
RMF .OHMM               3.02 : RESISTIVITY MUD FILTRATE SAMPLE
MFST.DEGF                 75 : MUD FILTRATE SAMPLE TEMPERATURE
RMC .OHMM               2.59 : RESISTIVITY MUD CAKE
MCST.DEGF                 75 : MUD CAKE SAMPLE TEMPERATURE
MFSS.                  PRESS : MUD FILTRATE SAMPLE SOURCE
MCSS.                   MEAS : MUD CAKE SAMPLE SOURCE
RMB .OHMM              1.159 : RESISTIVITY MUD AT BHT
TCS .HRS                 400 : TIME CIRCULATED STOPPED
TLAB.HRS                1100 : TIME LOGGER AT BOTTOM
LUN .                   8605 : LOGGING UNIT NUMBER
LUL .                  TYLER : LOGGING UNIT LOCATION
ENGI.                 HIBURN : RECORDING ENGINEER
CLNT.                A2DTECH : CLIENT CODE
ORIG.          1" 2.5" PRINT : ORIGIN OF DATA
UWI .         42289311110000 : UNIQUE WELL ID
DICO. A2D Technologies, Inc. : DIGITIZING COMPANY
~Other -----------------------------------------------------
~ASCII -----------------------------------------------------
# ...
 3100.00000    -999.25    -999.25  705.76610    -999.25    -999.25    -999.25    -999.25    1.41690    -999.25   85.55390   85.55390    1.41690    1.37300    1.37300    -999.25    -999.25    -999.25    1.53740   -4.92780   -3.61070    1.53740 1925.12040
 3150.00000    -999.25    -999.25  986.77720    -999.25    -999.25    -999.25    -999.25    1.01340    -999.25   89.84720   89.84720    1.01340    1.02800    1.02800    -999.25    -999.25    -999.25    1.35790   -3.49780   -2.32340    1.35790 1925.18870
 3200.00000    -999.25    -999.25  917.09460    -999.25    -999.25    -999.25    -999.25    1.09040    -999.25   74.73670   74.73670    1.09040    1.12840    1.12840    -999.25    -999.25    -999.25    1.33770   -3.67870   -2.64710    1.33770 1910.31530
 3250.00000    -999.25    -999.25 1162.11500    -999.25    -999.25    -999.25    -999.25    0.86050    -999.25  101.74900  101.74900    0.86050    0.87930    0.87930    -999.25    -999.25    -999.25    1.06760   -3.85500   -2.96610    1.06760 1907.99460
 3300.00000    -999.25    -999.25  812.54570    -999.25    -999.25    -999.25    -999.25    1.23070    -999.25   84.09000   84.09000    1.23070    1.25430    1.25430    -999.25    -999.25    -999.25    1.55980   -7.21960   -6.47340    1.55980 1926.84510
 3350.00000    -999.25    -999.25 1024.27530    -999.25    -999.25    -999.25    -999.25    0.97630    -999.25   75.45390   75.45390    0.97630    1.00620    1.00620    -999.25    -999.25    -999.25    1.18570   -5.07830   -4.47480    1.18570 1984.63830
 3400.00000    -999.25    -999.25  798.91350    -999.25    -999.25    -999.25    -999.25    1.25170    -999.25   75.50580   75.50580    1.25170    1.22660    1.22660    -999.25    -999.25    -999.25    1.53790   -6.58360   -6.12280    1.53790 1987.34950
 3450.00000    -999.25    -999.25  862.51510    -999.25    -999.25    -999.25    -999.25    1.15940    -999.25   85.64500   85.64500    1.15940    1.13560    1.13560    -999.25    -999.25    -999.25    1.39060   -5.17340   -4.85530    1.39060 2065.47780
 3500.00000    -999.25    -999.25  794.47050    -999.25    -999.25    -999.25    -999.25    1.25870    -999.25   79.21940   79.21940    1.25870    1.23870    1.23870    -999.25    -999.25    -999.25    1.53020   -3.47490   -3.29950    1.53020 1986.10740
 3550.00000    -999.25    -999.25 1051.52470    -999.25    -999.25    -999.25    -999.25    0.95100    -999.25   82.32270   82.32270    0.95100    0.97460    0.97460    -999.25    -999.25    -999.25    1.14560   -3.21300   -3.18040    1.14560 2073.87600
 3600.00000    -999.25    -999.25 1005.02510    -999.25    -999.25    -999.25    -999.25    0.99500    -999.25   58.84950   58.84950    0.99500    1.02710    1.02710    -999.25    -999.25    -999.25    1.25060   -3.44490   -3.55500    1.25060 2096.83640
 3650.00000    -999.25    -999.25  331.32330    -999.25    -999.25    -999.25    -999.25    3.01820    -999.25   75.04870   75.04870    3.01820    3.21230    3.21230    -999.25    -999.25    -999.25    4.04290  -37.07430  -36.41540    4.04290 2099.99610
 3700.00000    -999.25    -999.25  355.10100    -999.25    -999.25    -999.25    -999.25    2.81610    -999.25   82.38040   82.38040    2.81610    2.96080    2.96080    -999.25    -999.25    -999.25    3.26490  -29.63830  -28.20130    3.26490 2148.41020
 3750.00000    -999.25    -999.25  807.62400    -999.25    -999.25    -999.25    -999.25    1.23820    -999.25   91.69280   91.69280    1.23820    1.27620    1.27620    -999.25    -999.25    -999.25    1.42190  -21.24740  -19.03230    1.42190 2132.74190
 3800.00000    -999.25    -999.25  761.26670    -999.25    -999.25    -999.25    -999.25    1.31360    -999.25   94.89260   94.89260    1.31360    1.35120    1.35120    -999.25    -999.25    -999.25    1.58040  -21.94010  -18.94680    1.58040 2145.42990
 3850.00000    -999.25    -999.25  816.12670    -999.25    -999.25    -999.25    -999.25    1.22530    -999.25   87.50860   87.50860    1.22530    1.25190    1.25190    -999.25    -999.25    -999.25    1.56520  -21.16010  -17.38870    1.56520 2137.85500
 3900.00000    -999.25    -999.25  693.09680    -999.25    -999.25    -999.25    -999.25    1.44280    -999.25   85.33080   85.33080    1.44280    1.47410    1.47410    -999.25    -999.25    -999.25    1.78860  -21.29020  -16.74060    1.78860 2136.74270
 3950.00000    -999.25    -999.25  661.37570    -999.25    -999.25    -999.25    -999.25    1.51200    -999.25   78.89870   78.89870    1.51200    1.54470    1.54470    -999.25    -999.25    -999.25    1.84430  -21.20340  -15.87570    1.84430 2214.27290
 4000.00000    -999.25    -999.25  785.60770    -999.25    -999.25    -999.25    -999.25    1.27290    -999.25   87.35820   87.35820    1.27290    1.30200    1.30200    -999.25    -999.25    -999.25    1.69100  -21.32140  -15.21550    1.69100 2151.31710
 4050.00000    -999.25    -999.25  756.60130    -999.25    -999.25    -999.25    -999.25    1.32170    -999.25   74.64360   74.64360    1.32170    1.35140    1.35140    -999.25    -999.25    -999.25    1.66300  -22.59590  -15.71190    1.66300 2213.34860
 4100.00000    -999.25    -999.25  832.43150    -999.25    -999.25    -999.25    -999.25    1.20130    -999.25   97.38760   97.38760    1.20130    1.22720    1.22720    -999.25    -999.25    -999.25    1.56610  -22.61110  -14.94900    1.56610 2222.90450
 4150.00000    -999.25    -999.25  919.45570    -999.25    -999.25    -999.25    -999.25    1.08760    -999.25   85.88590   85.88590    1.08760    1.11110    1.11110    -999.25    -999.25    -999.25    1.42260  -19.58510  -11.14480    1.42260 2223.42190
 4200.00000    -999.25    -999.25  871.30780    -999.25    -999.25    -999.25    -999.25    1.14770    -999.25   79.72090   79.72090    1.14770    1.17250    1.17250    -999.25    -999.25    -999.25    1.51610  -19.38760  -10.16920    1.51610 2222.90140
 4250.00000    -999.25    -999.25 1037.55970    -999.25    -999.25    -999.25    -999.25    0.96380    -999.25   82.66290   82.66290    0.96380    0.98560    0.98560    -999.25    -999.25    -999.25    1.22740  -18.53270   -8.53610    1.22740 2263.36840
 4300.00000    -999.25    -999.25  881.83420    -999.25    -999.25    -999.25    -999.25    1.13400    -999.25   84.13880   84.13880    1.13400    1.15850    1.15850    -999.25    -999.25    -999.25    1.54390  -21.24750  -10.47280    1.54390 2297.57130
 4350.00000    -999.25    -999.25  720.72070    -999.25    -999.25    -999.25    -999.25    1.38750    -999.25   86.15860   86.15860    1.38750    1.41880    1.41880    -999.25    -999.25    -999.25    1.84000  -20.47330   -8.92050    1.84000 2305.25760
 4400.00000    -999.25    -999.25  358.43580    -999.25    -999.25    -999.25    -999.25    2.78990    -999.25   57.17030   57.17030    2.78990    2.85020    2.85020    -999.25    -999.25    -999.25    3.54710  -22.44170  -10.11070    3.54710 2306.46750
 4450.00000    -999.25    -999.25  652.06050    -999.25    -999.25    -999.25    -999.25    1.53360    -999.25   87.41820   87.41820    1.53360    1.56720    1.56720    -999.25    -999.25    -999.25    1.85690  -22.00870   -8.89960    1.85690 2353.37260
 4500.00000    -999.25    -999.25  628.10120    -999.25    -999.25    -999.25    -999.25    1.59210    -999.25   66.20990   66.20990    1.59210    1.62730    1.62730    -999.25    -999.25    -999.25    2.12520  -20.93210   -7.04480    2.12520 2349.68090
 4550.00000    -999.25    -999.25  495.09850    -999.25    -999.25    -999.25    -999.25    2.01980    -999.25   63.91080   63.91080    2.01980    2.06390    2.06390    -999.25    -999.25    -999.25    2.83700  -21.02820   -6.36280    2.83700 2406.62520
 4600.00000    -999.25    -999.25  560.69530    -999.25    -999.25    -999.25    -999.25    1.78350    -999.25   62.31660   62.31660    1.78350    1.85960    1.85960    -999.25    -999.25    -999.25    2.25920  -20.78890   -5.34530    2.25920 2440.32690
 4650.00000    -999.25    -999.25  307.27630    -999.25    -999.25    -999.25    -999.25    3.25440    -999.25   26.64230   26.64230    3.25440    3.36720    3.36720    -999.25    -999.25    -999.25    5.30210  -31.48990  -15.26820    5.30210 2387.26930
