~Version ---------------------------------------------------
VERS. 2.0 : CWLS log ASCII Standard -VERSION 2.0
WRAP. YES : Multiple lines per depth step
~Well ------------------------------------------------------
STRT.FT                  300.0 : START DEPTH
STOP.FT                24000.0 : STOP DEPTH
STEP.FT               50.00000 : STEP LENGTH
NULL.                  -999.25 : NULL VALUE
COMP.       PLACID OIL COMPANY : COMPANY
WELL.                PEELER #1 : WELL
FLD .                  WILDCAT : FIELD
LOC .                          : LOCATION
CNTY.                MC MULLEN : COUNTY
STAT.                    TEXAS : STATE
CTRY. UNITED STATES OF AMERICA : COUNTRY
SRVC.             Schlumberger : SERVICE COMPANY
DATE.              01-Jan-1984 : LOGDATE
API .           42311317850000 : API NUMBER
UWI .           42311317850000 : UNIQUE WELL ID
SLAT.WGS84       28.5959255047 : SURFACE LATITUDE
SLON.WGS84      -98.4401225914 : SURFACE LONGITUDE
~Curve Information -----------------------------------------
DEPT  .FT    : 
CALDED.IN    : CALIPER FROM DENSITY LOG (ADJ TO RES.)
CALWS .IN    : CALIPER (CALDED)
CILDED.MMHO  : CONDUCTIVITY FROM LOG
CONDWS.MMHO  : CONDUCTIVITY (1000/DRESws)
DCORWS.G/C3  : DENSITY CORRECTION (DRHOED)
DENWS .G/C3  : BULK DENSITY  (FROM DPOws LS)
DPHIED.V/V   : DENSITY POROSITY  (ADJ TO RES.)
DPOWS .V/V   : DENSITY POROSITY (M=2.71 F=1 DPHIED)
DRESWS.OHMM  : DEEP RESISTIVITY (ILDED)
DRHOED.G/C3  : DENSITY CORRECTION (ADJ TO RES.)
DTED  .US/F  : DELTA TIME
DTWS  .US/F  : DELTA TIME  (DTED)
GRWS  .GAPI  : GAMMA RAY (GRRED)
GRRED .GAPI  : GAMMA RAY FROM RESISTIVITY LOG
ILDED .OHMM  : DEEP INDUCTION RESISTIVITY
ILMED .OHMM  : MEDIUM INDUCTION RESISTIVITY
MRESWS.OHMM  : MEDIUM RESISTIVITY (ILMED)
NPHIED.V/V   : NEUTRON POROSITY (ADJ TO RES.)
NPOWS .V/V   : NEUTRON POROSITY LIMESTONE (NPHIED)
RHOBED.G/C3  : BULK DENSITY (ADJ TO RES.)
SFLAED.OHMM  : SPHERICALLY FOCUSED RESISTIVITY
SPWS  .MV    : SPONTANEOUS POTENTIAL BASELINE 0 MV (SPRED)
SPRED .MV    : SPONTANEOUS POTENTIAL FROM RESISTIVITY
SRESWS.OHMM  : SHALLOW RESISTIVITY (SFLAED)
~Params ----------------------------------------------------
PD  .                     GL : PERMANENT DATUM
EPD .F                   336 : ELEVATION PERMANENT DATUM
LMF .                     KB : LOG MEASURED FROM
DMF .                     KB : DRILLING MEASURED FROM
EKB .F                   368 : KELLING BUSHING
EDF .F                   367 : DRILLING FLOOR
EGL .F                   336 : GROUND LEVEL
DATE.               1-1-1984 : RUN DATE
RUN .                      7 : RUN NUMBER
DD  .F                 24031 : DEPTH DRILLER
DL  .F                 24037 : DEPTH LOGGER
BLI .F                 24030 : BOTTOM LOG INTERVAL
TLI .F                 21000 : TOP LOG INTERVAL
CS  .IN                8.625 : CASING SIZE
CBD .F                 19500 : CASING BOTTOM DRILLER
CBL .F                 19500 : CASING BOTTOM LOGGER
BS  .IN                  7.5 : BIT SIZE
BSD .F                 24031 : BIT SIZE AT DEPTH
DFT .               INVERMUL : DRILLING FLUID TYPE
DFV .                     83 : DRILLING FLUID VISCOSITY
TCS .HRS                 800 : TIME CURCULATED STOPPED
TLAB.HRS                 200 : TIME LOGGER AT BOTTOM
LUL .               EDINBURG : LOGGING UNIT LOCATION
ENGI.              NEWMISTER : RECORDING ENGINEER
WITN.                   LONG : WITNESSED BY
CLNT.                A2DTECH : CLIENT CODE
ORIG.            1",5" PRINT : ORIGIN OF DATA
UWI .         42311317850000 : UNIQUE WELL ID
DICO. A2D Technologies, Inc. : DIGITIZING COMPANY
~Other -----------------------------------------------------
~ASCII -----------------------------------------------------
# ...
 11900.00000   14.89900   14.89900   34.20860    3.39320    0.05900    2.63220    0.04550    0.04550  294.70660    0.05900    -999.25    -999.25   15.62990   15.62990  294.70660    -999.25    -999.25    0.02400    0.02400    2.62500  299.74180 -107.84170 -128.60260  299.74180
 11950.00000   16.38700   16.38700    8.74490    7.53430    0.00800    2.49420    0.12620    0.12620  132.72700    0.00800    -999.25    -999.25   20.33440   20.33440  132.72700    -999.25    -999.25    0.06700    0.06700    2.41000 1505.94300 -109.44120 -129.76710 1505.94300
 12000.00000   16.45100   16.45100   17.22340   10.47080    0.02500    2.32730    0.22380    0.22380   95.50350    0.02500    -999.25    -999.25   20.83980   20.83980   95.50350    -999.25    -999.25    0.18000    0.18000    2.32300  434.10830 -109.30550 -129.19650  434.10830
 12050.00000   15.79400   15.79400    8.23050    1.01710    0.04800    2.68350    0.01550    0.01550  983.23060    0.04800    -999.25    -999.25   10.26470   10.26470  983.23060    -999.25    -999.25    0.00000    0.00000    2.62600 1492.96260 -111.94150 -131.39750 1492.96260
 12100.00000   18.26900   18.26900   11.31690    6.31840    0.02700    2.38560    0.18970    0.18970  158.26900    0.02700    -999.25    -999.25   13.86700   13.86700  158.26900    -999.25    -999.25    0.26700    0.26700    2.35300  297.02220  -97.31440 -116.33540  297.02220
 12150.00000   17.55700   17.55700    0.00040    0.50220    0.02600    2.72610   -0.00940   -0.00940 1991.42210    0.02600    -999.25    -999.25   16.87450   16.87450 1991.42210    -999.25    -999.25    0.07300    0.07300    2.73500 1201.93950 -101.32040 -119.90650 1201.93950
 12200.00000   16.89800   16.89800    0.00040    0.50000    0.07500    2.72930   -0.01130   -0.01130 1999.99960    0.07500    -999.25    -999.25   14.41160   14.41160    -999.25    -999.25    -999.25    0.14200    0.14200    2.73200  127.44190  -97.09750 -115.24860  127.44190
 12250.00000   14.79100   14.79100    0.00040    0.51560    0.03100    2.75220   -0.02470   -0.02470 1939.60610    0.03100    -999.25    -999.25   13.91890   13.91890    -999.25    -999.25    -999.25    0.01300    0.01300    2.75200  428.68190  -89.54840 -107.26460  428.68190
 12300.00000   14.02500   14.02500    0.00040    0.52400    0.04600    2.74560   -0.02080   -0.02080 1908.55530    0.04600    -999.25    -999.25   13.99690   13.99690    -999.25    -999.25    -999.25    0.00400    0.00400    2.74500  334.36700  -93.43830 -110.71950  334.36700
 12350.00000   13.66000   13.66000    0.00040    0.50000    0.03100    2.76590   -0.03270   -0.03270 1999.99960    0.03100    -999.25    -999.25   13.60810   13.60810    -999.25    -999.25    -999.25    0.00200    0.00200    2.76200  287.59690  -86.71740 -103.56370  287.59690
 12400.00000   14.17300   14.17300    0.00040    0.50000    0.00300    2.71940   -0.00550   -0.00550 1999.99960    0.00300    -999.25    -999.25   16.01870   16.01870    -999.25    -999.25    -999.25    0.00400    0.00400    2.71000  174.47030  -93.21280 -109.62410  174.47030
 12450.00000   13.68000   13.68000    0.00040    0.50000    0.02400    2.70950    0.00030    0.00030 1999.99960    0.02400    -999.25    -999.25   20.48950   20.48950    -999.25    -999.25    -999.25   -0.00500   -0.00500    2.70400  306.74440  -93.75970 -109.73600  306.74440
 12500.00000   14.45500   14.45500   17.23250   16.24280    0.04100    2.74660   -0.02140   -0.02140   61.56580    0.04100    -999.25    -999.25   15.31880   15.31880   61.56580    -999.25    -999.25   -0.00600   -0.00600    2.74700  112.24810 -117.77090 -133.31230  112.24810
 12550.00000   14.15900   14.15900   24.94860   25.32290    0.00700    2.71220   -0.00130   -0.00130   39.49000    0.00700    -999.25    -999.25   13.64700   13.64700   39.49000    -999.25    -999.25    0.00000    0.00000    2.71000   43.41140 -114.67370 -129.78010   43.41140
 12600.00000   15.59700   15.59700    6.96590    5.53900   -0.00100    2.72470   -0.00860   -0.00860  180.53850   -0.00100    -999.25    -999.25   17.41840   17.41840  180.53850    -999.25    -999.25   -0.00800   -0.00800    2.72400  158.85900  -99.17940 -113.85090  158.85900
 12650.00000   15.13900   15.13900    0.00040    0.52100    0.02800    2.73820   -0.01650   -0.01650 1919.45140    0.02800    -999.25    -999.25   14.30820   14.30820    -999.25    -999.25    -999.25   -0.00600   -0.00600    2.74100  116.17570  -81.25260  -95.48910  116.17570
 12700.00000   14.81600   14.81600    0.00040    0.52200    0.02200    2.74680   -0.02150   -0.02150 1915.57240    0.02200    -999.25    -999.25   12.57130   12.57130    -999.25    -999.25    -999.25   -0.00500   -0.00500    2.74800  158.49100  -74.81720  -88.61870  158.49100
 12750.00000   15.01900   15.01900    0.00040    0.51070    0.01200    2.70970    0.00020    0.00020 1957.97080    0.01200    -999.25    -999.25   13.54330   13.54330    -999.25    -999.25    -999.25   -0.00200   -0.00200    2.71000  162.01580  -77.23090  -90.59750  162.01580
 12800.00000   14.04400   14.04400    0.00040    0.50930    0.02500    2.69480    0.00890    0.00890 1963.41940    0.02500    -999.25    -999.25   14.71910   14.71910    -999.25    -999.25    -999.25   -0.00300   -0.00300    2.69800  115.83710  -68.62120  -81.55280  115.83710
 12850.00000   13.51300   13.51300    0.00040    0.50000    0.01500    2.73570   -0.01500   -0.01500 1999.99960    0.01500    -999.25    -999.25   11.89750   11.89750    -999.25    -999.25    -999.25    0.00600    0.00600    2.73900  154.32130  -61.75800  -74.25470  154.32130
 12900.00000   13.76000   13.76000    0.00040    1.82770    0.03100    2.78030   -0.04110   -0.04110  547.14070    0.03100    -999.25    -999.25   14.54190   14.54190  547.14070    -999.25    -999.25   -0.00200   -0.00200    2.78100   89.50990  -61.93420  -73.99590   89.50990
 12950.00000   13.46300   13.46300    2.64410    3.54520    0.01700    2.70180    0.00480    0.00480  282.07110    0.01700    -999.25    -999.25   26.40000   26.40000  282.07110    -999.25    -999.25   -0.00100   -0.00100    2.69900  112.98040  -51.60310  -63.22980  112.98040
 13000.00000   13.51900   13.51900    0.00040    0.50890    0.00600    2.74710   -0.02170   -0.02170 1965.02080    0.00600    -999.25    -999.25   26.14990   26.14990    -999.25    -999.25    -999.25   -0.00500   -0.00500    2.75700  763.99020  -41.49760  -52.68940  763.99020
 13050.00000   16.07700   16.07700  201.38770  159.75210    0.09700    2.63080    0.04630    0.04630    6.25970    0.09700    -999.25    -999.25   44.84540   44.84540    6.25970    -999.25    -999.25    0.18000    0.18000    2.61500    5.20900   -5.69180  -16.44860    5.20900
 13100.00000   13.72200   13.72200  354.13230  239.63000    0.02100    2.72250   -0.00730   -0.00730    4.17310    0.02100    -999.25    -999.25   32.94600   32.94600    4.17310    -999.25    -999.25    0.02400    0.02400    2.72500    4.96110   -6.28250  -16.60440    4.96110
 13150.00000   14.73800   14.73800  153.25150  140.65880    0.02100    2.66900    0.02400    0.02400    7.10940    0.02100    -999.25    -999.25   32.77760   32.77760    7.10940    -999.25    -999.25    0.08500    0.08500    2.66900    6.69750   -5.93880  -15.82550    6.69750
 13200.00000   16.12500   16.12500  110.42310  101.83400    0.06900    2.55950    0.08800    0.08800    9.81990    0.06900    -999.25    -999.25   43.87600   43.87600    9.81990    -999.25    -999.25    0.26200    0.26200    2.54500   11.16280   -7.30900  -16.76010   11.16280
 13250.00000   12.93000   12.93000   42.95670   53.40480    0.01200    2.61530    0.05540    0.05540   18.72490    0.01200    -999.25    -999.25   29.52270   29.52270   18.72490    -999.25    -999.25    0.07100    0.07100    2.61600   25.56590  -12.88490  -21.90030   25.56590
 13300.00000   12.84400   12.84400   11.22290    9.13950    0.01200    2.62770    0.04810    0.04810  109.41470    0.01200    -999.25    -999.25   29.13420   29.13420  109.41470    -999.25    -999.25    0.13300    0.13300    2.62600  109.76810  -20.79710  -29.37690  109.76810
