~Version ---------------------------------------------------
VERS. 2.0 : CWLS log ASCII Standard -VERSION 2.0
WRAP. YES : MULTIPLE LINES PER DEPTH STEP
~Well ------------------------------------------------------
STRT.FT                      300.0 : START DEPTH
STOP.FT                     7950.0 : STOP DEPTH
STEP.FT                   50.00000 : STEP LENGTH
NULL.                      -999.25 : NULL VALUE
COMP. AMOCO PRODUCTION COMPANY USA : COMPANY
WELL.              JOHN JARROTT #1 : WELL
FLD .                     WHEELOCK : FIELD
LOC .                              : LOCATION
CNTY.                    ROBERTSON : COUNTY
STAT.                        TEXAS : STATE
CTRY.     UNITED STATES OF AMERICA : COUNTRY
SRVC.                 Schlumberger : SERVICE COMPANY
DATE.                  12-Jan-1984 : LOGDATE
API .               42395302890000 : API NUMBER
UWI .               42395302890000 : UNIQUE WELL ID
SLAT.WGS84           30.9033199456 : SURFACE LATITUDE
SLON.WGS84          -96.3760313841 : SURFACE LONGITUDE
~Curve Information -----------------------------------------
DEPT    .FT    : DEPTH FEET
CALDED  .IN    : CALIPER FROM DENSITY LOG [DEP ADJ TO GRRED]
CALRED  .IN    : CALIPER FROM RESISTIVITY LOG
CALSED  .IN    : CALIPER FROM SONIC LOG [DEP ADJ TO GRRED]
CALWS   .IN    : CALIPER [97 CALDED 7738.5 CALSED]
CONDWS  .MMHO  : CONDUCTIVITY [1000/DRESWS]
DCORWS  .G/C3  : DENSITY CORRECTION [DRHOED]
DENWS   .G/C3  : BULK DENSITY [M=2.71 F=1.0] [RHOBED]
DPHILSED.V/V   : DENSITY POROSITY [M=2.71 F=1.0] FROM DENSITY LOG [DEP ADJ TO GRRED]
DPOWS   .V/V   : DENSITY POROSITY [M=2.71 F=1.0] [CAL FR DENWS]
DRESWS  .OHMM  : DEEP RESISTIVITY [ILDED]
DRHOED  .G/C3  : DENSITY CORRECTION FROM DENSITY LOG [DEP ADJ TO GRRED]
DTED    .US/F  : DELTA TIME FROM SONIC LOG [DEP ADJ TO GRRED]
DTWS    .US/F  : DELTA TIME [DTED]
GRDED   .GAPI  : GAMMA RAY FROM DENSITY LOG [DEP ADJ TO GRRED]
GRRED   .GAPI  : GAMMA RAY FROM RESISTIVITY LOG
GRSED   .GAPI  : GAMMA RAY FROM SONIC LOG [DEP ADJ TO GRRED]
GRWS    .GAPI  : GAMMA RAY [GRDED]
ILDED   .OHMM  : INDUCTION LOG DEEP RESISTIVITY
ILMED   .OHMM  : INDUCTION LOG MEDIUM RESISTIVITY
MRESWS  .OHMM  : MEDIUM RESISTIVITY [ILMED]
NPHILSED.V/V   : NEUTRON POROSITY LIMESTONE FROM DENSITY LOG [DEP ADJ TO GRRED]
NPOWS   .V/V   : NEUTRON POROSITY LIMESTONE [NPHILSED]
PEFED   .B/E   : PHOTOELECTRIC FACTOR FROM DENSITY LOG [DEP ADJ TO GRRED]
PEFWS   .B/E   : PHOTOELECTRIC FACTOR [PEFED]
RHOBED  .G/C3  : BULK DENSITY FROM DENSITY LOG  [DEP ADJ TO GRRED]
SFLUED  .OHMM  : SPHERICALLY FOCUSED LOG RESISTIVITY
SPHILSED.V/V   : SONIC POROSITY FROM SONIC LOG [DEP ADJ TO GRRED] [M=47.6 F=189]
SPOWS   .V/V   : SONIC POROSITY [CAL FR DTWS] [M=47.6 F=189]
SPRED   .MV    : SPONTANEOUS POTENTIAL FROM RESISTIVITY LOG [SHIFT IS REMOVED]
SPWS    .MV    : SPONTANEOUS POTENTIAL [BASELINE 0 MV] [SPRED]
SRESWS  .OHMM  : SHALLOW RESISTIVITY [SFLUED]
TENDED  .LBF   : TENSION FROM DENSITY LOG [DEP ADJ TO GRRED]
~Params ----------------------------------------------------
PD  .                     GL : PERMANENT DATUM
EPD .FT                404.8 : ELEVATION PERMANENT DATUM
LMF .                     KB : LOG MEASURED FROM
DAPD.FT                 16.6 : FEET ABOVE PERMANENT DATUM
DMF .                     KB : DRILLING MEASURED FROM
EKB .FT                421.4 : KELLY BUSHING
EDF .FT                420.4 : DRILLING FLOOR
EGL .FT                404.8 : GROUND LEVEL
DATE.               01/12/84 : RUN DATE
RUN .                      1 : RUN NUMBER
DD  .FT                 7050 : DEPTH DRILLER
DL  .FT                 7964 : DEPTH LOGGER
BLI .FT                 7958 : BOTTOM LOG INTERVAL
TLI .FT                 3102 : TOP LOG INTERVAL
CS  .IN                9.625 : CASING SIZE
CBD .FT                 3100 : CASING BOTTOM DRILLER
CBL .FT                 3102 : CASING BOTTOM LOGGER
BS  .IN                 8.75 : BIT SIZE
BSD .FT                 7050 : BIT SIZE AT DEPTH
DFT .                    LPH : DRILLING FLUID TYPE
DFD .                    9.6 : DRILLING FLUID DENSITY
DFV .                     38 : DRILLING FLUID VISCOSITY
DFPH.                    9.4 : DRILLING FLUID PH
DFL .                    8.6 : DRILLING FLUID LOSS
MSS .                   TANK : MUD SAMPLE SOURCE
RMS .OHMM               6.45 : RESISTIVITY MUD SAMPLE
MST .DEGF                 74 : MUD SAMPLE TEMPERATURE
RMF .OHMM               5.91 : RESISTIVITY MUD FILTRATE SAMPLE
MFST.DEGF                 74 : MUD FILTRATE SAMPLE TEMPERATURE
RMC .OHMM               7.02 : RESISTIVITY MUD CAKE
MCST.DEGF                 74 : MUD CAKE SAMPLE TEMPERATURE
MFSS.                   MEAS : MUD FILTRATE SAMPLE SOURCE
RMB .OHMM              2.625 : RESISTIVITY MUD AT BHT
TCS .HRS                1000 : TIME CIRCULATED STOPPED
TLAB.HRS                1800 : TIME LOGGER AT BOTTOM
LUN .                   8143 : LOGGING UNIT NUMBER
LUL .                  CARTH : LOGGING UNIT LOCATION
ENGI.             GRANT HIGH : RECORDING ENGINEER
WITN.       ARTIGAS NORVILLE : WITNESSED BY
CLNT.                A2DTECH : CLIENT CODE
ORIG.            2" 5" PRINT : ORIGIN OF DATA
UWI .         42395302890000 : UNIQUE WELL ID
DICO. A2D Technologies, Inc. : DIGITIZING COMPANY
~Other -----------------------------------------------------
~ASCII -----------------------------------------------------
# ...
 3600.00000   10.58290    8.89300    8.98470   10.58290  464.87840    0.02280    2.34760    0.21010    0.21190    2.15110    0.02280  108.21510  108.21510   80.63300   73.96300   75.60890   80.63300    2.15110    2.07920    2.07920    0.32260    0.32260    3.65320    3.65320    2.34760    1.88670    -999.25    0.42870  -23.10580   -3.15820    1.88670 2214.05760
 3650.00000    9.39440    8.59870    8.56040    9.39440  408.24660    0.03510    2.35240    0.20710    0.20910    2.44950    0.03510  105.68970  105.68970   80.25550   78.52120   71.05080   80.25550    2.44950    2.37790    2.37790    0.30410    0.30410    5.06830    5.06830    2.35240    2.10220    -999.25    0.41080  -43.30220  -22.23880    2.10220 2216.17770
 3700.00000    8.93070    8.35200    8.28460    8.93070  320.76980   -0.02560    2.20120    0.29080    0.29750    3.11750   -0.02560   96.54230   96.54230   70.54060   64.74400   69.18950   70.54060    3.11750    3.77790    3.77790    0.29690    0.29690    3.41760    3.41760    2.20120    6.91230    -999.25    0.34610  -76.00910  -53.82990    6.91230 2212.49900
 3750.00000   10.79330    9.60650    9.22440   10.79330  398.34290    0.04740    2.33830    0.21580    0.21740    2.51040    0.04740  103.86690  103.86690   74.39510   75.06760   74.89780   74.39510    2.51040    2.43860    2.43860    0.29830    0.29830    2.89880    2.89880    2.33830    2.07690    -999.25    0.39790  -35.90810  -12.61320    2.07690 2262.92290
 3800.00000   10.48350    9.44690    9.42670   10.48350  463.80040    0.03280    2.33370    0.21880    0.22010    2.15610    0.03280  104.28940  104.28940   86.70710   79.73940   81.76180   86.70710    2.15610    2.09260    2.09260    0.30900    0.30900    2.74620    2.74620    2.33370    1.76730    -999.25    0.40090  -35.18280  -10.77210    1.76730 2268.00490
 3850.00000    9.51540    9.38270    9.33740    9.51540  375.58690    0.05750    2.33930    0.21370    0.21680    2.66250    0.05750  102.27580  102.27580   80.69320   80.35670   75.75530   80.69320    2.66250    2.56820    2.56820    0.28620    0.28620    3.12160    3.12160    2.33930    2.01970    -999.25    0.38670  -36.79150  -11.26510    2.01970 2317.51560
 3900.00000   10.42440    9.87370   10.05410   10.42440  534.15950    0.01330    2.36960    0.19760    0.19910    1.87210    0.01330  107.04740  107.04740   84.13180   77.63080   83.35140   84.13180    1.87210    1.81920    1.81920    0.34080    0.34080    2.64580    2.64580    2.36960    1.50620    -999.25    0.42040  -35.29100   -8.64880    1.50620 2301.68950
 3950.00000   11.49330    9.19520    9.44490   11.49330  577.76750    0.03720    2.39950    0.17830    0.18160    1.73080    0.03720  109.76070  109.76070   82.03360   80.74380   88.10830   82.03360    1.73080    1.66160    1.66160    0.33150    0.33150    2.69690    2.69690    2.39950    1.40810    -999.25    0.43960  -35.31450   -7.55660    1.40810 2305.25290
 4000.00000   13.03090    9.32830    9.55840   13.03090  596.12520    0.05730    2.42630    0.16970    0.16590    1.67750    0.05730   92.16400   92.16400   80.16440   76.27160   82.55250   80.16440    1.67750    1.62850    1.62850    0.32790    0.32790    3.57820    3.57820    2.42630    1.37990    -999.25    0.31520  -39.96760  -11.09390    1.37990 2322.03520
 4050.00000   12.80160   10.02030   10.13700   12.80160  604.92410    0.00150    2.41810    0.16710    0.17070    1.65310    0.00150  110.25290  110.25290  104.56660   90.01060   89.95150  104.56660    1.65310    1.60170    1.60170    0.32780    0.32780    2.88790    2.88790    2.41810    1.42380    -999.25    0.44310  -33.61970   -3.63030    1.42380 2349.43160
 4100.00000   10.93180    9.52460    9.69640   10.93180  418.11260    0.06340    2.46670    0.14170    0.14230    2.39170    0.06340  101.58460  101.58460  108.08640   96.11310   99.38500  108.08640    2.39170    2.32240    2.32240    0.27830    0.27830    3.19300    3.19300    2.46670    2.02710    -999.25    0.38180  -35.57200   -4.56010    2.02710 2372.24320
 4150.00000   12.19310    9.61750    9.95830   12.19310  500.10000    0.00830    2.43670    0.15620    0.15980    1.99960    0.00830  104.06460  104.06460   99.59290   89.85940   94.26100   99.59290    1.99960    1.94330    1.94330    0.28890    0.28890    2.97300    2.97300    2.43670    1.63660    -999.25    0.39930  -33.29920   -2.72640    1.63660 2394.31450
 4200.00000    9.54510    9.07720    9.15130    9.54510  324.87570   -0.01380    2.37970    0.19120    0.19320    3.07810   -0.01380   94.13290   94.13290   69.64120   66.32070   64.37700   69.64120    3.07810    2.95780    2.95780    0.22260    0.22260    2.66270    2.66270    2.37970    2.34810    -999.25    0.32910  -37.90260   -7.76890    2.34810 2426.60740
 4250.00000    9.36170    9.18350    9.14610    9.36170  570.87400    0.05660    2.33910    0.21510    0.21690    1.75170    0.05660   99.68850   99.68850   78.05010   70.39860   71.47090   78.05010    1.75170    1.69990    1.69990    0.27830    0.27830    2.82150    2.82150    2.33910    1.38650    -999.25    0.36840  -32.34910   -2.65450    1.38650 2429.50390
 4300.00000    9.55810    9.57040    9.65580    9.55810  939.05530    0.02570    2.29090    0.24370    0.24510    1.06490    0.02570  111.85200  111.85200   75.18960   69.32000   75.98610   75.18960    1.06490    1.03450    1.03450    0.31890    0.31890    2.55750    2.55750    2.29090    0.87740    -999.25    0.45440  -30.74650   -1.49100    0.87740 2428.56050
 4350.00000   10.35170    9.77660    9.80160   10.35170  918.44240    0.00800    2.32150    0.22510    0.22720    1.08880    0.00800  111.84990  111.84990   87.71420   72.03410   76.66320   87.71420    1.08880    1.05690    1.05690    0.31150    0.31150    2.54390    2.54390    2.32150    0.89800    -999.25    0.45440  -30.40750   -1.59110    0.89800 2443.58010
 4400.00000   10.36030    9.55030    9.70080   10.36030  588.20070   -0.00100    2.39010    0.18560    0.18710    1.70010   -0.00100   98.50050   98.50050   68.10450   66.17330   69.55870   68.10450    1.70010    1.64810    1.64810    0.25280    0.25280    2.65910    2.65910    2.39010    1.36150    -999.25    0.36000  -33.14990   -4.72330    1.36150 2469.40430
 4450.00000   10.83410    9.52760    9.63040   10.83410 1060.22060   -0.00500    2.29560    0.23870    0.24230    0.94320   -0.00500  116.69690  116.69690   86.33190   79.25750   79.66180   86.33190    0.94320    0.91650    0.91650    0.32510    0.32510    2.77300    2.77300    2.29560    0.78310    -999.25    0.48870  -30.10120   -2.00640    0.78310 2476.15530
 4500.00000   10.30890    9.29260    9.37700   10.30890  899.28060    0.01640    2.34780    0.21000    0.21180    1.11200    0.01640  110.99140  110.99140   84.96790   84.98240   79.17010   84.96790    1.11200    1.07930    1.07930    0.30480    0.30480    2.56450    2.56450    2.34780    0.89060    -999.25    0.44830  -30.31070   -2.54760    0.89060 2493.24320
 4550.00000    9.73640    9.38640    9.53440    9.73640  476.66720    0.01420    2.37950    0.19110    0.19330    2.09790    0.01420  104.63220  104.63220   68.91910   65.19080   67.60660   68.91910    2.09790    1.97410    1.97410    0.24930    0.24930    3.28850    3.28850    2.37950    1.93440    -999.25    0.40330  -37.55440  -10.12310    1.93440 2528.64550
 4600.00000    9.48120    9.14170    8.82920    9.48120  792.58140    0.01510    2.33390    0.21780    0.21990    1.26170    0.01510  115.43050  115.43050   83.52070   77.08230   81.18910   83.52070    1.26170    1.22550    1.22550    0.33560    0.33560    3.15630    3.15630    2.33390    1.07610    -999.25    0.47970  -33.27390   -6.17440    1.07610 2522.48730
 4650.00000    9.57230    9.38130    9.42710    9.57230  701.40990    0.02290    2.34700    0.21090    0.21230    1.42570    0.02290  111.27880  111.27880   83.87120   70.97240   78.18780   83.87120    1.42570    1.38140    1.38140    0.34090    0.34090    3.06630    3.06630    2.34700    1.17130    -999.25    0.45030  -31.67370   -4.90590    1.17130 2526.18360
