~Version ---------------------------------------------------
VERS. 2.0 : CWLS log ASCII Standard -VERSION 2.0
WRAP. YES : Multiple lines per depth step
~Well ------------------------------------------------------
STRT.ft                   3900.0 : START DEPTH
STOP.ft                   8100.0 : STOP DEPTH
STEP.ft                 50.00000 : STEP LENGTH
NULL.                    -999.25 : NULL VALUE
COMP. CHAMPLIN PETROLEUM COMPANY : COMPANY
WELL.   HENRY J. KUCHERA UNIT #1 : WELL
FLD .                   GIDDINGS : FIELD
LOC .                            : LOCATION
CNTY.                   BURLESON : COUNTY
STAT.                      TEXAS : STATE
CTRY.   UNITED STATES OF AMERICA : COUNTRY
SRVC.               Schlumberger : SERVICE COMPANY
DATE.                27-Aug-1980 : LOGDATE
API .             42051309040000 : API NUMBER
UWI .             42051309040000 : UNIQUE WELL ID
SLAT.WGS84         30.4711564964 : SURFACE LATITUDE
SLON.WGS84        -96.6819221784 : SURFACE LONGITUDE
~Curve Information -----------------------------------------
DEPT    .ft    : Depth Curve
CALWS   .IN    : CALIPER [DCALED + BITS]
CONDWS  .MMHO  : CONDUCIVITY [1000/DRESWS]
DCALED  .IN    : DIFFERENTIAL CALIPER FROM DIL-SFL-CNFD LOG
DCORWS  .G/C3  : DENSITY CORRECTION [DRHOED]
DENWS   .G/C3  : FORMATION BULK DENSITY [CALCULATED FROM DPOWS, M=2.71 F=1]
DPHILSED.V/V   : DENSITY POROSITY LIMESTONE [M=2.71 F=1.0] FROM DIL-SFL-CNFD LOG
DPHISSED.V/V   : DENSITY POROSITY SANDSTONE [M=2.65 F=1.0] FROM DIL-SFL-CNFD LOG
DPOWS   .V/V   : DENSITY POROSITY LIMESTONE  [DPHISSED  CONVERTED TO LIMESTONE MATRIX M=2.71 F=1.0 & SPL. TO DPHILSED @ 6290']
DRESWS  .OHMM  : DEEP RESISTIVITY [ILDED]
DRHOED  .G/C3  : BULK DENSITY CORRECTION FROM DIL-SFL-CNFD LOG
GRRED   .GAPI  : GAMMA RAY FROM DIL-SFL-CNFD LOG
GRWS    .GAPI  : GAMMA RAY [GRRED] CSG < 3904'
ILDED   .OHMM  : DEEP INDUCTION FROM DIL-SFL-CNFD LOG
ILMED   .OHMM  : MEDIUM INDUCTION FROM DIL-SFL-CNFD LOG
MRESWS  .OHMM  : MEDIUM RESISTIVITY [ILMED]
NPHILSED.V/V   : NEUTRON POROSITY LIMESTONE FROM DIL-SFL-CNFD LOG
NPHISSED.V/V   : NEUTRON POROSITY SANDSTONE FROM DIL-SFL-CNFD LOG
NPOWS   .V/V   : NEUTRON POROSITY LIMESTONE [NPHISSED MATRIX CONVERSION FOR LIMESTONE & SPL. TO NPHILSED @ 6290']
SFLUED  .OHMM  : SHALLOW FOCUSED RESISTIVITY FROM DIL-SFL-CNFD LOG
SPRED   .MV    : SPONTANEOUS POTENTIAL FROM DIL-SFL-CNFD LOG
SPWS    .MV    : SPONTANEOUS POTENTIAL [BASELINE 0MV, SPRED]
SRESWS  .OHMM  : SHALLOW RESISTIVITY [SFLUED]
~Params ----------------------------------------------------
PD  .                     GL : PERMANENT DATUM
EPD .FT                  316 : ELEVATION PERMANENT DATUM
LMF .                     KB : LOG MEASURED FROM
DAPD.FT                   14 : FEET ABOVE PERMANENT DATUM
DMF .                     KB : DRILLING MEASURED FROM
EKB .FT                  330 : KELLY BUSHING
EDF .FT                  329 : DRILLING FLOOR
EGL .FT                  316 : GROUND LEVEL
DATE.               08/27/80 : RUN DATE
RUN .                      1 : RUN NUMBER
DD  .FT                 8135 : DEPTH DRILLER
DL  .FT                 8132 : DEPTH LOGGER
BLI .FT                 8126 : BOTTOM LOG INTERVAL
TLI .FT                 3904 : TOP LOG INTERVAL
CS  .IN                9.625 : CASING SIZE
CBD .FT                 3910 : CASING BOTTOM DRILLER
CBL .FT                 3904 : CASING BOTTOM LOGGER
BS  .IN                 8.75 : BIT SIZE
BSD .FT                 8135 : BIT SIZE AT DEPTH
DFT .                 BEN EX : DRILLING FLUID TYPE
DFD .                    9.8 : DRILLING FLUID DENSITY
DFV .                     50 : DRILLING FLUID VISCOSITY
DFPH.                    9.5 : DRILLING FLUID PH
DFL .                      6 : DRILLING FLUID LOSS
MSS .                   TANK : MUD SAMPLE SOURCE
RMS .OHMM               1.72 : RESISTIVITY MUD SAMPLE
MST .DEGF                 98 : MUD SAMPLE TEMPERATURE
RMF .OHMM               1.31 : RESISTIVITY MUD FILTRATE SAMPLE
MFST.DEGF                 98 : MUD FILTRATE SAMPLE TEMPERATURE
RMC .OHMM               2.62 : RESISTIVITY MUD CAKE
MCST.DEGF                 98 : MUD CAKE SAMPLE TEMPERATURE
MFSS.                      M : MUD FILTRATE SAMPLE SOURCE
MCSS.                      C : MUD CAKE SAMPLE SOURCE
RMB .OHMM               0.86 : RESISTIVITY MUD AT BHT
TCS .HRS                1500 : TIME CIRCULATED STOPPED
TLAB.HRS                2130 : TIME LOGGER AT BOTTOM
LUL .                BRENHAM : LOGGING UNIT LOCATION
ENGI.               GILLLAND : RECORDING ENGINEER
WITN.                  DRAKE : WITNESSED BY
CLNT.                A2DTECH : CLIENT CODE
ORIG.            2" 5" PRINT : ORIGIN OF DATA
UWI .         42051309040000 : UNIQUE WELL ID
DICO. A2D Technologies, Inc. : DIGITIZING COMPANY
~Other -----------------------------------------------------
~ASCII -----------------------------------------------------
# ...
 5500.00000    9.78220  597.30020    1.03220    0.10160    2.32530    -999.25    0.19680    0.22500    1.67420    0.10160   70.66690   70.66690    1.67420    1.74110    1.74110    -999.25    0.29390    0.24990    1.85750  -19.62020   -6.57840    1.85750
 5550.00000   10.79770  916.67430    2.04770    0.10270    2.27090    -999.25    0.22980    0.25680    1.09090    0.10270  108.40540  108.40540    1.09090    1.16970    1.16970    -999.25    0.33520    0.29140    1.16310  -16.80300   -3.96250    1.16310
 5600.00000    9.45870  553.55660    0.70870    0.01420    2.42750    -999.25    0.13480    0.16520    1.80650    0.01420   81.71420   81.71420    1.80650    1.84300    1.84300    -999.25    0.27360    0.22960    1.94540  -21.31390   -8.67460    1.94540
 5650.00000   10.66620  666.57780    1.91620    0.09990    2.33070    -999.25    0.19350    0.22180    1.50020    0.09990  112.99900  112.99900    1.50020    1.55910    1.55910    -999.25    0.29900    0.25500    1.64290  -15.94610   -3.50810    1.64290
 5700.00000   11.91480  762.83470    3.16480    0.05880    2.30760    -999.25    0.20750    0.23530    1.31090    0.05880  103.23320  103.23320    1.31090    1.36120    1.36120    -999.25    0.40240    0.35960    1.40410  -19.17690   -6.94010    1.40410
 5750.00000   11.54270  862.81280    2.79270    0.06720    2.24040    -999.25    0.24820    0.27460    1.15900    0.06720  134.07820  134.07820    1.15900    1.19970    1.19970    -999.25    0.44730    0.40550    1.14550  -15.73230   -3.69680    1.14550
 5800.00000   11.04820  703.23490    2.29820    0.10040    2.31290    -999.25    0.20430    0.23220    1.42200    0.10040   97.05000   97.05000    1.42200    1.50120    1.50120    -999.25    0.36100    0.31750    1.59190  -17.03580   -5.20150    1.59190
 5850.00000   12.59060  907.52340    3.84060    0.05540    2.25720    -999.25    0.23810    0.26480    1.10190    0.05540   98.75150   98.75150    1.10190    1.12230    1.12230    -999.25    0.40330    0.36050    1.15890  -17.07270   -5.43970    1.15890
 5900.00000   12.74270  908.18270    3.99270    0.09120    2.28680    -999.25    0.22010    0.24750    1.10110    0.09120  103.85570  103.85570    1.10110    1.13510    1.13510    -999.25    0.42970    0.38750    1.17820  -15.41840   -3.98670    1.17820
 5950.00000   10.74140  519.61550    1.99140    0.03880    2.48460    -999.25    0.10020    0.13180    1.92450    0.03880   96.79040   96.79040    1.92450    1.99480    1.99480    -999.25    0.26070    0.21670    2.14310  -15.92350   -4.63730    2.14310
 6000.00000   10.69370  533.39020    1.94370    0.10070    2.51200    -999.25    0.08360    0.11580    1.87480    0.10070   96.92830   96.92830    1.87480    1.92470    1.92470    -999.25    0.26260    0.21860    2.05470  -15.34830   -4.19450    2.05470
 6050.00000   11.04250  557.72450    2.29250    0.04740    2.47250    -999.25    0.10760    0.13890    1.79300    0.04740  106.28750  106.28750    1.79300    1.86290    1.86290    -999.25    0.28870    0.24470    1.95290  -15.11590   -4.09460    1.95290
 6100.00000   10.71110  534.15950    1.96110    0.05260    2.51400    -999.25    0.08240    0.11460    1.87210    0.05260  103.66520  103.66520    1.87210    1.94230    1.94230    -999.25    0.25570    0.21180    2.19680  -14.20330   -3.31440    2.19680
 6150.00000   10.20500  571.78800    1.45500    0.05060    2.50170    -999.25    0.08990    0.12180    1.74890    0.05060   88.52850   88.52850    1.74890    1.86690    1.86690    -999.25    0.28820    0.24420    2.07880  -13.33670   -2.58020    2.07880
 6200.00000   12.11410  661.98860    3.36410    0.06030    2.42750    -999.25    0.13480    0.16520    1.51060    0.06030  102.32080  102.32080    1.51060    1.59330    1.59330    -999.25    0.31850    0.27460    1.69960  -15.05830   -4.43430    1.69960
 6250.00000   12.98830  715.92210    4.23830    0.09010    2.45830    -999.25    0.11620    0.14720    1.39680    0.09010   93.20210   93.20210    1.39680    1.45980    1.45980    -999.25    0.32010    0.27620    1.59480  -15.40290   -4.91130    1.59480
 6300.00000   12.10200  658.15450    3.35200    0.07800    2.50670    0.11890    -999.25    0.11890    1.51940    0.07800   92.27700   92.27700    1.51940    1.59470    1.59470    0.26520    -999.25    0.26520    1.81710  -13.69770   -3.33860    1.81710
 6350.00000   10.38530  597.51430    1.63530    0.08870    2.52380    0.10890    -999.25    0.10890    1.67360    0.08870  101.05530  101.05530    1.67360    1.76050    1.76050    0.23390    -999.25    0.23390    2.05130  -15.66090   -5.43420    2.05130
 6400.00000    9.63930  257.30750    0.88930   -0.01850    2.58740    0.07170    -999.25    0.07170    3.88640   -0.01850   47.64670   47.64670    3.88640    4.11600    4.11600    0.10900    -999.25    0.10900    4.38700  -18.20620   -8.11190    4.38700
 6450.00000    9.65060  236.36750    0.90060   -0.00420    2.60260    0.06280    -999.25    0.06280    4.23070   -0.00420   55.02630   55.02630    4.23070    4.44480    4.44480    0.10070    -999.25    0.10070    4.78090  -18.44380   -8.48200    4.78090
 6500.00000    9.26820  199.00500    0.51820   -0.00850    2.59540    0.06700    -999.25    0.06700    5.02500   -0.00850   38.81730   38.81730    5.02500    5.41170    5.41170    0.07790    -999.25    0.07790    7.20270  -26.12840  -16.29900    7.20270
 6550.00000    9.27730  336.29270    0.52730   -0.00360    2.57990    0.07610    -999.25    0.07610    2.97360   -0.00360   66.29290   66.29290    2.97360    3.16630    3.16630    0.15610    -999.25    0.15610    3.89040  -12.48290   -2.78600    3.89040
 6600.00000    9.67200  563.38030    0.92200    0.06240    2.53460    0.10260    -999.25    0.10260    1.77500    0.06240  101.73160  101.73160    1.77500    1.90930    1.90930    0.22710    -999.25    0.22710    2.07550  -15.13910   -5.57460    2.07550
 6650.00000    9.29440  368.74520    0.54440   -0.00180    2.52340    0.10910    -999.25    0.10910    2.71190   -0.00180  103.63820  103.63820    2.71190    2.76360    2.76360    0.18040    -999.25    0.18040    2.65370  -13.98180   -4.54970    2.65370
 6700.00000    9.33680  376.15200    0.58680   -0.00700    2.54380    0.09720    -999.25    0.09720    2.65850   -0.00700  102.89800  102.89800    2.65850    2.78650    2.78650    0.17360    -999.25    0.17360    3.02570  -11.87650   -2.57690    3.02570
 6750.00000    9.29860  407.29880    0.54860    0.00200    2.57250    0.08040    -999.25    0.08040    2.45520    0.00200   93.19200   93.19200    2.45520    2.64400    2.64400    0.18690    -999.25    0.18690    3.07320  -11.01810   -1.85090    3.07320
 6800.00000    9.27890  396.66800    0.52890   -0.00120    2.57350    0.07980    -999.25    0.07980    2.52100   -0.00120   89.89220   89.89220    2.52100    2.65820    2.65820    0.19220    -999.25    0.19220    3.08560  -10.35200   -1.31730    3.08560
 6850.00000    9.52030  494.90250    0.77030    0.08570    2.53630    0.10160    -999.25    0.10160    2.02060    0.08570   91.43330   91.43330    2.02060    2.17980    2.17980    0.21210    -999.25    0.21210    2.66340  -11.03890   -2.13660    2.66340
 6900.00000   10.14070  602.40960    1.39070    0.04420    2.50740    0.11850    -999.25    0.11850    1.66000    0.04420  101.33940  101.33940    1.66000    1.79180    1.79180    0.24710    -999.25    0.24710    2.05910  -11.05850   -2.28860    2.05910
 6950.00000   10.21130  628.65410    1.46130    0.09500    2.53200    0.10410    -999.25    0.10410    1.59070    0.09500  108.61540  108.61540    1.59070    1.72160    1.72160    0.25260    -999.25    0.25260    1.97360  -14.12490   -5.48750    1.97360
 7000.00000    9.95340  589.79650    1.20340    0.06780    2.53690    0.10120    -999.25    0.10120    1.69550    0.06780  100.45300  100.45300    1.69550    1.82350    1.82350    0.25420    -999.25    0.25420    2.20520  -13.68620   -5.18120    2.20520
 7050.00000   10.53130  653.38120    1.78130    0.10050    2.50670    0.11890    -999.25    0.11890    1.53050    0.10050  102.42460  102.42460    1.53050    1.64610    1.64610    0.27240    -999.25    0.27240    1.96430  -15.16210   -6.78960    1.96430
