~Version ---------------------------------------------------
VERS. 2.0 : CWLS log ASCII Standard -VERSION 2.0
WRAP. YES : Multiple lines per depth step
~Well ------------------------------------------------------
STRT.FT                        650.0 : START DEPTH
STOP.FT                       7250.0 : STOP DEPTH
STEP.FT                     50.00000 : STEP LENGTH
NULL.                        -999.25 : NULL VALUE
COMP.      MACHII ROSS PETROLEUM CO. : COMPANY
WELL. WINN EXPLORATION HARPER NBC #1 : WELL
FLD .                             WC : FIELD
LOC .                                : LOCATION
CNTY.                       MAVERICK : COUNTY
STAT.                          TEXAS : STATE
CTRY.       UNITED STATES OF AMERICA : COUNTRY
SRVC.                   Schlumberger : SERVICE COMPANY
DATE.                    24-Sep-1978 : LOGDATE
API .                 42323312660000 : API NUMBER
UWI .                 42323312660000 : UNIQUE WELL ID
SLAT.WGS84             28.7830719209 : SURFACE LATITUDE
SLON.WGS84           -100.5041551949 : SURFACE LONGITUDE
~Curve Information -----------------------------------------
DEPT  .FT    : DEPTH
CALDED.IN    : CALIPER FROM DENSITY LOG (ADJ TO RES.)
CALSED.IN    : CALIPER FROM SONIC LOG (ADJ TO RES.)
CALWS .IN    : CALIPER (CALDED)
CONDWS.MMHO  : CONDUCTIVITY (1000/DRESWS)
DCORWS.G/C3  : DENSITY CORRECTION (DRHOED)
DENWS .G/C3  : BULK DENSITY  (FROM DPOWS ASSUMED LS)
DPHIED.V/V   : DENSITY POROSITY  (ADJ TO RES.)
DPOWS .V/V   : DENSITY POROSITY (M=2.71 F=1 DPHIED)
DRESWS.OHMM  : DEEP RESISTIVITY (ILDED)
DRHOED.G/C3  : DENSITY CORRECTION (ADJ TO RES.)
DTED  .US/F  : DELTA TIME
DTWS  .US/F  : DELTA TIME  (DTED)
GRRED .GAPI  : GAMMA RAY FROM RESISTIVITY LOG
GRSED .GAPI  : GAMMA RAY FROM SONIC LOG (ADJ TO RES.)
GRWS  .GAPI  : GAMMA RAY (GRSED)
ILDED .OHMM  : DEEP INDUCTION RESISTIVITY
ILMED .OHMM  : MEDIUM INDUCTION RESISTIVITY
LL8ED .OHMM  : LATEROLOG-8 RESISTIVITY
MRESWS.OHMM  : MEDIUM RESISTIVITY (ILMED)
NPHIED.V/V   : NEUTRON POROSITY (ADJ TO RES.)
NPOWS .V/V   : NEUTRON POROSITY ASSUMED LIMESTONE (NPHIED)
RHOBED.G/C3  : BULK DENSITY (ADJ TO RES.)
SPRED .MV    : SPONTANEOUS POTENTIAL FROM RESISTIVITY
SPWS  .MV    : SPONTANEOUS POTENTIAL BASELINE 0 MV (SPRED) (INVALID TOP-6222)
SRESWS.OHMM  : SHALLOW RESISTIVITY (LL8ED)
~Params ----------------------------------------------------
PD  .                     GL : PERMANENT DATUM
EPD .FT                  790 : ELEVATION PERMANENT DATUM
LMF .                     KB : LOG MEASURED FROM
DMF .                     KB : DRILLING MEASURED FROM
EGL .FT                  790 : GROUND LEVEL
DATE.              9-24-1978 : RUN DATE
RUN .                      2 : RUN NUMBER
DD  .FT                 7270 : DEPTH DRILLER
DL  .FT                 7271 : DEPTH LOGGER
BLI .FT                 7265 : BOTTOM LOG INTERVAL
TLI .FT                 6232 : TOP LOG INTERVAL
CS  .IN                8.625 : CASING SIZE
CBD .FT                 6231 : CASING BOTTOM DRILLER
CBL .FT                 6232 : CASING BOTTOM LOGGER
BS  .IN                7.875 : BIT SIZE
BSD .FT                 7270 : BIT SIZE AT DEPTH
DFT .              LIGNOSULF : DRILLING FLUID TYPE
DFD .                   14.4 : DRILLING FLUID DENSITY
DFV .                     51 : DRILLING FLUID VISCOSITY
DFPH.                     10 : DRILLING FLUID PH
DFL .                    8.2 : DRILLING FLUID LOSS
MSS .             CIRC. TANK : MUD SAMPLE SOURCE
RMS .OHMM               1.94 : RESISTIVITY MUD SAMPLE
MST .DEGF                 82 : MUD SAMPLE TEMPERATURE
RMF .OHMM               1.45 : RESISTIVITY MUD FILTRATE SAMPLE
MFST.DEGF                 82 : MUD FILTRATE SAMPLE TEMPERATURE
RMC .OHMM               2.91 : RESISTIVITY MUD CAKE
MCST.DEGF                 82 : MUD CAKE SAMPLE TEMPERATURE
MFSS.                   MEAS : MUD FILTRATE SAMPLE SOURCE
MCSS.                   CALC : MUD CAKE SAMPLE SOURCE
RMB .OHMM              0.855 : RESISTIVITY MUD AT BHT
TCS .HRS                 600 : TIME CIRCULATED STOPPED
TLAB.HRS                1300 : TIME LOGGER AT BOTTOM
LUL .                 LAREDO : LOGGING UNIT LOCATION
ENGI.                RENFROW : RECORDING ENGINEER
WITN.                 WALKER : WITNESSED BY
CLNT.                A2DTECH : CLIENT CODE
ORIG.          1" 2.5" PRINT : ORIGIN OF DATA
UWI .         42323312660000 : UNIQUE WELL ID
DICO. A2D Technologies, Inc. : DIGITIZING COMPANY
~Other -----------------------------------------------------
~ASCII -----------------------------------------------------
# ...
 6250.00000    8.58630    9.09680    8.58630   17.29390   -0.04450    2.44730    0.15360    0.15360   57.82400   -0.04450   54.75930   54.75930   41.23850   41.23850   41.23850   57.82400   58.64900   72.05080   58.64900    0.01480    0.01480    2.43420  -62.12070  -12.57070   72.05080
 6300.00000    8.64580    9.17110    8.64580   62.34180    0.00290    2.74690   -0.02160   -0.02160   16.04060    0.00290   61.38600   61.38600   45.54420   45.54420   45.54420   16.04060   18.92640   23.28020   18.92640    0.09400    0.09400    2.73770  -65.45410  -12.65220   23.28020
 6350.00000   10.69930    8.17060   10.69930   18.78540   -0.00890    2.38920    0.18760    0.18760   53.23280   -0.00890   52.95210   52.95210   32.62860   32.62860   32.62860   53.23280  259.89480  250.30900  259.89480    0.00140    0.00140    2.29520 -111.81820  -50.21460  250.30900
 6400.00000    7.92380    8.28960    7.92380   13.18610    0.00290    2.49420    0.12620    0.12620   75.83720    0.00290   49.93980   49.93980   22.43240   22.43240   22.43240   75.83720   97.64560   46.43310   97.64560    0.00330    0.00330    2.48460  -94.13840  -28.53380   46.43310
 6450.00000    8.20090    7.94760    8.20090    6.10650    0.00510    2.71410   -0.00240   -0.00240  163.76020    0.00510   50.24100   50.24100   31.04230   31.04230   31.04230  163.76020  153.94050  542.36800  153.94050    0.01710    0.01710    2.71600  -63.63540   -4.71530  542.36800
 6500.00000    7.98810    9.31510    7.98810    9.96250    0.04580    2.61770    0.05400    0.05400  100.37690    0.04580   53.50680   53.50680   39.80790   39.80790   39.80790  100.37690  409.65370  569.43350  409.65370    0.00320    0.00320    2.61510  -76.36360  -18.64900  569.43350
 6550.00000    8.55370    8.43970    8.55370   12.63640    0.03540    2.70130    0.00510    0.00510   79.13660    0.03540   51.59520   51.59520   26.96370   26.96370   26.96370   79.13660   81.62580  104.15930   81.62580    0.02770    0.02770    2.71900  -69.09040  -12.29290  104.15930
 6600.00000    8.43750    9.47580    8.43750   26.51680    0.03100    2.73020   -0.01180   -0.01180   37.71200    0.03100   57.46990   57.46990   46.90330   46.90330   46.90330   37.71200   49.00630   64.68080   49.00630    0.04850    0.04850    2.73610  -72.30550  -16.42500   64.68080
 6650.00000    8.37810    8.93860    8.37810   16.36590    0.00620    2.65340    0.03310    0.03310   61.10260    0.00620   52.49980   52.49980   44.41110   44.41110   44.41110   61.10260   71.10960   95.86410   71.10960    0.02580    0.02580    2.65390  -68.18230  -13.21890   95.86410
 6700.00000    8.25660   10.05640    8.25660   28.45430    0.01030    2.69440    0.00910    0.00910   35.14410    0.01030   55.96410   55.96410   47.35650   47.35650   47.35650   35.14410   52.95850   66.49200   52.95850    0.02940    0.02940    2.70470  -66.66670  -12.62040   66.49200
 6750.00000    8.45010   10.99130    8.45010   81.01230    0.01030    2.65870    0.03000    0.03000   12.34380    0.01030   72.07830   72.07830   66.61600   66.61600   66.61600   12.34380   12.60170   16.82930   12.60170    0.08810    0.08810    2.69290  -68.18180  -15.05260   16.82930
 6800.00000    8.35190   11.21150    8.35190   24.24870    0.01350    2.70740    0.00150    0.00150   41.23930    0.01350   55.36120   55.36120   57.32630   57.32630   57.32630   41.23930   69.17620   96.46970   69.17620    0.05740    0.05740    2.69790  -64.24240  -12.03030   96.46970
 6850.00000    8.33710   11.05580    8.33710  116.33990   -0.00210    2.63530    0.04370    0.04370    8.59550   -0.00210   76.14460   76.14460   62.76550   62.76550   62.76550    8.59550   10.24720   18.92990   10.24720    0.07480    0.07480    2.63610  -61.51560  -10.00040   18.92990
 6900.00000    8.17040    9.68540    8.17040   55.83100    0.00180    2.67410    0.02100    0.02100   17.91120    0.00180   68.01200   68.01200   42.82480   42.82480   42.82480   17.91120   19.45600   54.05470   19.45600    0.02450    0.02450    2.66940  -70.73010  -19.21500   54.05470
 6950.00000    8.39360    9.59440    8.39360   37.93730    0.00960    2.64590    0.03750    0.03750   26.35930    0.00960   64.69930   64.69930   42.82400   42.82400   42.82400   26.35930   26.53140   46.75610   26.53140    0.06940    0.06940    2.66140  -58.99090   -7.47570   46.75610
 7000.00000    8.23210   10.07660    8.23210   64.97430    0.00450    2.59320    0.06830    0.06830   15.39070    0.00450   74.93980   74.93980   49.16920   49.16920   49.16920   15.39070   17.91120   22.33600   17.91120    0.11610    0.11610    2.60470  -69.69700  -15.64550   22.33600
 7050.00000    8.41070   10.00070    8.41070   67.00890    0.03380    2.62130    0.05190    0.05190   14.92340    0.03380   64.19640   64.19640   51.66180   51.66180   51.66180   14.92340   22.02650   23.93210   22.02650    0.17260    0.17260    2.64880  -77.57580  -20.57510   23.93210
 7100.00000    7.99330    7.22650    7.99330    1.40630    0.01190    2.63890    0.04160    0.04160  711.09590    0.01190   50.54220   50.54220   16.08720   16.08720   16.08720  711.09590 1251.51820 1637.05700 1251.51820    0.00050    0.00050    2.63610 -115.98260  -56.03270 1637.05700
 7150.00000    7.82960    8.38240    7.82960   26.15230    0.01480    2.69890    0.00650    0.00650   38.23750    0.01480   56.81690   56.81690   29.22960   29.22960   29.22960   38.23750   39.30500   61.62530   39.30500    0.02680    0.02680    2.69210  -74.24170  -11.34260   61.62530
 7200.00000    8.04670   12.36780    8.04670  234.37320    0.00640    2.62840    0.04770    0.04770    4.26670    0.00640   83.97590   83.97590   80.14550   80.14550   80.14550    4.26670    4.85530    6.12870    4.85530    0.15080    0.15080    2.62030  -85.45600  -21.81960    6.12870
 7250.00000    7.85320   12.23840    7.85320   65.87660    0.00920    2.59610    0.06660    0.06660   15.17990    0.00920    -999.25    -999.25   75.05630   75.05630   75.05630   15.17990   18.15990   19.05640   18.15990    0.23900    0.23900    2.60760  -86.66720  -23.03080   19.05640
