~Version ---------------------------------------------------
VERS.      2.0 : CWLS log ASCII Standard -VERSION 2.0
WRAP.      YES : Multiple lines per depth step
CREA. 02/26/13 : LAS Creation Date
~Well ------------------------------------------------------
STRT.FT                 2300.0 : START DEPTH
STOP.FT                 9950.0 : STOP DEPTH
STEP.FT               50.00000 : STEP LENGTH
NULL.                  -999.25 : NULL VALUE
COMP.       APACHE CORPORATION : COMPANY
WELL.             C. BARRON #3 : WELL
FLD .                   JEWETT : FIELD
LOC .                          : LOCATION
CNTY.                     LEON : COUNTY
STAT.                    TEXAS : STATE
CTRY. UNITED STATES OF AMERICA : COUNTRY
SRVC.             Schlumberger : SERVICE COMPANY
DATE.              10-Jan-1991 : LOGDATE
API .           42289310950000 : API NUMBER
UWI .           42289310950000 : UNIQUE WELL ID
SLAT.WGS84       31.3592876733 : SURFACE LATITUDE
SLON.WGS84      -96.1250620138 : SURFACE LONGITUDE
~Curve Information -----------------------------------------
DEPT    .FT    : DEPTH FEET
CALDED  .IN    : CALIPER FROM DENSITY LOG
CALWS   .IN    : CALIPER [CALDED]
CONDWS  .MMHO  : CONDUCTIVITY [1000/DRESWS]
DCALED  .IN    : DIFFERENTIAL CALIPER FROM RESISTIVITY LOG
DCORWS  .G/C3  : DENSITY CORRECTION [DRHOED]
DENWS   .G/C3  : FORMATION BULK DENSITY [RHOBED]
DPHILSED.V/V   : DENSITY POROSITY LIME [M=2.71, F=1.0] FROM DENSITY LOG
DPOWS   .V/V   : DENSITY POROSITY LIME [DPHILSED]
DRESWS  .OHMM  : DEEP RESISTIVITY [ILDED]
DRHOED  .G/C3  : BULK DENSITY CORRECTION FROM DENSITY LOG
GRDED   .GAPI  : GAMMA RAY FROM DENSITY LOG
GRWS    .GAPI  : GAMMA RAY [GRDED]
ILDED   .OHMM  : DEEP INDUCTION FROM RESISTIVITY LOG
ILMED   .OHMM  : MEDIUM INDUCTION FROM RESISTIVITY LOG
MRESWS  .OHMM  : MEDIUM RESISTIVITY [ILMED]
NPHILSED.V/V   : NEUTRON POROSITY LIME FROM DENSITY LOG
NPOWS   .V/V   : NEUTRON POROSITY LIME [NPHILSED]
PEFED   .B/E   : PHOTOELECTRIC FACTOR FROM DENSITY LOG
PEFWS   .B/E   : PHOTOELECTRIC FACTOR [PEFED]
RHOBED  .G/C3  : BULK DENSITY FROM DENSITY LOG
SFLUED  .OHMM  : SHALLOW FOCUSED RESISTIVITY (UNAVERAGED) FROM RESISTIVITY LOG
SPRED   .MV    : SPONTANEOUS POTENTIAL FROM RESISTIVITY LOG
SPWS    .MV    : SPONTANEOUS POTENTIAL [BASELINE 0 MV, SPRED]
SRESWS  .OHMM  : SHALLOW RESISTIVITY [SFLUED]
TENDED  .LBF   : TENSION FROM DENSITY LOG
~Params ----------------------------------------------------
PD  .                     GL : PERMANENT DATUM
EPD .FT                  485 : ELEVATION PERMANENT DATUM
LMF .                     KB : LOG MEASURED FROM
DAPD.FT                   12 : FEET ABOVE PERMANENT DATUM
DMF .                     KB : DRILLING MEASURED FROM
EKB .FT                  497 : KELLY BUSHING
EDF .FT                  498 : DRILLING FLOOR
EGL .FT                  485 : GROUND LEVEL
DATE.               01/10/91 : RUN DATE
RUN .                      1 : RUN NUMBER
DD  .FT                 9950 : DEPTH DRILLER
DL  .FT                 9957 : DEPTH LOGGER
BLI .FT                 9946 : BOTTOM LOG INTERVAL
TLI .FT                 2234 : TOP LOG INTERVAL
CS  .IN                9.625 : CASING SIZE
CBD .FT                 2298 : CASING BOTTOM DRILLER
CBL .FT                 2294 : CASING BOTTOM LOGGER
BS  .IN                 6.75 : BIT SIZE
BSD .FT                 9950 : BIT SIZE AT DEPTH
DFT .           LIGHTLY DISP : DRILLING FLUID TYPE
DFD .                   10.3 : DRILLING FLUID DENSITY
DFV .                     60 : DRILLING FLUID VISCOSITY
DFPH.                    9.5 : DRILLING FLUID PH
DFL .                     74 : DRILLING FLUID LOSS
MSS .               FLOWLINE : MUD SAMPLE SOURCE
RMS .OHMM               2.45 : RESISTIVITY MUD SAMPLE
MST .DEGF                 75 : MUD SAMPLE TEMPERATURE
MFST.DEGF                 75 : MUD FILTRATE SAMPLE TEMPERATURE
RMC .OHMM               2.75 : RESISTIVITY MUD CAKE
MCST.DEGF                 75 : MUD CAKE SAMPLE TEMPERATURE
MFSS.                   MEAS : MUD FILTRATE SAMPLE SOURCE
MCSS.                   CALC : MUD CAKE SAMPLE SOURCE
RMB .OHMM                885 : RESISTIVITY MUD AT BHT
TCS .HRS                1700 : TIME CIRCULATED STOPPED
LUN .                   8407 : LOGGING UNIT NUMBER
LUL .                  TYLER : LOGGING UNIT LOCATION
CLNT.                A2DTECH : CLIENT CODE
ORIG.          1" 2.5" PRINT : ORIGIN OF DATA
UWI .         42289310950000 : UNIQUE WELL ID
DICO. A2D Technologies, Inc. : DIGITIZING COMPANY
~Other -----------------------------------------------------
TOOL RUN:DISFL-CN-LDT LOG
~ASCII -----------------------------------------------------
# ...
 3700.00000   12.80460   12.80460  579.71010    4.08380    0.03310    2.32500    0.22410    0.22410    1.72500    0.03310   88.30290   88.30290    1.72500    1.76120    1.76120    0.27300    0.27300    2.80790    2.80790    2.32500    1.83970  -36.93300  -10.40210    1.83970 2120.28420
 3750.00000   13.76250   13.76250  734.21440    5.01540   -0.00630    2.26660    0.25930    0.25930    1.36200   -0.00630   84.85110   84.85110    1.36200    1.32280    1.32280    0.33290    0.33290    3.03130    3.03130    2.26660    1.28020  -35.55360   -3.58960    1.28020 2160.55370
 3800.00000   14.07310   14.07310 1138.17440    5.33500   -0.00510    2.22830    0.28130    0.28130    0.87860   -0.00510   98.27560   98.27560    0.87860    0.90600    0.90600    0.34250    0.34250    2.45130    2.45130    2.22830    0.94110  -33.44330   -1.50670    0.94110 2131.33400
 3850.00000   14.53550   14.53550  723.22270    5.73790    0.00890    2.32470    0.22370    0.22370    1.38270    0.00890   88.12000   88.12000    1.38270    1.41250    1.41250    0.29340    0.29340    2.82200    2.82200    2.32470    1.44900  -35.37960   -3.65430    1.44900 2125.65010
 3900.00000   15.23030   15.23030  834.37630    6.52560   -0.00230    2.28050    0.25090    0.25090    1.19850   -0.00230   83.52410   83.52410    1.19850    1.15750    1.15750    0.28220    0.28220    2.78010    2.78010    2.28050    1.12100  -34.06690   -2.69720    1.12100 2210.41870
 3950.00000   15.45940   15.45940  780.82300    6.61140   -0.00570    2.27740    0.25240    0.25240    1.28070   -0.00570   86.99380   86.99380    1.28070    1.23370    1.23370    0.30050    0.30050    2.75850    2.75850    2.27740    1.19590  -34.89460   -3.88060    1.19590 2174.67940
 4000.00000   15.46310   15.46310  996.61150    6.76930    0.01160    2.24720    0.26980    0.26980    1.00340    0.01160   85.22320   85.22320    1.00340    0.96770    0.96770    0.31850    0.31850    2.76020    2.76020    2.24720    1.08200  -35.24300   -4.58460    1.08200 2240.14360
 4050.00000   14.49490   14.49490  877.80900    5.79730    0.00400    2.26270    0.25900    0.25900    1.13920    0.00400   85.35750   85.35750    1.13920    1.16500    1.16500    0.29260    0.29260    2.83270    2.83270    2.26270    1.24150  -35.66050   -5.35770    1.24150 2238.13350
 4100.00000   14.05570   14.05570 1020.61650    5.36990    0.00200    2.28080    0.25090    0.25090    0.97980    0.00200   90.56420   90.56420    0.97980    1.01050    1.01050    0.33620    0.33620    2.84240    2.84240    2.28080    1.12190  -33.80150   -3.85440    1.12190 2253.50000
 4150.00000   12.44940   12.44940 1149.68960    3.70830    0.00920    2.28990    0.24480    0.24480    0.86980    0.00920   97.41580   97.41580    0.86980    0.90880    0.90880    0.33520    0.33520    2.52350    2.52350    2.28990    0.95930  -31.57640   -1.98490    0.95930 2229.16850
 4200.00000   11.91480   11.91480  943.93050    3.19380    0.00510    2.29060    0.24420    0.24420    1.05940    0.00510   84.62640   84.62640    1.05940    1.10430    1.10430    0.33730    0.33730    2.86880    2.86880    2.29060    1.19530  -33.09850   -3.73960    1.19530 2262.00020
 4250.00000   10.86930   10.86930  804.69940    2.15190    0.00440    2.34570    0.21140    0.21140    1.24270    0.00440   82.81910   82.81910    1.24270    1.26750    1.26750    0.29620    0.29620    3.11300    3.11300    2.34570    1.40980  -31.58320   -2.43680    1.40980 2260.65310
 4300.00000    9.58470    9.58470  333.78950    0.84460    0.00570    2.44980    0.15120    0.15120    2.99590    0.00570   78.27740   78.27740    2.99590    3.11370    3.11370    0.18760    0.18760    2.92520    2.92520    2.44980    3.33250  -46.68740  -17.11460    3.33250 2324.93020
 4350.00000    9.32560    9.32560  394.16630    0.61810   -0.00340    2.44810    0.15170    0.15170    2.53700   -0.00340   88.25000   88.25000    2.53700    2.62560    2.62560    0.23040    0.23040    2.79930    2.79930    2.44810    2.56580  -37.81750   -7.56590    2.56580 2340.88750
 4400.00000    9.58640    9.58640  403.19330    0.83500   -0.00020    2.46070    0.14750    0.14750    2.48020   -0.00020   83.00070   83.00070    2.48020    2.56820    2.56820    0.20050    0.20050    3.11720    3.11720    2.46070    2.62810  -34.86730   -4.99040    2.62810 2409.38720
 4450.00000   10.34500   10.34500  585.10330    1.63880    0.01660    2.34020    0.21570    0.21570    1.70910    0.01660   91.19790   91.19790    1.70910    1.77190    1.77190    0.26370    0.26370    3.01930    3.01930    2.34020    1.90490  -32.93240   -3.43010    1.90490 2417.92850
 4500.00000   10.67180   10.67180  692.23310    1.96130    0.02980    2.35730    0.20640    0.20640    1.44460    0.02980   92.83220   92.83220    1.44460    1.48670    1.48670    0.27930    0.27930    2.69350    2.69350    2.35730    1.54900  -34.20040   -4.75510    1.54900 2359.57470
 4550.00000   10.69960   10.69960  714.69410    1.95110    0.01510    2.40870    0.17660    0.17660    1.39920    0.01510   83.55890   83.55890    1.39920    1.43980    1.43980    0.27430    0.27430    3.20780    3.20780    2.40870    1.62390  -32.78050   -3.13240    1.62390 2394.82740
 4600.00000   10.83940   10.83940  577.03400    2.02570    0.00980    2.45400    0.14810    0.14810    1.73300    0.00980   82.80280   82.80280    1.73300    1.81230    1.81230    0.24840    0.24840    2.78760    2.78760    2.45400    1.91020  -33.27940   -3.42840    1.91020 2382.53200
 4650.00000   11.11370   11.11370  751.59710    2.34190    0.00790    2.41150    0.17470    0.17470    1.33050    0.00790   87.76720   87.76720    1.33050    1.37500    1.37500    0.27820    0.27820    3.20570    3.20570    2.41150    1.60910  -32.64210   -2.75450    1.60910 2396.03390
 4700.00000   11.46260   11.46260  618.85020    2.71280    0.01060    2.44820    0.15230    0.15230    1.61590    0.01060   79.74730   79.74730    1.61590    1.67490    1.67490    0.24000    0.24000    2.82080    2.82080    2.44820    1.95220  -32.44010   -3.07290    1.95220 2420.17040
 4750.00000   12.76530   12.76530  776.03600    4.00730    0.00770    2.40580    0.17850    0.17850    1.28860    0.00770   85.68380   85.68380    1.28860    1.32250    1.32250    0.26640    0.26640    2.87780    2.87780    2.40580    1.44890  -31.94620   -3.09940    1.44890 2460.34810
 4800.00000   12.45600   12.45600  858.73770    3.70840   -0.00570    2.38960    0.18710    0.18710    1.16450   -0.00570   86.97370   86.97370    1.16450    1.20870    1.20870    0.27930    0.27930    2.96510    2.96510    2.38960    1.30410  -30.65970   -2.33330    1.30410 2462.07420
 4850.00000   12.04840   12.04840  928.67760    3.30160    0.03620    2.34940    0.21030    0.21030    1.07680    0.03620   81.36920   81.36920    1.07680    1.11550    1.11550    0.31010    0.31010    2.85990    2.85990    2.34940    1.26130  -29.98190   -2.17580    1.26130 2493.93330
 4900.00000   10.42820   10.42820  813.66970    1.80820    0.08710    2.14210    0.33000    0.33000    1.22900    0.08710   80.38140   80.38140    1.22900    1.25470    1.25470    0.30220    0.30220    2.70600    2.70600    2.14210    1.53250  -29.42780   -2.14220    1.53250 2529.11040
 4950.00000   11.16670   11.16670  943.12930    2.43790    0.07530    2.19220    0.30150    0.30150    1.06030    0.07530   79.95310   79.95310    1.06030    1.10540    1.10540    0.31050    0.31050    2.83880    2.83880    2.19220    1.30210  -28.27520   -1.51000    1.30210 2544.61790
 5000.00000    9.19110    9.19110  284.94900    0.44720   -0.01090    2.49880    0.12260    0.12260    3.50940   -0.01090   34.27250   34.27250    3.50940    3.61550    3.61550    0.16700    0.16700    4.98130    4.98130    2.49880    4.32570  -37.54740  -10.92200    4.32570 2524.91890
 5050.00000    9.66890    9.66890  397.40890    0.93450    0.08630    2.41310    0.16010    0.16010    2.51630    0.08630   67.21630   67.21630    2.51630    2.61240    2.61240    0.25710    0.25710    3.92020    3.92020    2.41310    2.74720  -28.50050   -1.82070    2.74720 2576.94430
