~Version ---------------------------------------------------
VERS. 2.0 : CWLS log ASCII Standard -VERSION 2.0
WRAP. YES : MULTIPLE LINES PER DEPTH STEP
~Well ------------------------------------------------------
STRT.FT                         1600.0 : START DEPTH
STOP.FT                         9750.0 : STOP DEPTH
STEP.FT                       50.00000 : STEP LENGTH
NULL.                          -999.25 : NULL VALUE
COMP.       TXO PRODUCTION CORPORATION : COMPANY
WELL.                     RUSSELL A #2 : WELL
FLD .                       BEAR GRASS : FIELD
LOC .                                  : LOCATION
CNTY.                             LEON : COUNTY
STAT.                            TEXAS : STATE
CTRY.         UNITED STATES OF AMERICA : COUNTRY
SRVC. HALLIBURTON LOGGING SERVICES INC : SERVICE COMPANY
DATE.                      13-May-1989 : LOGDATE
API .                   42289310220000 : API NUMBER
UWI .                   42289310220000 : UNIQUE WELL ID
SLAT.WGS84               31.3787668011 : SURFACE LATITUDE
SLON.WGS84              -96.2164349167 : SURFACE LONGITUDE
~Curve Information -----------------------------------------
DEPT    .FT                                 : DEPTH FEET
CALDED  .IN                                 : CALIPER FROM SDN-DSN LOG
CALWS   .IN                                 : CALIPER [CALDED]
CONDWS  .MMHO                               : CONDUCTIVITY [1000/DRESWS]
DCORED  .G/C3                               : DENSITY CORRECTION FROM SDN-DSN LOG
DCORWS  .G/C3                               : DENSITY CORRECTION [DCORED]
DENED   .G/C3                               : BULK DENSITY FROM SDN-DSN LOG
DENWS   .G/C3                               : FORMATION BULK DENSITY [DENED]
DPORLSED.V/V :   DENSITY POROSITY [M:2.71,F : 1.0] FROM SDN-DSN LOG
DPOWS   .V/V                                : DENSITY POROSITY [DPORLSED]
DRESWS  .OHMM                               : INDUCTION DEEP [ILDED]
GRDED   .GAPI                               : GAMMA RAY FROM SDN-DSN LOG
GRWS    .GAPI                               : GAMMA RAY [GRDED]
GUARDED .OHMM                               : GUARD FROM DIL-GUARD LOG
ILDED   .OHMM                               : INDUCTION DEEP FROM DIL-GUARD LOG
ILMED   .OHMM                               : INDUCTION LOG MEDIUM FROM DIL-GUARD LOG
MRESWS  .OHMM                               : INDUCTION LOG MEDIUM [ILMED]
NPORLSED.V/V                                : NEUTRON POROSITY FROM SDN-DSN LOG
NPOWS   .V/V                                : NEUTRON POROSITY [NPORLSED]
PEED    .B/E                                : PHOTOELECTRIC FACTOR FROM SDN-DSN LOG
PEFWS   .B/E                                : PHOTOELECTRIC FACTOR [PEFED]
SPRED   .MV                                 : SPONTANEOUS POTENTIAL FROM DIL-GUARD LOG
SPWS    .MV                                 : SPONTANEOUS POTENTIAL [BASELINE 0 MV, SPRED]
SRESWS  .OHMM                               : SHALLOW RESISITVITY [GUARDED]
TENRED  .LBF                                : TENSION FROM DIL-GUARD LOG
~Params ----------------------------------------------------
PD  .                     GL : PERMANENT DATUM
EPD .FT                  523 : ELEVATION PERMANENT DATUM
LMF .                     KB : LOG MEASURED FROM
DAPD.FT                 13.5 : FEET ABOVE PERMANENT DATUM
DMF .                     KB : DRILLING MEASURED FROM
EKB .FT                536.5 : KELLY BUSHING
EDF .FT                535.5 : DRILLING FLOOR
EGL .FT                  523 : GROUND LEVEL
DATE.               05/13/89 : RUN DATE
RUN .                      1 : RUN NUMBER
DD  .FT                 9800 : DEPTH DRILLER
DL  .FT                 9781 : DEPTH LOGGER
BLI .FT                 9776 : BOTTOM LOG INTERVAL
TLI .FT                 1600 : TOP LOG INTERVAL
CS  .IN                8.625 : CASING SIZE
CBD .FT                 1600 : CASING BOTTOM DRILLER
CBL .FT                 1600 : CASING BOTTOM LOGGER
BS  .IN                7.875 : BIT SIZE
BSD .FT                 9800 : BIT SIZE AT DEPTH
DFT .             WATERBASED : DRILLING FLUID TYPE
DFD .                     10 : DRILLING FLUID DENSITY
DFV .                     39 : DRILLING FLUID VISCOSITY
DFPH.                      9 : DRILLING FLUID PH
DFL .                   12.4 : DRILLING FLUID LOSS
MSS .                MUD PIT : MUD SAMPLE SOURCE
RMS .OHMM                2.4 : RESISTIVITY MUD SAMPLE
MST .DEGF                 75 : MUD SAMPLE TEMPERATURE
RMF .OHMM                1.8 : RESISTIVITY MUD FILTRATE SAMPLE
MFST.DEGF                 75 : MUD FILTRATE SAMPLE TEMPERATURE
RMC .OHMM                  3 : RESISTIVITY MUD CAKE
MCST.DEGF                 75 : MUD CAKE SAMPLE TEMPERATURE
MFSS.                   MEAS : MUD FILTRATE SAMPLE SOURCE
MCSS.                   MEAS : MUD CAKE SAMPLE SOURCE
RMB .OHMM               0.77 : RESISTIVITY MUD AT BHT
TCS .HRS                 100 : TIME CIRCULATED STOPPED
TLAB.HRS                 600 : TIME LOGGER AT BOTTOM
LUN .                  50637 : LOGGING UNIT NUMBER
LUL .                  TYLER : LOGGING UNIT LOCATION
ENGI.                AUSTILL : RECORDING ENGINEER
WITN.                 CARSON : WITNESSED BY
CLNT.                A2DTECH : CLIENT CODE
ORIG.         1" 2" 5" PRINT : ORIGIN OF DATA
UWI .         42289310220000 : UNIQUE WELL ID
DICO. A2D Technologies, Inc. : DIGITIZING COMPANY
~Other -----------------------------------------------------
~ASCII -----------------------------------------------------
# ...
 8850.00000   12.90290   12.90290  236.47370    0.14990    0.14990    2.28370    2.28370    0.24620    0.24620    4.22880  109.22740  109.22740    4.21630    4.22880    4.37360    4.37360    0.30520    0.30520    5.54660    5.54660  -35.61750   -8.53760    4.21630 3850.53710
 8900.00000    9.14700    9.14700   65.24430    0.00800    0.00800    2.68540    2.68540    0.01370    0.01370   15.32700   32.42170   32.42170   37.17860   15.32700   20.29880   20.29880    0.06550    0.06550    4.87380    4.87380  -34.14580   -7.31440   37.17860 3869.24000
 8950.00000    9.25280    9.25280   77.66030    0.00210    0.00210    2.67180    2.67180    0.02250    0.02250   12.87660   41.43710   41.43710   20.76380   12.87660   14.13250   14.13250    0.08250    0.08250    4.65930    4.65930  -28.56090   -1.97810   20.76380 3925.01150
 9000.00000   13.43580   13.43580  425.17010    0.18140    0.18140    2.30790    2.30790    0.22650    0.22650    2.35200   79.78180   79.78180    2.68510    2.35200    2.38810    2.38810    0.41590    0.41590    5.13240    5.13240  -42.60340  -16.26920    2.68510 3905.04690
 9050.00000    9.12090    9.12090   86.54560    0.00490    0.00490    2.68340    2.68340    0.01660    0.01660   11.55460   53.78480   53.78480   19.56190   11.55460   11.73500   11.73500    0.07900    0.07900    4.54190    4.54190  -33.00500   -6.91940   19.56190 3906.68630
 9100.00000    9.88350    9.88350   47.99710    0.06940    0.06940    2.69410    2.69410    0.00750    0.00750   20.83460   46.88330   46.88330   89.50910   20.83460   24.06750   24.06750    0.04130    0.04130    4.98540    4.98540  -36.93090  -11.09390   89.50910 3946.67430
 9150.00000    9.50770    9.50770   16.08960    0.01160    0.01160    2.64310    2.64310    0.03870    0.03870   62.15190   25.80700   25.80700  103.89930   62.15190   85.49730   85.49730    0.03920    0.03920    5.08410    5.08410  -77.81180  -52.22340  103.89930 3913.87720
 9200.00000    9.12140    9.12140   26.00640   -0.00410   -0.00410    2.62410    2.62410    0.04970    0.04970   38.45210   33.19150   33.19150   48.11380   38.45210   39.59650   39.59650    0.03340    0.03340    5.01090    5.01090  -98.56290  -73.22300   48.11380 3947.09640
 9250.00000    9.10690    9.10690   20.49190   -0.00290   -0.00290    2.61430    2.61430    0.05390    0.05390   48.79980   41.17740   41.17740   59.82120   48.79980   64.06520   64.06520    0.03610    0.03610    4.92600    4.92600  -84.28730  -59.19600   59.82120 3948.53170
 9300.00000    8.76780    8.76780   17.52980   -0.00230   -0.00230    2.68440    2.68440    0.01490    0.01490   57.04560   27.08870   27.08870  353.13240   57.04560   99.81940   99.81940    0.02580    0.02580    4.95310    4.95310  -41.02810  -16.18540  353.13240 3937.83130
 9350.00000    8.98150    8.98150  240.83620    0.05940    0.05940    2.54710    2.54710    0.09630    0.09630    4.15220   71.35180   71.35180   10.95400    4.15220    4.56280    4.56280    0.13450    0.13450    4.16610    4.16610  -40.01860  -15.42450   10.95400 3996.74020
 9400.00000    8.84350    8.84350   74.34830    0.00460    0.00460    2.67280    2.67280    0.02150    0.02150   13.45020   44.60300   44.60300   88.98430   13.45020   14.68440   14.68440    0.05270    0.05270    4.38280    4.38280  -30.10760   -5.76210   88.98430 3992.65360
 9450.00000    8.62480    8.62480   75.81620    0.03500    0.03500    2.65100    2.65100    0.03450    0.03450   13.18980   24.69440   24.69440  165.59220   13.18980   23.30400   23.30400    0.05160    0.05160    3.66670    3.66670  -74.01220  -49.91530  165.59220 4046.24610
 9500.00000    8.21120    8.21120  205.17030    0.03000    0.03000    2.54800    2.54800    0.09500    0.09500    4.87400   71.00420   71.00420    6.84420    4.87400    6.12830    6.12830    0.07520    0.07520    2.71490    2.71490  -69.83890  -45.83890    6.84420 4066.54350
 9550.00000    8.18010    8.18010  210.96160    0.02740    0.02740    2.55420    2.55420    0.09010    0.09010    4.74020   60.46450   60.46450    7.84700    4.74020    5.24710    5.24710    0.06860    0.06860    2.77840    2.77840  -78.91120  -54.91120    7.84700 4054.76120
 9600.00000    8.49880    8.49880  355.59350    0.02740    0.02740    2.57300    2.57300    0.07790    0.07790    2.81220   99.95730   99.95730    3.16250    2.81220    2.92770    2.92770    0.15500    0.15500    2.81020    2.81020  -36.87880  -12.87880    3.16250 4100.75880
 9650.00000    8.14540    8.14540  315.31820    0.02500    0.02500    2.57290    2.57290    0.07950    0.07950    3.17140   68.88550   68.88550    4.43140    3.17140    4.07130    4.07130    0.09970    0.09970    2.77750    2.77750  -66.53570  -42.53570    4.43140 4084.93870
 9700.00000    7.70700    7.70700  122.20760    0.02710    0.02710    2.59040    2.59040    0.07000    0.07000    8.18280   52.80020   52.80020   12.80140    8.18280   11.25060   11.25060    0.04960    0.04960    2.77060    2.77060  -62.73290  -38.73290   12.80140 4148.11770
 9750.00000    6.97200    6.97200  201.12630    -999.25    -999.25    -999.25    -999.25    -999.25    -999.25    4.97200    -999.25    -999.25    5.90480    4.97200    5.30760    5.30760    -999.25    -999.25    -999.25    -999.25  -47.47650  -23.47650    5.90480 4159.23340
