~Version ---------------------------------------------------
VERS. 2.0 : CWLS log ASCII Standard -VERSION 2.0
WRAP.  NO : ONE LINE PER DEPTH STEP
~Well ------------------------------------------------------
STRT.F                   300.0 : START DEPTH
STOP.F                 18600.0 : STOP DEPTH
STEP.F                50.00000 : STEP LENGTH
NULL.                  -999.25 : NULL VALUE
COMP.        SHELL OIL COMPANY : COMPANY
WELL. PAWELEK BEN A ET AL A #1 : WELL
FLD .    PERSON AREA (WILDCAT) : FIELD
LOC .                          : LOCATION
CNTY.                   KARNES : COUNTY
STAT.                    TEXAS : STATE
CTRY. UNITED STATES OF AMERICA : COUNTRY
SRVC.             Schlumberger : SERVICE COMPANY
DATE.              22-May-1978 : LOGDATE
API .           42255305980000 : API NUMBER
UWI .           42255305980000 : UNIQUE WELL ID
SLAT.WGS84       29.0241796548 : SURFACE LATITUDE
SLON.WGS84      -97.8796797249 : SURFACE LONGITUDE
~Curve Information -----------------------------------------
DEPT   .F    0   1   0  0 : 1 MEASURED DEPTH
ILD    .OHMM 07 120 46 00 : INDUCTION DEEP RESISTIVITY
ILM    .OHMM 07 120 44 00 : INDUCTION MEDIUM RESISTIVITY
SPR    .MV   07 010 01 00 : SPONTANEOUS POTENTIAL FROM RESISTIVITY LOG
SFL    .OHMM 07 220 01 00 : SPHERICALLY FOCUSED LOG
GRR    .GAPI 07 310 01 00 : GAMMA RAY FROM RESISTIVITY LOG
DPHI_SS.DEC  45 890 12 00 : DENSITY POROSITY SANDSTONE
NPHI_SS.DEC  42 890 03 00 : NEUTRON POROSITY SANDSTONE
NPHI_LS.DEC  42 890 01 00 : NEUTRON POROSITY LIMESTONE
DPHI_LS.DEC  45 890 10 00 : DENSITY POROSITY LIMESTONE
GRD    .GAPI 45 310 01 00 : GAMMA RAY FROM DENSITY LOG
RHOB   .G/C3 45 350 01 00 : BULK DENSITY
DRHO   .G/C3 45 356 01 00 : BULK DENSITY CORRECTION
CALD   .IN   45 280 60 00 : CALIPER FROM DENSITY LOG
TEND   .LB   45 635 00 00 : TENSION FROM DENSITY LOG
PROX   .OHMM 21 270 04 00 : PROXIMITY RESISTIVITY (MPT)
MCAL   .IN   15 280 01 00 : MLT (MICROLOG) CALIPER
GRS    .GAPI 60 310 01 00 : GAMMA RAY FROM SONIC LOG
DT     .US/F 60 500 00 00 : DELTA-T (INTERVAL TRANSIT TIME)
CALS   .IN   60 280 50 00 : CALIPER FROM SONIC LOG
~Params ----------------------------------------------------
PD  .                     GL : PERMANENT DATUM
EPD .FT                  335 : ELEVATION PERMANENT DATUM
LMF .                     KB : LOG MEASURED FROM
DAPD.FT                   28 : FEET ABOVE PERMANENT DATUM
DMF .                     KB : DRILLING MEASURED FROM
EKB .FT                  363 : KELLY BUSHING
EDF .FT                  362 : DRILLING FLOOR
EGL .FT                  335 : GROUND LEVEL
DATE.               05/22/78 : RUN DATE
RUN .                      4 : RUN NUMBER
DD  .FT                18626 : DEPTH DRILLER
DL  .FT                18642 : DEPTH LOGGER
BLI .FT                18637 : BOTTOM LOG INTERVAL
TLI .FT                17550 : TOP LOG INTERVAL
CS  .IN                    7 : CASING SIZE
CBD .FT                17544 : CASING BOTTOM DRILLER
CBL .FT                17550 : CASING BOTTOM LOGGER
BS  .IN                    6 : BIT SIZE
BSD .FT                18626 : BIT SIZE AT DEPTH
DFT .               INVERMUL : DRILLING FLUID TYPE
DFD .                   17.6 : DRILLING FLUID DENSITY
DFV .                     70 : DRILLING FLUID VISCOSITY
DFL .                      2 : DRILLING FLUID LOSS
LUN .                   7799 : LOGGING UNIT NUMBER
LUL .                  PLEAS : LOGGING UNIT LOCATION
ENGI.             TURBEVILLE : RECORDING ENGINEER
WITN.                JARRELL : WITNESSED BY
CLNT.                A2DTECH : CLIENT CODE
ORIG.            2" 5" PRINT : ORIGIN OF DATA
UWI .         42255305980000 : UNIQUE WELL ID
DICO. A2D Technologies, Inc. : DIGITIZING COMPANY
~Other -----------------------------------------------------
~ASCII -----------------------------------------------------
# ...
 13250.00000  130.65670   31.34000  -36.70540  336.08190    -999.25    -999.25    -999.25    0.00180   -0.01710   27.35420    2.77920    0.00960   11.72080 9941.61820  100.66620   12.64500   31.80440   51.71310   11.13190
 13300.00000   54.07830   15.89350  -38.17410  100.55120    -999.25    -999.25    -999.25    0.00500   -0.02060   28.14130    2.79590    0.02780   11.96290 9931.58890   97.42160   12.67700   36.13420   51.18780   11.34830
 13350.00000  511.04950 1525.63440  -50.87100 1081.59410    -999.25    -999.25    -999.25    0.00040    0.00500   25.65740    2.75190    0.01890   11.70110 9897.83200   56.63430   12.35130   26.40740   52.85460   11.34240
 13400.00000  130.80410   22.64600  -50.16310 1551.28200    -999.25    -999.25    -999.25    0.00230   -0.03780   24.92800    2.79950    0.02440   12.19110 9939.48730   45.48880   12.06630   27.62040   50.42230   11.92330
 13450.00000   36.78690   17.74050  -44.40810   44.36150    -999.25    -999.25    -999.25   -0.00060   -0.01610   26.79570    2.78240    0.02180   11.95880 9837.96580   15.07150   12.54010   32.14930   52.11610   10.72970
 13500.00000  228.10330   27.54720  -48.26500  771.56120    -999.25    -999.25    -999.25   -0.00310   -0.03020   21.54910    2.83060    0.03250   11.61200 9840.97360   84.07630   12.49850   25.90070   51.40120   10.86610
 13550.00000   66.95120   28.77060  -54.67970   70.37490    -999.25    -999.25    -999.25    0.05840   -0.03410   25.63890    2.75600    0.02620   10.52370 9833.17580   23.82280   11.52210   31.48350   53.30430   11.29150
 13600.00000  264.61800   26.37040  -53.94650  113.52100    -999.25    -999.25    -999.25    0.00890   -0.04290   20.44630    2.76510    0.03850   11.72070 9889.53610   39.95810   11.76620   24.58210   49.00520   11.04890
 13650.00000   25.10870   12.27010  -46.34220   14.77950    -999.25    -999.25    -999.25    0.00330   -0.06310   34.88920    2.82160    0.02990   11.42650 9798.92190   10.50890   11.70070   34.22800   53.68360   10.56700
 13700.00000   37.69870   20.45680  -65.83040   68.74710    -999.25    -999.25    -999.25    0.04860   -0.05400   22.97120    2.83420    0.04280   11.43520 9821.22170   16.53800   11.52950   34.27510   49.99490   10.90900
 13750.00000    5.01670    6.46470  -66.37260   24.18760    -999.25    -999.25    -999.25    0.00860   -0.04020   26.21290    2.81040    0.00200   11.62410 9805.09960    5.91570   11.84220   32.68080   56.32290   10.53920
 13800.00000   13.35630   10.34650  -63.52110   15.58240    -999.25    -999.25    -999.25    0.07790   -0.03690   23.93650    2.81810    0.04430   11.99120 9815.88480   16.74290   11.87400   31.22340   52.16800   11.13590
 13850.00000   27.30740   15.76940  -51.95970   58.25630    -999.25    -999.25    -999.25   -0.00250   -0.00960   24.86700    2.74640    0.00760   15.19340 9743.12990   56.05170   13.22080   30.06900   51.73390   13.37400
 13900.00000   10.55160    7.07460  -64.06880   15.82880    -999.25    -999.25    -999.25    0.07860   -0.03720   25.99490    2.77780    0.04140   12.29670 9730.07320   74.56570   12.94410   27.94260   53.03380   11.89650
 13950.00000   30.87700   16.81810  -52.93400   65.78930    -999.25    -999.25    -999.25    0.00560   -0.04040   24.45290    2.84570    0.00730   12.12510 9693.10940   33.05920   12.82040   27.73200   50.99030   11.99820
 14000.00000    3.29920    3.85420  -53.89550    7.14370    -999.25    -999.25    -999.25    0.10810   -0.00250   36.53200    2.69810    0.00640   13.57730 9712.71970    3.13060   13.78720   44.65370   57.50600   13.05330
 14050.00000    2.76670    2.53320  -59.20390    4.12800    -999.25    -999.25    -999.25    0.07490    0.01630   28.08180    2.70150    0.03930   14.49900 9628.43650    4.07830   14.72250   33.05850   60.29760   13.77460
 14100.00000    1.54470    1.71900  -71.06840    2.74250    -999.25    -999.25    -999.25    0.13230    0.01300   25.67690    2.73840    0.03570   12.13340 9671.59860    1.29760   14.83000   29.29940   62.37200   14.03110
 14150.00000    6.81990    6.37000  -65.32350   13.03370    -999.25    -999.25    -999.25    0.04090   -0.08950   26.45510    2.82460    0.03820   11.47890 9660.57520    3.06710   12.38270   28.22260   53.22550   11.82700
 14200.00000   21.05150   10.95480  -61.59570   20.24260    -999.25    -999.25    -999.25    0.11340   -0.04050   30.40110    2.73580    0.01380   11.25960 9627.47750    7.78740   12.04460   32.93150   51.78160   10.79030
 14250.00000    6.51950    5.46920  -51.31810   11.06370    -999.25    -999.25    -999.25    0.08250   -0.07030   42.97470    2.82980    0.02370   10.86050 9587.60250    4.51630   11.86820   47.86780   54.02920   10.75660
 14300.00000   42.27600   13.34790  -55.00660   31.03130    -999.25    -999.25    -999.25    0.05850   -0.03530   28.31070    2.81580    0.03030   10.90540 9601.06840   19.92140   11.91710   26.89020   51.51370   10.83670
 14350.00000   45.80380   24.43560  -53.98470   31.40340    -999.25    -999.25    -999.25    0.04940   -0.07480   33.81500    2.86730    0.04360   10.92570 9590.82710   16.52970   12.05110   37.36150   50.73300   10.61690
 14400.00000  174.27970   91.82910  -54.12750   69.95080    -999.25    -999.25    -999.25    0.02410   -0.03570   27.06530    2.81320    0.00430   11.14440 9557.32810   16.44930   12.20800   31.64860   49.98230   10.76920
 14450.00000  105.77190   39.16330  -53.57740  121.24550    -999.25    -999.25    -999.25    0.03380   -0.07350   28.94360    2.87270    0.03290   11.41350 9562.89060    -999.25    -999.25   32.91970   48.80160   10.92720
 14500.00000   77.08860   18.82680  -42.91690   41.14770    -999.25    -999.25    -999.25    0.02870   -0.09100   32.85890    2.88540    0.03140   10.96310 9540.72270    -999.25    -999.25   36.73780   49.68640   10.73580
 14550.00000   13.04060    8.96530  -53.47720   11.73350    -999.25    -999.25    -999.25    0.02980   -0.08630   39.23800    2.91790    0.08020   11.07180 9505.15330    -999.25    -999.25   39.69260   53.73100   10.45660
 14600.00000  142.95360   84.41050  -50.18310  114.09230    -999.25    -999.25    -999.25    0.02840   -0.10250   31.88950    2.86990    0.06850   10.91450 9504.63870    -999.25    -999.25   34.02410   48.67670   10.69350
 14650.00000 1490.18910   27.57990  -52.34800  160.17010    -999.25    -999.25    -999.25    0.02140   -0.08570   32.86500    2.90570    0.04750   11.66380 9507.17290    -999.25    -999.25   41.55810   49.84970   10.80700
 14700.00000  142.62860   35.16000  -49.62080  131.95810    -999.25    -999.25    -999.25    0.01090   -0.10000   30.18730    2.91790    0.04570   11.47140 9717.61910    -999.25    -999.25   32.05550   56.44100   11.09310
 14750.00000  166.69540   60.53090  -47.70780  193.41590    -999.25    -999.25    -999.25    0.02310   -0.06750   37.92240    2.85110    0.02730   11.02610 9939.49220    -999.25    -999.25   38.75190   48.53680   10.54210
 14800.00000 1535.24510   16.00990  -46.37140  266.64700    -999.25    -999.25    -999.25    0.01280   -0.08370   30.31730    2.89440    0.03070   10.46860 9871.83110    -999.25    -999.25   33.41540   47.38440   10.93180
 14850.00000 1609.23070   29.18030  -45.96910  260.21570    -999.25    -999.25    -999.25    0.03110   -0.05970   26.82980    2.87370    0.02970   11.16400 9832.41800    -999.25    -999.25   26.48620   46.84460   11.04910
 14900.00000  154.23770   32.03470  -46.25980  415.29820    -999.25    -999.25    -999.25    0.02130   -0.08170   31.88390    2.89490    0.02420   11.51360 9857.76170    -999.25    -999.25   33.36690   48.13650   11.36340
 14950.00000  607.98700   53.15700  -42.25580  945.20670    -999.25    -999.25    -999.25    0.01570   -0.09050   37.53660    2.88800    0.03550   11.50750 9858.26950    -999.25    -999.25   45.47920   47.10130   10.97830
 15000.00000  196.67130   20.75470  -39.73410  569.07700    -999.25    -999.25    -999.25    0.02130   -0.08920   36.03170    2.91080    0.04330   11.88840 9794.89260    -999.25    -999.25   40.02200   47.65710   11.14810
 15050.00000   18.69670    9.76510  -40.99090   36.65550    -999.25    -999.25    -999.25    0.00320   -0.04560   39.49710    2.81400    0.01960   11.31870 9805.44240    -999.25    -999.25   39.38760   53.23130   10.96750
