~Version ---------------------------------------------------
VERS. 2.0 : CWLS log ASCII Standard -VERSION 2.0
WRAP. YES : MULTIPLE LINES PER DEPTH STEP
~Well ------------------------------------------------------
STRT.FT                  300.0 : START DEPTH
STOP.FT                18600.0 : STOP DEPTH
STEP.FT               50.00000 : STEP LENGTH
NULL.                  -999.25 : NULL VALUE
COMP.        SHELL OIL COMPANY : COMPANY
WELL. PAWELEK BEN A ET AL A #1 : WELL
FLD .    PERSON AREA (WILDCAT) : FIELD
LOC .                          : LOCATION
CNTY.                   KARNES : COUNTY
STAT.                    TEXAS : STATE
CTRY. UNITED STATES OF AMERICA : COUNTRY
SRVC.             Schlumberger : SERVICE COMPANY
DATE.              22-May-1978 : LOGDATE
API .           42255305980000 : API NUMBER
UWI .           42255305980000 : UNIQUE WELL ID
SLAT.WGS84       29.0241796548 : SURFACE LATITUDE
SLON.WGS84      -97.8796797249 : SURFACE LONGITUDE
~Curve Information -----------------------------------------
DEPT    .FT    : DEPTH FEET
CALDED  .IN    : CALIPER FROM DENSITY LOG [DEP ADJ TO GRSED]
CALMED  .IN    : CALIPER FROM MICROLOG [DEP ADJ TO SFLED]
CALSED  .IN    : CALIPER FROM SONIC LOG
CALWS   .IN    : CALIPER [10 CALDED 4845.5 CALMED 4849 CALDED 17451 CALSED 17577 CALDED]
CONDWS  .MMHO  : CONDUCTIVITY [1000/DRESWS]
DCORWS  .G/C3  : DENSITY CORRECTION [DRHOED]
DENWS   .G/C3  : BULK DENSITY [M=2.71 F=1.0] [RHOBED]
DPHILSED.V/V   : DENSITY POROSITY [M=2.71 F=1.0] FROM DENSITY LOG [DEP ADJ TO GRSED/RHOBED]
DPHISSED.V/V   : DENSITY POROSITY [M=2.65 F=1.0] FROM DENSITY LOG [DEP ADJ TO GRSED/RHOBED]
DPOLSWS .V/V   : DENSITY POROSITY [M=2.71 F=1.0] [CAL FR DENWS]
DRESWS  .OHMM  : DEEP RESISTIVITY [ILDED]
DRHOED  .G/C3  : DENSITY CORRECTION FROM DENSITY LOG [DEP ADJ TO GRSED]
DTED    .US/F  : DELTA TIME FROM SONIC LOG
DTWS    .US/F  : DELTA TIME [DTED]
GRDED   .GAPI  : GAMMA RAY FROM DENSITY LOG
GRRED   .GAPI  : GAMMA RAY FROM RESISTIVITY LOG [DEP ADJ TO GRSED]
GRSED   .GAPI  : GAMMA RAY FROM SONIC LOG
GRWS    .GAPI  : GAMMA RAY [70 GRDED 4800.5 GRDEDNRM [0-100 TO 0-140]4844.5 GRSED 4853.5 GRDED 12903.5 GRSED 12939.5 GRDED 12962 GRSED 17526 GRDED 17550 GRRED 18607 GRDED]
ILDED   .OHMM  : INDUCTION LOG DEEP RESISTIVITY
ILMED   .OHMM  : INDUCTION LOG MEDIUM RESISTIVITY
MRESWS  .OHMM  : MEDIUM RESISTIVITY [ILMED]
NPHILSED.V/V   : NEUTRON POROSITY LISTONE FROM DENSITY LOG [DEP ADJ TO GRSED/RHOBED]
NPHISSED.V/V   : NEUTRON POROSITY SANDSTONE FROM DENSITY LOG [DEP ADJ TO GRSED/RHOBED]
NPOLSWS .V/V   : NEUTRON POROSITY LIMESTONE [10 NPOLSCAL 9446 NPHILSED] [NPHISSED IS CONVERTED TO NPOLSCAL USING POWERLOG MODULE]
PROXED  .OHMM  : PROXIMITY RESISTIVITY FROM MICROLOG [DEP ADJ TO SFLED]
RHOBED  .G/C3  : BULK DENSITY FROM DENSITY LOG [DEP ADJ TO GRSED]
SFLED   .OHMM  : SPHERICALLY FOCUSED LOG RESISTIVITY
SPRED   .MV    : SPONTANEOUS POTENTIAL FROM RESISTIVITY LOG [SHIFTS ARE REMOVED]
SPWS    .MV    : SPONTANEOUS POTENTIAL [BASELINE 0 MV] [SPRED][PL. USE W/ RESERVATIONS]
SRESWS  .OHMM  : SHALLOW RESISTIVITY [SFLED]
TENDED  .LBF   : TENSION FROM DENSITY LOG [DEP ADJ TO GRSED]
~Params ----------------------------------------------------
PD  .                     GL : PERMANENT DATUM
EPD .FT                  335 : ELEVATION PERMANENT DATUM
LMF .                     KB : LOG MEASURED FROM
DAPD.FT                   28 : FEET ABOVE PERMANENT DATUM
DMF .                     KB : DRILLING MEASURED FROM
EKB .FT                  363 : KELLY BUSHING
EDF .FT                  362 : DRILLING FLOOR
EGL .FT                  335 : GROUND LEVEL
DATE.               05/22/78 : RUN DATE
RUN .                      4 : RUN NUMBER
DD  .FT                18626 : DEPTH DRILLER
DL  .FT                18642 : DEPTH LOGGER
BLI .FT                18637 : BOTTOM LOG INTERVAL
TLI .FT                17550 : TOP LOG INTERVAL
CS  .IN                    7 : CASING SIZE
CBD .FT                17544 : CASING BOTTOM DRILLER
CBL .FT                17550 : CASING BOTTOM LOGGER
BS  .IN                    6 : BIT SIZE
BSD .FT                18626 : BIT SIZE AT DEPTH
DFT .               INVERMUL : DRILLING FLUID TYPE
DFD .                   17.6 : DRILLING FLUID DENSITY
DFV .                     70 : DRILLING FLUID VISCOSITY
DFL .                      2 : DRILLING FLUID LOSS
LUN .                   7799 : LOGGING UNIT NUMBER
LUL .                  PLEAS : LOGGING UNIT LOCATION
ENGI.             TURBEVILLE : RECORDING ENGINEER
WITN.                JARRELL : WITNESSED BY
CLNT.                A2DTECH : CLIENT CODE
ORIG.            2" 5" PRINT : ORIGIN OF DATA
UWI .         42255305980000 : UNIQUE WELL ID
DICO. A2D Technologies, Inc. : DIGITIZING COMPANY
~Other -----------------------------------------------------
~ASCII -----------------------------------------------------
# ...
 7200.00000   14.79870   13.26130   13.26920   14.79870  641.31340    0.11560    2.04920    -999.25    0.36210    0.38640    1.55930    0.11560   89.64460   89.64460   74.00440    -999.25   85.94350   74.00440    1.55930    1.59170    1.59170    -999.25    0.44150    0.39960    1.95270    2.04920    2.07770  -57.58070  -13.38170    2.07770 9742.27050
 7250.00000   15.12440   13.74270   12.93850   15.12440  514.35030    0.08850    2.24260    -999.25    0.25380    0.27330    1.94420    0.08850   83.17300   83.17300   72.55970    -999.25   80.98770   72.55970    1.94420    1.98550    1.98550    -999.25    0.41240    0.36980    2.34130    2.24260    2.35540  -57.67740  -13.38830    2.35540 9649.05660
 7300.00000   15.42800   13.67470   13.07910   15.42800  528.59710    0.08700    2.16660    -999.25    0.29060    0.31780    1.89180    0.08700   85.99010   85.99010   76.08100    -999.25   81.14920   76.08100    1.89180    1.93340    1.93340    -999.25    0.45140    0.40970    2.02280    2.16660    2.42000  -57.17900  -12.79980    2.42000 9682.04790
 7350.00000   15.20980   13.09390   13.29500   15.20980  689.70270    0.09400    2.11560    -999.25    0.32600    0.34760    1.44990    0.09400   92.03280   92.03280   80.11330    -999.25   88.34770   80.11330    1.44990    1.48040    1.48040    -999.25    0.47630    0.43460    1.46160    2.11560    1.89470  -54.98410  -10.51470    1.89470 9468.83690
 7400.00000   15.38030   12.93910   13.18350   15.38030  615.76350    0.08970    2.23680    -999.25    0.25310    0.27670    1.62400    0.08970   90.12290   90.12290   78.39350    -999.25   82.93880   78.39350    1.62400    1.65760    1.65760    -999.25    0.47500    0.43330    1.75460    2.23680    2.10750  -53.79860   -9.23910    2.10750 9536.71480
 7450.00000   15.05570   12.57820   13.55970   15.05570  664.31940    0.09070    2.19110    -999.25    0.27640    0.30350    1.50530    0.09070   90.25520   90.25520   72.85910    -999.25   89.23860   72.85910    1.50530    1.53650    1.53650    -999.25    0.49060    0.44890    1.65130    2.19110    1.93970  -51.17120   -6.52160    1.93970 9510.86620
 7500.00000   13.41130   12.32200   13.31100   13.41130  748.72720    0.07900    2.21370    -999.25    0.25880    0.29020    1.33560    0.07900   97.55060   97.55060   77.01890    -999.25   86.94730   77.01890    1.33560    1.36480    1.36480    -999.25    0.44010    0.39810    1.61590    2.21370    1.80640  -49.84820   -5.10850    1.80640 9242.83010
 7550.00000   13.89530   12.17420   13.42510   13.89530  833.68070    0.06490    2.26700    -999.25    0.23090    0.25910    1.19950    0.06490   99.62960   99.62960   82.78940    -999.25   81.93150   82.78940    1.19950    1.22440    1.22440    -999.25    0.48700    0.44530    1.46490    2.26700    1.63890  -48.29510   -3.46520    1.63890 9815.10640
 7600.00000   13.45930   12.35540   12.75670   13.45930  725.90010    0.07120    2.31200    -999.25    0.20530    0.23270    1.37760    0.07120   95.61360   95.61360   96.03860    -999.25   96.07300   96.03860    1.37760    1.40630    1.40630    -999.25    0.46360    0.42190    1.59060    2.31200    1.83060  -47.24190   -2.40200    1.83060 9764.44920
 7650.00000   13.17980   11.78060   12.41750   13.17980  622.70370    0.07770    2.38590    -999.25    0.16090    0.18950    1.60590    0.07770   83.21630   83.21630   95.34390    -999.25   93.42540   95.34390    1.60590    1.63810    1.63810    -999.25    0.43130    0.38910    2.35380    2.38590    2.20950  -51.30140   -6.53480    2.20950 9675.84470
 7700.00000   13.21910   11.55910   12.23290   13.21910  833.47220    0.07990    2.35360    -999.25    0.18010    0.20840    1.19980    0.07990   95.54330   95.54330   94.58730    -999.25   96.62760   94.58730    1.19980    1.22480    1.22480    -999.25    0.46140    0.41970    1.36370    2.35360    1.72440  -49.84800   -5.15460    1.72440 9592.68070
 7750.00000   13.46810   11.54930   12.62790   13.46810  631.43270    0.11100    2.44140    -999.25    0.12870    0.15710    1.58370    0.11100   90.12860   90.12860   90.35140    -999.25   90.60470   90.35140    1.58370    1.62030    1.62030    -999.25    0.39610    0.35320    1.73150    2.44140    1.93690  -49.54510   -4.92500    1.93690 9569.54200
 7800.00000   13.74510   11.99820   12.44860   13.74510  860.58530    0.06960    2.31330    -999.25    0.21160    0.23200    1.16200    0.06960   97.39830   97.39830   88.83530    -999.25   87.34330   88.83530    1.16200    1.18670    1.18670    -999.25    0.45320    0.41150    1.16710    2.31330    1.55970  -49.26450   -4.71770    1.55970 9505.85550
 7850.00000   13.40050   11.65690   12.29400   13.40050  973.42550    0.08050    2.24140    -999.25    0.25270    0.27400    1.02730    0.08050  105.32840  105.32840   82.30080    -999.25   92.17350   82.30080    1.02730    1.04850    1.04850    -999.25    0.48280    0.44110    0.98760    2.24140    1.41960  -49.27000   -4.79650    1.41960 9482.20700
 7900.00000   13.81780   11.85600   12.83170   13.81780  930.75210    0.05730    2.22100    -999.25    0.27470    0.28600    1.07440    0.05730  103.65730  103.65730   90.44440    -999.25   98.16700   90.44440    1.07440    1.10140    1.10140    -999.25    0.48320    0.44150    1.05090    2.22100    1.41500  -48.96670   -4.56650    1.41500 9487.35550
 7950.00000   13.18100   11.28220   12.15310   13.18100  967.67940    0.11020    2.30520    -999.25    0.21430    0.23670    1.03340    0.11020   98.51160   98.51160   75.16300    -999.25   74.93030   75.16300    1.03340    1.05500    1.05500    -999.25    0.42540    0.38310    1.33690    2.30520    1.43310  -48.11770   -3.79080    1.43310 9777.64650
 8000.00000   13.16400   11.41840   12.01030   13.16400  496.25330    0.05380    2.20050    -999.25    0.25470    0.29800    2.01510    0.05380   89.48230   89.48230   69.49810    -999.25   77.42710   69.49810    2.01510    2.07360    2.07360    -999.25    0.42170    0.37930    1.89400    2.20050    2.63990  -49.89750   -5.64390    2.63990 9716.77830
 8050.00000   13.40290   11.65640   12.25530   13.40290  679.67100    0.07720    2.37910    -999.25    0.16490    0.19350    1.47130    0.07720   98.15410   98.15410   89.32640    -999.25   83.86360   89.32640    1.47130    1.50840    1.50840    -999.25    0.40570    0.36290    1.23320    2.37910    2.01010  -48.75810   -4.57780    2.01010 9675.95700
 8100.00000   13.97380   12.11510   12.66060   13.97380  432.75050    0.10670    2.37220    -999.25    0.17140    0.19750    2.31080    0.10670   90.69790   90.69790   81.23430    -999.25   78.63640   81.23430    2.31080    2.35940    2.35940    -999.25    0.35400    0.31040    1.82370    2.37220    3.04290  -51.69460   -7.58760    3.04290 9551.90430
 8150.00000   13.34170   11.51680   12.16600   13.34170  806.58170    0.05730    2.34490    -999.25    0.19440    0.21350    1.23980    0.05730  104.82800  104.82800   77.81430    -999.25   80.40620   77.81430    1.23980    1.26680    1.26680    -999.25    0.43140    0.38920    1.26600    2.34490    1.58140  -51.04640   -7.01270    1.58140 9603.93850
 8200.00000   13.09340   11.64410   12.26840   13.09340  557.04100    0.13440    2.35720    -999.25    0.18910    0.20630    1.79520    0.13440   86.43240   86.43240   78.04750    -999.25   79.38930   78.04750    1.79520    1.83700    1.83700    -999.25    0.39560    0.35260    1.67810    2.35720    2.17750  -51.11610   -7.15560    2.17750 9556.13870
 8250.00000   13.24720   11.54400   12.37680   13.24720  838.29330    0.07050    2.33690    -999.25    0.18580    0.21820    1.19290    0.07050  102.12240  102.12240   74.47270    -999.25   74.14770   74.47270    1.19290    1.22110    1.22110    -999.25    0.41130    0.36870    1.45130    2.33690    1.64300  -49.85380   -5.96660    1.64300 9542.16990
 8300.00000   13.94610   12.04680   12.47130   13.94610  878.81180    0.07450    2.39150    -999.25    0.16050    0.18630    1.13790    0.07450  104.32280  104.32280   79.55850    -999.25   80.78030   79.55850    1.13790    1.16400    1.16400    -999.25    0.41430    0.37170    1.25980    2.39150    1.43220  -50.13230   -6.31840    1.43220 9800.12500
