~Version ---------------------------------------------------
VERS. 2.0 : CWLS log ASCII Standard -VERSION 2.0
WRAP.  NO : ONE LINE PER DEPTH STEP
~Well ------------------------------------------------------
STRT.FT                            300.0 : START DEPTH
STOP.FT                          22000.0 : STOP DEPTH
STEP.FT                         50.00000 : STEP LENGTH
NULL.                            -999.25 : NULL VALUE
COMP. PAN AMERICAN PETROLEUM CORPORATION : COMPANY
WELL.                  A. M. FOERSTER #1 : WELL
FLD .                            WILDCAT : FIELD
LOC .                                    : LOCATION
CNTY.                           LA SALLE : COUNTY
STAT.                              TEXAS : STATE
CTRY.           UNITED STATES OF AMERICA : COUNTRY
SRVC.                       Schlumberger : SERVICE COMPANY
DATE.                        20-Aug-1964 : LOGDATE
API .                     42283002040000 : API NUMBER
UWI .                     42283002040000 : UNIQUE WELL ID
SLAT.WGS84                 28.3371650608 : SURFACE LATITUDE
SLON.WGS84                -98.9649233845 : SURFACE LONGITUDE
~Curve Information -----------------------------------------
DEPT  .FT    : DEPTH
CONDWS.MMHO  : CONDUCTIVITY [CILDED] FROM IEL
ILDED .OHMM  : INDUCTION LOG DEEP RESISTIVITY FROM IEL
ASNED .OHMM  : SHORT NORMAL RESISTIVITY 16 INCH FROM IEL
CILDED.MMHO  : CONDUCTIVITY FROM IEL
DRESWS.OHMM  : DEEP RESISTIVITY [ILDED] FROM IEL [IF ILDED < 1 THEN 1000/CILDED]
DTWS  .US/F  : DELTA TIME FROM SONIC LOG
NEUTWS.CU    : NEUTRON FROM GAMMA RAY NEUTRON LOG
GRNED .GAPI  : GAMMA RAY FROM NEUTRON LOG
NEUTED.NAPI  : NEUTRON  FROM GAMMA RAY NEUTRON LOG
SPED  .MV    : SPONTANEOUS POTENTIAL [MECHANICAL SHIFTS REMOVED]
SPWS  .MV    : SPONTANEOUS POTENTIAL [BASELINE 0 MV]
CALSED.IN    : CALIPER FROM SONIC LOG
DTED  .US/F  : DELTA TIME FROM SONIC LOG
SRESWS.OHMM  : SHALLOW RESISTIVITY [ASNED] FROM IEL
GRWS  .GAPI  : GAMMA RAY [GRNED] FROM GAMMA RAY NEUTRON LOG
CALWS .IN    : CALIPER [CALSED] FROM SONIC LOG
SPSED .MV    : SPONTANEOUS POTENTIAL FROM SONIC LOG [MECHANICAL SHIFTS REMOVED]
~Params ----------------------------------------------------
EKB .F                 473.5 : KELLY BUSHING
EGL .F                   445 : ELEVATION GROUND LEVEL
EDF .F                   471 : ELEVATION DERRICK FLOOR
EPD .F                   445 : ELEVATION PERMANENT DATUM
TD  .F               21995.0 : TOTAL DEPTH
DATE.            20-AUG-1964 : DATE LOGGED
CLNT.                A2DTECH : CLIENT CODE
SL  .   1320' FSL & 660' FWL : SURFACE LOCATION
PD  .                     GL : PERMANENT DATUM
LMF .                     KB : LOG MEASURED FROM
DMF .                     KB : DRILLING MEASURED FROM
DAPD.F                  28.5 : FEET ABOVE PERMANENT DATUM
DD  .F                 21995 : DEPTH DRILLER
DL  .F                 21992 : DEPTH LOGGER
BLI .F                 21991 : BOTTOM LOG INTERVAL
TLI .F                 20005 : TOP LOG INTERVAL
CS1 .IN                9.625 : CASING SIZE
CBD1.        9.625" @ 15993' : CASING DRILLER 1
CBL1.F                 15993 : CASING LOGGER 1
BS1 .IN                  8.5 : BIT SIZE
BSD1.F                 21995 : DEPTH DRILLED WITH BIT1
DFT .              XP-20-O.E : TYPE FLUID IN HOLE
DFD .                   18.4 : DENSITY
DFV .                     54 : VISCOSITY
DFPH.                    8.9 : PH
DFL .                      4 : FLUID LOSS
MSS .                MUD/PIT : SOURCE OF SAMPLE
RMS .OHMM               0.15 : RM
RMF .OHMM              0.089 : RMF
RMC .OHMM               0.32 : RMC
MFSS.                   MEAS : SOURCE RMF.
MCSS.                   MEAS : SOURCE RMC.
RMB .OHMM              0.046 : RM. AT BHT
BHT .F                   404 : BHT.
TCS .HRS                  10 : TIME CIRC. STOPPED
LUN .                   4526 : LOGGING UNIT NUMBER
LUL .                    KEN : LOGGING UNIT LOCATION
ENGI.                  HARSH : RECORDED BY
WITN.          FREEMAN/WALSH : WITNESSED BY
ORIG.          1" & 5" PRINT : ORIGIN OF DATA
UWI .         42283002040000 : UNIQUE WELL ID
DICO. A2D TECHNOLOGIES, INC. : DIGITIZING COMPANY
~Other -----------------------------------------------------
~ASCII -----------------------------------------------------
# ...
 10550.00000   39.13100   24.96200   23.70600   39.13100   24.96200   85.89500    -999.25    -999.25    -999.25  -27.95800   -4.54520   12.90300   85.89500   23.70600    -999.25   12.90300  -12.75400
 10600.00000   22.73000   39.60300   33.08700   22.73000   39.60300   72.06700    -999.25    -999.25    -999.25  -29.38000   -6.25470   13.13600   72.06700   33.08700    -999.25   13.13600  -12.36900
 10650.00000   21.63600   42.87300   30.54700   21.63600   42.87300   75.36500    -999.25    -999.25    -999.25  -30.15200   -7.31430   12.90300   75.36500   30.54700    -999.25   12.90300  -26.32700
 10700.00000    7.91100  116.12000   53.83200    7.91100  116.12000   50.38300    -999.25    -999.25    -999.25  -28.26200   -5.71180   13.08100   50.38300   53.83200    -999.25   13.08100   10.62100
 10750.00000   56.21200   17.77100   14.84900   56.21200   17.77100   60.16200    -999.25    -999.25    -999.25  -23.96000   -1.69730   13.42000   60.16200   14.84900    -999.25   13.42000  -32.26700
 10800.00000   23.19700   38.19200   26.22000   23.19700   38.19200   54.22800    -999.25    -999.25    -999.25  -22.90300   -0.53660   13.40200   54.22800   26.22000    -999.25   13.40200   -3.11500
 10850.00000    4.73000  152.27200   57.50800    4.73000  152.27200   49.49500    -999.25    -999.25    -999.25  -40.78400  -17.81590   13.69400   49.49500   57.50800    -999.25   13.69400  -34.58700
 10900.00000   20.79500   43.68500   34.69100   20.79500   43.68500   50.99300    -999.25    -999.25    -999.25 -106.09000  -82.52020   13.25500   50.99300   34.69100    -999.25   13.25500  -94.24200
 10950.00000   88.97900   11.24100   20.42700   88.97900   11.24100   56.09900    -999.25    -999.25    -999.25 -149.77000 -125.59850   13.51300   56.09900   20.42700    -999.25   13.51300 -134.67900
 11000.00000   33.08500   28.40700   31.15800   33.08500   28.40700   50.58600    -999.25    -999.25    -999.25 -149.46800 -124.69480   12.90500   50.58600   31.15800    -999.25   12.90500 -127.17200
 11050.00000   21.70100   41.57900   39.07200   21.70100   41.57900   49.85900    -999.25    -999.25    -999.25 -129.19500 -103.82010   13.29500   49.85900   39.07200    -999.25   13.29500 -109.88100
 11100.00000   55.03100   17.46600   26.95200   55.03100   17.46600   53.27000    -999.25    -999.25    -999.25 -152.20800 -126.23140   13.07900   53.27000   26.95200    -999.25   13.07900 -145.73500
 11150.00000  107.62800    9.14500   18.69500  107.62800    9.14500   57.56600    -999.25    -999.25    -999.25 -153.81500 -127.23670   12.41600   57.56600   18.69500    -999.25   12.41600 -139.57100
 11200.00000  136.34900    7.42600   18.93500  136.34900    7.42600   54.98200    -999.25    -999.25    -999.25 -156.45900 -129.27900   12.37400   54.98200   18.93500    -999.25   12.37400 -136.69000
 11250.00000  148.43800    6.98800   19.59200  148.43800    6.98800   55.41700    -999.25    -999.25    -999.25 -159.58300 -131.80130   12.58100   55.41700   19.59200    -999.25   12.58100 -129.13200
 11300.00000   81.49900   12.23900   21.58000   81.49900   12.23900   53.42000    -999.25    -999.25    -999.25 -154.24700 -125.86360   12.91200   53.42000   21.58000    -999.25   12.91200 -129.98400
 11350.00000  194.96100    5.71800   15.57000  194.96100    5.71800   55.80200    -999.25    -999.25    -999.25 -156.97900 -127.99390   12.43700   55.80200   15.57000    -999.25   12.43700 -130.87900
 11400.00000  153.16900    6.87300   17.50600  153.16900    6.87300   56.40800    -999.25    -999.25    -999.25 -158.94400 -129.35720   12.35700   56.40800   17.50600    -999.25   12.35700 -133.60500
 11450.00000   49.29000   19.82300   23.91100   49.29000   19.82300   50.59000    -999.25    -999.25    -999.25 -147.08500 -116.89650   12.83900   50.59000   23.91100    -999.25   12.83900 -122.70900
 11500.00000   55.52800   17.58300   21.68600   55.52800   17.58300   51.97300    -999.25    -999.25    -999.25 -145.24400 -114.45380   12.91600   51.97300   21.68600    -999.25   12.91600 -115.70800
 11550.00000   45.41800   20.91100   21.66300   45.41800   20.91100   52.01400    -999.25    -999.25    -999.25 -138.54600 -107.15410   13.40300   52.01400   21.66300    -999.25   13.40300 -113.15500
 11600.00000   93.53900   10.61100   15.44600   93.53900   10.61100   52.14800    -999.25    -999.25    -999.25 -139.36500 -107.37140   13.13100   52.14800   15.44600    -999.25   13.13100 -108.92400
 11650.00000   83.40600    8.98940   15.38000   83.40600    8.98940   52.37300    -999.25    -999.25    -999.25 -129.41300  -96.81770   12.75800   52.37300   15.38000    -999.25   12.75800 -101.60200
 11700.00000   17.75700   47.25110   21.15100   17.75700   47.25110   51.27800    -999.25    -999.25    -999.25 -109.48500  -76.28800   13.37100   51.27800   21.15100    -999.25   13.37100  -86.38900
 11750.00000   26.16200   28.75190   18.45600   26.16200   28.75190   53.21100    -999.25    -999.25    -999.25 -105.32500  -71.52630   13.34100   53.21100   18.45600    -999.25   13.34100  -79.43500
 11800.00000   42.50100   17.53340   17.86800   42.50100   17.53340   52.17900    -999.25    -999.25    -999.25 -106.51600  -72.11560   12.88200   52.17900   17.86800    -999.25   12.88200  -79.04500
 11850.00000   44.14300   16.82310   22.44200   44.14300   16.82310   51.16500    -999.25    -999.25    -999.25  -98.37000  -63.36790   13.55800   51.16500   22.44200    -999.25   13.55800  -72.03800
 11900.00000    1.79100  287.37000   69.44400    1.79100  287.37000   49.03600    -999.25    -999.25    -999.25  -63.52100  -27.91730   13.71900   49.03600   69.44400    -999.25   13.71900  -61.34700
 11950.00000   13.33800   75.48690   48.64100   13.33800   75.48690   48.94800    -999.25    -999.25    -999.25  -44.68100   -8.47560   13.39700   48.94800   48.64100    -999.25   13.39700  -48.08100
 12000.00000    3.48400  141.04060   51.20300    3.48400  141.04060   50.10900    -999.25    -999.25    -999.25  -51.60000  -14.79290   13.65100   50.10900   51.20300    -999.25   13.65100  -47.45300
 12050.00000   17.82600   78.97500   40.90400   17.82600   78.97500   52.16900    -999.25    -999.25    -999.25  -45.24300   -7.83420   13.09700   52.16900   40.90400    -999.25   13.09700  -36.49800
 12100.00000    7.98500  108.46950   42.92400    7.98500  108.46950   50.70600    -999.25    -999.25    -999.25  -38.86100   -0.85050   12.88100   50.70600   42.92400    -999.25   12.88100  -24.36100
 12150.00000   14.22100   74.25980   34.41000   14.22100   74.25980   50.70400    -999.25    -999.25    -999.25  -37.48200    0.92740   12.86100   50.70400   34.41000    -999.25   12.86100  -19.17000
 12200.00000   12.01800   63.88110   47.67000   12.01800   63.88110   50.46000    -999.25    -999.25    -999.25  -46.98200   -8.93670   13.18500   50.46000   47.67000    -999.25   13.18500  -36.65300
 12250.00000   10.82200   90.79950   45.47300   10.82200   90.79950   50.61000    -999.25    -999.25    -999.25  -58.08100  -20.39980   13.81500   50.61000   45.47300    -999.25   13.81500  -53.98700
 12300.00000   16.88500   70.02660   42.81800   16.88500   70.02660   50.88700    -999.25    -999.25    -999.25  -51.00600  -13.68880   13.09600   50.88700   42.81800    -999.25   13.09600  -58.61200
 12350.00000   13.03300   73.88390   38.07700   13.03300   73.88390   52.32000    -999.25    -999.25    -999.25  -45.35400   -8.40090   13.06600   52.32000   38.07700    -999.25   13.06600  -44.09200
 12400.00000   26.21400   29.77990   36.17900   26.21400   29.77990   51.84700    -999.25    -999.25    -999.25  -47.15800  -10.56900   14.84900   51.84700   36.17900    -999.25   14.84900  -42.71400
 12450.00000   12.83700   73.27570   43.43800   12.83700   73.27570   50.38700    -999.25    -999.25    -999.25  -51.68200  -15.45710   14.63000   50.38700   43.43800    -999.25   14.63000  -49.79600
 12500.00000   17.66700   51.73610   45.20300   17.66700   51.73610   50.27400    -999.25    -999.25    -999.25  -50.72600  -14.86520   14.98300   50.27400   45.20300    -999.25   14.98300  -51.60700
