~Version ---------------------------------------------------
VERS.      2.0 : CWLS log ASCII Standard -VERSION 2.0
WRAP.      YES : MULTIPLE LINES PER DEPTH STEP
CREA. 09/06/13 : LAS CREATION DATE
~Well ------------------------------------------------------
STRT.FT                 1750.0 : START DEPTH
STOP.FT                 7850.0 : STOP DEPTH
STEP.FT               50.00000 : STEP LENGTH
NULL.                  -999.25 : NULL VALUE
COMP.             LOVELADY I W : COMPANY
WELL.       REYNOLDS-WILSON #1 : WELL
FLD .                  WILDCAT : FIELD
LOC .                          : LOCATION
CNTY.                   DIMMIT : COUNTY
STAT.                    TEXAS : STATE
CTRY. UNITED STATES OF AMERICA : COUNTRY
SRVC.             Schlumberger : SERVICE COMPANY
DATE.              29-May-1978 : LOGDATE
API .           42127317010000 : API NUMBER
UWI .           42127317010000 : UNIQUE WELL ID
SLAT.WGS84       28.5815005355 : SURFACE LATITUDE
SLON.WGS84      -99.7303290517 : SURFACE LONGITUDE
~Curve Information -----------------------------------------
DEPT    .FT    : DEPTH FEET
ALL8ED  .OHMM  : AMPLIFIED LATARAL 8'
CALDED  .IN    : CALIPER FROM DENSITY LOG
CALWS   .IN    : CALIPER [CALDED]
CILDED  .MMHO  : CONDUCTIVITY FROM RESISTIVITY LOG
CONDWS  .MMHO  : CONDUCTIVITY [1000/DRESWS]
CORRED  .G/C3  : DENSITY CORRECTION FROM DENSITY LOG
DCORWS  .G/C3  : DENSITY CORRECTION [CORRED]
DENWS   .G/C3  : BULK DENSITY [M=2.65 F=1.0] [RHOBED]
DPHILSED.V/V   : DENSITY POROSITY [M=2.71 F=1.0] FROM DENSITY LOG
DPHISSED.V/V   : DENSITY POROSITY [M=2.65 F=1.0] FROM DENSITY LOG
DPOLSWS .V/V   : DENSITY POROSITY LIMESTONE [CALCULATED WITH DENWS]
DRESWS  .OHMM  : DEEP RESISTIVITY [ILDED] IF DRESWS<1;1000/CONDWS
GRDED   .GAPI  : GAMMA RAY FROM DENSITY LOG
GRWS    .GAPI  : GAMMA RAY [GRDED]
ILDED   .OHMM  : INDUCTION LOG DEEP RESISTIVITY
NPHILSED.V/V   : NEUTRON POROSITY LIMESTONE FROM DENSITY LOG
NPHISSED.V/V   : NEUTRON POROSITY SANDSTONE FROM DENSITY LOG
NPOLSWS .V/V   : NEUTRON POROSITY LIMESTONE [NPHILSED], CONVERTED MATRIX [NPHISSED] TO LIMESTONE FROM TOP-5725'
RHOBED  .G/C3  : BULK DENSITY FROM DENSITY LOG
SPRED   .MV    : SPONTANEOUS POTENTIAL FROM RESISTIVITY LOG     RESISTIVITY LOG
SPWS    .MV    : SPONTANEOUS POTENTIAL [BASELINE 0 MV] [SPRED]
SRESWS  .OHMM  : SHALLOW RESISTIVITY [ALL8ED]
~Params ----------------------------------------------------
PD  .                     GL : PERMANENT DATUM
EPD .FT                565.3 : ELEVATION PERMANENT DATUM
LMF .                     KB : LOG MEASURED FROM
DAPD.FT                   11 : FEET ABOVE PERMANENT DATUM
DMF .                     KB : DRILLING MEASURED FROM
EDF .FT                575.3 : DRILLING FLOOR
EGL .FT                565.3 : GROUND LEVEL
DATE.               05/29/78 : RUN DATE
RUN .                      2 : RUN NUMBER
DD  .FT                 7872 : DEPTH DRILLER
DL  .FT                 7875 : DEPTH LOGGER
BLI .FT                 7869 : BOTTOM LOG INTERVAL
TLI .FT                 7080 : TOP LOG INTERVAL
CS  .IN                10.75 : CASING SIZE
CBD .FT                 1725 : CASING BOTTOM DRILLER
BS  .IN                 8.75 : BIT SIZE
BSD .FT                 7872 : BIT SIZE AT DEPTH
DFT .              DISPERSED : DRILLING FLUID TYPE
DFD .                   10.1 : DRILLING FLUID DENSITY
DFV .                     56 : DRILLING FLUID VISCOSITY
DFPH.                     10 : DRILLING FLUID PH
DFL .                    8.2 : DRILLING FLUID LOSS
MSS .              CIRC TANK : MUD SAMPLE SOURCE
RMS .OHMM               1.06 : RESISTIVITY MUD SAMPLE
MST .DEGF                 75 : MUD SAMPLE TEMPERATURE
RMF .OHMM                0.6 : RESISTIVITY MUD FILTRATE SAMPLE
MFST.DEGF                 75 : MUD FILTRATE SAMPLE TEMPERATURE
MFSS.                   MEAS : MUD FILTRATE SAMPLE SOURCE
RMB .OHMM               0.44 : RESISTIVITY MUD AT BHT
TCS .HRS                 900 : TIME CIRCULATED STOPPED
TLAB.HRS                1500 : TIME LOGGER AT BOTTOM
LUN .                   2739 : LOGGING UNIT NUMBER
LUL .                 LAREDO : LOGGING UNIT LOCATION
CLNT.                A2DTECH : CLIENT CODE
ORIG.               1" PRINT : ORIGIN OF DATA
UWI .         42127317010000 : UNIQUE WELL ID
DICO. A2D Technologies, Inc. : DIGITIZING COMPANY
~Other -----------------------------------------------------
~ASCII -----------------------------------------------------
# ...
 3350.00000    2.87680   12.32810   12.32810  387.96070  444.34570    0.13170    0.13170    2.33760    -999.25    0.22380    0.21780    2.25050   85.69570   85.69570    2.25050    -999.25    0.34730    0.29830    2.33760  -33.79520   -4.10420    2.87680
 3400.00000    3.43660   11.78260   11.78260  311.78520  366.85130    0.14410    0.14410    2.39260    -999.25    0.16280    0.18560    2.72590   81.95210   81.95210    2.72590    -999.25    0.33720    0.28760    2.39260  -32.73940   -3.19000    3.43660
 3450.00000    2.73180   11.26890   11.26890  422.38990  476.09980    0.09590    0.09590    2.35020    -999.25    0.20230    0.21040    2.10040   87.57710   87.57710    2.10040    -999.25    0.36200    0.31390    2.35020  -31.42230   -2.01440    2.73180
 3500.00000    3.70740   11.43210   11.43210  313.53760  326.72260    0.12110    0.12110    2.21100    -999.25    0.29580    0.29180    3.06070   77.32930   77.32930    3.06070    -999.25    0.31210    0.26120    2.21100  -34.70530   -5.43900    3.70740
 3550.00000    2.46890   11.83610   11.83610  448.22950  500.45040    0.06520    0.06520    2.45780    -999.25    0.14120    0.14750    1.99820   92.07070   92.07070    1.99820    -999.25    0.35690    0.30850    2.45780  -33.64330   -4.51850    2.46890
 3600.00000    2.44250   12.30680   12.30680  457.92010  550.63050    0.07790    0.07790    2.35030    -999.25    0.20960    0.21040    1.81610   89.51450   89.51450    1.81610    -999.25    0.40980    0.36570    2.35030  -32.75740   -3.77420    2.44250
 3650.00000    3.46330   12.30420   12.30420  330.35780  385.46040    0.13780    0.13780    2.30160    -999.25    0.21650    0.23880    2.59430   77.75720   77.75720    2.59430    -999.25    0.33340    0.28360    2.30160  -33.04290   -4.20120    3.46330
 3700.00000    6.61020   10.95620   10.95620  204.78350  212.21960    0.04750    0.04750    2.59560    -999.25    0.09780    0.06690    4.71210   63.20850   63.20850    4.71210    -999.25    0.23610    0.18370    2.59560  -32.07030   -3.37020    6.61020
 3750.00000    4.23940   10.20290   10.20290  337.40090  480.53820    0.03360    0.03360    2.37030    -999.25    0.23340    0.19870    2.08100   48.62350   48.62350    2.08100    -999.25    0.37980    0.33310    2.37030  -51.97900  -23.42040    4.23940
 3800.00000    7.22270    9.13980    9.13980  294.55890  328.31020    0.06880    0.06880    2.47870    -999.25    0.12390    0.13530    3.04590   42.89780   42.89780    3.04590    -999.25    0.24500    0.19240    2.47870  -70.38870  -41.97170    7.22270
 3850.00000    4.87120   10.53710   10.53710  242.63160  275.70240    0.12050    0.12050    2.46580    -999.25    0.15490    0.14280    3.62710   67.16920   67.16920    3.62710    -999.25    0.25940    0.20680    2.46580  -35.89390   -7.61840    4.87120
 3900.00000    2.20150   11.16760   11.16760  511.98510  610.91090    0.16390    0.16390    2.26130    -999.25    0.25880    0.26240    1.63690   98.28190   98.28190    1.63690    -999.25    0.44360    0.40300    2.26130  -34.02930   -5.89540    2.20150
 3950.00000    5.49320   10.40520   10.40520  228.39490  256.16070    0.02880    0.02880    2.50740    -999.25    0.07930    0.11850    3.90380   75.09130   75.09130    3.90380    -999.25    0.24170    0.18910    2.50740  -40.31240  -12.32010    5.49320
 4000.00000    4.48110   10.40510   10.40510  255.89740  281.72980    0.05390    0.05390    2.44840    -999.25    0.14160    0.15300    3.54950  100.87650  100.87650    3.54950    -999.25    0.32080    0.27030    2.44840  -37.42530   -9.57450    4.48110
 4050.00000    4.87050   10.23010   10.23010  232.72540  253.27360    0.03450    0.03450    2.40520    -999.25    0.15650    0.17820    3.94830   74.76480   74.76480    3.94830    -999.25    0.27140    0.21900    2.40520  -36.94350   -9.23430    4.87050
 4100.00000    3.90740   11.63100   11.63100  349.92250  395.83580    0.06370    0.06370    2.10310    -999.25    0.36300    0.35490    2.52630   96.67640   96.67640    2.52630    -999.25    0.38380    0.33740    2.10310  -30.87050   -3.30400    3.90740
 4150.00000    4.53520   11.92690   11.92690  293.61980  343.44200    0.13340    0.13340    2.13300    -999.25    0.28560    0.33740    2.91170   74.54260   74.54260    2.91170    -999.25    0.30290    0.25160    2.13300  -31.00010   -3.69170    4.53520
 4200.00000    2.13530   12.88770   12.88770  538.92650  685.82400    0.09190    0.09190    2.21150    -999.25    0.27230    0.29150    1.45810   81.87490   81.87490    1.45810    -999.25    0.39310    0.34750    2.21150  -30.37620   -3.32600    2.13530
 4250.00000    1.98570   11.95810   11.95810  605.85570  753.52270    0.14570    0.14570    2.37160    -999.25    0.17850    0.19790    1.32710   82.55840   82.55840    1.32710    -999.25    0.44620    0.40590    2.37160  -30.49410   -3.70210    1.98570
 4300.00000    4.49420   10.75300   10.75300  270.03950  295.93680    0.03430    0.03430    2.53860    -999.25    0.07900    0.10020    3.37910   88.14470   88.14470    3.37910    -999.25    0.24160    0.18900    2.53860  -31.36500   -4.83110    4.49420
 4350.00000    2.11880   12.36590   12.36590  545.16380  618.46740    0.07880    0.07880    2.49960    -999.25    0.12830    0.12300    1.61690   93.99550   93.99550    1.61690    -999.25    0.36180    0.31370    2.49960  -28.73070   -2.45500    2.11880
 4400.00000    2.06280   12.71400   12.71400  567.52120  709.11930    0.06050    0.06050    2.43680    -999.25    0.13230    0.15980    1.41020   92.83790   92.83790    1.41020    -999.25    0.37450    0.32740    2.43680  -29.41520   -3.39770    2.06280
 4450.00000    3.41280   11.33570   11.33570  318.60860  307.42740    0.01670    0.01670    2.54220    -999.25    0.08310    0.09810    3.25280  100.25610  100.25610    3.25280    -999.25    0.27390    0.22150    2.54220  -30.51810   -4.75880    3.41280
 4500.00000    2.58890   13.52890   13.52890  418.86670  465.02980    0.12370    0.12370    2.30250    -999.25    0.21980    0.23830    2.15040  101.34670  101.34670    2.15040    -999.25    0.35580    0.30730    2.30250  -28.77230   -3.27110    2.58890
 4550.00000    3.25480   14.28010   14.28010  329.42890  387.32670    0.13820    0.13820    2.46030    -999.25    0.11110    0.14600    2.58180  120.88380  120.88380    2.58180    -999.25    0.26390    0.21130    2.46030  -29.55840   -4.31540    3.25480
 4600.00000    2.54040   16.01240   16.01240  420.31250  568.89290    0.14000    0.14000    2.39460    -999.25    0.18590    0.18440    1.75780  105.39120  105.39120    1.75780    -999.25    0.32740    0.27720    2.39460  -27.44840   -2.46360    2.54040
 4650.00000    2.50460   16.59250   16.59250  433.16600  520.26430    0.11880    0.11880    2.40290    -999.25    0.17420    0.17960    1.92210   98.63570   98.63570    1.92210    -999.25    0.28590    0.23400    2.40290  -27.33160   -2.60490    2.50460
 4700.00000    2.88170   14.72360   14.72360  376.28360  440.81990    0.04410    0.04410    2.29650    -999.25    0.18620    0.24180    2.26850  100.04760  100.04760    2.26850    -999.25    0.33330    0.28350    2.29650  -27.57630   -3.10780    2.88170
 4750.00000    3.26940   12.16680   12.16680  332.94160  388.44000    0.00380    0.00380    2.46810    -999.25    0.10840    0.14150    2.57440   93.40080   93.40080    2.57440    -999.25    0.28920    0.23750    2.46810  -28.73390   -4.52360    3.26940
 4800.00000    2.96110   13.38980   13.38980  351.39060  399.72820    0.05740    0.05740    2.47170    -999.25    0.12580    0.13940    2.50170  112.74820  112.74820    2.50170    -999.25    0.34310    0.29380    2.47170  -28.01980   -4.06760    2.96110
 4850.00000    3.49970   12.07620   12.07620  298.91240  359.86760    0.05200    0.05200    2.40840    -999.25    0.15500    0.17640    2.77880   92.32100   92.32100    2.77880    -999.25    0.29630    0.24480    2.40840  -30.25690   -6.56290    3.49970
 4900.00000    3.68290   12.79930   12.79930  298.26370  321.33680    0.03740    0.03740    2.53860    -999.25    0.09540    0.10020    3.11200   89.99960   89.99960    3.11200    -999.25    0.28130    0.22920    2.53860  -30.14810   -6.71230    3.68290
