~Version ---------------------------------------------------
VERS. 2.0 : CWLS log ASCII Standard -VERSION 2.0
WRAP. YES : MULTIPLE LINES PER DEPTH STEP
~Well ------------------------------------------------------
STRT.FT                        2500.0 : START DEPTH
STOP.FT                       18000.0 : STOP DEPTH
STEP.FT                      50.00000 : STEP LENGTH
NULL.                         -999.25 : NULL VALUE
COMP. UNION PACIFIC RESOURCES COMPANY : COMPANY
WELL.       UPR T-BAR-X KING COBRA #1 : WELL
FLD .                         WILDCAT : FIELD
LOC .                                 : LOCATION
CNTY.                            LEON : COUNTY
STAT.                           TEXAS : STATE
CTRY.        UNITED STATES OF AMERICA : COUNTRY
SRVC.                    Schlumberger : SERVICE COMPANY
DATE.                     05-Nov-1997 : LOGDATE
API .                  42289312660000 : API NUMBER
UWI .                  42289312660000 : UNIQUE WELL ID
SLAT.WGS84              31.2008912115 : SURFACE LATITUDE
SLON.WGS84             -96.2874133979 : SURFACE LONGITUDE
~Curve Information -----------------------------------------
DEPT    .FT    : DEPTH FEET
AT10ED  .OHMM  : 10 INCH RESISTIVITY TWO FOOT RESOLUTION FROM AIT LOG
AT20ED  .OHMM  : 20 INCH RESISTIVITY TWO FOOT RESOLUTION FROM AIT LOG
AT30ED  .OHMM  : 30 INCH RESISTIVITY TWO FOOT RESOLUTION FROM AIT LOG
AT60ED  .OHMM  : 60 INCH RESISTIVITY TWO FOOT RESOLUTION FROM AIT LOG
AT90ED  .OHMM  : 90 INCH RESISTIVITY TWO FOOT RESOLUTION FROM AIT LOG
CALDED  .IN    : CALIPER FROM DENSITY LOG [DEP ADJ TO GRRED]
CALRED  .IN    : CALIPER FROM RESISTIVITY LOG
CALWS   .IN    : CALIPER [2484 CALICAL 15888 CALRED]
CGRDED  .GAPI  : GAMMA RAY FROM DENSITY LOG [DEP ADJ TO GRRED]
CONDWS  .MMHO  : CONDUCTIVITY [1000/DRESWS]
DCALED  .IN    : DIFFERENTIAL CALIPER FROM DENSITY LOG
DCORWS  .G/C3  : DENSITY CORRECTION [2484 DRHOED 9946 DRHED 15888.5 DRHOED]
DENWS   .G/C3  : BULK DENSITY [M=2.71 F=1.0] [CALCULATED FROM DPOWS]
DPHILSED.V/V   : DENSITY POROSITY [M=2.71 F=1.0] FROM DENSITY LOG [DEP ADJ TO GRRED]
DPOLSED .V/V   : DENSITY POROSITY HIGH RESOLUTION [M=2.71 F=1.0] FROM DENSITY LOG
DPOWS   .V/V   : DENSITY POROSITY [M=2.71 F=1.0] [2484 DPHILSED 9942 DPOLSED 15888 DPHILSED]
DRESWS  .OHMM  : DEEP RESISTIVITY [A2484 AT90ED 9948.5 IDPHED 15892 LLDED]
DRHED   .G/C3  : DENSITY CORRECTION
DRHOED  .G/C3  : DENSITY CORRECTION FROM DENSITY LOG [DEP ADJ TO GRRED]
DTCOED  .US/F  : DELTA TIME COMPRESSIONAL FROM SONIC LOG [DEP ADJ TO GRRED]
DTED    .US/F  : DELTA TIME FROM SONIC LOG
DTLED   .US/F  : DELTA TIME LONG SPACING FROM SONIC LOG
DTLFED  .US/F  : DELTA TIME LONG SPACING FAR DETECTOR FROM SONIC LOG
DTLNED  .US/F  : DELTA TIME LONG SPACING NEAR DETECTOR FROM SONIC LOG
DTSMED  .US/F  : DELTA TIME SHEAR WAVE FROM SONIC LOG [DEP ADJ TO GRRED]
DTSWS   .US/F  : DELTA TIME SHEAR [DTSMED]
DTWS    .US/F  : DELTA TIME [2484 DTLNED 10155.5 DTLFED 10297.5 DTLNED 10506.5 DTLFED 10628.5 DTLNED 10694 DTLFED 10859 DTLNED 11620 DTLFED 13285.5 DTLNED 14723 DTLFED 15057 DTLNED 15798 DTLFED 15889.5 DTED 15912.5 DTCOED]
GRRED   .GAPI  : GAMMA RAY FROM RESISTIVITY LOG
GRSED   .GAPI  : GAMMA RAY FROM SONIC LOG [DEP ADJ TO GRRED]
GRWS    .GAPI  : GAMMA RAY [2484 GRRED 9881.5 GRREDNRM 9946 GRRED 15728.5 GRSEDNRM 15878 CGRDED 16070 GRRED]
IDPHED  .OHMM  : INDUCTION DEEP PHASE RESISTIVITY
IMPHED  .OHMM  : INDUCTION MEDIUM PHASE RESISTIVITY
LLDED   .OHMM  : LATEROLOG DEEP RESISTIVITY
LLSED   .OHMM  : LATEROLOG SHALLOW RESISTIVITY
MRESWS  .OHMM  : MEDIUM RESISTIVITY [2484 AT30ED 9949.5 IMPHED]
NPHILSED.V/V   : NEUTRON POROSITY LIMESTONE FROM DENSITY LOG [DEP ADJ TO GRRED]
NPOWS   .V/V   : NEUTRON POROSITY LIMESTONE [2484 NPHILSED 15780.5 NPHILNRM 15883.5 NPHILSED]
PEFED   .B/E   : PHOTOELECTRIC FACTOR FROM DENSITY LOG
PEFLED  .B/E   : PHOTOELECTRIC FACTOR FROM DENSITY LOG
PEFWS   .B/E   : PHOTOELECTRIC FACTOR [2484 PEFED 9952.5 PEFLED]
RESED   .OHMM  : SYNTHETIC RESISTIVITY
SFLUED  .OHMM  : SPHERICALLY FOCUSED LOG RESISTIVITY
SPHILSED.V/V   : SONIC POROSITY FROM SONIC LOG [DEP ADJ TO GRRED]
SPOWS   .V/V   : SONIC POROSITY [CAL FR DTWS; M= 47.6, F=189]
SPRED   .MV    : SPONTANEOUS POTENTIAL FROM RESISTIVITY LOG [SHIFTS ARE REMOVED]
SPWS    .MV    : SPONTANEOUS POTENTIAL [BASELINE 0 MV] [SPRED]
SRESWS  .OHMM  : SHALLOW RESISTIVITY [2484 AT10ED 9945.5 SFLUED 15891.5 LLSED]
TENDED  .LBF   : TENSION FROM DENSITY LOG [DEP ADJ TO GRRED]
TENRED  .LBF   : TENSION FROM RESISTIVITY LOG
~Params ----------------------------------------------------
PD  .                     GL : PERMANENT DATUM
EPD .FT                  348 : ELEVATION PERMANENT DATUM
LMF .                     KB : LOG MEASURED FROM
DAPD.FT                   28 : FEET ABOVE PERMANENT DATUM
DMF .                     KB : DRILLING MEASURED FROM
EKB .FT                  376 : KELLY BUSHING
EDF .FT                  374 : DRILLING FLOOR
EGL .FT                  348 : GROUND LEVEL
DATE.               11/05/97 : RUN DATE
RUN .                      3 : RUN NUMBER
DD  .FT                18038 : DEPTH DRILLER
DL  .FT                18024 : DEPTH LOGGER
BLI .FT                 1800 : BOTTOM LOG INTERVAL
TLI .FT                15888 : TOP LOG INTERVAL
CS  .IN                7.625 : CASING SIZE
CBD .FT                15888 : CASING BOTTOM DRILLER
CBL .FT                15888 : CASING BOTTOM LOGGER
BS  .IN                    6 : BIT SIZE
BSD .FT                18038 : BIT SIZE AT DEPTH
DFT .                POLYMER : DRILLING FLUID TYPE
DFD .                   18.2 : DRILLING FLUID DENSITY
DFV .                     40 : DRILLING FLUID VISCOSITY
DFPH.                      9 : DRILLING FLUID PH
DFL .                    5.6 : DRILLING FLUID LOSS
MSS .       CIRCULATION TANK : MUD SAMPLE SOURCE
RMS .OHMM               1.14 : RESISTIVITY MUD SAMPLE
MST .DEGF                 90 : MUD SAMPLE TEMPERATURE
RMF .OHMM              0.969 : RESISTIVITY MUD FILTRATE SAMPLE
MFST.DEGF                 90 : MUD FILTRATE SAMPLE TEMPERATURE
RMC .OHMM              1.311 : RESISTIVITY MUD CAKE
MCST.DEGF                 90 : MUD CAKE SAMPLE TEMPERATURE
MFSS.             CALCULATED : MUD FILTRATE SAMPLE SOURCE
MCSS.             CALCULATED : MUD CAKE SAMPLE SOURCE
RMB .OHMM              0.278 : RESISTIVITY MUD AT BHT
TCS .HRS                2200 : TIME CIRCULATED STOPPED
TLAB.HRS                 445 : TIME LOGGER AT BOTTOM
LUN .                   8400 : LOGGING UNIT NUMBER
LUL .                   6450 : LOGGING UNIT LOCATION
ENGI.                SKRBICH : RECORDING ENGINEER
WITN.          BLANKE WEAVER : WITNESSED BY
CLNT.                A2DTECH : CLIENT CODE
ORIG.         1" 2" 5" PRINT : ORIGIN OF DATA
UWI .         42289312660000 : UNIQUE WELL ID
DICO. A2D Technologies, Inc. : DIGITIZING COMPANY
~Other -----------------------------------------------------
~ASCII -----------------------------------------------------
# ...
 13000.00000    -999.25    -999.25    -999.25    -999.25    -999.25    -999.25    -999.25   11.40040    -999.25   52.28180    2.90040    0.04410    2.67560    -999.25    0.02010    0.02010   19.12710    0.04410    -999.25    -999.25    -999.25    -999.25   60.28970   59.84410    -999.25    -999.25   60.28970   87.99100    -999.25   87.99100   19.12710   21.20040    -999.25    -999.25   21.20040    0.07860    0.07860    -999.25    9.47630    9.47630    9.47630   25.06060    -999.25    0.08970   80.50440  -12.66670   25.06060    -999.25 5669.39110
 13050.00000    -999.25    -999.25    -999.25    -999.25    -999.25    -999.25    -999.25   10.82110    -999.25   39.82650    2.32110    0.03690    2.66910    -999.25    0.02390    0.02390   25.10890    0.03690    -999.25    -999.25    -999.25    -999.25   58.00960   57.83400    -999.25    -999.25   58.00960   85.91210    -999.25   85.91210   25.10890   42.66090    -999.25    -999.25   42.66090    0.05600    0.05600    -999.25    7.75950    7.75950    7.75950   50.00270    -999.25    0.07360   80.61130  -13.36110   50.00270    -999.25 5701.05180
 13100.00000    -999.25    -999.25    -999.25    -999.25    -999.25    -999.25    -999.25   11.13940    -999.25   17.79420    2.63940    0.04080    2.65200    -999.25    0.03390    0.03390   56.19810    0.04080    -999.25    -999.25    -999.25    -999.25   55.29180   55.18840    -999.25    -999.25   55.29180   46.44390    -999.25   46.44390   56.19810   29.63010    -999.25    -999.25   29.63010    0.02820    0.02820    -999.25    5.84480    5.84480    5.84480   60.92950    -999.25    0.05440   76.68120  -18.09240   60.92950    -999.25 5597.79930
 13150.00000    -999.25    -999.25    -999.25    -999.25    -999.25    -999.25    -999.25   14.67260    -999.25  294.62890    6.17260   -0.04220    2.25150    -999.25    0.26810    0.26810    3.39410   -0.04220    -999.25    -999.25    -999.25    -999.25   76.65100   79.65550    -999.25    -999.25   76.65100   82.82780    -999.25   82.82780    3.39410    2.53930    -999.25    -999.25    2.53930    0.18710    0.18710    -999.25   10.02240   10.02240   10.02240    7.02090    -999.25    0.20550   87.78890   -7.78600    7.02090    -999.25 5704.85790
 13200.00000    -999.25    -999.25    -999.25    -999.25    -999.25    -999.25    -999.25   12.64600    -999.25  126.84080    4.14600    0.12430    2.78810    -999.25   -0.04570   -0.04570    7.88390    0.12430    -999.25    -999.25    -999.25    -999.25   69.92720   69.61500    -999.25    -999.25   69.92720   87.90790    -999.25   87.90790    7.88390   10.19070    -999.25    -999.25   10.19070    0.17320    0.17320    -999.25    9.99060    9.99060    9.99060    9.25570    -999.25    0.15790   94.98250   -1.37020    9.25570    -999.25 5508.80960
 13250.00000    -999.25    -999.25    -999.25    -999.25    -999.25    -999.25    -999.25   12.36400    -999.25   84.67330    3.86400    0.05010    2.73720    -999.25   -0.01590   -0.01590   11.81010    0.05010    -999.25    -999.25    -999.25    -999.25   63.46350   62.77290    -999.25    -999.25   63.46350   62.69610    -999.25   62.69610   11.81010   12.22560    -999.25    -999.25   12.22560    0.09160    0.09160    -999.25   10.00350   10.00350   10.00350   13.31940    -999.25    0.11220   92.91700   -4.12020   13.31940    -999.25 5455.23830
 13300.00000    -999.25    -999.25    -999.25    -999.25    -999.25    -999.25    -999.25   11.12080    -999.25  226.32630    2.62080   -0.09340    2.21340    -999.25    0.29040    0.29040    4.41840   -0.09340    -999.25    -999.25    -999.25    -999.25   20.44220   46.36440    -999.25    -999.25   46.36440   65.67920    -999.25   65.67920    4.41840    9.05080    -999.25    -999.25    9.05080    0.03030    0.03030    -999.25   10.02370   10.02370   10.02370    7.89140    -999.25   -0.00870   90.31750   -7.40420    7.89140    -999.25 5329.92330
 13350.00000    -999.25    -999.25    -999.25    -999.25    -999.25    -999.25    -999.25   11.30480    -999.25   25.87390    2.80480    0.12310    2.62140    -999.25    0.05180    0.05180   38.64900    0.12310    -999.25    -999.25    -999.25    -999.25   61.11290   61.56910    -999.25    -999.25   61.56910   30.34940    -999.25   30.34940   38.64900   25.25060    -999.25    -999.25   25.25060    0.00110    0.00110    -999.25   10.03810   10.03810   10.03810   59.43270    -999.25    0.09880   84.07950  -14.32660   59.43270    -999.25 5463.74070
 13400.00000    -999.25    -999.25    -999.25    -999.25    -999.25    -999.25    -999.25   11.45360    -999.25  119.22080    2.95360   -0.01350    2.51710    -999.25    0.11280    0.11280    8.38780   -0.01350    -999.25    -999.25    -999.25    -999.25   66.25500   59.09160    -999.25    -999.25   59.09160   47.09910    -999.25   47.09910    8.38780    8.98970    -999.25    -999.25    8.98970    0.02290    0.02290    -999.25   10.01370   10.01370   10.01370   13.82190    -999.25    0.08130   93.59900   -5.49160   13.82190    -999.25 5766.43070
 13450.00000    -999.25    -999.25    -999.25    -999.25    -999.25    -999.25    -999.25   11.01900    -999.25  141.49280    2.51900   -0.00090    2.35400    -999.25    0.20820    0.20820    7.06750   -0.00090    -999.25    -999.25    -999.25    -999.25   67.09790   65.20740    -999.25    -999.25   65.20740   46.40240    -999.25   46.40240    7.06750    6.52180    -999.25    -999.25    6.52180    0.03920    0.03920    -999.25    9.97380    9.97380    9.97380   16.09340    -999.25    0.12450   89.86570   -9.50680   16.09340    -999.25 5329.62210
 13500.00000    -999.25    -999.25    -999.25    -999.25    -999.25    -999.25    -999.25   11.79260    -999.25  122.35860    3.29260    0.18810    2.70470    -999.25    0.00310    0.00310    8.17270    0.18810    -999.25    -999.25    -999.25    -999.25   64.76700   63.06100    -999.25    -999.25   63.06100   65.18890    -999.25   65.18890    8.17270    6.24050    -999.25    -999.25    6.24050    0.09670    0.09670    -999.25    9.97340    9.97340    9.97340   11.57500    -999.25    0.10930   88.66090  -10.09740   11.57500    -999.25 5510.22070
 13550.00000    -999.25    -999.25    -999.25    -999.25    -999.25    -999.25    -999.25   10.65940    -999.25    2.10080    2.15940    0.00240    2.63720    -999.25    0.04260    0.04260  476.01890    0.00240    -999.25    -999.25    -999.25    -999.25   55.10510   55.58930    -999.25    -999.25   55.58930   17.53540    -999.25   17.53540  476.01890  449.03910    -999.25    -999.25  449.03910   -0.00520   -0.00520    -999.25    4.21070    4.21070    4.21070  206.25940    -999.25    0.05650   74.09510  -24.04910  206.25940    -999.25 5553.88040
 13600.00000    -999.25    -999.25    -999.25    -999.25    -999.25    -999.25    -999.25   10.77130    -999.25   27.84750    2.27130    0.01200    2.72180    -999.25   -0.00690   -0.00690   35.90990    0.01200    -999.25    -999.25    -999.25    -999.25   50.80340   54.69950    -999.25    -999.25   54.69950   32.48380    -999.25   32.48380   35.90990   57.14160    -999.25    -999.25   57.14160    0.00780    0.00780    -999.25    5.34440    5.34440    5.34440   72.55060    -999.25    0.05020   76.97870  -20.55140   72.55060    -999.25 5755.48440
 13650.00000    -999.25    -999.25    -999.25    -999.25    -999.25    -999.25    -999.25   12.47380    -999.25  262.37080    3.97380    0.10920    2.49970    -999.25    0.12300    0.12300    3.81140    0.10920    -999.25    -999.25    -999.25    -999.25   80.30850   75.04190    -999.25    -999.25   75.04190   70.33880    -999.25   70.33880    3.81140    4.14490    -999.25    -999.25    4.14490    0.16840    0.16840    -999.25    9.99410    9.99410    9.99410    4.17400    -999.25    0.19410   91.80240   -5.11360    4.17400    -999.25 5735.05030
 13700.00000    -999.25    -999.25    -999.25    -999.25    -999.25    -999.25    -999.25   11.48730    -999.25  220.28860    2.98730    0.14090    2.70230    -999.25    0.00450    0.00450    4.53950    0.14090    -999.25    -999.25    -999.25    -999.25   72.52400   74.13170    -999.25    -999.25   74.13170   66.58540    -999.25   66.58540    4.53950    4.00440    -999.25    -999.25    4.00440    0.09310    0.09310    -999.25    9.96920    9.96920    9.96920    5.95480    -999.25    0.18760   95.91280   -3.16530    5.95480    -999.25 5795.74020
