~Version ---------------------------------------------------
VERS. 2.0 : CWLS log ASCII Standard -VERSION 2.0
WRAP.  NO : One line per depth step
~Well ------------------------------------------------------
STRT.FT                     1050.0 : START DEPTH
STOP.FT                    19600.0 : STOP DEPTH
STEP.FT                   50.00000 : STEP LENGTH
NULL.                      -999.25 : NULL VALUE
COMP. PAN AMERICAN PETROLEUM CORP. : COMPANY
WELL.           MURRAY FRANKLIN #1 : WELL
FLD .                      WILDCAT : FIELD
LOC .                              : LOCATION
CNTY.                    MC MULLEN : COUNTY
STAT.                        TEXAS : STATE
CTRY.     UNITED STATES OF AMERICA : COUNTRY
SRVC.                 Schlumberger : SERVICE COMPANY
DATE.                  30-Aug-1964 : LOGDATE
API .               42311001580000 : API NUMBER
UWI .               42311001580000 : UNIQUE WELL ID
SLAT.WGS84           28.5946649186 : SURFACE LATITUDE
SLON.WGS84          -98.6650291661 : SURFACE LONGITUDE
~Curve Information -----------------------------------------
DEPT  .FT    : DEPTH
ASNED .OHMM  : AMPLIFIED SHORT NORMAL 16 IN.
CALWS .IN    : CALIPER (CALSED)
CALSED.IN    : CALIPER FROM SONIC LOG (ADJ TO RES.)
CILDED.MMHO  : CONDUCTIVITY FROM LOG
CONDWS.MMHO  : CONDUCTIVITY (1000/DREWS)
DRESWS.OHMM  : DEEP RESISTIVITY (IF ILDED<1, THEN 1000/CILDED)
DTED  .US/F  : DELTA TIME  (ADJ TO RES.)
DTWS  .US/F  : DELTA TIME  (DTED)
GRNED .GAPI  : GAMMA RAY FROM NEUTRON LOG (ADJ TO RES.)
GRWS  .GAPI  : GAMMA RAY (GRNED)
ILDED .OHMM  : DEEP INDUCTION RESISTIVITY
NEUTED.CU    : NEUTRON FROM GAMMA RAY NEUTRON LOG (ADJ TO RES.)
NEUTWS.CU    : NEUTRON FROM GAMMA RAY NEUTRON LOG (NEUTED)
SPWS  .MV    : SPONTANEOUS POTENTIAL BASELINE 0 MV (SPRED)
SPRED .MV    : SPONTANEOUS POTENTIAL FROM RESISTIVITY
SRESWS.OHMM  : SHALLOW RESISTIVITY (ASNED)
~Params ----------------------------------------------------
PD  .                 2" BHO : PERMANENT DATUM
EPD .F                   395 : ELEVATION PERMANENT DATUM
LMF .                     KB : LOG MEASURED FROM
DAPD.F                  23.7 : FEET ABOVE PERMANENT DATUM
DMF .                     KB : DRILLING MEASURED FROM
EKB .F                 418.7 : KELLING BUSHING
EDF .F                 416.0 : DRILLING FLOOR
EGL .F                 395.0 : GROUND LEVEL
DATE.             08-30-1964 : RUN DATE
RUN .                      6 : RUN NUMBER
DD  .F                 19636 : DEPTH DRILLER
DL  .F                 19632 : DEPTH LOGGER
BLI .F                 19632 : BOTTOM LOG INTERVAL
TLI .F                 18788 : TOP LOG INTERVAL
CS  .IN                    5 : CASING SIZE
CBD .F                 16836 : CASING BOTTOM DRILLER
BS  .IN                 4.25 : BIT SIZE
BSD .F                 19636 : BIT SIZE AT DEPTH
DFT .        UNICAL OIL EMUL : DRILLING FLUID TYPE
TCS .HRS                   3 : TIME CURCULATED STOPPED
LUN .                   4521 : LOGGING UNIT NUMBER
LUL .                    KEN : LOGGING UNIT LOCATION
ENGI.                  ELLIS : RECORDING ENGINEER
WITN.       FREEMAN, SHAPLEY : WITNESSED BY
CLNT.                A2DTECH : CLIENT CODE
ORIG.               5" PRINT : ORIGIN OF DATA
UWI .         42311001580000 : UNIQUE WELL ID
DICO. A2D Technologies, Inc. : DIGITIZING COMPANY
~Other -----------------------------------------------------
~ASCII -----------------------------------------------------
 1050.00000    1.59000   14.00600   14.00600  815.36080  707.71410    1.41300  154.72890  154.72890    -999.25    -999.25    1.41300    -999.25    -999.25   -6.56010  -46.46800    1.59000
 1100.00000    3.07900   13.38400   13.38400  292.23370  302.93850    3.30100  118.46090  118.46090    -999.25    -999.25    3.30100    -999.25    -999.25  -13.10160  -50.49500    3.07900
 1150.00000    1.63600   15.75500   15.75500  629.63460  634.92060    1.57500  160.32270  160.32270    -999.25    -999.25    1.57500    -999.25    -999.25   -7.46400  -42.34300    1.63600
 1200.00000    1.89800   16.09400   16.09400  490.02000  526.31580    1.90000  204.10530  204.10530    -999.25    -999.25    1.90000    -999.25    -999.25   -7.57450  -39.93900    1.89800
 1250.00000    1.96500   15.68200   15.68200  511.38770  513.87460    1.94600  137.82370  137.82370    -999.25    -999.25    1.94600    -999.25    -999.25  -13.36800  -43.21800    1.96500
 1300.00000    4.12500   14.69300   14.69300  221.07010  225.12380    4.44200  117.61280  117.61280    -999.25    -999.25    4.44200    -999.25    -999.25  -12.83650  -40.17200    4.12500
 1350.00000    4.80100   13.12300   13.12300  156.51310  168.43520    5.93700  111.35640  111.35640    -999.25    -999.25    5.93700    -999.25    -999.25   -6.19590  -31.01700    4.80100
 1400.00000    3.84100   13.03000   13.03000  216.76680  233.48120    4.28300  111.11190  111.11190    -999.25    -999.25    4.28300    -999.25    -999.25  -13.62070  -37.22600    3.84100
 1450.00000    2.04000   14.17600   14.17600  451.09780  478.01150    2.09200  108.47110  108.47110    -999.25    -999.25    2.09200    -999.25    -999.25  -17.38780  -40.10200    2.04000
 1500.00000    1.53900   16.00200   16.00200  638.72250  606.42810    1.64900  184.91550  184.91550    -999.25    -999.25    1.64900    -999.25    -999.25  -17.19290  -39.01600    1.53900
 1550.00000    2.26500   13.42300   13.42300  505.23150  498.00800    2.00800  112.50940  112.50940    -999.25    -999.25    2.00800    -999.25    -999.25  -24.81000  -45.74200    2.26500
 1600.00000    3.60200   12.38500   12.38500  265.17260  269.68720    3.70800  116.13820  116.13820    -999.25    -999.25    3.70800    -999.25    -999.25  -24.37110  -44.41200    3.60200
 1650.00000    3.40600   13.11300   13.11300  299.09170  297.79630    3.35800  106.03760  106.03760    -999.25    -999.25    3.35800    -999.25    -999.25  -27.46020  -46.61000    3.40600
 1700.00000    5.08900   12.59900   12.59900  164.67470  178.15790    5.61300  102.54250  102.54250    -999.25    -999.25    5.61300    -999.25    -999.25  -21.14030  -39.39900    5.08900
 1750.00000    4.52200   12.52600   12.52600  184.62770  198.49150    5.03800  110.67520  110.67520    -999.25    -999.25    5.03800    -999.25    -999.25  -20.66640  -38.03400    4.52200
 1800.00000    3.28800   12.61600   12.61600  246.68210  280.42620    3.56600  111.22080  111.22080    -999.25    -999.25    3.56600    -999.25    -999.25  -18.86950  -35.34600    3.28800
 1850.00000    6.75300   12.54100   12.54100   99.46400  152.78840    6.54500  108.73230  108.73230    -999.25    -999.25    6.54500    -999.25    -999.25   -9.78760  -25.37300    6.75300
 1900.00000    6.43400   12.50800   12.50800  102.92650  115.50010    8.65800  108.89300  108.89300    -999.25    -999.25    8.65800    -999.25    -999.25   -7.79870  -22.49300    6.43400
 1950.00000    6.03300   12.76200   12.76200  138.87470  205.33880    4.87000   99.40680   99.40680    -999.25    -999.25    4.87000    -999.25    -999.25  -15.54980  -29.35300    6.03300
 2000.00000    7.91700   12.34600   12.34600   82.69180   94.87670   10.54000  110.76090  110.76090    -999.25    -999.25   10.54000    -999.25    -999.25   -3.18890  -16.10100    7.91700
 2050.00000    7.67200   12.44000   12.44000   80.83830   94.89470   10.53800  107.19260  107.19260    -999.25    -999.25   10.53800    -999.25    -999.25   -7.35870  -19.46100    7.67200
 2100.00000    4.40300   12.41200   12.41200  189.86110  195.35070    5.11900  103.69950  103.69950    -999.25    -999.25    5.11900    -999.25    -999.25  -28.41060  -39.82000    4.40300
 2150.00000    8.19700   12.58400   12.58400   78.15950   91.94560   10.87600  105.59800  105.59800    -999.25    -999.25   10.87600    -999.25    -999.25   -8.61050  -19.32700    8.19700
 2200.00000    9.18300   12.50400   12.50400   73.52070   86.10300   11.61400  106.44250  106.44250    -999.25    -999.25   11.61400    -999.25    -999.25   -1.45840  -11.48200    9.18300
 2250.00000    8.70400   12.48400   12.48400   75.94500   87.95080   11.37000  105.57370  105.57370    -999.25    -999.25   11.37000    -999.25    -999.25   -6.25830  -15.58900    8.70400
 2300.00000    8.76700   12.48500   12.48500   65.51900   78.73400   12.70100  106.40570  106.40570    -999.25    -999.25   12.70100    -999.25    -999.25   -5.63830  -14.27600    8.76700
 2350.00000    7.79300   12.50400   12.50400   90.81840  103.10340    9.69900  105.36230  105.36230    -999.25    -999.25    9.69900    -999.25    -999.25  -11.51820  -19.46300    7.79300
 2400.00000    9.27500   12.57400   12.57400   67.96410   84.66680   11.81100  102.91040  102.91040    -999.25    -999.25   11.81100    -999.25    -999.25   -9.02110  -16.27300    9.27500
 2450.00000    9.52800   12.53800   12.53800   67.33760   82.61050   12.10500  103.37070  103.37070    -999.25    -999.25   12.10500    -999.25    -999.25   -5.71300  -12.27200    9.52800
 2500.00000    9.28200   12.35200   12.35200   73.28640   88.08250   11.35300  101.08280  101.08280    -999.25    -999.25   11.35300    -999.25    -999.25  -11.31470  -20.29600    9.28200
 2550.00000    2.54100   13.29700   13.29700  506.34810  563.69780    1.77400  117.01470  117.01470    -999.25    -999.25    1.77400    -999.25    -999.25  -31.03370  -43.21600    2.54100
 2600.00000    2.10400   12.69600   12.69600  627.47150  533.90280    1.87300  120.24130  120.24130    -999.25    -999.25    1.87300    -999.25    -999.25  -26.55370  -41.93700    2.10400
 2650.00000    2.90300   12.56100   12.56100  482.03590  473.70910    2.11100  114.85100  114.85100    -999.25    -999.25    2.11100    -999.25    -999.25  -23.60070  -42.18500    2.90300
 2700.00000    2.87000   13.15000   13.15000  332.33530  354.48420    2.82100  103.40410  103.40410    -999.25    -999.25    2.82100    -999.25    -999.25  -22.04710  -41.95800    2.87000
 2750.00000    2.31000   13.70000   13.70000  483.27660  486.85490    2.05400  102.47440  102.47440    -999.25    -999.25    2.05400    -999.25    -999.25  -25.76620  -45.40700    2.31000
 2800.00000    2.67900   13.73700   13.73700  392.21560  409.16530    2.44400  105.64530  105.64530    -999.25    -999.25    2.44400    -999.25    -999.25  -23.77530  -43.14600    2.67900
 2850.00000    3.55400   13.54000   13.54000  277.69200  290.27580    3.44500  102.98930  102.98930    -999.25    -999.25    3.44500    -999.25    -999.25  -21.90150  -41.00200    3.55400
 2900.00000    1.87100   13.31600   13.31600  652.44510  615.38460    1.62500  125.67570  125.67570    -999.25    -999.25    1.62500    -999.25    -999.25  -25.84860  -44.67900    1.87100
 2950.00000    4.84100   12.53800   12.53800  246.94230  238.94860    4.18500   98.01960   98.01960    -999.25    -999.25    4.18500    -999.25    -999.25  -24.77070  -43.33100    4.84100
 3000.00000    8.11200   12.56300   12.56300   87.13010  100.32100    9.96800  106.53570  106.53570    -999.25    -999.25    9.96800    -999.25    -999.25  -11.48330  -29.19500    8.11200
 3050.00000    5.72200   12.29000   12.29000  191.94690  197.55040    5.06200  102.43620  102.43620    -999.25    -999.25    5.06200    -999.25    -999.25  -31.38850  -46.31500    5.72200
 3100.00000    8.10600   12.46400   12.46400   69.60930   85.08470   11.75300   98.74330   98.74330    -999.25    -999.25   11.75300    -999.25    -999.25  -18.70470  -30.84600    8.10600
 3150.00000   10.71800   12.52400   12.52400   59.57890   72.76960   13.74200  103.05830  103.05830    -999.25    -999.25   13.74200    -999.25    -999.25  -10.98390  -20.34000   10.71800
