~Version ---------------------------------------------------
VERS.      2.0 : CWLS log ASCII Standard -VERSION 2.0
WRAP.      YES : Multiple lines per depth step
CREA. 03/30/13 : LAS Creation Date
~Well ------------------------------------------------------
STRT.FT                 1500.0 : START DEPTH
STOP.FT                10200.0 : STOP DEPTH
STEP.FT               50.00000 : STEP LENGTH
NULL.                  -999.25 : NULL VALUE
COMP.     MARATHON OIL COMPANY : COMPANY
WELL.   MARATHON MARSHALL A #7 : WELL
FLD .               BEAR GRASS : FIELD
LOC .                          : LOCATION
CNTY.                     LEON : COUNTY
STAT.                    TEXAS : STATE
CTRY. UNITED STATES OF AMERICA : COUNTRY
SRVC.             Schlumberger : SERVICE COMPANY
DATE.              17-Feb-1998 : LOGDATE
API .           42289312850000 : API NUMBER
UWI .           42289312850000 : UNIQUE WELL ID
SLAT.WGS84       31.3583372232 : SURFACE LATITUDE
SLON.WGS84      -96.2380251185 : SURFACE LONGITUDE
~Curve Information -----------------------------------------
DEPT    .FT    : DEPTH FEET
AHT10ED .OHMM  : 10 INCH RESISTIVITY TWO FOOT RESOLUTION FROM RESISTIVITY LOG
AHT20ED .OHMM  : 20 INCH RESISTIVITY TWO FOOT RESOLUTION FROM RESISTIVITY LOG
AHT30ED .OHMM  : 30 INCH RESISTIVITY TWO FOOT RESOLUTION FROM RESISTIVITY LOG
AHT60ED .OHMM  : 60 INCH RESISTIVITY TWO FOOT RESOLUTION FROM RESISTIVITY LOG
AHT90ED .OHMM  : 90 INCH RESISTIVITY TWO FOOT RESOLUTION FROM RESISTIVITY LOG
CALWS   .IN    : CALIPER [DCALRED+BITS]
CONDWS  .MMHO  : CONDUCTIVITY [1000/DRESWS]
DCALRED .IN    : DIFFERENTIAL CALIPER FROM RESISTIVITY LOG
DCORWS  .G/C3  : DENSITY CORRECTION [HDRAED]
DENWS   .G/C3  : FORMATION BULK DENSITY [CALC FROM DPOWS, M=2.71,F=1.0]
DPHZLSED.V/V   : DENSITY POROSITY LIMESTONE [M=2.71,F=1.0] FROM DENSITY LOG
DPOWS   .V/V   : DENSITY POROSITY LIMESTONE [DPHZLSED]
DRESWS  .OHMM  : DEEP RESISTIVITY [AHT90ED]
DTED    .US/F  : DELTA TIME FROM SONIC LOG
DTWS    .US/F  : COMPRESSIONAL SONIC [DTED]
GRMED   .GAPI  : GAMMA RAY FROM MICROLOG
GRRED   .GAPI  : GAMMA RAY FROM RESISTIVITY LOG
GRWS    .GAPI  : GAMMA RAY [GRRED SPL. TO GRMED @ 4602']
HDRAED  .G/C3  : DENSITY CORRECTION FROM DENSITY LOG
MCALED  .IN    : CALIPER FROM MICROLOG
MRESWS  .OHMM  : MEDIUM RESISTIVITY [AHT30ED]
NPHILSED.V/V   : NEUTRON POROSITY LIMESTONE FROM DENSITY LOG
NPOWS   .V/V   : NEUTRON POROSITY LIMESTONE [NPHILSED]
SPRED   .MV    : SPONTANEOUS POTENTIAL FROM RESISTIVITY LOG
SPWS    .MV    : SPONTANEOUS POTENTIAL [BASELINE 0 MV, SPRED]
SRESWS  .OHMM  : SHALLOW RESISTIVITY [AHT10ED]
TENRED  .LBF   : TENSION FROM RESISTIVITY LOG
~Params ----------------------------------------------------
PD  .                     GL : PERMANENT DATUM
EPD .FT                  472 : ELEVATION PERMANENT DATUM
LMF .                     KB : LOG MEASURED FROM
DAPD.FT                   17 : FEET ABOVE PERMANENT DATUM
DMF .                     KB : DRILLING MEASURED FROM
EKB .FT                  489 : KELLY BUSHING
EDF .FT                  488 : DRILLING FLOOR
EGL .FT                  472 : GROUND LEVEL
DATE.               02/17/98 : RUN DATE
RUN .                      1 : RUN NUMBER
DD  .FT                10250 : DEPTH DRILLER
DL  .FT                10240 : DEPTH LOGGER
BLI .FT                10240 : BOTTOM LOG INTERVAL
TLI .FT                 1610 : TOP LOG INTERVAL
MST .DEGF                110 : MUD SAMPLE TEMPERATURE
MFST.DEGF                109 : MUD FILTRATE SAMPLE TEMPERATURE
MCST.DEGF                109 : MUD CAKE SAMPLE TEMPERATURE
MFSS.                   CALC : MUD FILTRATE SAMPLE SOURCE
MCSS.                   CALC : MUD CAKE SAMPLE SOURCE
CLNT.                A2DTECH : CLIENT CODE
ORIG.         1" 2" 5" PRINT : ORIGIN OF DATA
UWI .         42289312850000 : UNIQUE WELL ID
DICO. A2D Technologies, Inc. : DIGITIZING COMPANY
~Other -----------------------------------------------------
AIT & LDT-CNL & BHC & ML RUN IN COMBO
~ASCII -----------------------------------------------------
# ...
 9300.00000   41.52350   34.31410   32.41440   28.61950   24.89720    8.90210   40.16520    1.02710    0.47760    2.91880   -0.12210   -0.12210   24.89720   54.56390   54.56390   58.01200   58.00410   58.01200    0.47760    8.80290   32.41440    0.05290    0.05290   -1.88410   -7.78990   41.52350 3979.02660
 9350.00000    2.86660    7.40110    4.24160    2.59090    2.38900    8.64740  418.58520    0.77240    0.02120    2.64900    0.03570    0.03570    2.38900   61.12950   61.12950   60.13360   60.12240   60.13360    0.02120    8.57010    4.24160    0.07990    0.07990  -19.40450  -27.78960    2.86660 3901.39480
 9400.00000    5.08100    4.82820    4.63570    4.44670    4.20390    9.04340  237.87440    1.16840    0.00570    2.65870    0.03000    0.03000    4.20390   63.81410   63.81410   69.35760   69.54470   69.35760    0.00570    8.98670    4.63570    0.08980    0.08980  -19.34040  -31.79430    5.08100 3943.14430
 9450.00000    7.96170    7.43960    7.10350    6.84580    6.37820    9.48240  156.78400    1.60740    0.00290    2.70810    0.00110    0.00110    6.37820   61.64340   61.64340   64.96040   64.74280   64.96040    0.00290    9.43720    7.10350    0.12430    0.12430   -5.21760  -19.50160    7.96170 4090.10060
 9500.00000    7.75930    6.06820    5.78160    5.48010    5.14380    9.24540  194.40880    1.37040    0.00070    2.62930    0.04720    0.04720    5.14380   63.92330   63.92330   76.27200   76.79000   76.27200    0.00070    9.17700    5.78160    0.08970    0.08970   -7.60320  -23.71740    7.75930 3977.39090
 9550.00000    6.08750    5.69610    5.50830    5.20510    5.04540    8.76690  198.20030    0.89190    0.01460    2.64880    0.03580    0.03580    5.04540   69.05010   69.05010  105.54950  108.08400  105.54950    0.01460    8.73490    5.50830    0.13000    0.13000    6.72260  -11.22170    6.08750 4054.76950
 9600.00000    3.58590    3.46600    3.39070    3.33630    3.27810    8.72190  305.05480    0.84690    0.00760    2.57000    0.08190    0.08190    3.27810   65.06330   65.06330   46.66890   47.54240   46.66890    0.00760    8.67090    3.39070    0.08530    0.08530  -47.92370  -65.78160    3.58590 4007.23540
 9650.00000    5.65890    5.43750    5.29370    5.07690    4.94280    9.01910  202.31450    1.14410    0.00480    2.65130    0.03430    0.03430    4.94280   66.07570   66.07570   94.65410   95.22900   94.65410    0.00480    8.97540    5.29370    0.10820    0.10820   -0.09990  -15.71020    5.65890 4088.14550
 9700.00000   15.23020   16.73620   17.98660   19.82480   22.72100    8.26200   44.01210    0.38700    0.01240    2.59650    0.06640    0.06640   22.72100   62.05700   62.05700   53.05680   52.81500   53.05680    0.01240    8.23310   17.98660    0.04580    0.04580  -34.27920  -47.77290   15.23020 4060.57030
 9750.00000    4.79300    4.94180    5.08320    5.25560    5.39190    8.49600  185.46340    0.62100    0.01490    2.62690    0.04860    0.04860    5.39190   63.79560   63.79560   85.09360   85.27600   85.09360    0.01490    8.50130    5.08320    0.09560    0.09560  -20.51780  -32.04270    4.79300 4078.37230
 9800.00000   20.46530   22.99760   25.29630   27.89730   33.19200    8.25150   30.12770    0.37650    0.01150    2.69120    0.01100    0.01100   33.19200   60.20160   60.20160   72.96960   71.82680   72.96960    0.01150    8.21090   25.29630    0.04500    0.04500   -4.74750  -14.30370   20.46530 4060.73900
 9850.00000   18.87590   21.56670   22.59970   23.17000   23.99850    8.05160   41.66930    0.17660    0.00300    2.63360    0.04470    0.04470   23.99850   58.33520   58.33520   36.74170   36.92180   36.74170    0.00300    8.05380   22.59970    0.01910    0.01910  -54.46390  -62.15420   18.87590 4071.96310
 9900.00000   13.15060   14.19360   15.30090   16.55080   17.12300    8.29280   58.40100    0.41780    0.02780    2.64210    0.03970    0.03970   17.12300   61.20480   61.20480   69.91920   71.45610   69.91920    0.02780    8.23550   15.30090    0.05150    0.05150  -21.07080  -26.93320   13.15060 4110.08540
 9950.00000   11.07880   12.41920   12.70610   13.23550   13.80880    8.57480   72.41760    0.69980    0.01110    2.62420    0.05020    0.05020   13.80880   62.65660   62.65660   53.45280   53.13940   53.45280    0.01110    8.55190   12.70610    0.06340    0.06340  -51.96670  -56.00130   11.07880 4087.20240
 10000.00000    4.70300    4.31000    3.84330    3.62410    3.54800    8.51580  281.84890    0.64080    0.05950    2.35980    0.20480    0.20480    3.54800   75.08090   75.08090   93.25500   92.34700   93.25500    0.05950    8.50790    3.84330    0.16720    0.16720  -19.04460  -21.25140    4.70300 4055.78440
 10050.00000   12.60450   13.64790   15.08820   16.08080   17.35050    8.11370   57.63520    0.23870    0.00210    2.55730    0.08930    0.08930   17.35050   63.66830   63.66830   43.02600   44.31910   43.02600    0.00210    8.06610   15.08820    0.03750    0.03750  -67.34240  -67.72130   12.60450 4077.34230
 10100.00000   15.83150   16.77380   17.57390   18.41550   19.79310    7.98820   50.52270    0.11320    0.01520    2.59370    0.06800    0.06800   19.79310   63.02820   63.02820   75.81970   77.10690   75.81970    0.01520    7.94980   17.57390    0.03810    0.03810  -40.89250  -39.44360   15.83150 4059.75780
 10150.00000   27.64500   35.13910   37.27480   39.06570   42.37480    7.89060   23.59890    0.01560    0.00990    2.61010    0.05840    0.05840   42.37480   59.04450   59.04450   33.70400   34.13590   33.70400    0.00990    7.84220   37.27480    0.01660    0.01660  -62.99010  -59.71330   27.64500 4033.01930
 10200.00000    5.01230    5.18600    5.40460    5.52540    5.68250    7.97360  175.97890    0.09860    0.03570    2.63150    0.04590    0.04590    5.68250    -999.25    -999.25   91.80700   91.45880   91.80700    0.03570    7.87620    5.40460    0.09010    0.09010  -31.09910  -25.99450    5.01230 3984.39700
