~Version ---------------------------------------------------
VERS. 2.0 : CWLS log ASCII Standard -VERSION 2.0
WRAP.  NO : ONE LINE PER DEPTH STEP
~Well ------------------------------------------------------
STRT.F                    500.0 : START DEPTH
STOP.F                   4650.0 : STOP DEPTH
STEP.F                 50.00000 : STEP LENGTH
NULL.                   -999.25 : NULL VALUE
COMP. PRAIRIE PRODUCING COMPANY : COMPANY
WELL.       HENSLEY T. HURTS #1 : WELL
FLD .                        WC : FIELD
LOC .                           : LOCATION
CNTY.                  GONZALES : COUNTY
STAT.                     TEXAS : STATE
CTRY.  UNITED STATES OF AMERICA : COUNTRY
SRVC.              Schlumberger : SERVICE COMPANY
DATE.               20-Aug-1976 : LOGDATE
API .            42177301620000 : API NUMBER
UWI .            42177301620000 : UNIQUE WELL ID
SLAT.WGS84           29.3870974 : SURFACE LATITUDE
SLON.WGS84          -97.8021181 : SURFACE LONGITUDE
~Curve Information -----------------------------------------
DEPT   .F    0   1   0  0 : 1 MEASURED DEPTH
LL8    .OHMM 07 220 08 00 : LATEROLOG 8
ILD    .OHMM 07 120 46 00 : INDUCTION DEEP RESISTIVITY
ILM    .OHMM 07 120 44 00 : INDUCTION MEDIUM RESISTIVITY
SPR    .MV   07 010 01 00 : SPONTANEOUS POTENTIAL FROM RESISTIVITY LOG
NPHI_SS.DEC  42 890 03 00 : NEUTRON POROSITY SANDSTONE
DPHI_SS.DEC  45 890 12 00 : DENSITY POROSITY SANDSTONE
NPHI_LS.DEC  42 890 01 00 : NEUTRON POROSITY LIMESTONE
DPHI_LS.DEC  45 890 10 00 : DENSITY POROSITY LIMESTONE
GRD    .GAPI 45 310 01 00 : GAMMA RAY FROM DENSITY LOG
CORR   .G/C3 45 356 01 00 : DENSITY CORRECTION
CALD   .IN   45 280 60 00 : CALIPER FROM DENSITY LOG
RHOB   .G/C3 45 350 01 00 : BULK DENSITY
~Params ----------------------------------------------------
PD  .                     GL : PERMANENT DATUM
EPD .FT                  448 : ELEVATION PERMANENT DATUM
LMF .                     KB : LOG MEASURED FROM
DAPD.FT                   12 : FEET ABOVE PERMANENT DATUM
DMF .                     KB : DRILLING MEASURED FROM
EKB .FT                  460 : KELLY BUSHING
EDF .FT                  458 : DRILLING FLOOR
EGL .FT                  448 : GROUND LEVEL
DATE.               08/20/76 : RUN DATE
RUN .                      1 : RUN NUMBER
DD  .FT                 4690 : DEPTH DRILLER
DL  .FT                 4692 : DEPTH LOGGER
BLI .FT                 4686 : BOTTOM LOG INTERVAL
TLI .FT                  526 : TOP LOG INTERVAL
CS  .IN                8.625 : CASING SIZE
CBD .FT                  518 : CASING BOTTOM DRILLER
CBL .FT                  526 : CASING BOTTOM LOGGER
BS  .IN                7.875 : BIT SIZE
BSD .FT                 4690 : BIT SIZE AT DEPTH
DFT .                  LO PH : DRILLING FLUID TYPE
DFD .                    9.6 : DRILLING FLUID DENSITY
DFV .                     40 : DRILLING FLUID VISCOSITY
DFPH.                     10 : DRILLING FLUID PH
DFL .                    5.4 : DRILLING FLUID LOSS
MSS .               FLOWLINE : MUD SAMPLE SOURCE
RMS .OHMM               1.07 : RESISTIVITY MUD SAMPLE
MST .DEGF                 86 : MUD SAMPLE TEMPERATURE
RMF .OHMM               1.11 : RESISTIVITY MUD FILTRATE SAMPLE
MFST.DEGF                 74 : MUD FILTRATE SAMPLE TEMPERATURE
RMC .OHMM               0.95 : RESISTIVITY MUD CAKE
MCST.DEGF                 86 : MUD CAKE SAMPLE TEMPERATURE
MFSS.                   MEAS : MUD FILTRATE SAMPLE SOURCE
MCSS.                  CHART : MUD CAKE SAMPLE SOURCE
RMB .OHMM               0.68 : RESISTIVITY MUD AT BHT
TCS .HRS                   4 : TIME CIRCULATED STOPPED
LUN .                   7694 : LOGGING UNIT NUMBER
LUL .                  PLEAS : LOGGING UNIT LOCATION
ENGI.               BREVETTI : RECORDING ENGINEER
WITN.       SMITH ALLBRITTON : WITNESSED BY
CLNT.                A2DTECH : CLIENT CODE
ORIG.        2" 5" 25" PRINT : ORIGIN OF DATA
UWI .         42177301620000 : UNIQUE WELL ID
DICO. A2D Technologies, Inc. : DIGITIZING COMPANY
~Other -----------------------------------------------------
~ASCII -----------------------------------------------------
# ...
 3300.00000    2.51510    1.68850    1.73750  -19.20420    0.43490    0.16150    -999.25    -999.25   90.94900    0.15010    9.25020    2.40300
 3350.00000    2.38550    1.70120    1.75070  -20.66740    0.42690    0.17090    -999.25    -999.25   81.39900    0.12670   10.18860    2.36330
 3400.00000    1.76060    1.11820    1.15050  -24.41120    0.44580    0.20290    -999.25    -999.25   90.07320    0.12410    9.97160    2.28490
 3450.00000    2.79960    1.69950    1.77830  -35.30200    0.40210    0.14870    -999.25    -999.25   76.36640    0.14650    9.32050    2.40680
 3500.00000    2.51930    1.75970    1.81040  -31.88720    0.40740    0.15760    -999.25    -999.25   88.08920    0.12050    8.93420    2.39030
 3550.00000    4.37460    2.46640    2.54790  -30.35350    0.38230    0.10030    -999.25    -999.25   69.73890    0.13790    8.55340    2.51930
 3600.00000    3.05260    2.27030    2.33600  -23.82470    0.38840    0.12940    -999.25    -999.25   73.87460    0.06240    8.27190    2.43810
 3650.00000    2.17640    1.43950    1.48210  -27.11070    0.47290    0.14750    -999.25    -999.25   98.53620    0.15160    8.77340    2.43250
 3700.00000    2.38190    1.57220    1.62300  -29.10810    0.40890    0.16590    -999.25    -999.25   87.49530    0.15680    8.63480    2.36090
 3750.00000    1.96100    1.52860    1.57690  -22.73190    -999.25    -999.25    -999.25    -999.25    -999.25    -999.25    -999.25    -999.25
 3800.00000    1.70430    1.18170    1.21600  -17.94710    -999.25    -999.25    -999.25    -999.25    -999.25    -999.25    -999.25    -999.25
 3850.00000    2.05140    1.49780    1.54840  -18.25470    -999.25    -999.25    -999.25    -999.25    -999.25    -999.25    -999.25    -999.25
 3900.00000    2.67250    2.04130    2.10110  -19.84060    -999.25    -999.25    -999.25    -999.25    -999.25    -999.25    -999.25    -999.25
 3950.00000    1.68250    1.23200    1.27180  -18.46520    -999.25    -999.25    -999.25    -999.25    -999.25    -999.25    -999.25    -999.25
 4000.00000    2.01620    1.37680    1.44710  -21.04550    -999.25    -999.25    -999.25    -999.25    -999.25    -999.25    -999.25    -999.25
 4050.00000    1.82790    1.22880    1.26430  -21.99480    -999.25    -999.25    -999.25    -999.25    -999.25    -999.25    -999.25    -999.25
 4100.00000    1.95370    1.08280    1.14410  -18.69610    -999.25    -999.25    -999.25    -999.25    -999.25    -999.25    -999.25    -999.25
 4150.00000    1.96420    1.35570    1.40240  -21.16760    -999.25    -999.25    -999.25    -999.25    -999.25    -999.25    -999.25    -999.25
 4200.00000    1.98560    1.39620    1.43840  -20.00480    -999.25    -999.25    -999.25    -999.25    -999.25    -999.25    -999.25    -999.25
 4250.00000    2.22170    1.48790    1.53080  -23.99640    -999.25    -999.25    -999.25    -999.25    -999.25    -999.25    -999.25    -999.25
 4300.00000    2.25860    1.59840    1.64480  -21.62180    -999.25    -999.25    -999.25    -999.25   96.92330    0.11870    9.30050    2.45790
 4350.00000    3.11380    2.37210    2.44040  -21.51310    -999.25    -999.25    -999.25    -999.25   89.55020    0.08970    8.71830    2.52350
 4400.00000    4.83560    3.53950    3.65000  -18.73260    -999.25    -999.25    0.18280    0.10240   61.98030    0.01490    8.72810    2.53640
 4450.00000    2.95740    3.15900    3.71000  -25.72560    -999.25    -999.25    0.13140    0.07140   35.65400    0.01510    8.83980    2.58150
 4500.00000    6.16280    4.01210    4.13010  -66.50340    -999.25    -999.25    0.12230    0.09700   32.08860    0.01400    7.96870    2.55440
 4550.00000    8.14740    7.18080    7.38790  -54.94570    -999.25    -999.25    0.17680    0.08700   37.55650    0.02370    7.94050    2.55390
 4600.00000    4.75410    3.16290    3.25420  -33.79090    -999.25    -999.25    0.26100    0.15420   73.02390    0.03160    8.00380    2.45930
 4650.00000    6.59640    5.96000    6.60290  -66.38620    -999.25    -999.25    0.08930    0.04880   25.86430    0.01930    7.74740    2.62930
