~Version ---------------------------------------------------
VERS. 2.0 : CWLS log ASCII Standard -VERSION 2.0
WRAP.  NO : ONE LINE PER DEPTH STEP
~Well ------------------------------------------------------
STRT.FT                            2500.0 : START DEPTH
STOP.FT                           14300.0 : STOP DEPTH
STEP.FT                          50.00000 : STEP LENGTH
NULL.                             -999.25 : NULL VALUE
COMP. BASS ENTERPRISES PRODUCTION COMPANY : COMPANY
WELL.                 MUELLER GAS UNIT #2 : WELL
FLD .                            WORD, N. : FIELD
LOC .                                     : LOCATION
CNTY.                              LAVACA : COUNTY
STAT.                               TEXAS : STATE
CTRY.            UNITED STATES OF AMERICA : COUNTRY
SRVC.                        Schlumberger : SERVICE COMPANY
DATE.                         05-Jan-1981 : LOGDATE
API .                      42285315200000 : API NUMBER
UWI .                      42285315200000 : UNIQUE WELL ID
SLAT.WGS84                  29.4041630679 : SURFACE LATITUDE
SLON.WGS84                 -96.9765206245 : SURFACE LONGITUDE
~Curve Information -----------------------------------------
DEPT.FT                : 
CALR.IN   07 280 01 00 : CALIPER FROM RESISTIVITY LOG
DT  .US/F 60 500 00 00 : DELTA-T (INTERVAL TRANSIT TIME)
GRR .GAPI 07 310 01 00 : GAMMA RAY FROM RESISTIVITY LOG
ILD .OHMM 07 120 46 00 : INDUCTION DEEP RESISTIVITY
ILM .OHMM 07 120 44 00 : INDUCTION MEDIUM RESISTIVITY
SFLU.OHMM 07 220 01 00 : SHALLOW FOCUSED RESISTIVITY (UNAVERAGED)
SPR .MV   07 010 01 00 : SPONTANEOUS POTENTIAL FROM RESISTIVITY LOG
~Params ----------------------------------------------------
PD  .                     GL : PERMANENT DATUM
EPD .FT                218.8 : ELEVATION PERMANENT DATUM
LMF .                     KB : LOG MEASURED FROM
DAPD.FT                 18.9 : FEET ABOVE PERMANENT DATUM
DMF .                     KB : DRILLING MEASURED FROM
EKB .FT                237.7 : KELLY BUSHING
EDF .FT                235.8 : DRILLING FLOOR
EGL .FT                218.8 : GROUND LEVEL
DATE.               01/05/81 : RUN DATE
RUN .                      1 : RUN NUMBER
DD  .FT                14340 : DEPTH DRILLER
DL  .FT                14320 : DEPTH LOGGER
BLI .FT                14320 : BOTTOM LOG INTERVAL
TLI .FT                 2500 : TOP LOG INTERVAL
CS  .IN                10.75 : CASING SIZE
CBD .FT                 2498 : CASING BOTTOM DRILLER
CBL .FT                 2500 : CASING BOTTOM LOGGER
BS  .IN                 8.75 : BIT SIZE
BSD .FT                14340 : BIT SIZE AT DEPTH
DFT .         LICNOSULFONATE : DRILLING FLUID TYPE
DFD .                   10.8 : DRILLING FLUID DENSITY
DFV .                     41 : DRILLING FLUID VISCOSITY
DFPH.                   11.5 : DRILLING FLUID PH
DFL .                    5.6 : DRILLING FLUID LOSS
MSS .              CIRC TANK : MUD SAMPLE SOURCE
RMS .OHMM              0.567 : RESISTIVITY MUD SAMPLE
MST .DEGF                 96 : MUD SAMPLE TEMPERATURE
RMF .OHMM              0.673 : RESISTIVITY MUD FILTRATE SAMPLE
MFST.DEGF                 62 : MUD FILTRATE SAMPLE TEMPERATURE
RMC .OHMM              1.346 : RESISTIVITY MUD CAKE
MCST.DEGF                 62 : MUD CAKE SAMPLE TEMPERATURE
MFSS.                      M : MUD FILTRATE SAMPLE SOURCE
MCSS.                      C : MUD CAKE SAMPLE SOURCE
RMB .OHMM               0.19 : RESISTIVITY MUD AT BHT
TCS .HRS                1500 : TIME CIRCULATED STOPPED
TLAB.HRS                 130 : TIME LOGGER AT BOTTOM
LUN .                   8015 : LOGGING UNIT NUMBER
LUL .               VICTORIA : LOGGING UNIT LOCATION
ENGI.          BAILEY HUGHES : RECORDING ENGINEER
WITN.         KNISELY HOOVER : WITNESSED BY
CLNT.                A2DTECH : CLIENT CODE
ORIG.            2" 5" PRINT : ORIGIN OF DATA
UWI .         42285315200000 : UNIQUE WELL ID
DICO. A2D Technologies, Inc. : DIGITIZING COMPANY
~Other -----------------------------------------------------
~ASCII -----------------------------------------------------
# ...
 11500.00000   11.47310   97.92750   86.92990    2.09120    2.23700    2.54050  -27.06130
 11550.00000   11.40730   95.18010  103.52640    2.12390    2.27950    2.65100  -27.19630
 11600.00000   11.71060   99.19940   79.35550    1.95940    2.03010    2.45350  -27.00300
 11650.00000   11.19530   96.72580   92.33200    1.89630    2.16330    2.36420  -27.21520
 11700.00000   11.30130   93.13200   94.58170    1.95600    1.87620    1.70940  -27.51330
 11750.00000   10.27640   90.53080   93.72580    2.68220    2.58430    2.70850  -27.35020
 11800.00000    9.86490   93.82230   98.03410    3.37480    2.89400    3.23770  -27.18070
 11850.00000   11.04520   92.72020   96.95550    2.34810    2.59370    2.85460  -27.98540
 11900.00000    9.65990   93.84890   97.37860    1.92330    2.06550    2.18090  -28.11310
 11950.00000    9.81110   92.65670  105.29900    2.04860    2.37510    2.43550  -30.18660
 12000.00000    9.27080   85.15490   90.92510    2.95380    3.22930    3.54690  -29.75880
 12050.00000    9.32690   89.80520  108.43680    2.25950    2.48870    2.79680  -29.24940
 12100.00000    9.43200   90.53130   98.57880    2.30840    2.44180    2.73560  -28.42650
 12150.00000    9.39710   90.40990   89.61310    3.59840    3.62000    2.45500  -28.50060
 12200.00000    9.36870   95.25950  110.90350    1.95650    2.90300    3.48350  -27.89080
 12250.00000    9.03900   90.85850  102.53240    2.26180    2.52860    2.85090  -28.31450
 12300.00000    9.22920   88.64010   99.11600    2.58250    2.73410    3.08290  -27.88270
 12350.00000    9.82800   92.72130  111.73610    2.04500    2.25840    2.39580  -27.41620
 12400.00000    9.07770   93.65260  103.44210    2.29280    2.18790    2.64590  -28.72120
 12450.00000    9.63660   96.05920  123.49930    1.95900    2.07160    2.28680  -28.60790
 12500.00000    9.61550   86.59710  104.89320    2.54420    2.81280    2.75700  -28.93910
 12550.00000    9.44000   98.85900  102.72440    2.00980    2.17420    2.17810  -28.49390
 12600.00000    9.14190   89.14060   97.12540    2.92170    3.05570    3.37630  -28.23260
 12650.00000    9.18040   90.50720   98.41520    2.50170    2.70510    3.24640  -27.83160
 12700.00000    9.14470   81.61730   93.16640    3.65470    3.45390    3.85740  -28.88500
 12750.00000    9.25540   81.16190   85.14950    5.68560    6.34760    8.74980  -28.20510
 12800.00000    9.35770   81.76210   83.58030    4.27650    4.63780    5.27190  -27.42830
 12850.00000    9.36550   84.50900   88.66520    3.90530    4.22860    4.84220  -27.27870
 12900.00000    9.47200  102.21240  112.28230    2.69430    2.88760    2.49310  -26.88690
 12950.00000    9.52510   78.32100   59.24150    7.15000    7.42060    7.95710  -26.53970
 13000.00000    9.60690   95.59010   89.51160    2.71820    2.75600    3.60840  -25.97700
 13050.00000    9.47620   97.29460   89.49670    2.30380    2.71310    3.37450  -25.60470
 13100.00000    9.40210   94.80470  101.80830    2.24030    2.41980    2.98610  -25.30130
 13150.00000    9.12660   70.94260   54.42800    6.45470    9.50050   11.00480  -25.87830
 13200.00000    9.04440   68.44610   51.01450   13.00420   14.58460   12.27870  -26.51310
 13250.00000    9.17880   65.95690   37.36810   29.59180   31.81250   53.38990  -28.91930
 13300.00000    9.21530   70.87280   77.33910   16.24250   14.74060   16.56600  -28.51010
 13350.00000    9.22800   65.86560   39.92910   56.58570   55.15920  426.94550  -33.29660
 13400.00000    9.25650   65.57860   73.78970   59.81770   86.30960   94.38660  -29.65800
 13450.00000    9.34380   65.79380   59.03930   15.39700   18.10970   35.00100  -38.17230
 13500.00000    9.14200   56.31990   87.57400  552.94270 1012.21830 1838.23340  -71.40410
 13550.00000    8.99210   67.62690   47.21050   61.13490   55.10330   60.05500  -73.08860
 13600.00000    9.02300   65.77990   41.81610   59.07890   53.43680   53.39210  -67.04910
 13650.00000    8.62960   69.61440   31.91890   30.51300   38.97400   35.00100  -69.92990
 13700.00000    8.68900   60.69290   36.63890  125.83160  479.44720  289.42180  -71.51900
 13750.00000    8.48760   63.31510   34.75230   48.16640   74.71750  113.20330  -65.55050
 13800.00000    8.38360   73.32690   30.28370    7.35190    9.24350   12.33590  -70.57240
 13850.00000    8.53200   60.92530   46.81690   16.37780   17.55520   35.13840  -68.47800
 13900.00000    8.46820   61.28900   28.18370   42.80260  112.90330   81.00630  -59.81280
 13950.00000    8.56270   57.18800   24.05890  110.79740  176.35060  123.94420  -51.45330
 14000.00000    8.39780   66.92320   60.74730    7.31350    9.32000   13.73240  -70.62320
 14050.00000    8.72990   57.93220   49.68690  134.15960  166.27330  133.66250  -39.90960
 14100.00000    8.67300   61.28070   53.24070   79.09520   55.66040   48.44570  -34.31490
 14150.00000    8.46410   58.39720   28.94750   65.52150  135.43760   98.95100  -58.46340
 14200.00000    8.35250   58.97640   24.58930   34.05220   36.67640   30.87270  -69.97380
 14250.00000    8.68980   56.34090   19.33190  104.37900  155.48620  175.14090  -47.50470
 14300.00000   10.07550    -999.25   14.87940  414.96390  203.03970  177.44170  -53.53800
