~Version ---------------------------------------------------
VERS. 2.0 : CWLS log ASCII Standard -VERSION 2.0
WRAP.  NO : ONE LINE PER DEPTH STEP
~Well ------------------------------------------------------
STRT.F                   750.0 : START DEPTH
STOP.F                  7050.0 : STOP DEPTH
STEP.F                50.00000 : STEP LENGTH
NULL.                  -999.25 : NULL VALUE
COMP.       GALAXY OIL COMPANY : COMPANY
WELL.   MARRS MCLEAN BOWMAN #1 : WELL
FLD . ROCKY CREEK (GEORGETOWN) : FIELD
LOC .                          : LOCATION
CNTY.                   DIMMIT : COUNTY
STAT.                    TEXAS : STATE
CTRY. UNITED STATES OF AMERICA : COUNTRY
SRVC.                  Unknown : SERVICE COMPANY
DATE.              04-Apr-1977 : LOGDATE
API .           42127312130000 : API NUMBER
UWI .           42127312130000 : UNIQUE WELL ID
SLAT.WGS84       28.5536413845 : SURFACE LATITUDE
SLON.WGS84      -99.9100445309 : SURFACE LONGITUDE
~Curve Information -----------------------------------------
DEPT.F                 : 
GRD .GAPI 45 310 01 00 : GAMMA RAY
CALD.IN   45 280 60 00 : CALIPER
NPHI.DEC  42 890 03 00 : NEUTRON POROSITY SANDSTONE.
DRHO.G/C3 45 356 01 00 : DENSITY CORRECTION
RHOB.G/C3 45 350 01 00 : BULK DENSITY
SP  .MV   99 100 00 00 : SELF POTENTIAL
LL8 .OHMM 07 220 08 00 : LATEROLOG-8 RES.
ILD .OHMM 07 120 46 00 : DEEP INDUCTION RESISTIVITY
CILD.MMHO 07 110 46 00 : CONDUCTIVITY INDUCTION LOG DEEP
~Params ----------------------------------------------------
EKB .F                684.54 : KELLY BUSHING
EGL .F                670.04 : ELEVATION GROUND LEVEL
EDF .F                683.54 : ELEVATION DERRICK FLOOR
EPD .F                670.04 : ELEVATION PERMANENT DATUM
TD  .F                7050.0 : TOTAL DEPTH
DATE.            15-APR-1977 : DATE LOGGED
CLNT.                A2DTECH : CLIENT CODE
SL  .    660' FSL & 660' FWL : SURFACE LOCATION
PD  .                     GL : PERMANENT DATUM
LMF .                     KB : LOG MEASURED FROM
DMF .                     KB : DRILLING MEASURED FROM
DAPD.F                    15 : FEET ABOVE PERMANENT DATUM
DD  .F                  7050 : DEPTH DRILLER
DL  .F                  7050 : DEPTH LOGGER
BLI .F                  7049 : BOTTOM LOG INTERVAL
TLI .F                   765 : TOP LOG INTERVAL
CS1 .IN                8.625 : CASING SIZE
CBD1.          8.625" @ 776' : CASING DRILLER 1
CBL1.F                   765 : CASING LOGGER 1
BS1 .IN                7.875 : BIT SIZE
BSD1.F                  7050 : DEPTH DRILLED WITH BIT1
DFT .        LIGHTLY TREATED : TYPE FLUID IN HOLE
DFD .                   10.4 : DENSITY
DFV .                     60 : VISCOSITY
DFPH.                      9 : PH
DFL .                      6 : FLUID LOSS
MSS .               FLOWLINE : SOURCE OF SAMPLE
RMS .OHMM               0.79 : RM
RMF .OHMM               0.61 : RMF
MFSS.                   MEAS : SOURCE RMF.
RMB .OHMM               0.37 : RM. AT BHT
BHT .F                   177 : BHT.
TCS .HRS                1030 : TIME CIRC. STOPPED
TLAB.HRS                1830 : TIME LOGGER AT BOTTOM
LUN .                   7769 : LOGGING UNIT NUMBER
LUL .                 LAREDO : LOGGING UNIT LOCATION
ENGI.         STECKER/PATTON : RECORDED BY
WITN.     ELLIOTT/MCWILLIAMS : WITNESSED BY
ORIG.             2.5" PRINT : ORIGIN OF DATA
UWI .         42127312130000 : UNIQUE WELL ID
DICO. A2D TECHNOLOGIES, INC. : DIGITIZING COMPANY
~Other -----------------------------------------------------
# NPHI 890 03 (SANDSTONE) 76-4100. NPHI 890 01 (LIMESTONE) 4100-TD.
~ASCII -----------------------------------------------------
  750.00000    -999.25    -999.25    -999.25    -999.25    -999.25  -34.71500    2.54300    -999.25    -999.25
  800.00000   58.92930   11.71220    0.32920    0.06570    2.32390  -60.47100    8.72500    9.41300   99.45900
  850.00000   67.41110   10.68850    0.39310    0.05520    2.04240  -60.57500    4.95800    5.00300  192.46000
  900.00000   60.71430    9.21960    0.33400    0.00800    2.29410  -67.61100    7.40400    7.33800  136.90500
  950.00000   78.57140   10.45110    0.33580    0.02390    2.44350  -63.20100    5.82600    6.05900  213.62400
 1000.00000   79.91070   12.67410    0.39670    0.13730    2.17650  -60.14900    3.45700    3.29300  322.91700
 1050.00000   77.00890   15.43640    0.43250    0.12000    2.06180  -59.49800    2.87900    2.49700  433.53200
 1100.00000   80.80360   11.80140    0.35760    0.14930    2.23320  -59.49600    3.07500    2.79400  371.04200
 1150.00000   70.75910   10.49550    0.31930    0.05820    2.47840  -61.75300    4.06500    4.11600  257.93700
 1200.00000   68.30360   11.00000    0.34680    0.03840    2.37430  -64.14100    4.31000    4.43800  249.30000
 1250.00000   67.41070   12.11770    0.35190    0.09550    2.24850  -59.10200    2.67400    2.62500  467.26200
 1300.00000   93.74780   12.69140    0.44690    0.04930    1.96130  -58.95500    2.27200    2.35200  533.73000
 1350.00000   41.29720   10.77740    0.18900    0.01340    2.54610  -68.94800   12.00600   12.11000   69.44400
 1400.00000   52.22960   11.38580    0.21720    0.02240    2.53910  -67.86700    9.82200    9.66100   97.22200
 1450.00000   54.01710   11.62310    0.25070    0.03580    2.53420  -66.82400    7.74500    7.64200  125.00000
 1500.00000   62.49930   11.30700    0.29640    0.04010    2.50000  -64.19000    4.86500    4.99600  248.16400
 1550.00000   59.82070    9.96640    0.27360    0.04780    2.51790  -66.44000    6.39800    5.45800  204.99200
 1600.00000   55.35860   10.61630    0.24090    0.03730    2.54020  -65.03200    7.82100    7.23400  156.40300
 1650.00000   61.16220   10.18890    0.29150    0.14250    2.32890  -65.03600    5.49600    6.13300  198.41300
 1700.00000   32.59070    8.86350    0.25930    0.05650    2.42860  -89.55300    8.73800    5.21300  203.84300
 1750.00000   43.30360    9.44210    0.21040    0.01340    2.56700  -83.94000   11.77000    6.66800  156.74600
 1800.00000   41.07140    9.42730    0.24630    0.01580    2.52830  -65.61100    3.87900    4.40500  273.64000
 1850.00000   60.26860   10.68850    0.28840    0.06720    2.30730  -61.89300    5.21500    4.53900  241.40200
 1900.00000   60.71500   12.95840    0.34900    0.11270    2.22500  -60.29900    3.88700    4.02800  294.89400
 1950.00000   63.39360   11.31160    0.31520    0.10300    2.20460  -60.35200    3.20100    3.59000  339.78200
 2000.00000   68.09740   13.75050    0.36900    0.15570    2.19790  -61.38800    3.57400    3.48300  334.84500
 2050.00000   68.55870   12.21660    0.33050    0.12760    2.14960  -60.68300    3.88000    4.05300  302.91000
 2100.00000   65.79830   11.99240    0.39000    0.11040    2.05360  -56.96400    2.70600    2.48800  466.27000
 2150.00000   70.62790   12.23150    0.37700    0.09100    1.96950  -59.11900    2.68200    2.69100  450.39700
 2200.00000   73.61960   12.66160    0.37410    0.14970    2.21550  -59.64200    3.07500    2.99200  405.80000
 2250.00000   57.28530    9.21960    0.23100    0.00600    2.57290  -61.39500    7.05700    6.34400  160.71400
 2300.00000   58.43450    9.48660    0.23190    0.00000    2.52030  -63.90600    7.24500    6.85400  156.55300
 2350.00000   60.73640    9.79820    0.23960    0.07460    2.51490  -60.03000    4.45200    5.15100  245.04000
 2400.00000   70.39880    9.30230    0.24910    0.08880    2.43900  -80.79200    9.50500    4.68200  194.22300
 2450.00000   52.91490   10.83680    0.30000    0.04480    2.40620  -63.15700    4.66300    4.15900  251.32300
 2500.00000   57.05320    9.39760    0.29640    0.00000    2.41180  -73.22200    8.66000    7.54600  158.73000
 2550.00000   76.72550   10.77740    0.46930    0.05900    1.93080  -55.07400    1.98700    2.00200  607.14300
 2600.00000   81.24780   12.20200    0.45310    0.01570    2.19360  -56.02700    2.58900    2.46500  470.23800
 2650.00000   45.08820   10.18400    0.26010    0.04100    2.40480  -74.52600    5.67600    5.16800  223.41300
 2700.00000   48.65960   11.47470    0.24270    0.03350    2.47020  -65.02900    6.69500    6.21400  173.21800
 2750.00000   35.04410    9.62990    0.26960    0.04550    2.34080  -96.44600    6.16900    3.01600  363.09500
 2800.00000   51.33960    9.03750    0.29730    0.08060    2.39020  -87.44500    6.28000    2.88300  386.89000
 2850.00000   65.40140   11.29670    0.38510    0.14250    2.09520  -54.37800    2.83100    3.29000  434.92100
 2900.00000   74.10710   10.76260    0.29370    0.16990    2.34170  -57.51100    3.66100    3.70500  319.44400
 2950.00000   82.36610   10.68850    0.38730    0.15000    2.15310  -57.44000    4.09000    3.66500  315.47600
 3000.00000   78.12500   10.55500    0.39400    0.07500    2.03570  -54.30400    1.91300    1.78100  732.16600
 3050.00000   63.39360    9.01800    0.30360    0.00370    2.46130  -65.04200    5.52300    5.38900  209.98700
 3100.00000   86.60710   11.08900    0.31520    0.14570    2.26610  -56.37300    2.64700    3.13600  378.96800
 3150.00000   80.80430    9.72900    0.23690    0.16270    2.54170  -58.30300    4.86100    5.36700  225.94200
 3200.00000  104.46360   10.40650    0.25820    0.19400    2.43450  -57.50600    4.84400    4.48800  240.07900
 3250.00000   68.52640    8.82890    0.23190    0.00300    2.48960  -61.91600    6.03100    5.77100  195.86200
 3300.00000   92.85680   10.40650    0.24840    0.19800    2.41850  -57.63500    4.57700    4.85200  259.60700
 3350.00000   86.38500   10.67850    0.23730    0.19850    2.41070  -56.47400    4.34900    3.87900  279.76200
 3400.00000   80.80320   11.08910    0.23680    0.18210    2.45190  -59.13500    4.61300    4.67100  244.84100
 3450.00000   94.86570   10.54010    0.27580    0.17090    2.30280  -56.84500    5.15900    4.50800  248.01600
 3500.00000   60.71390    9.30860    0.23100    0.03880    2.48960  -70.51400    4.71000    4.90300  241.22200
 3550.00000   79.60270    9.69440    0.23460    0.04550    2.56250  -59.86900    5.46300    5.31600  209.32500
 3600.00000   80.52150   11.00010    0.25520    0.15520    2.38820  -55.81700    4.23300    4.25100  291.66700
 3650.00000   82.82360   10.85160    0.29370    0.18280    2.35490  -55.42000    4.11000    4.72700  290.73300
 3700.00000   78.70970   10.94080    0.29900    0.18210    2.28270  -55.12100    3.87900    3.67900  327.38100
 3750.00000   75.23050   11.16320    0.27940    0.17240    2.45390  -54.72100    4.87200    3.84300  275.46300
 3800.00000   82.82250   11.71230    0.27420    0.15670    2.45360  -54.72100    4.15900    3.27900  332.83300
 3850.00000   86.31660   12.45890    0.32330    0.10520    2.48440  -53.92400    3.09600    3.08000  438.49200
 3900.00000   73.89020   12.42430    0.26190    0.18930    2.45340  -53.57400    3.69300    3.19300  360.15800
 3950.00000   75.00000   12.06820    0.33490    0.16870    2.40180  -53.52600    3.17400    3.08900  422.61900
 4000.00000   89.55470   12.45400    0.30720    0.10370    2.24700  -52.89600    3.56800    3.03900  403.09700
 4050.00000   52.36690   10.64390    0.22480    0.02540    2.65100  -52.31000    5.78700    4.80900  224.20600
 4100.00000   61.24260   10.55500    0.15710    0.00300    2.62050  -36.19400    -999.25    -999.25  240.07900
 4150.00000   44.59950   10.03560    0.11880    0.02150    2.67080  -52.19000    7.41000    8.21700  128.96800
 4200.00000   37.86920    9.91320    0.08930    0.00900    2.62670  -54.81800   12.11500   12.22800   56.54800
 4250.00000   40.82840   10.34720    0.14640    0.00300    2.64750  -51.02800    7.46300    7.02300  139.38500
 4300.00000   46.42860   10.48560    0.11010    0.01420    2.67730  -51.91600   10.05200   10.14400  109.32700
 4350.00000   37.27880    9.96140    0.10270    0.00750    2.67660  -53.20600    7.67600    7.95900  134.61500
