~Version ---------------------------------------------------
VERS.      2.0 : CWLS log ASCII Standard -VERSION 2.0
WRAP.      YES : Multiple lines per depth step
CREA. 07/19/18 : LAS Creation Date
~Well ------------------------------------------------------
STRT.FT                           4000.0 : START DEPTH
STOP.FT                          13600.0 : STOP DEPTH
STEP.FT                         50.00000 : STEP LENGTH
NULL.                            -999.25 : NULL VALUE
COMP. TEXSTAR NORTH AMERICA INCORPORATED : COMPANY
WELL.                         HOMEYER #2 : WELL
FLD .                     CENTRAL KENEDY : FIELD
LOC .                                    : LOCATION
CNTY.                             KARNES : COUNTY
STAT.                              TEXAS : STATE
CTRY.           UNITED STATES OF AMERICA : COUNTRY
SRVC.                       Schlumberger : SERVICE COMPANY
DATE.                        30-Mar-1990 : LOGDATE
API .                     42255312470000 : API NUMBER
UWI .                     42255312470000 : UNIQUE WELL ID
SLAT.WGS84                 28.7726896993 : SURFACE LATITUDE
SLON.WGS84                -97.8709093626 : SURFACE LONGITUDE
~Curve Information -----------------------------------------
DEPT    .FT    : DEPTH FEET
CALWS   .IN    : CALIPER [DCALDED+BIT]
CONDWS  .MMHO  : DEEP CONDUCTIVITY [1000/DRESWS]
DCALDED .IN    : DIFFERENTIAL CALIPER FROM DENSITY LOG
DCORWS  .G/C3  : DENSITY CORRECTION [DRHOED]
DENWS   .G/C3  : BULK DENSITY [TOP CALC. DPHISSED M=2.68 F=1.0, 12400' DPHISSED M=2.71 F=1.0]]
DPHILSED.V/V   : DENSITY POROSITY (LS) [M=2.71 F=1.0] FROM DENSITY LOG
DPHISSED.V/V   : DENSITY POROSITY (SS) [M=2.68 F=1.0] FROM DENSITY LOG
DPOLSWS .V/V   : DENSITY POROSITY LIMESTONE [M=2.71 F=1.0] [CALC. FROM DENWS]
DRESWS  .OHMM  : DEEP RESISTIVITY [ILDED]
DRHOED  .G/C3  : DENSITY CORRECTION FROM DENSITY LOG
DTED    .US/F  : DELTA TIME FROM DIL/SONIC LOG
DTLED   .US/F  : DELTA TIME LONG SPACING FROM DIL/SONIC LOG
DTWS    .US/F  : DELTA TIME COMPRESSIONAL [DTED]
GRDED   .GAPI  : GAMMA RAY FROM DENSITY LOG
GRRED   .GAPI  : GAMMA RAY FROM RESISTIVITY LOG
GRWS    .GAPI  : GAMMA RAY [TOP GRDED 6100' GRRED 13560' GRDED]
ILDED   .OHMM  : INDUCTION LOG DEEP RESISTIVITY
ILMED   .OHMM  : INDUCTION LOG MEDIUM RESISTIVITY
MRESWS  .OHMM  : MEDIUM RESISTIVITY [ILMED]
NPHILSED.V/V   : NEUTRON POROSITY LIMESTONE FROM DENSITY LOG
NPHISSED.V/V   : NEUTRON POROSITY SANDSTONE FROM DENSITY LOG
NPOLSWS .V/V   : NEUTRON POROSITY LIMESTONE [TOP CONVERSED NPHISSED TO LIME FROM POWER LOG; 12400' NPHILSED]
PEFED   .B/E   : PHOTOELECTRIC FACTOR FROM DENSITY LOG
PEFWS   .B/E   : PHOTOELECTRIC FACTOR [PEFED]
SFLUED  .OHMM  : SPHERICALLY FOCUSED LOG RESISTIVITY
SPHILSED.V/V   : SONIC POROSITY (LS) [DTM=49 DTF=189] FROM DIL/SONIC LOG
SPHISSED.V/V   : SONIC POROSITY (SS) [DTM=55.6 DTF=189] FROM DIL/SONIC LOG
SPOLSWS .V/V   : SONIC POROSITY (LS) [DTM=49 DTF=189] [CALC. FROM DTWS]
SPRED   .MV    : SPONTANEOUS POTENTIAL FROM RESISTIVITY LOG
SPWS    .MV    : SPONTANEOUS POTENTIAL [BASELINE 0 MV] [SPRED]
SRESWS  .OHMM  : SHALLOW RESISTIVITY [SFLUED]
TENDED  .LBF   : TENSION FROM DENSITY LOG
TENRED  .LBF   : TENSION FROM RESISTIVITY LOG
~Params ----------------------------------------------------
PD  .                     GL : PERMANENT DATUM
EPD .FT                  455 : ELEVATION PERMANENT DATUM
LMF .                     KB : LOG MEASURED FROM
DAPD.FT                   23 : MEASUREMENT ABOVE PERMANENT DATUM
DMF .                     KB : DRILLING MEASURED FROM
EKB .FT                  478 : KELLY BUSHING
EDF .FT                  477 : DRILLING FLOOR
EGL .FT                  455 : GROUND LEVEL
DATE.               03/30/90 : RUN DATE
RUN .                      1 : RUN NUMBER
DD  .FT                13600 : DEPTH DRILLER
DL  .FT                13608 : DEPTH LOGGER
BLI .FT                13602 : BOTTOM LOG INTERVAL
TLI .FT                 3954 : TOP LOG INTERVAL
CS  .IN                9.625 : CASING SIZE
CBD .FT                 3950 : CASING BOTTOM DRILLER
CBL .FT                 3954 : CASING BOTTOM LOGGER
BS  .IN                  8.5 : BIT SIZE
BSD .FT                13600 : BIT SIZE AT DEPTH
DFT .               KCL KLIG : DRILLING FLUID TYPE
DFD .                   10.7 : DRILLING FLUID DENSITY
DFV .                     41 : DRILLING FLUID VISCOSITY
DFPH.                   11.5 : DRILLING FLUID PH
DFL .                    9.4 : DRILLING FLUID LOSS
MSS .               CIRC PIT : MUD SAMPLE SOURCE
RMS .OHMM               0.63 : RESISTIVITY MUD SAMPLE
MST .DEGF                 75 : MUD SAMPLE TEMPERATURE
RMF .OHMM               0.55 : RESISTIVITY MUD FILTRATE SAMPLE
MFST.DEGF                 75 : MUD FILTRATE SAMPLE TEMPERATURE
RMC .OHMM               0.95 : RESISTIVITY MUD CAKE
MCST.DEGF                 75 : MUD CAKE SAMPLE TEMPERATURE
MFSS.                   MEAS : MUD FILTRATE SAMPLE SOURCE
MCSS.                   CALC : MUD CAKE SAMPLE SOURCE
RMB .OHMM              0.167 : RESISTIVITY MUD AT BHT
TCS .HRS                1530 : TIME CIRCULATED STOPPED
TLAB.HRS                  50 : TIME LOGGER AT BOTTOM
LUN .                   8268 : LOGGING UNIT NUMBER
LUL .             PLEASANTON : LOGGING UNIT LOCATION
ENGI.                 WILKIE : RECORDING ENGINEER
WITN.         REQUARTH GIBBS : WITNESSED BY
CLNT.                A2DTECH : CLIENT CODE
ORIG.            1" 5" PRINT : ORIGIN OF DATA
UWI .         42255312470000 : UNIQUE WELL ID
DICO. A2D Technologies, Inc. : DIGITIZING COMPANY
~Other -----------------------------------------------------
GRR SATURATED AT 5988'.
~ASCII -----------------------------------------------------
# ...
 9500.00000    -999.25  674.90050    -999.25    -999.25    -999.25    -999.25    -999.25    -999.25    1.48170    -999.25   93.04930   91.95580   93.04930    -999.25   96.82290   96.82290    1.48170    1.61110    1.61110    -999.25    -999.25    -999.25    -999.25    -999.25    1.66630    -999.25    0.24870    0.31460  -10.63150   -5.58760    1.66630    -999.25 3325.31470
 9550.00000    -999.25  716.17850    -999.25    -999.25    -999.25    -999.25    -999.25    -999.25    1.39630    -999.25   91.87730   92.18130   91.87730    -999.25  103.65670  103.65670    1.39630    1.46370    1.46370    -999.25    -999.25    -999.25    -999.25    -999.25    1.77770    -999.25    0.24580    0.30630  -11.98960   -6.84170    1.77770    -999.25 3313.68510
 9600.00000    -999.25  556.79290    -999.25    -999.25    -999.25    -999.25    -999.25    -999.25    1.79600    -999.25   86.09400   86.45550   86.09400    -999.25   98.69500   98.69500    1.79600    1.86270    1.86270    -999.25    -999.25    -999.25    -999.25    -999.25    2.38350    -999.25    0.22070    0.26500  -11.99200   -6.74000    2.38350    -999.25 3340.08960
 9650.00000    -999.25  506.86810    -999.25    -999.25    -999.25    -999.25    -999.25    -999.25    1.97290    -999.25   88.54300   88.90450   88.54300    -999.25  102.59750  102.59750    1.97290    2.01780    2.01780    -999.25    -999.25    -999.25    -999.25    -999.25    2.43050    -999.25    0.23280    0.28250  -12.01980   -6.66380    2.43050    -999.25 3315.01100
 9700.00000    -999.25  601.39520    -999.25    -999.25    -999.25    -999.25    -999.25    -999.25    1.66280    -999.25   93.36980   93.73130   93.36980    -999.25  105.33110  105.33110    1.66280    1.71480    1.71480    -999.25    -999.25    -999.25    -999.25    -999.25    2.15110    -999.25    0.25270    0.31690  -11.92790   -6.46790    2.15110    -999.25 3359.12350
 9750.00000    -999.25  555.18540    -999.25    -999.25    -999.25    -999.25    -999.25    -999.25    1.80120    -999.25   88.77220   90.45310   88.77220    -999.25   93.32500   93.32500    1.80120    1.57340    1.57340    -999.25    -999.25    -999.25    -999.25    -999.25    1.97570    -999.25    0.23420    0.28410  -10.93150   -5.36750    1.97570    -999.25 3353.98340
 9800.00000    -999.25  507.79460    -999.25    -999.25    -999.25    -999.25    -999.25    -999.25    1.96930    -999.25   86.65240   87.01400   86.65240    -999.25  110.55830  110.55830    1.96930    2.02090    2.02090    -999.25    -999.25    -999.25    -999.25    -999.25    2.47660    -999.25    0.22280    0.26890  -12.15490   -6.48680    2.47660    -999.25 3383.78340
 9850.00000    -999.25  633.43260    -999.25    -999.25    -999.25    -999.25    -999.25    -999.25    1.57870    -999.25   90.81360   91.17510   90.81360    -999.25   97.71390   97.71390    1.57870    1.66320    1.66320    -999.25    -999.25    -999.25    -999.25    -999.25    2.02050    -999.25    0.24580    0.29870  -11.50310   -5.73100    2.02050    -999.25 3409.02590
 9900.00000    -999.25  583.29440    -999.25    -999.25    -999.25    -999.25    -999.25    -999.25    1.71440    -999.25   89.01790   89.37940   89.01790    -999.25   93.82600   93.82600    1.71440    1.78150    1.78150    -999.25    -999.25    -999.25    -999.25    -999.25    2.10760    -999.25    0.23420    0.28580  -10.81830   -4.94220    2.10760    -999.25 3412.74760
 9950.00000    -999.25  618.19980    -999.25    -999.25    -999.25    -999.25    -999.25    -999.25    1.61760    -999.25   89.27040   89.83360   89.27040    -999.25   99.88870   99.88870    1.61760    1.67330    1.67330    -999.25    -999.25    -999.25    -999.25    -999.25    2.05980    -999.25    0.23620    0.28760  -10.83840   -4.85820    2.05980    -999.25 3383.04250
 10000.00000    -999.25  517.19680    -999.25    -999.25    -999.25    -999.25    -999.25    -999.25    1.93350    -999.25   84.65210   85.01360   84.65210    -999.25   88.25850   88.25850    1.93350    1.98620    1.98620    -999.25    -999.25    -999.25    -999.25    -999.25    2.44110    -999.25    0.21360    0.25470  -10.61000   -4.52580    2.44110    -999.25 3388.18700
 10050.00000    -999.25  553.43410    -999.25    -999.25    -999.25    -999.25    -999.25    -999.25    1.80690    -999.25   86.55990   86.92150   86.55990    -999.25   97.12070   97.12070    1.80690    1.87680    1.87680    -999.25    -999.25    -999.25    -999.25    -999.25    2.33920    -999.25    0.22400    0.26830   -9.60700   -3.41880    2.33920    -999.25 3439.40550
 10100.00000    -999.25  736.10600    -999.25    -999.25    -999.25    -999.25    -999.25    -999.25    1.35850    -999.25   93.74550   94.10700   93.74550    -999.25  102.39440  102.39440    1.35850    1.42740    1.42740    -999.25    -999.25    -999.25    -999.25    -999.25    1.69130    -999.25    0.25580    0.31960   -9.60620   -3.31400    1.69130    -999.25 3472.77860
 10150.00000    -999.25  634.03500    -999.25    -999.25    -999.25    -999.25    -999.25    -999.25    1.57720    -999.25   91.86030   92.22180   91.86030    -999.25   98.20480   98.20480    1.57720    1.63110    1.63110    -999.25    -999.25    -999.25    -999.25    -999.25    2.02270    -999.25    0.24790    0.30610   -9.92810   -3.53180    2.02270    -999.25 3466.92800
 10200.00000    -999.25  530.64470    -999.25    -999.25    -999.25    -999.25    -999.25    -999.25    1.88450    -999.25   87.78780   88.14940   87.78780    -999.25  100.50380  100.50380    1.88450    1.94980    1.94980    -999.25    -999.25    -999.25    -999.25    -999.25    2.35550    -999.25    0.22830    0.27710   -9.62290   -3.12260    2.35550    -999.25 3479.06690
 10250.00000    -999.25  598.33660    -999.25    -999.25    -999.25    -999.25    -999.25    -999.25    1.67130    -999.25   85.67930   86.71560   85.67930    -999.25   91.98010   91.98010    1.67130    1.75320    1.75320    -999.25    -999.25    -999.25    -999.25    -999.25    2.06610    -999.25    0.22060    0.26200   -9.96600   -3.36170    2.06610    -999.25 3478.42900
 10300.00000    -999.25  428.72450    -999.25    -999.25    -999.25    -999.25    -999.25    -999.25    2.33250    -999.25   82.74110   83.17850   82.74110    -999.25   91.67200   91.67200    2.33250    2.44060    2.44060    -999.25    -999.25    -999.25    -999.25    -999.25    2.79510    -999.25    0.20480    0.24100   -9.77750   -3.06910    2.79510    -999.25 3497.26880
 10350.00000    -999.25  542.41700    -999.25    -999.25    -999.25    -999.25    -999.25    -999.25    1.84360    -999.25   88.80870   89.24610   88.80870    -999.25   95.22900   95.22900    1.84360    1.88570    1.88570    -999.25    -999.25    -999.25    -999.25    -999.25    2.17830    -999.25    0.23420    0.28430  -10.01300   -3.20060    2.17830    -999.25 3520.98560
 10400.00000    -999.25  491.52130    -999.25    -999.25    -999.25    -999.25    -999.25    -999.25    2.03450    -999.25   84.11270   84.82490   84.11270    -999.25   82.00670   82.00670    2.03450    2.19770    2.19770    -999.25    -999.25    -999.25    -999.25    -999.25    2.77320    -999.25    0.21130    0.25080  -10.76040   -3.84400    2.77320    -999.25 3566.61400
 10450.00000    -999.25  516.98290    -999.25    -999.25    -999.25    -999.25    -999.25    -999.25    1.93430    -999.25   78.43780   82.95380   78.43780    -999.25   86.40810   86.40810    1.93430    2.03890    2.03890    -999.25    -999.25    -999.25    -999.25    -999.25    2.78750    -999.25    0.18040    0.21030  -10.92840   -3.90790    2.78750    -999.25 3531.35110
 10500.00000    -999.25  545.25630    -999.25    -999.25    -999.25    -999.25    -999.25    -999.25    1.83400    -999.25   88.48850   88.92590   88.48850    -999.25   93.09680   93.09680    1.83400    1.90070    1.90070    -999.25    -999.25    -999.25    -999.25    -999.25    2.40270    -999.25    0.23310    0.28210  -10.55970   -3.43520    2.40270    -999.25 3530.79440
 10550.00000    -999.25  502.00800    -999.25    -999.25    -999.25    -999.25    -999.25    -999.25    1.99200    -999.25   90.29220   91.08880   90.29220    -999.25   96.58090   96.58090    1.99200    2.05750    2.05750    -999.25    -999.25    -999.25    -999.25    -999.25    2.44180    -999.25    0.24060    0.29490  -10.28490   -3.05640    2.44180    -999.25 3540.37550
