~Version ---------------------------------------------------
VERS. 2.0 : CWLS log ASCII Standard -VERSION 2.0
WRAP. YES : MULTIPLE LINES PER DEPTH STEP
~Well ------------------------------------------------------
STRT.FT                   3750.0 : START DEPTH
STOP.FT                   8050.0 : STOP DEPTH
STEP.FT                 50.00000 : STEP LENGTH
NULL.                    -999.25 : NULL VALUE
COMP. CHAMPLIN PETROLEUM COMPANY : COMPANY
WELL.           ALFONSO BERAN #1 : WELL
FLD .                   GIDDINGS : FIELD
LOC .                            : LOCATION
CNTY.                   BURLESON : COUNTY
STAT.                      TEXAS : STATE
CTRY.   UNITED STATES OF AMERICA : COUNTRY
SRVC.              Dresser Atlas : SERVICE COMPANY
DATE.                19-Mar-1980 : LOGDATE
API .             42051306370000 : API NUMBER
UWI .             42051306370000 : UNIQUE WELL ID
SLAT.WGS84             30.423017 : SURFACE LATITUDE
SLON.WGS84             -96.73979 : SURFACE LONGITUDE
~Curve Information -----------------------------------------
DEPT  .FT    : DEPTH FEET
ACED  .US/F  : DELTA TIME (ACOUSTIC) FROM SONIC LOG
CALDED.IN    : CALIPER FROM DENSITY LOG[DSH TO GRRED]
CALWS .IN    : CALIPER [CALDED]
CONDWS.MMHO  : CONDUCTIVITY [1000/DRESWS]
CORRED.G/C3  : DENSITY CORRECTION FROM DENSITY LOG[DSH TO GRRED]
DCORWS.G/C3  : DENSITY CORRECTION [CORRED]
DENWS .G/C3  : BULK DENSITY [M=2.71 F=1.0] [RHOBED]
DPHIED.V/V   : DENSITY POROSITY [M=2.71 F=1.0]FROM DENSILOG-SONIC
DPOWS .V/V   : DENSITY POROSITY [M=2.71 F=1.0] [DPHIED]
DRESWS.OHMM  : DEEP RESISTIVITY [ILDED]
DTWS  .US/F  : DELTA TIME [ACED]
GRD1ED.GAPI  : GAMMA RAY FROM DENSILOG-SONIC [DSH TO GRRED]
GRDED .GAPI  : GAMMA RAY FROM DENSITY LOG[DSH TO GRRED]
GRNED .GAPI  : GAMMA RAY FROM GR-NEUTRON LOG[DSH TO GRRED]
GRRED .GAPI  : GAMMA RAY FROM RESISTIVITY LOG
GRWS  .GAPI  : GAMMA RAY [GRRED SPLICED TO GRDED AT 5460'/5534']
ILDED .OHMM  : INDUCTION LOG DEEP RESISTIVITY
ILMED .OHMM  : INDUCTION LOG MEDIUM RESISTIVITY
MRESWS.OHMM  : MEDIUM RESISTIVITY [ILMED]
NEUTED.NAPI  : NEUTRON FROM GR-NEUTRON LOG[DSH TO GRRED]
NEUTWS.NAPI  : NEUTRON [NEUTED]
RHOBED.G/C3  : BULK DENSITY FROM DENSITY LOG[DSH TO GRRED]
SFLED .OHMM  : SPHERICALLY FOCUSED LOG RESISTIVITY
SPHIED.V/V   : SONIC POROSITY FROM DENSILOG-SONIC LOG[DSH TO GRRED]
SPOWS .V/V   : SONIC POROSITY [SPHIED]
SPRED .MV    : SPONTANEOUS POTENTIAL FROM RESISTIVITY LOG
SPWS  .MV    : SPONTANEOUS POTENTIAL [BASELINE 0 MV] [SPRED WAS REVERSED]
SRESWS.OHMM  : SHALLOW RESISTIVITY [SFLED]
~Params ----------------------------------------------------
PD  .                     GL : PERMANENT DATUM
EPD .FT                  383 : ELEVATION PERMANENT DATUM
LMF .                     KB : LOG MEASURED FROM
DAPD.FT                 13.6 : FEET ABOVE PERMANENT DATUM
DMF .                     KB : DRILLING MEASURED FROM
EKB .FT                  397 : KELLY BUSHING
EDF .FT                  396 : DRILLING FLOOR
EGL .FT                  383 : GROUND LEVEL
DATE.               03/19/80 : RUN DATE
RUN .                      1 : RUN NUMBER
DD  .FT                 8123 : DEPTH DRILLER
DL  .FT                 8094 : DEPTH LOGGER
BLI .FT                 8092 : BOTTOM LOG INTERVAL
TLI .FT                 3764 : TOP LOG INTERVAL
CS  .IN                9.625 : CASING SIZE
CBD .FT                 3755 : CASING BOTTOM DRILLER
CBL .FT                 3764 : CASING BOTTOM LOGGER
BS  .IN                 8.75 : BIT SIZE
BSD .FT                 8123 : BIT SIZE AT DEPTH
DFT .                SUPER X : DRILLING FLUID TYPE
DFD .                    9.2 : DRILLING FLUID DENSITY
DFV .                     42 : DRILLING FLUID VISCOSITY
DFPH.                      7 : DRILLING FLUID PH
DFL .                    8.2 : DRILLING FLUID LOSS
MSS .               FLOWLINE : MUD SAMPLE SOURCE
RMS .OHMM               0.15 : RESISTIVITY MUD SAMPLE
MST .DEGF                 70 : MUD SAMPLE TEMPERATURE
RMF .OHMM               0.11 : RESISTIVITY MUD FILTRATE SAMPLE
MFST.DEGF                 70 : MUD FILTRATE SAMPLE TEMPERATURE
RMC .OHMM               0.19 : RESISTIVITY MUD CAKE
MCST.DEGF                 70 : MUD CAKE SAMPLE TEMPERATURE
MFSS.                   MEAS : MUD FILTRATE SAMPLE SOURCE
MCSS.                   CALC : MUD CAKE SAMPLE SOURCE
RMB .OHMM               0.05 : RESISTIVITY MUD AT BHT
TCS .HRS                  14 : TIME CIRCULATED STOPPED
LUN .                   6139 : LOGGING UNIT NUMBER
LUL .                  BRYAN : LOGGING UNIT LOCATION
ENGI.                 POWELL : RECORDING ENGINEER
WITN.              WES DAVIS : WITNESSED BY
CLNT.                A2DTECH : CLIENT CODE
ORIG.          1" 2.5" PRINT : ORIGIN OF DATA
UWI .         42051306370000 : UNIQUE WELL ID
DICO. A2D Technologies, Inc. : DIGITIZING COMPANY
~Other -----------------------------------------------------
~ASCII -----------------------------------------------------
# ...
 5000.00000  104.94750   12.95520   12.95520  892.21980    0.13470    0.13470    2.32290    0.22930    0.22930    1.12080  104.94750   73.38410   77.59640    -999.25   81.83200   81.83200    1.12080    1.05540    1.05540    -999.25    -999.25    2.32290    2.13840    0.38740    0.38740  -95.54710   -4.38020    2.13840
 5050.00000  115.15050   14.17500   14.17500  712.04780    0.12590    0.12590    -999.25    0.45000    0.45000    1.40440  115.15050   58.25810   58.30860    -999.25   71.84670   71.84670    1.40440    7.91900    7.91900    -999.25    -999.25    2.03560    1.37680    0.30850    0.30850  -95.84570   -4.02810    1.37680
 5100.00000  109.34520   11.39460   11.39460  844.30940    0.16230    0.16230    2.23890    0.27940    0.27940    1.18440  109.34520   80.73130   86.99570    -999.25   83.55820   83.55820    1.18440    1.27940    1.27940    -999.25    -999.25    2.23890    1.46520    -999.25    -999.25  -94.36200   -5.45840    1.46520
 5150.00000  112.76910   11.64670   11.64670 1082.13400    0.16250    0.16250    2.13960    0.32930    0.32930    0.92410  112.76910   79.72780   81.68990    -999.25   83.18320   83.18320    0.92410    0.89290    0.89290    -999.25    -999.25    2.13960    1.14230    -999.25    -999.25  -92.58160   -7.18540    1.14230
 5200.00000   96.38220   11.66410   11.66410  584.55600    0.18040    0.18040    2.30750    0.24680    0.24680    1.71070   96.38220   69.45730   72.82330    -999.25   74.32430   74.32430    1.71070    1.52970    1.52970    -999.25    -999.25    2.30750    2.22890    0.33920    0.33920  -97.00600   -2.70750    2.22890
 5250.00000   96.54760   10.18900   10.18900  573.92100    0.15290    0.15290    2.33280    0.22420    0.22420    1.74240   96.54760   72.14460   76.25900    -999.25   79.05400   79.05400    1.74240    1.73120    1.73120    -999.25    -999.25    2.33280    1.77820    0.37150    0.37150  -96.49100   -3.16910    1.77820
 5300.00000   95.65430   10.39250   10.39250  683.94770    0.14330    0.14330    2.34030    0.22880    0.22880    1.46210   95.65430   67.21790   69.43620    -999.25   77.92790   77.92790    1.46210    1.72340    1.72340    -999.25    -999.25    2.34030    2.31060    0.37760    0.37760  -95.80840   -3.79820    2.31060
 5350.00000  107.55890   11.33140   11.33140 1087.19290    0.14470    0.14470    2.14530    0.33590    0.33590    0.91980  107.55890   81.70890   84.12460    -999.25   86.03600   86.03600    0.91980    0.92410    0.92410    -999.25    -999.25    2.14530    1.23620    0.45000    0.45000  -94.31140   -5.24180    1.23620
 5400.00000  107.85710   12.21430   12.21430 1014.91930    0.14740    0.14740    2.19050    0.30510    0.30510    0.98530  107.85710   75.44270   78.36150    -999.25   77.47750   77.47750    0.98530    0.97650    0.97650    -999.25    -999.25    2.19050    1.18630    -999.25    -999.25  -97.00600   -2.49380    1.18630
 5450.00000  108.15410   12.10310   12.10310  915.49940    0.17310    0.17310    2.32960    0.23210    0.23210    1.09230  108.15410   74.38640   77.66220    -999.25   79.27930   79.27930    1.09230    1.09030    1.09030    -999.25    -999.25    2.32960    1.29710    0.44190    0.44190  -96.70660   -2.73970    1.29710
 5500.00000  106.46820   12.27360   12.27360  825.83200    0.17000    0.17000    2.30070    0.23970    0.23970    1.21090  106.46820   74.77750   75.18180    -999.25    -999.25   75.18180    1.21090    1.34080    1.34080    -999.25    -999.25    2.30070    1.33320    0.44060    0.44060  -97.00600   -2.38690    1.33320
 5550.00000  103.69050   10.39650   10.39650 1021.97240    0.15520    0.15520    2.28050    0.24970    0.24970    0.97850  103.69050   88.05940   90.58640    -999.25   89.03900   89.03900    0.97850    0.83900    0.83900    -999.25    -999.25    2.28050    3.83380    0.41290    0.41290  -95.80840   -3.53100    3.83380
 5600.00000  101.41020   12.57300   12.57300 1138.04480    0.18550    0.18550    2.25360    0.26750    0.26750    0.87870  101.41020   89.45240   90.35610    -999.25   90.09010   90.09010    0.87870    1.04610    1.04610    -999.25    -999.25    2.25360    1.16750    0.36240    0.36240  -97.60410   -1.68190    1.16750
 5650.00000  104.88100   12.54420   12.54420 1148.63310    0.18050    0.18050    2.18880    0.31000    0.31000    0.87060  104.88100   89.23000   93.58130    -999.25   99.69970   99.69970    0.87060    0.86250    0.86250    -999.25    -999.25    2.18880    0.95670    0.44810    0.44810  -97.77510   -1.45750    0.95670
 5700.00000   90.19880    9.31230    9.31230  635.97050    0.09750    0.09750    2.39410    0.18710    0.18710    1.57240   90.19880   68.39150   70.75880    -999.25   77.73470   77.73470    1.57240    1.65350    1.65350    -999.25    -999.25    2.39410    2.05260    0.33920    0.33920  -96.40720   -2.77190    2.05260
 5750.00000   96.25000   10.87560   10.87560  814.53120    0.17150    0.17150    2.36350    0.20670    0.20670    1.22770   96.25000   90.31500   91.65760    -999.25   90.99100   90.99100    1.22770    1.21750    1.21750    -999.25    -999.25    2.36350    1.89300    0.38740    0.38740  -96.70590   -2.41980    1.89300
 5800.00000   98.63270   12.16320   12.16320  837.24050    0.16860    0.16860    2.25530    0.26960    0.26960    1.19440   98.63270   92.20470   94.37280    -999.25   87.83780   87.83780    1.19440    1.13640    1.13640    -999.25    -999.25    2.25530    1.32720    0.42590    0.42590  -95.20960   -3.86260    1.32720
 5850.00000  102.64880   12.93210   12.93210  777.30280    0.18860    0.18860    2.26150    0.26710    0.26710    1.28650  102.64880   86.27070   89.28530    -999.25   82.65780   82.65780    1.28650    1.27940    1.27940    -999.25    -999.25    2.26150    1.42520    0.39150    0.39150  -97.60480   -1.41400    1.42520
 5900.00000   90.29900   11.91620   11.91620  566.05910    0.15680    0.15680    2.22560    0.28100    0.28100    1.76660   90.29900  103.73150  102.37390    -999.25   86.03600   86.03600    1.76660    3.20070    3.20070    -999.25    -999.25    2.22560    1.68250    0.32450    0.32450  -95.21050   -3.75490    1.68250
 5950.00000  112.62000   13.92220   13.92220  996.21440    0.17460    0.17460    2.16130    0.29890    0.29890    1.00380  112.62000   90.60080   93.47180    -999.25   87.38770   87.38770    1.00380    0.84120    0.84120    -999.25    -999.25    2.16130    0.92190    -999.25    -999.25  -95.20960   -3.54650    0.92190
 6000.00000   89.70240    9.63530    9.63530  637.83650    0.16650    0.16650    2.24930    0.26490    0.26490    1.56780   89.70240  105.51270  107.44500    -999.25  100.45040  100.45040    1.56780    3.49000    3.49000    -999.25    -999.25    2.24930    2.24950    0.32860    0.32860  -93.41320   -4.92720    2.24950
 6050.00000   94.91140   10.52790   10.52790  726.21640    0.15720    0.15720    2.33880    0.21860    0.21860    1.37700   94.91140  124.63650  130.86050    -999.25  127.25230  127.25230    1.37700    1.21090    1.21090    -999.25    -999.25    2.33880    2.19320    0.37330    0.37330  -94.91020   -3.01440    2.19320
 6100.00000   91.28510   10.89710   10.89710  658.76150    0.12780    0.12780    2.39040    0.19150    0.19150    1.51800   91.28510   91.07220   96.34230    -999.25   90.66790   90.66790    1.51800    1.57230    1.57230    -999.25    -999.25    2.39040    2.92540    0.34940    0.34940  -92.81580   -4.69310    2.92540
 6150.00000   94.24070   10.95750   10.95750  658.63140    0.17460    0.17460    2.41190    0.17010    0.17010    1.51830   94.24070   99.73200  104.59940    -999.25   96.39640   96.39640    1.51830    1.52290    1.52290    -999.25    -999.25    2.41190    2.41050    0.37050    0.37050  -93.41320   -3.67990    2.41050
 6200.00000   96.83740   12.18630   12.18630  709.01870    0.16470    0.16470    2.47390    0.14510    0.14510    1.41040   96.83740  100.79770   97.92730    -999.25   90.99100   90.99100    1.41040    1.45470    1.45470    -999.25    -999.25    2.47390    2.08470    0.36960    0.36960  -93.13430   -3.54310    2.08470
