~Version ---------------------------------------------------
VERS. 2.0 : CWLS log ASCII Standard -VERSION 2.0
WRAP.  NO : ONE LINE PER DEPTH STEP
~Well ------------------------------------------------------
STRT.F                    3800.0 : START DEPTH
STOP.F                    8600.0 : STOP DEPTH
STEP.F                  50.00000 : STEP LENGTH
NULL.                    -999.25 : NULL VALUE
COMP. CHAMPLIN PETROLEUM COMPANY : COMPANY
WELL.          BRINKMAN  L.W. #1 : WELL
FLD .                   GIDDINGS : FIELD
LOC .                            : LOCATION
CNTY.                   BURLESON : COUNTY
STAT.                      TEXAS : STATE
CTRY.   UNITED STATES OF AMERICA : COUNTRY
SRVC.               Schlumberger : SERVICE COMPANY
DATE.                10-Nov-1981 : LOGDATE
API .             42051319560000 : API NUMBER
UWI .             42051319560000 : UNIQUE WELL ID
SLAT.WGS84         30.3788096116 : SURFACE LATITUDE
SLON.WGS84        -96.7341742716 : SURFACE LONGITUDE
~Curve Information -----------------------------------------
DEPT.F                 : 
GRR .GAPI 07 310 01 00 : GAMMA RAY FROM RESISTIVITY
SPR .MV   07 010 01 00 : SPONTANEOUS POTENTIAL FROM RESISTIVITY
ILD .OHMM 07 120 46 00 : INDUCTION DEEP RESISTIVITY
ILM .OHMM 07 120 44 00 : INDUCTION MEDIUM RESISTIVITY
SFLU.OHMM 07 220 01 00 : SFL RESISTIVITY (UNAVERAGED)
DCAL.IN   07 280 01 00 : DIFFERENTIAL CALIPER
DT  .US/F 60 520 00 00 : DELTA-T (INTERVAL TRANSIT TIME)
DTL .US/F 60 523 00 00 : DELTA-T LONG SPACING
NPHI.DEC  42 890 03 00 : NEUTRON POROSITY
DPHI.DEC  45 890 12 00 : DENSITY POROSITY
DRHO.G/C3 45 356 01 00 : BULK DENSITY CORRECTION
PEF .B/E  45 358 01 00 : PHOTO ELECTRIC FACTOR
RHOB.G/C3 45 350 01 00 : BULK DENSITY
~Params ----------------------------------------------------
PD  .                     GL : PERMANENT DATUM
EPD .FT                  364 : ELEVATION PERMANENT DATUM
LMF .                    RKB : LOG MEASURED FROM
DAPD.FT                   17 : FEET ABOVE PERMANENT DATUM
DMF .                    RKB : DRILLING MEASURED FROM
EKB .FT                  381 : KELLY BUSHING
EDF .FT                  380 : DRILLING FLOOR
EGL .FT                  364 : GROUND LEVEL
DATE.               11/10/81 : RUN DATE
RUN .                      1 : RUN NUMBER
DD  .FT                 8613 : DEPTH DRILLER
DL  .FT                 8618 : DEPTH LOGGER
BLI .FT                 8612 : BOTTOM LOG INTERVAL
TLI .FT                 3816 : TOP LOG INTERVAL
CS  .IN                9.625 : CASING SIZE
CBD .FT                 3816 : CASING BOTTOM DRILLER
CBL .FT                 3816 : CASING BOTTOM LOGGER
BS  .IN                 8.75 : BIT SIZE
BSD .FT                 8613 : BIT SIZE AT DEPTH
DFT .                  BENEX : DRILLING FLUID TYPE
DFD .                      9 : DRILLING FLUID DENSITY
DFV .                     40 : DRILLING FLUID VISCOSITY
DFPH.                     10 : DRILLING FLUID PH
DFL .                    6.4 : DRILLING FLUID LOSS
MSS .                   TANK : MUD SAMPLE SOURCE
RMS .OHMM               2.02 : RESISTIVITY MUD SAMPLE
MST .DEGF                 93 : MUD SAMPLE TEMPERATURE
RMF .OHMM              1.515 : RESISTIVITY MUD FILTRATE SAMPLE
MFST.DEGF                 93 : MUD FILTRATE SAMPLE TEMPERATURE
RMC .OHMM               3.03 : RESISTIVITY MUD CAKE
MCST.DEGF                 93 : MUD CAKE SAMPLE TEMPERATURE
MFSS.                   CALC : MUD FILTRATE SAMPLE SOURCE
MCSS.                   CALC : MUD CAKE SAMPLE SOURCE
RMB .OHMM              0.952 : RESISTIVITY MUD AT BHT
TCS .HRS                1400 : TIME CIRCULATED STOPPED
TLAB.HRS                2030 : TIME LOGGER AT BOTTOM
LUN .                   8227 : LOGGING UNIT NUMBER
LUL .                BRENHAM : LOGGING UNIT LOCATION
ENGI.     ALEXANDER PRISTLEY : RECORDING ENGINEER
WITN.                  VODAK : WITNESSED BY
CLNT.                A2DTECH : CLIENT CODE
ORIG.            2" 5" PRINT : ORIGIN OF DATA
UWI .         42051319560000 : UNIQUE WELL ID
DICO. A2D Technologies, Inc. : DIGITIZING COMPANY
~Other -----------------------------------------------------
~ASCII -----------------------------------------------------
# ...
 6400.00000   79.13950  -13.93450    1.87250    2.00470    2.11930    1.10530   91.07820   90.46320    -999.25    -999.25    -999.25    -999.25    -999.25
 6450.00000   83.14320  -13.52270    2.05020    2.14140    2.47270    0.96250   91.13220   91.18730    -999.25    -999.25    -999.25    -999.25    -999.25
 6500.00000   79.11920  -15.45290    2.00410    2.08020    2.37730    1.11990   91.08860   91.14470    -999.25    -999.25    -999.25    -999.25    -999.25
 6550.00000   77.30470  -10.91190    2.04380    2.11300    2.42180    1.05980   90.59080   90.64630    -999.25    -999.25    -999.25    -999.25    -999.25
 6600.00000   83.62970  -15.01910    1.39260    1.46530    1.62400    2.80610  105.37040  101.45640    -999.25    -999.25    -999.25    -999.25    -999.25
 6650.00000   74.87950  -15.71250    1.50300    1.53530    1.73030    2.58110  107.07490  100.85160    -999.25    -999.25    -999.25    -999.25    -999.25
 6700.00000   74.50230  -13.69220    1.51510    1.58490    1.81340    1.88940   99.69420   99.03640    0.28990    0.17350    0.11810    2.58730    2.41220
 6750.00000   42.26790  -11.90360    3.45520    3.89850    5.08430    0.61230   74.58480   74.68890    0.27220    0.15970    0.15400    2.79840    2.44040
 6800.00000   57.02610  -11.74740    3.45770    3.43220    4.13470    0.56540   80.25200   79.96600    0.11870    0.07460   -0.01220    4.00910    2.58270
 6850.00000   47.24120  -14.56010    4.76380    4.88750    5.24270    0.38460   77.89190   77.96180    0.09170    0.09850   -0.00170    3.74250    2.54050
 6900.00000   72.99000  -11.94310    1.90960    1.97210    2.22340    1.68620   92.52190   92.58400    0.25450    0.11000    0.01590    2.75240    2.52160
 6950.00000   79.51370  -10.53160    2.45730    2.54760    3.05860    1.10840   90.27640   90.34770    0.21750    0.10890   -0.00900    2.89520    2.52390
 7000.00000   76.90010  -15.12590    1.85060    1.98470    2.37870    2.43400   94.25500   94.30800    0.23910    0.15390    0.18540    2.35430    2.44500
 7050.00000   82.83080   -9.64620    2.34070    2.41310    2.84460    1.21480   88.53420   88.58780    0.19210    0.11140    0.00520    2.72930    2.52030
 7100.00000   73.38710   -7.30690    2.71840    2.86020    3.31950    1.68980   85.95250   86.00630    0.16530    0.08950   -0.00650    2.96040    2.55560
 7150.00000   77.14660  -13.14410    1.86900    1.97930    2.41470    2.65250   96.42530   94.20970    0.25870    0.13380    0.17890    2.50220    2.48280
 7200.00000   80.76400  -12.06820    1.75660    1.87620    2.37000    2.98430   95.66770   95.72120    0.27760    0.14320    0.15060    2.88630    2.46380
 7250.00000   77.85900  -12.45810    2.05170    2.17130    2.69460    2.52340   92.19000   93.27000    0.24200    0.10740    0.18660    2.61670    2.51940
 7300.00000   80.67160  -11.54060    1.92580    2.05050    2.42360    3.06350   93.06550   94.81680    0.26710    0.11860    0.12020    2.88750    2.50700
 7350.00000   81.09530  -11.05080    2.16370    2.23140    2.64390    2.78280   98.34150   92.98430    0.26630    0.09980    0.16990    2.80500    2.53680
 7400.00000   87.44650  -10.06750    2.19050    2.35440    2.85440    2.59510   90.59880   91.09580    0.23720    0.10690    0.19070    2.71110    2.52810
 7450.00000   88.86770  -11.97000    2.04030    2.18730    2.58510    2.62140   93.70080   94.10010    0.27560    0.13790    0.19350    2.54310    2.47550
 7500.00000   26.63010  -22.55560   11.86850   11.49990   19.61850    1.27790   59.48810   59.56110    0.04210    0.05930   -0.01470    4.51640    2.60970
 7550.00000   32.49020  -12.63860    7.66150    7.71420    8.67830    1.66520   65.11310   65.17060    0.05900    0.05480   -0.00830    4.21080    2.61520
 7600.00000   49.99880  -12.81790    5.57480    6.56800   14.10110    1.66570   64.79700   65.26630    0.04500    0.03790   -0.01000    4.03760    2.65090
 7650.00000  105.04170  -14.60600    2.45870    2.47830    2.16510    2.39220   90.19680   90.58420    0.26890    0.29750    0.16070    2.18940    2.26290
 7700.00000   46.23250   -8.72460    8.15220    8.02540    8.99640    1.50890   66.55100   66.61950    0.06640    0.05290    0.02290    3.83720    2.64440
 7750.00000   38.82420  -13.06440    9.05830    9.12010   10.84960    1.49240   64.57120   64.63600    0.05480    0.05530   -0.00600    4.07640    2.61420
 7800.00000   42.41860  -17.07630    6.85700    6.90410    9.06380    1.45000   67.83640   67.22510    0.06750    0.09540    0.00450    3.90470    2.54380
 7850.00000   52.08010  -18.01470   13.66380   13.26630   17.50890    1.10120   65.23220   65.28680    0.05860    0.06370   -0.00580    3.95960    2.60250
 7900.00000   42.67660  -24.77420   19.18480   16.68160   18.61890    1.08270   63.02660   63.08400    0.06420    0.06500   -0.00680    4.15460    2.60030
 7950.00000   46.50880  -24.11900   14.78430   14.07930   17.56750    0.98790   65.04570   65.10330    0.07840    0.07910   -0.01310    4.25440    2.58550
 8000.00000   36.09020  -25.59490   35.06680   29.91660   46.85970    0.71060   62.94650   63.00490    0.05700    0.08970   -0.01140    4.07100    2.55850
 8050.00000   88.43510  -13.97640    1.94650    1.98110    2.54680    3.64400   98.70860   98.84110    0.35520    0.28460    0.11850    2.16690    2.21510
 8100.00000   77.23020   -9.12230    4.94380    3.99150    4.73800    5.32040   98.53920   98.84870    0.34980    0.15740    0.05710    2.54690    2.44220
 8150.00000   83.68390   -7.20610    4.23700    4.58250    7.59860    3.63880   93.90820   93.98710    0.30200    0.15180    0.06070    2.84250    2.44940
 8200.00000   88.19460    2.40510   11.29230   11.51930   17.17910    1.37040   88.76670   88.83310    0.25050    0.13360    0.00100    3.26320    2.48230
 8250.00000   82.77710   -7.10920    4.39290    4.51430    5.53200    4.13770   89.99350   90.17700    0.34570    0.17740    0.09150    2.44120    2.40430
 8300.00000   63.86840   -0.60000    5.39580    5.59010    7.80260    1.69300   70.86310   70.96970    0.14410    0.05530    0.01510    3.32070    2.61490
 8350.00000   54.03950   -1.60470    9.07020    8.44940    9.97340    1.69880   63.61530   63.68750    0.09530    0.02400   -0.00580    3.98720    2.67060
 8400.00000   33.75710  -21.36540   60.07500   36.72570   81.86780    1.13710   52.87540   52.92820    0.00600    0.03880    0.00340    4.30340    2.64630
 8450.00000   36.28430  -18.14180   80.93050   51.28540   78.91660    0.95660   52.44500   52.50030    0.00620    0.02500    0.04690    4.18450    2.66430
 8500.00000   34.22710  -24.41970   67.23190   47.00500   94.50660    0.62870   52.47700   52.53060    0.00470    0.01730   -0.00810    4.27400    2.68060
 8550.00000   39.74540   -3.23890   22.18550   19.12500   22.72120    0.19920   56.47290   56.53560    0.02090    0.01910   -0.01310    4.19680    2.67800
 8600.00000   35.86990  -27.24460   57.52880   45.29160  121.90300    -999.25    -999.25    -999.25    0.01060    0.00580   -0.00040    4.61320    2.69890
