~Version ---------------------------------------------------
VERS. 2.0 : CWLS log ASCII Standard -VERSION 2.0
WRAP.  NO : ONE LINE PER DEPTH STEP
~Well ------------------------------------------------------
STRT.F                  3750.0 : START DEPTH
STOP.F                  8250.0 : STOP DEPTH
STEP.F                50.00000 : STEP LENGTH
NULL.                  -999.25 : NULL VALUE
COMP.   CLAYTON W WILLIAMS, JR : COMPANY
WELL.           ROY HERMANN #2 : WELL
FLD .                 GIDDINGS : FIELD
LOC .                          : LOCATION
CNTY.                 BURLESON : COUNTY
STAT.                    TEXAS : STATE
CTRY. UNITED STATES OF AMERICA : COUNTRY
SRVC.                    Welex : SERVICE COMPANY
DATE.              04-Jun-1981 : LOGDATE
API .           42051313870000 : API NUMBER
UWI .           42051313870000 : UNIQUE WELL ID
SLAT.WGS84       30.4680164827 : SURFACE LATITUDE
SLON.WGS84      -96.6582011927 : SURFACE LONGITUDE
~Curve Information -----------------------------------------
DEPT  .F    0   1   0  0 : 1 MEASURED DEPTH
GRN   .GAPI 35 310 01 00 : GAMMA RAY FROM GRN LOG
NEUT  .NAPI 35 330 01 00 : NEUTRON
GRR   .GAPI 07 310 01 00 : GAMMA RAY FROM RESISTIVITY LOG
ILD   .OHMM 07 120 46 00 : INDUCTION DEEP RESISTIVITY
ILM   .OHMM 07 120 44 00 : INDUCTION MEDIUM RESISTIVITY
SGUARD.OHMM 07 120 05 00 : SHALLOW/SHORT GUARD RESISTIVITY
SPR   .MV   07 010 01 00 : SPONTANEOUS POTENTIAL FROM RESISTIVITY LOG
CALR  .IN   07 280 01 00 : CALIPER FROM RESISTIVITY LOG
AC    .MS/F 60 500 00 00 : ACOUSTIC
~Params ----------------------------------------------------
PD  .                     GL : PERMANENT DATUM
EPD .FT                  276 : ELEVATION PERMANENT DATUM
LMF .                    TKB : LOG MEASURED FROM
DAPD.FT                   14 : FEET ABOVE PERMANENT DATUM
DMF .                    TKB : DRILLING MEASURED FROM
EKB .FT                  290 : KELLY BUSHING
EDF .FT                  289 : DRILLING FLOOR
EGL .FT                  276 : GROUND LEVEL
DATE.               06-04-81 : RUN DATE
RUN .                      2 : RUN NUMBER
DD  .FT                 8287 : DEPTH DRILLER
DL  .FT                 8282 : DEPTH LOGGER
BLI .FT                 8280 : BOTTOM LOG INTERVAL
TLI .FT                 3749 : TOP LOG INTERVAL
CS  .IN                9.625 : CASING SIZE
CBD .FT                 3750 : CASING BOTTOM DRILLER
CBL .FT                 3749 : CASING BOTTOM LOGGER
BS  .IN                 8.75 : BIT SIZE
BSD .FT                 8287 : BIT SIZE AT DEPTH
DFT .             WATER BASE : DRILLING FLUID TYPE
DFD .                    9.6 : DRILLING FLUID DENSITY
DFV .                     41 : DRILLING FLUID VISCOSITY
DFPH.                    9.5 : DRILLING FLUID PH
DFL .                    6.8 : DRILLING FLUID LOSS
MSS .                    PIT : MUD SAMPLE SOURCE
RMS .OHMM               1.59 : RESISTIVITY MUD SAMPLE
MST .DEGF                 75 : MUD SAMPLE TEMPERATURE
RMF .OHMM               1.19 : RESISTIVITY MUD FILTRATE SAMPLE
MFST.DEGF                 75 : MUD FILTRATE SAMPLE TEMPERATURE
RMC .OHMM               1.99 : RESISTIVITY MUD CAKE
MCST.DEGF                 75 : MUD CAKE SAMPLE TEMPERATURE
MFSS.                   MEAS : MUD FILTRATE SAMPLE SOURCE
MCSS.                   MEAS : MUD CAKE SAMPLE SOURCE
RMB .OHMM               0.59 : RESISTIVITY MUD AT BHT
TCS .HRS                  10 : TIME CIRCULATED STOPPED
LUN .                   1907 : LOGGING UNIT NUMBER
LUL .                  TYLER : LOGGING UNIT LOCATION
ENGI.        MAYFIELD GRAHAM : RECORDING ENGINEER
WITN.                 MEYERS : WITNESSED BY
CLNT.                A2DTECH : CLIENT CODE
ORIG.          1" 2.5" PRINT : ORIGIN OF DATA
UWI .         42051313870000 : UNIQUE WELL ID
DICO. A2D Technologies, Inc. : DIGITIZING COMPANY
~Other -----------------------------------------------------
~ASCII -----------------------------------------------------
 3750.00000    -999.25    -999.25   35.28450   12.04250   24.31060   11.55040   -8.73720    9.73670    -999.25
 3800.00000    -999.25    -999.25   77.16860    2.59430    2.67070    3.39160  -18.40020   11.99180    -999.25
 3850.00000    -999.25    -999.25   37.94620   12.55530   17.55390   10.92990  -23.77280    9.20970    -999.25
 3900.00000    -999.25    -999.25   29.18290   10.67430   13.85620   10.02340  -26.64600    9.56230    -999.25
 3950.00000    -999.25    -999.25   55.18520    5.11480    6.30110    6.09830  -34.55720    8.86450    -999.25
 4000.00000    -999.25    -999.25   62.23150    3.38740    3.75910    3.50840  -23.31850    9.36570    -999.25
 4050.00000    -999.25    -999.25   59.03020    5.19720    6.67710    6.19390  -37.79660    8.25020    -999.25
 4100.00000    -999.25    -999.25   55.86010    2.15270    2.33390    2.67310  -21.41440   10.19480    -999.25
 4150.00000    -999.25    -999.25   69.55020    3.52490    3.90820    3.88160  -33.94460    8.82940    -999.25
 4200.00000    -999.25    -999.25   60.25940    2.53850    2.85610    2.89460  -26.17100    9.04740    -999.25
 4250.00000    -999.25    -999.25   57.95150    3.35600    4.33570    4.68820  -45.96360    8.29850    -999.25
 4300.00000    -999.25    -999.25   62.65180    2.57460    2.95440    2.78160  -25.34710    9.40680    -999.25
 4350.00000    -999.25    -999.25   58.32030    2.68540    3.40390    4.15130  -42.31410    8.52340    -999.25
 4400.00000    -999.25    -999.25   66.53030    2.24740    2.45910    2.77250  -24.53580    9.06390    -999.25
 4450.00000    -999.25    -999.25   65.43440    2.34940    2.58730    2.74700  -25.38730    9.00180    -999.25
 4500.00000    -999.25    -999.25   64.25280    2.45790    2.64880    2.92960  -25.36020    9.19680    -999.25
 4550.00000    -999.25    -999.25   65.80710    2.40280    2.56640    2.67530  -24.77870   10.60800    -999.25
 4600.00000    -999.25    -999.25   62.18460    2.01860    2.15930    2.49930  -24.00760   12.45990    -999.25
 4650.00000    -999.25    -999.25   70.62420    1.52390    1.56250    2.01960  -24.35850   13.17680    -999.25
 4700.00000    -999.25    -999.25   69.92650    1.85730    1.90440    2.31420  -23.98530   12.66140    -999.25
 4750.00000    -999.25    -999.25   65.83860    1.63820    1.67970    2.14840  -23.07420   12.04960    -999.25
 4800.00000    -999.25    -999.25   69.46840    1.52160    1.56050    2.09380  -22.21080   12.10170    -999.25
 4850.00000    -999.25    -999.25   71.32640    1.38510    1.42900    1.91920  -24.54960   12.67990    -999.25
 4900.00000    -999.25    -999.25   69.60950    1.28060    1.31360    1.86560  -21.00190   11.86660    -999.25
 4950.00000    -999.25    -999.25   70.63620    1.51420    1.55300    2.09300  -21.42600   10.92940    -999.25
 5000.00000    -999.25    -999.25   71.81220    1.27590    1.34240    1.98860  -21.33060   10.63510    -999.25
 5050.00000    -999.25    -999.25   66.69990    0.93620    0.96390    1.50930  -20.78340   10.99910    -999.25
 5100.00000    -999.25    -999.25   60.38450    2.03050    2.08570    2.26220  -20.94300    9.75850    -999.25
 5150.00000    -999.25    -999.25   61.70540    1.51770    1.56840    1.89780  -22.59400    9.98620    -999.25
 5200.00000    -999.25    -999.25   58.36850    1.52870    1.56770    1.81270  -23.04670   10.48980    -999.25
 5250.00000    -999.25    -999.25   61.15530    1.18920    1.22040    1.83720  -23.85600   12.00810    -999.25
 5300.00000    -999.25    -999.25   60.39040    1.37570    1.47460    2.10550  -26.07260   10.45490    -999.25
 5350.00000    -999.25    -999.25   59.40570    1.03350    1.09230    1.67150  -19.87900   10.29420    -999.25
 5400.00000    -999.25    -999.25   55.40980    1.59570    1.69360    2.23360  -22.81520    8.89820    -999.25
 5450.00000    -999.25    -999.25   65.78290    1.25430    1.29010    1.66850  -21.12190    9.62430    -999.25
 5500.00000    -999.25    -999.25   68.45260    0.96270    0.98750    1.64390  -22.29060   10.09980    -999.25
 5550.00000    -999.25    -999.25   62.19360    1.20340    1.26060    1.66340  -22.47710   10.97590    -999.25
 5600.00000    -999.25    -999.25   60.94060    1.17740    1.21220    1.56750  -21.52480   10.82270    -999.25
 5650.00000    -999.25    -999.25   74.16950    1.41820    1.51160    1.91790  -18.99050    9.83430    -999.25
 5700.00000    -999.25    -999.25   60.51390    1.38430    1.46010    1.68440  -19.02940   10.51030    -999.25
 5750.00000    -999.25    -999.25   40.27950    1.68370    1.75320    1.97960  -23.22710    9.60530    -999.25
 5800.00000    -999.25    -999.25   65.71320    1.54690    1.59430    1.91570  -19.52960    9.75350    -999.25
 5850.00000    -999.25    -999.25   61.62900    1.32420    1.41750    1.68750  -19.02610   12.52440    -999.25
 5900.00000    -999.25    -999.25   81.69240    1.25510    1.28750    1.63320  -18.01170   14.12130    -999.25
 5950.00000    -999.25    -999.25   66.86060    1.29510    1.32800    1.62820  -18.72460   14.55410    -999.25
 6000.00000    -999.25    -999.25   74.47350    1.25590    1.29100    1.60350  -18.30980   11.87320    -999.25
 6050.00000    -999.25    -999.25   82.30930    0.96900    0.99390    1.42780  -16.30680   11.09820    -999.25
 6100.00000    -999.25    -999.25   69.88250    1.41330    1.49350    1.69400  -15.69720   10.97460    -999.25
 6150.00000    -999.25    -999.25   61.25520    1.71490    1.79350    1.92890  -18.82440   11.04860    -999.25
 6200.00000    -999.25    -999.25   65.19920    1.81330    1.95320    2.12800  -17.92340   10.45440    -999.25
 6250.00000    -999.25    -999.25   73.08450    1.69970    1.80780    2.02740  -18.99000   11.69680    -999.25
 6300.00000    -999.25    -999.25   62.21480    1.82870    1.90360    2.02780  -16.33340   12.58080   97.95830
 6350.00000    -999.25    -999.25   67.85420    1.69450    1.76640    2.03160  -17.30160   10.24660  110.83880
 6400.00000    -999.25    -999.25   65.74390    1.71030    1.82470    2.06040  -17.14450   11.14810   93.61600
 6450.00000    -999.25    -999.25   81.15650    1.17340    1.23190    1.70800  -19.79730   12.12870   98.13910
 6500.00000    -999.25    -999.25   68.78980    1.26020    1.38120    1.71260  -18.50190   11.94370  100.39410
 6550.00000    -999.25    -999.25   56.86640    1.96330    2.06090    2.31710  -15.68560    9.73070   88.43920
 6600.00000    -999.25    -999.25   49.51730    2.79910    3.09220    2.93170  -15.37750    9.18420   80.52740
 6650.00000    -999.25    -999.25   41.60790    3.37390    3.77280    3.30480  -18.31790    9.04560   78.24470
 6700.00000    -999.25    -999.25   31.41260    4.44090    4.90690    4.29750  -25.81760    9.05340   71.93900
 6750.00000    -999.25    -999.25   87.52650    2.10040    2.30290    2.32930  -14.05810    9.51780   90.89710
 6800.00000    -999.25    -999.25   61.45300    2.68910    3.04710    2.80850  -15.53370    9.54550   81.91200
 6850.00000    -999.25    -999.25   55.83870    2.78030    3.17400    2.92450  -14.77080    9.37150   81.52510
 6900.00000    -999.25    -999.25   77.13930    1.79480    1.92190    2.02620  -17.57320   10.79230   92.39310
 6950.00000    -999.25    -999.25   75.54230    1.99500    2.08200    2.17590  -15.01060    9.57870   92.53480
 7000.00000    -999.25    -999.25   61.94960    2.63920    2.76080    2.56130  -12.78600    9.00980   87.17900
 7050.00000    -999.25    -999.25   66.15060    2.01260    2.16710    2.24080  -13.56670    9.26640   93.23490
 7100.00000    -999.25    -999.25   74.89520    1.60370    1.69940    1.74460  -15.93050   11.17430   97.19470
 7150.00000    -999.25    -999.25   70.89240    1.56840    1.68620    1.82300  -15.74800   11.58380   97.72500
 7200.00000    -999.25    -999.25   75.13660    1.70340    1.80260    2.02250  -15.32500   11.43500   99.09090
 7250.00000    -999.25    -999.25   75.00520    1.61480    1.72440    1.86890  -14.73480   11.34060   97.44200
 7300.00000    -999.25    -999.25   74.38020    1.71330    1.83190    1.99410  -14.17440   11.38310   97.18690
 7350.00000    -999.25    -999.25   73.29170    1.71650    1.90970    1.99680  -14.19350   11.19470   94.03870
