~Version ---------------------------------------------------
VERS. 2.0 : CWLS log ASCII Standard -VERSION 2.0
WRAP.  NO : ONE LINE PER DEPTH STEP
~Well ------------------------------------------------------
STRT.F                   300.0 : START DEPTH
STOP.F                 18600.0 : STOP DEPTH
STEP.F                50.00000 : STEP LENGTH
NULL.                  -999.25 : NULL VALUE
COMP.        SHELL OIL COMPANY : COMPANY
WELL. PAWELEK BEN A ET AL A #1 : WELL
FLD .    PERSON AREA (WILDCAT) : FIELD
LOC .                          : LOCATION
CNTY.                   KARNES : COUNTY
STAT.                    TEXAS : STATE
CTRY. UNITED STATES OF AMERICA : COUNTRY
SRVC.             Schlumberger : SERVICE COMPANY
DATE.              22-May-1978 : LOGDATE
API .           42255305980000 : API NUMBER
UWI .           42255305980000 : UNIQUE WELL ID
SLAT.WGS84       29.0241796548 : SURFACE LATITUDE
SLON.WGS84      -97.8796797249 : SURFACE LONGITUDE
~Curve Information -----------------------------------------
DEPT   .F    0   1   0  0 : 1 MEASURED DEPTH
ILD    .OHMM 07 120 46 00 : INDUCTION DEEP RESISTIVITY
ILM    .OHMM 07 120 44 00 : INDUCTION MEDIUM RESISTIVITY
SPR    .MV   07 010 01 00 : SPONTANEOUS POTENTIAL FROM RESISTIVITY LOG
SFL    .OHMM 07 220 01 00 : SPHERICALLY FOCUSED LOG
GRR    .GAPI 07 310 01 00 : GAMMA RAY FROM RESISTIVITY LOG
DPHI_SS.DEC  45 890 12 00 : DENSITY POROSITY SANDSTONE
NPHI_SS.DEC  42 890 03 00 : NEUTRON POROSITY SANDSTONE
NPHI_LS.DEC  42 890 01 00 : NEUTRON POROSITY LIMESTONE
DPHI_LS.DEC  45 890 10 00 : DENSITY POROSITY LIMESTONE
GRD    .GAPI 45 310 01 00 : GAMMA RAY FROM DENSITY LOG
RHOB   .G/C3 45 350 01 00 : BULK DENSITY
DRHO   .G/C3 45 356 01 00 : BULK DENSITY CORRECTION
CALD   .IN   45 280 60 00 : CALIPER FROM DENSITY LOG
TEND   .LB   45 635 00 00 : TENSION FROM DENSITY LOG
PROX   .OHMM 21 270 04 00 : PROXIMITY RESISTIVITY (MPT)
MCAL   .IN   15 280 01 00 : MLT (MICROLOG) CALIPER
GRS    .GAPI 60 310 01 00 : GAMMA RAY FROM SONIC LOG
DT     .US/F 60 500 00 00 : DELTA-T (INTERVAL TRANSIT TIME)
CALS   .IN   60 280 50 00 : CALIPER FROM SONIC LOG
~Params ----------------------------------------------------
PD  .                     GL : PERMANENT DATUM
EPD .FT                  335 : ELEVATION PERMANENT DATUM
LMF .                     KB : LOG MEASURED FROM
DAPD.FT                   28 : FEET ABOVE PERMANENT DATUM
DMF .                     KB : DRILLING MEASURED FROM
EKB .FT                  363 : KELLY BUSHING
EDF .FT                  362 : DRILLING FLOOR
EGL .FT                  335 : GROUND LEVEL
DATE.               05/22/78 : RUN DATE
RUN .                      4 : RUN NUMBER
DD  .FT                18626 : DEPTH DRILLER
DL  .FT                18642 : DEPTH LOGGER
BLI .FT                18637 : BOTTOM LOG INTERVAL
TLI .FT                17550 : TOP LOG INTERVAL
CS  .IN                    7 : CASING SIZE
CBD .FT                17544 : CASING BOTTOM DRILLER
CBL .FT                17550 : CASING BOTTOM LOGGER
BS  .IN                    6 : BIT SIZE
BSD .FT                18626 : BIT SIZE AT DEPTH
DFT .               INVERMUL : DRILLING FLUID TYPE
DFD .                   17.6 : DRILLING FLUID DENSITY
DFV .                     70 : DRILLING FLUID VISCOSITY
DFL .                      2 : DRILLING FLUID LOSS
LUN .                   7799 : LOGGING UNIT NUMBER
LUL .                  PLEAS : LOGGING UNIT LOCATION
ENGI.             TURBEVILLE : RECORDING ENGINEER
WITN.                JARRELL : WITNESSED BY
CLNT.                A2DTECH : CLIENT CODE
ORIG.            2" 5" PRINT : ORIGIN OF DATA
UWI .         42255305980000 : UNIQUE WELL ID
DICO. A2D Technologies, Inc. : DIGITIZING COMPANY
~Other -----------------------------------------------------
~ASCII -----------------------------------------------------
# ...
 5850.00000    1.60040    2.21890  -92.70160    3.31900    -999.25    0.25100    0.36650    -999.25    -999.25   52.34540    2.26130    0.03110   12.28990 9592.25680    3.61890   11.44770   56.98420   97.17290   11.47010
 5900.00000    1.20990    1.28180  -51.30180    1.55110    -999.25    0.35490    0.54900    -999.25    -999.25   78.32340    2.10520    0.05070   13.86090 9512.03710    0.72180   12.97120   78.25980  106.13780   13.28990
 5950.00000    1.33790    1.48720  -57.28880    1.58760    -999.25    0.35980    0.50970    -999.25    -999.25   77.36620    2.11740    0.07870   13.16060 9357.01760    0.87670   12.64510   79.31670  123.43500   12.43970
 6000.00000    1.77560    2.43880  -89.36620    3.29440    -999.25    0.19780    0.31790    -999.25    -999.25   50.10930    2.33310    0.06380   12.06490 9674.57320    2.87290   11.30980   59.42610   85.10110   11.78370
 6050.00000    1.14660    1.49090  -72.46990    2.00370    -999.25    0.25140    0.34430    -999.25    -999.25   42.68440    2.23950    0.04380   12.25000 9581.98340    2.56470   10.96830   56.00060   92.45020   11.62610
 6100.00000    1.05490    1.35990  -93.89660    2.13250    -999.25    0.26520    0.34910    -999.25    -999.25   41.22610    2.21830    0.03870   12.08880 9512.24510    2.96730   10.98300   40.98570   86.01510   11.62580
 6150.00000    1.26190    1.72280  -93.15990    2.94800    -999.25    0.22950    0.34460    -999.25    -999.25   41.94540    2.25400    0.03730   12.07490 9753.74120    2.98410   10.91370   47.61780   86.52060   11.54320
 6200.00000    1.44320    2.11720  -91.09330    3.16360    -999.25    0.23150    0.27130    -999.25    -999.25   37.20740    2.30520    0.06540   12.00180 9689.33400    3.27590   10.89910   42.52070   82.12960   11.59250
 6250.00000    1.78840    2.40390  -76.23390    2.97080    -999.25    0.22380    0.29070    -999.25    -999.25   42.08440    2.31350    0.05380   12.23920 9621.57810    2.91260   11.08970   54.07240   83.42800   11.73390
 6300.00000    1.33940    1.99190  -95.22520    3.61520    -999.25    0.22860    0.34950    -999.25    -999.25   41.77550    2.26060    0.03000   12.24080 9565.91600    3.23620   10.90950   45.02240   86.10630   11.53160
 6350.00000    1.60190    1.89630  -70.11700    2.29300    -999.25    0.30420    0.37810    -999.25    -999.25   56.35220    2.16510    0.06990   12.77220 9391.31350    2.30410   11.75320   81.77910   92.87960   11.87340
 6400.00000    1.12360    1.73430 -103.38910    2.74170    -999.25    0.27900    0.37330    -999.25    -999.25   37.34390    2.20270    0.03490   12.21830 9371.28220    3.10520   10.78480   45.67900   85.19900   11.46720
 6450.00000    1.12230    1.13040  -43.98870    1.35870    -999.25    0.26630    0.42190    -999.25    -999.25   73.00290    2.23570    0.11270   13.44980 9147.35640    1.35310   13.34120   76.40680   99.49800   12.98890
 6500.00000    1.29990    1.90520  -89.19730    3.21020    -999.25    0.18290    0.35050    -999.25    -999.25   64.13280    2.29880    0.06050   11.96260 9856.58400    7.57470   10.80270   63.97550   75.43010   11.39760
 6550.00000    2.64410    4.31950  -69.70980    6.48670    -999.25    0.35520    0.41220    -999.25    -999.25   58.42020    2.08840    0.08640   12.01870 9763.75880    2.99710   11.06660   50.94440   73.68130   11.27540
 6600.00000    1.09580    1.13180  -44.11090    1.50900    -999.25    0.26930    0.35580    -999.25    -999.25   77.17330    2.10150    0.16090   13.13700 9479.60450    1.20160   12.32070   74.36470  101.59560   13.15790
 6650.00000    1.13960    1.82790 -101.57020    2.93860    -999.25    0.36400    0.48620    -999.25    -999.25   60.84920    2.02060    0.07260   12.84110 9638.22850    0.99850   12.38560   45.35250   89.25280   11.40600
 6700.00000    1.77010    2.43000  -79.47240    3.82080    -999.25    0.43000    0.44960    -999.25    -999.25   63.87350    2.11470    0.00590   12.61450 9440.36820    3.60270   11.32630   74.11400   75.84100   11.81960
 6750.00000    2.14490    2.97230  -78.22690    4.53530    -999.25    0.24080    0.36810    -999.25    -999.25   70.10270    2.26570    0.07060   12.39430 9506.01860    3.82910   10.77200   76.67530   79.01550   11.48160
 6800.00000    1.64560    1.71730  -61.17080    1.98100    -999.25    0.20410    0.43130    -999.25    -999.25   74.47250    2.29080    0.07880   14.21870 9649.10740    2.20650   12.53330   80.62420   84.44280   12.49630
 6850.00000    1.48410    1.54700  -63.04890    1.68640    -999.25    0.32800    0.44490    -999.25    -999.25   71.87810    2.08380    0.09300   15.38770 9454.33500    1.29010   13.36160   76.50390   97.08220   13.23960
 6900.00000    1.36490    1.44960  -62.57850    1.78650    -999.25    0.29700    0.48860    -999.25    -999.25   71.03900    2.20600    0.11840   15.81080 9501.34470    2.05630   13.22360   84.92540   96.84740   13.70070
 6950.00000    1.52850    1.56010  -60.74840    2.06250    -999.25    0.33300    0.47150    -999.25    -999.25   73.60760    2.09060    0.06510   15.54640 9389.29200    1.73450   12.80050   83.30050   96.37300   14.12020
 7000.00000    1.31290    1.46060  -57.84780    1.98920    -999.25    0.36570    0.51750    -999.25    -999.25   80.88510    2.09680    0.09290   14.57060 9760.91500    1.76380   12.67160   93.81540   95.88930   13.27690
 7050.00000    1.29820    1.48610  -59.62210    1.91810    -999.25    0.34160    0.44700    -999.25    -999.25   69.27870    1.98640    0.07470   13.74660 9710.29490    2.09630   12.65420   73.67490   87.68070   12.53210
 7100.00000    3.27130    4.81120  -60.98800   26.69890    -999.25    0.21070    0.40290    -999.25    -999.25   73.16820    2.25400    0.04940   13.24380 9579.10160    2.27810   11.90730   67.80950   68.99550   11.88080
 7150.00000    1.90070    2.11210  -59.35570    2.44640    -999.25    0.18300    0.40240    -999.25    -999.25   81.81900    2.33500    0.07210   13.78670 9657.25100    2.66150   12.58500   92.59770   87.93520   12.48260
 7200.00000    1.55930    1.59170  -57.58070    2.07770    -999.25    0.22910    0.39720    -999.25    -999.25   69.07520    2.28960    0.08430   14.29750 9062.46480    4.14560   12.71640   85.94350   89.64460   13.26920
 7250.00000    1.94420    1.98550  -57.67740    2.35540    -999.25    0.35350    0.43650    -999.25    -999.25   78.83730    2.09360    0.09340   15.04590 9680.20020    1.91310   13.47970   80.98770   83.17300   12.93850
 7300.00000    1.89180    1.93340  -57.17900    2.42000    -999.25    0.28760    0.45690    -999.25    -999.25   77.81900    2.17480    0.11080   15.40930 9665.63090    1.85700   13.63520   81.14920   85.99010   13.07910
 7350.00000    1.44990    1.48040  -54.98410    1.89470    -999.25    0.32010    0.47820    -999.25    -999.25   77.25320    2.14570    0.09940   15.20520 9601.81050    1.69500   13.12090   88.34770   92.03280   13.29500
 7400.00000    1.62400    1.65760  -53.79860    2.10750    -999.25    0.27860    0.47940    -999.25    -999.25   78.03600    2.19410    0.09500   15.40090 9584.30080    1.66090   12.95130   82.93880   90.12290   13.18350
 7450.00000    1.50530    1.53650  -51.17120    1.93970    -999.25    0.26170    0.47320    -999.25    -999.25   77.19840    2.19660    0.09670   15.21830 9415.05270    1.67720   12.57850   89.23860   90.25520   13.55970
 7500.00000    1.33560    1.36480  -49.84820    1.80640    -999.25    0.24780    0.42200    -999.25    -999.25   77.33560    2.23010    0.07500   14.06450 9387.36520    1.72150   12.33640   86.94730   97.55060   13.31100
 7550.00000    1.19950    1.22440  -48.29510    1.63890    -999.25    0.20700    0.43720    -999.25    -999.25   79.17480    2.29640    0.07810   14.19720 9752.84380    1.49050   12.27120   81.93150   99.62960   13.42510
 7600.00000    1.37760    1.40630  -47.24190    1.83060    -999.25    0.20690    0.47970    -999.25    -999.25   93.24750    2.32370    0.05410   13.37690 9744.96390    1.59790   12.22510   96.07300   95.61360   12.75670
 7650.00000    1.60590    1.63810  -51.30140    2.20950    -999.25    0.21730    0.46220    -999.25    -999.25   95.85380    2.28600    0.07050   13.19010 9702.07320    1.46400   11.89320   93.42540   83.21630   12.41750
