~Version ---------------------------------------------------
VERS. 2.0 : CWLS log ASCII Standard -VERSION 2.0
WRAP.  NO : ONE LINE PER DEPTH STEP
~Well ------------------------------------------------------
STRT.F                     2000.0 : START DEPTH
STOP.F                    10700.0 : STOP DEPTH
STEP.F                   50.00000 : STEP LENGTH
NULL.                     -999.25 : NULL VALUE
COMP.             CHEVRON USA INC : COMPANY
WELL.           HENDERSON UNIT #6 : WELL
FLD .                     FASHING : FIELD
LOC .                             : LOCATION
CNTY.                    ATASCOSA : COUNTY
STAT.                       TEXAS : STATE
CTRY.    UNITED STATES OF AMERICA : COUNTRY
SRVC. HALLIBURTON Sperry Drilling : SERVICE COMPANY
DATE.                 21-Jul-1997 : LOGDATE
API .              42013340740000 : API NUMBER
UWI .              42013340740000 : UNIQUE WELL ID
SLAT.WGS84          28.8137871938 : SURFACE LATITUDE
SLON.WGS84         -98.1578651047 : SURFACE LONGITUDE
~Curve Information -----------------------------------------
DEPT.F                 : 
GRR .GAPI 06 310 01 00 : GAMMA RAY FROM RESISTIVITY LOG
HDRS.OHMM 06 120 46 00 : HIGH RESOLUTION DEEP RESISTIVITY
HMRS.OHMM 06 120 44 00 : HIGH RESOLUTION MEDIUM RESISTIVITY
SPR .MV   06 010 01 00 : SPONTANEOUS POTENTIAL FROM RESISTIVITY LOG
DFL .OHMM 06 220 04 00 : DIGITAL FOCUSED LATEROLOG
CALR.IN   06 280 01 00 : CALIPER FROM RESISTIVITY LOG
DPHI.DEC  45 890 10 00 : DENSITY POROSITY
DRHO.G/C3 45 356 01 00 : BULK DENSITY CORRECTION
~Params ----------------------------------------------------
PD  .                     GL : PERMANENT DATUM
EPD .FT                457.5 : ELEVATION PERMANENT DATUM
LMF .                    TKB : LOG MEASURED FROM
DAPD.FT                 23.5 : FEET ABOVE PERMANENT DATUM
DMF .                    TKB : DRILLING MEASURED FROM
EKB .FT                  481 : KELLY BUSHING
EDF .FT                  480 : DRILLING FLOOR
EGL .FT                457.5 : GROUND LEVEL
DATE.               07/21/97 : RUN DATE
RUN .                      2 : RUN NUMBER
DD  .FT                10718 : DEPTH DRILLER
DL  .FT                10743 : DEPTH LOGGER
BLI .FT                10741 : BOTTOM LOG INTERVAL
TLI .FT                10630 : TOP LOG INTERVAL
CS  .IN                  5.5 : CASING SIZE
CBD .FT                10630 : CASING BOTTOM DRILLER
CBL .FT                10630 : CASING BOTTOM LOGGER
BS  .IN                 4.75 : BIT SIZE
BSD .FT                10718 : BIT SIZE AT DEPTH
DFT .             WATER BASE : DRILLING FLUID TYPE
DFD .                    9.4 : DRILLING FLUID DENSITY
DFV .                     47 : DRILLING FLUID VISCOSITY
DFPH.                      9 : DRILLING FLUID PH
DFL .                     92 : DRILLING FLUID LOSS
MSS .               FLOWLINE : MUD SAMPLE SOURCE
RMS .OHMM               1.97 : RESISTIVITY MUD SAMPLE
MST .DEGF                 75 : MUD SAMPLE TEMPERATURE
RMF .OHMM               1.62 : RESISTIVITY MUD FILTRATE SAMPLE
MFST.DEGF                 75 : MUD FILTRATE SAMPLE TEMPERATURE
RMC .OHMM               2.11 : RESISTIVITY MUD CAKE
MCST.DEGF                 75 : MUD CAKE SAMPLE TEMPERATURE
MFSS.                   MEAS : MUD FILTRATE SAMPLE SOURCE
MCSS.                   MEAS : MUD CAKE SAMPLE SOURCE
RMB .OHMM               0.64 : RESISTIVITY MUD AT BHT
TCS .HRS                   8 : TIME CIRCULATED STOPPED
TLAB.HRS                2355 : TIME LOGGER AT BOTTOM
LUN .                   7668 : LOGGING UNIT NUMBER
LUL .                   VICT : LOGGING UNIT LOCATION
ENGI.                  STAPP : RECORDING ENGINEER
WITN.       SKLENAR SHEPPARD : WITNESSED BY
CLNT.                A2DTECH : CLIENT CODE
ORIG.               5" PRINT : ORIGIN OF DATA
UWI .         42013340740000 : UNIQUE WELL ID
DICO. A2D Technologies, Inc. : DIGITIZING COMPANY
~Other -----------------------------------------------------
~ASCII -----------------------------------------------------
# ...
 6000.00000   70.32090    1.87260    2.30070 -118.73000    6.18320    -999.25    -999.25    -999.25
 6050.00000   85.46500    2.07380    2.11390  -62.82370    2.46500    -999.25    -999.25    -999.25
 6100.00000   41.18760    1.93230    2.41840 -115.73760    7.29610    -999.25    -999.25    -999.25
 6150.00000   45.21800    2.06770    2.29990 -102.71620    5.51920    -999.25    -999.25    -999.25
 6200.00000   67.55920    3.88760    4.12280  -67.30890    9.32070    -999.25    -999.25    -999.25
 6250.00000   91.21360    1.82570    1.88020  -37.53460    2.00750    -999.25    -999.25    -999.25
 6300.00000   86.26210    1.24070    1.26810  -37.66240    1.36430    -999.25    -999.25    -999.25
 6350.00000   44.87220    1.65380    1.99410  -95.49610    3.69480    -999.25    -999.25    -999.25
 6400.00000   29.35610    1.82080    2.02850 -115.72810    5.43750    -999.25    -999.25    -999.25
 6450.00000   69.24830    2.84590    3.07380  -46.32030    3.09940    -999.25    -999.25    -999.25
 6500.00000   41.50400    3.44810    4.00280  -81.17100   14.29950    -999.25    -999.25    -999.25
 6550.00000   35.68410    1.95370    2.29410  -94.49610    6.14680    -999.25    -999.25    -999.25
 6600.00000   77.04920    1.14440    1.17570  -33.72360    1.50990    -999.25    -999.25    -999.25
 6650.00000   69.42680    0.91900    0.93750  -34.43170    1.07310    -999.25    -999.25    -999.25
 6700.00000   71.00640    0.91470    0.93480  -34.88150    1.11270    -999.25    -999.25    -999.25
 6750.00000   85.67870    1.12450    1.16230  -35.29570    1.26370    -999.25    -999.25    -999.25
 6800.00000   81.71810    1.45830    1.48750  -35.17950    1.46270    -999.25    -999.25    -999.25
 6850.00000   80.99580    1.60050    1.64580  -36.22210    1.86030    -999.25    -999.25    -999.25
 6900.00000   91.92260    1.89420    1.94590  -33.56280    2.15560    -999.25    -999.25    -999.25
 6950.00000   84.48710    1.78830    1.83900  -33.16820    2.16720    -999.25    -999.25    -999.25
 7000.00000   84.09830    1.68960    1.72400  -36.77900    2.19460    -999.25    -999.25    -999.25
 7050.00000   82.20220    2.90940    2.98860  -36.58090    3.08560    -999.25    -999.25    -999.25
 7100.00000   90.38840    1.34500    1.37200  -34.54360    1.37430    -999.25    -999.25    -999.25
 7150.00000   78.25130    1.85550    1.89950  -34.78210    1.69250    -999.25    -999.25    -999.25
 7200.00000   78.19080    2.23340    2.28270  -35.12600    2.49360    -999.25    -999.25    -999.25
 7250.00000   77.70590    2.21890    2.26630  -35.82980    2.35710    -999.25    -999.25    -999.25
 7300.00000   71.35400    1.94850    1.99030  -34.59250    2.09080    -999.25    -999.25    -999.25
 7350.00000   79.73570    1.77800    1.81590  -36.59130    2.00090    -999.25    -999.25    -999.25
 7400.00000   74.34310    1.57530    1.69860  -37.23150    1.89530    -999.25    -999.25    -999.25
 7450.00000   81.60700    1.40150    1.50690  -34.05600    1.66620    -999.25    -999.25    -999.25
 7500.00000   89.19400    1.59860    1.69850  -34.85490    1.92960    -999.25    -999.25    -999.25
 7550.00000   85.42920    1.61850    1.72290  -34.42010    1.91380    -999.25    -999.25    -999.25
 7600.00000   72.11380    1.35310    1.44700  -38.60110    1.61650    -999.25    -999.25    -999.25
 7650.00000   80.31590    1.15610    1.21650  -39.31410    1.42580    -999.25    -999.25    -999.25
 7700.00000   75.42890    1.22120    1.29480  -37.75120    1.41740    -999.25    -999.25    -999.25
 7750.00000   83.12760    1.19230    1.25260  -41.51160    1.44400    -999.25    -999.25    -999.25
 7800.00000   75.10670    1.03530    1.13110  -42.46960    1.29720    -999.25    -999.25    -999.25
 7850.00000   81.94470    0.99780    1.02750  -39.40560    1.16420    -999.25    -999.25    -999.25
 7900.00000   76.88540    1.01270    1.07260  -42.49830    1.19520    -999.25    -999.25    -999.25
 7950.00000   62.68510    1.37910    1.40820  -40.98290    1.52050    -999.25    -999.25    -999.25
 8000.00000   68.54820    2.57870    2.63510  -36.06080    2.89910    -999.25    -999.25    -999.25
 8050.00000   72.92150    2.14940    2.22010  -31.69930    2.31430    -999.25    -999.25    -999.25
 8100.00000   72.08730    1.00250    1.04640  -40.15980    1.21800    -999.25    -999.25    -999.25
 8150.00000   66.32910    1.60520    1.64030  -39.71280    1.84350    -999.25    -999.25    -999.25
 8200.00000   67.18420    1.51240    1.57500  -36.67730    1.84110    -999.25    -999.25    -999.25
 8250.00000   65.72850    1.21970    1.34090  -37.36160    1.49440    -999.25    -999.25    -999.25
 8300.00000   71.93570    1.15100    1.22730  -40.84190    1.43950    -999.25    -999.25    -999.25
 8350.00000   71.57890    1.54510    1.60380  -39.19980    1.76750    -999.25    -999.25    -999.25
 8400.00000   76.38550    1.69200    1.79950  -35.47210    2.02390    -999.25    -999.25    -999.25
 8450.00000   55.66610    1.58990    1.74310  -38.00140    1.81470    -999.25    -999.25    -999.25
 8500.00000   73.19890    1.68910    1.80580  -45.30120    2.13750    -999.25    -999.25    -999.25
 8550.00000   73.69630    2.21490    2.29670  -48.75920    2.93360    -999.25    -999.25    -999.25
 8600.00000   66.82310    2.09350    2.13790  -50.70390    2.46750    -999.25    -999.25    -999.25
 8650.00000   45.62790    3.48620    3.55620  -31.26610    3.95490    -999.25    -999.25    -999.25
 8700.00000   64.62400    2.28570    2.33240  -34.41360    2.28820    -999.25    -999.25    -999.25
 8750.00000   71.60580    2.20650    2.25340  -37.91290    2.54770    -999.25    -999.25    -999.25
 8800.00000   69.59330    2.46580    2.51550  -37.60980    2.65990    -999.25    -999.25    -999.25
 8850.00000   69.15710    2.40850    2.45710  -39.76290    2.87170    -999.25    -999.25    -999.25
 8900.00000   65.21220    2.29890    2.35180  -41.08110    2.51310    -999.25    -999.25    -999.25
 8950.00000   64.02500    2.10220    2.14450  -44.65910    2.16940    -999.25    -999.25    -999.25
 9000.00000   73.39080    2.25170    2.29680  -48.83740    2.52920    -999.25    -999.25    -999.25
 9050.00000   77.19070    2.29240    2.33840  -35.96940    2.65270    -999.25    -999.25    -999.25
 9100.00000   69.61520    2.37580    2.42790  -38.27430    2.72920    -999.25    -999.25    -999.25
 9150.00000   81.06740    2.37030    2.41800  -39.59100    2.71350    -999.25    -999.25    -999.25
 9200.00000   72.33970    2.33640    2.38520  -39.38570    2.82790    -999.25    -999.25    -999.25
 9250.00000  103.51360    2.15260    2.20050  -41.39160    2.54590    -999.25    -999.25    -999.25
 9300.00000   71.22230    2.21050    2.25480  -37.71520    2.61600    -999.25    -999.25    -999.25
 9350.00000   73.92430    2.07570    2.11730  -37.68750    2.52040    -999.25    -999.25    -999.25
 9400.00000   81.20910    2.22500    2.28670  -36.64250    2.54640    -999.25    -999.25    -999.25
 9450.00000   82.18640    2.15500    2.22560    -999.25    2.66870    -999.25    -999.25    -999.25
 9500.00000   79.56580    1.95380    2.03710  -37.95700    2.43320    -999.25    -999.25    -999.25
 9550.00000   70.08060    2.02710    2.08010  -37.93530    2.48010    -999.25    -999.25    -999.25
 9600.00000   75.09890    2.68360    2.73780  -40.37670    3.15780    -999.25    -999.25    -999.25
 9650.00000   79.25150    2.41950    2.47260  -41.19680    2.87130    -999.25    -999.25    -999.25
 9700.00000   86.97240    2.23020    2.29120  -33.19510    2.63540    -999.25    -999.25    -999.25
 9750.00000   86.31310    2.24870    2.29660  -35.50080    2.68640    -999.25    -999.25    -999.25
 9800.00000   77.80300    2.43630    2.48580  -33.42780    2.95960    -999.25    -999.25    -999.25
 9850.00000   80.97590    2.41540    2.46400  -34.25480    2.84050    -999.25    -999.25    -999.25
 9900.00000   87.29930    2.16080    2.20800  -35.66240    2.69730    -999.25    -999.25    -999.25
 9950.00000   76.72990    3.00280    3.06440  -35.86720    3.54140    -999.25    -999.25    -999.25
