~Version ---------------------------------------------------
VERS. 2.0 : CWLS log ASCII Standard -VERSION 2.0
WRAP. YES : MULTIPLE LINES PER DEPTH STEP
~Well ------------------------------------------------------
STRT.FT                        2500.0 : START DEPTH
STOP.FT                       18000.0 : STOP DEPTH
STEP.FT                      50.00000 : STEP LENGTH
NULL.                         -999.25 : NULL VALUE
COMP. UNION PACIFIC RESOURCES COMPANY : COMPANY
WELL.       UPR T-BAR-X KING COBRA #1 : WELL
FLD .                         WILDCAT : FIELD
LOC .                                 : LOCATION
CNTY.                            LEON : COUNTY
STAT.                           TEXAS : STATE
CTRY.        UNITED STATES OF AMERICA : COUNTRY
SRVC.                    Schlumberger : SERVICE COMPANY
DATE.                     05-Nov-1997 : LOGDATE
API .                  42289312660000 : API NUMBER
UWI .                  42289312660000 : UNIQUE WELL ID
SLAT.WGS84              31.2008912115 : SURFACE LATITUDE
SLON.WGS84             -96.2874133979 : SURFACE LONGITUDE
~Curve Information -----------------------------------------
DEPT    .FT    : DEPTH FEET
AT10ED  .OHMM  : 10 INCH RESISTIVITY TWO FOOT RESOLUTION FROM AIT LOG
AT20ED  .OHMM  : 20 INCH RESISTIVITY TWO FOOT RESOLUTION FROM AIT LOG
AT30ED  .OHMM  : 30 INCH RESISTIVITY TWO FOOT RESOLUTION FROM AIT LOG
AT60ED  .OHMM  : 60 INCH RESISTIVITY TWO FOOT RESOLUTION FROM AIT LOG
AT90ED  .OHMM  : 90 INCH RESISTIVITY TWO FOOT RESOLUTION FROM AIT LOG
CALDED  .IN    : CALIPER FROM DENSITY LOG [DEP ADJ TO GRRED]
CALRED  .IN    : CALIPER FROM RESISTIVITY LOG
CALWS   .IN    : CALIPER [2484 CALICAL 15888 CALRED]
CGRDED  .GAPI  : GAMMA RAY FROM DENSITY LOG [DEP ADJ TO GRRED]
CONDWS  .MMHO  : CONDUCTIVITY [1000/DRESWS]
DCALED  .IN    : DIFFERENTIAL CALIPER FROM DENSITY LOG
DCORWS  .G/C3  : DENSITY CORRECTION [2484 DRHOED 9946 DRHED 15888.5 DRHOED]
DENWS   .G/C3  : BULK DENSITY [M=2.71 F=1.0] [CALCULATED FROM DPOWS]
DPHILSED.V/V   : DENSITY POROSITY [M=2.71 F=1.0] FROM DENSITY LOG [DEP ADJ TO GRRED]
DPOLSED .V/V   : DENSITY POROSITY HIGH RESOLUTION [M=2.71 F=1.0] FROM DENSITY LOG
DPOWS   .V/V   : DENSITY POROSITY [M=2.71 F=1.0] [2484 DPHILSED 9942 DPOLSED 15888 DPHILSED]
DRESWS  .OHMM  : DEEP RESISTIVITY [A2484 AT90ED 9948.5 IDPHED 15892 LLDED]
DRHED   .G/C3  : DENSITY CORRECTION
DRHOED  .G/C3  : DENSITY CORRECTION FROM DENSITY LOG [DEP ADJ TO GRRED]
DTCOED  .US/F  : DELTA TIME COMPRESSIONAL FROM SONIC LOG [DEP ADJ TO GRRED]
DTED    .US/F  : DELTA TIME FROM SONIC LOG
DTLED   .US/F  : DELTA TIME LONG SPACING FROM SONIC LOG
DTLFED  .US/F  : DELTA TIME LONG SPACING FAR DETECTOR FROM SONIC LOG
DTLNED  .US/F  : DELTA TIME LONG SPACING NEAR DETECTOR FROM SONIC LOG
DTSMED  .US/F  : DELTA TIME SHEAR WAVE FROM SONIC LOG [DEP ADJ TO GRRED]
DTSWS   .US/F  : DELTA TIME SHEAR [DTSMED]
DTWS    .US/F  : DELTA TIME [2484 DTLNED 10155.5 DTLFED 10297.5 DTLNED 10506.5 DTLFED 10628.5 DTLNED 10694 DTLFED 10859 DTLNED 11620 DTLFED 13285.5 DTLNED 14723 DTLFED 15057 DTLNED 15798 DTLFED 15889.5 DTED 15912.5 DTCOED]
GRRED   .GAPI  : GAMMA RAY FROM RESISTIVITY LOG
GRSED   .GAPI  : GAMMA RAY FROM SONIC LOG [DEP ADJ TO GRRED]
GRWS    .GAPI  : GAMMA RAY [2484 GRRED 9881.5 GRREDNRM 9946 GRRED 15728.5 GRSEDNRM 15878 CGRDED 16070 GRRED]
IDPHED  .OHMM  : INDUCTION DEEP PHASE RESISTIVITY
IMPHED  .OHMM  : INDUCTION MEDIUM PHASE RESISTIVITY
LLDED   .OHMM  : LATEROLOG DEEP RESISTIVITY
LLSED   .OHMM  : LATEROLOG SHALLOW RESISTIVITY
MRESWS  .OHMM  : MEDIUM RESISTIVITY [2484 AT30ED 9949.5 IMPHED]
NPHILSED.V/V   : NEUTRON POROSITY LIMESTONE FROM DENSITY LOG [DEP ADJ TO GRRED]
NPOWS   .V/V   : NEUTRON POROSITY LIMESTONE [2484 NPHILSED 15780.5 NPHILNRM 15883.5 NPHILSED]
PEFED   .B/E   : PHOTOELECTRIC FACTOR FROM DENSITY LOG
PEFLED  .B/E   : PHOTOELECTRIC FACTOR FROM DENSITY LOG
PEFWS   .B/E   : PHOTOELECTRIC FACTOR [2484 PEFED 9952.5 PEFLED]
RESED   .OHMM  : SYNTHETIC RESISTIVITY
SFLUED  .OHMM  : SPHERICALLY FOCUSED LOG RESISTIVITY
SPHILSED.V/V   : SONIC POROSITY FROM SONIC LOG [DEP ADJ TO GRRED]
SPOWS   .V/V   : SONIC POROSITY [CAL FR DTWS; M= 47.6, F=189]
SPRED   .MV    : SPONTANEOUS POTENTIAL FROM RESISTIVITY LOG [SHIFTS ARE REMOVED]
SPWS    .MV    : SPONTANEOUS POTENTIAL [BASELINE 0 MV] [SPRED]
SRESWS  .OHMM  : SHALLOW RESISTIVITY [2484 AT10ED 9945.5 SFLUED 15891.5 LLSED]
TENDED  .LBF   : TENSION FROM DENSITY LOG [DEP ADJ TO GRRED]
TENRED  .LBF   : TENSION FROM RESISTIVITY LOG
~Params ----------------------------------------------------
PD  .                     GL : PERMANENT DATUM
EPD .FT                  348 : ELEVATION PERMANENT DATUM
LMF .                     KB : LOG MEASURED FROM
DAPD.FT                   28 : FEET ABOVE PERMANENT DATUM
DMF .                     KB : DRILLING MEASURED FROM
EKB .FT                  376 : KELLY BUSHING
EDF .FT                  374 : DRILLING FLOOR
EGL .FT                  348 : GROUND LEVEL
DATE.               11/05/97 : RUN DATE
RUN .                      3 : RUN NUMBER
DD  .FT                18038 : DEPTH DRILLER
DL  .FT                18024 : DEPTH LOGGER
BLI .FT                 1800 : BOTTOM LOG INTERVAL
TLI .FT                15888 : TOP LOG INTERVAL
CS  .IN                7.625 : CASING SIZE
CBD .FT                15888 : CASING BOTTOM DRILLER
CBL .FT                15888 : CASING BOTTOM LOGGER
BS  .IN                    6 : BIT SIZE
BSD .FT                18038 : BIT SIZE AT DEPTH
DFT .                POLYMER : DRILLING FLUID TYPE
DFD .                   18.2 : DRILLING FLUID DENSITY
DFV .                     40 : DRILLING FLUID VISCOSITY
DFPH.                      9 : DRILLING FLUID PH
DFL .                    5.6 : DRILLING FLUID LOSS
MSS .       CIRCULATION TANK : MUD SAMPLE SOURCE
RMS .OHMM               1.14 : RESISTIVITY MUD SAMPLE
MST .DEGF                 90 : MUD SAMPLE TEMPERATURE
RMF .OHMM              0.969 : RESISTIVITY MUD FILTRATE SAMPLE
MFST.DEGF                 90 : MUD FILTRATE SAMPLE TEMPERATURE
RMC .OHMM              1.311 : RESISTIVITY MUD CAKE
MCST.DEGF                 90 : MUD CAKE SAMPLE TEMPERATURE
MFSS.             CALCULATED : MUD FILTRATE SAMPLE SOURCE
MCSS.             CALCULATED : MUD CAKE SAMPLE SOURCE
RMB .OHMM              0.278 : RESISTIVITY MUD AT BHT
TCS .HRS                2200 : TIME CIRCULATED STOPPED
TLAB.HRS                 445 : TIME LOGGER AT BOTTOM
LUN .                   8400 : LOGGING UNIT NUMBER
LUL .                   6450 : LOGGING UNIT LOCATION
ENGI.                SKRBICH : RECORDING ENGINEER
WITN.          BLANKE WEAVER : WITNESSED BY
CLNT.                A2DTECH : CLIENT CODE
ORIG.         1" 2" 5" PRINT : ORIGIN OF DATA
UWI .         42289312660000 : UNIQUE WELL ID
DICO. A2D Technologies, Inc. : DIGITIZING COMPANY
~Other -----------------------------------------------------
~ASCII -----------------------------------------------------
# ...
 15250.00000    -999.25    -999.25    -999.25    -999.25    -999.25    -999.25    -999.25   13.73530    -999.25  245.87540    5.23530    0.05300    2.58160    -999.25    0.07510    0.07510    4.06710    0.05300    -999.25    -999.25    -999.25    -999.25  110.60740  105.16310    -999.25    -999.25  105.16310  104.64270    -999.25  104.64270    4.06710    3.18810    -999.25    -999.25    3.18810    0.20600    0.20600    -999.25    9.99260    9.99260    9.99260    4.82550    -999.25    0.40710   73.38790  -19.93340    4.82550    -999.25 5855.65430
 15300.00000    -999.25    -999.25    -999.25    -999.25    -999.25    -999.25    -999.25   12.83640    -999.25  134.45740    4.33640    0.06350    2.60240    -999.25    0.06290    0.06290    7.43730    0.06350    -999.25    -999.25    -999.25    -999.25  110.13330  109.26350    -999.25    -999.25  109.26350  102.39330    -999.25  102.39330    7.43730    4.28300    -999.25    -999.25    4.28300    0.18820    0.18820    -999.25    9.98830    9.98830    9.98830   10.13010    -999.25    0.43610   70.23970  -20.88870   10.13010    -999.25 5991.51420
 15350.00000    -999.25    -999.25    -999.25    -999.25    -999.25    -999.25    -999.25   13.64100    -999.25  163.79210    5.14100    0.00850    2.52650    -999.25    0.10730    0.10730    6.10530    0.00850    -999.25    -999.25    -999.25    -999.25  113.37390  113.48460    -999.25    -999.25  113.48460  116.84330    -999.25  116.84330    6.10530    4.18020    -999.25    -999.25    4.18020    0.06790    0.06790    -999.25   10.00910   10.00910   10.00910   26.33150    -999.25    0.46590   74.27970  -14.65590   26.33150    -999.25 6319.97710
 15400.00000    -999.25    -999.25    -999.25    -999.25    -999.25    -999.25    -999.25   14.51690    -999.25  280.74910    6.01690    0.01990    2.61000    -999.25    0.05850    0.05850    3.56190    0.01990    -999.25    -999.25    -999.25    -999.25  112.14220  107.46020    -999.25    -999.25  107.46020   98.55140    -999.25   98.55140    3.56190    2.93020    -999.25    -999.25    2.93020    0.19730    0.19730    -999.25    9.99870    9.99870    9.99870    4.74210    -999.25    0.42330   70.66100  -16.08170    4.74210    -999.25 6274.13670
 15450.00000    -999.25    -999.25    -999.25    -999.25    -999.25    -999.25    -999.25   14.26270    -999.25  242.04290    5.76270    0.06960    2.61100    -999.25    0.05790    0.05790    4.13150    0.06960    -999.25    -999.25    -999.25    -999.25  111.14170  108.03030    -999.25    -999.25  108.03030  107.57840    -999.25  107.57840    4.13150    3.74860    -999.25    -999.25    3.74860    0.17640    0.17640    -999.25   10.01110   10.01110   10.01110    4.80040    -999.25    0.42740   66.88410  -17.66570    4.80040    -999.25 5914.83200
 15500.00000    -999.25    -999.25    -999.25    -999.25    -999.25    -999.25    -999.25   12.34340    -999.25  328.26710    3.84340    0.08830    2.60620    -999.25    0.06070    0.06070    3.04630    0.08830    -999.25    -999.25    -999.25    -999.25  110.37830  117.44810    -999.25    -999.25  117.44810  119.65140    -999.25  119.65140    3.04630    2.81790    -999.25    -999.25    2.81790    0.19370    0.19370    -999.25   10.00940   10.00940   10.00940    3.84180    -999.25    0.49400   71.49400  -10.86300    3.84180    -999.25 6117.43950
 15550.00000    -999.25    -999.25    -999.25    -999.25    -999.25    -999.25    -999.25   11.50990    -999.25  241.94910    3.00990    0.04790    2.55520    -999.25    0.09050    0.09050    4.13310    0.04790    -999.25    -999.25    -999.25    -999.25  106.67930  127.98500    -999.25    -999.25  127.98500  130.80890    -999.25  130.80890    4.13310    3.89380    -999.25    -999.25    3.89380    0.16390    0.16390    -999.25    8.50950    8.50950    8.50950    5.11330    -999.25    0.56850   71.72830   -8.43580    5.11330    -999.25 6213.75200
 15600.00000    -999.25    -999.25    -999.25    -999.25    -999.25    -999.25    -999.25   11.36130    -999.25  283.17380    2.86130    0.04950    2.59780    -999.25    0.06560    0.06560    3.53140    0.04950    -999.25    -999.25    -999.25    -999.25  116.80510  116.89370    -999.25    -999.25  116.89370  118.14840    -999.25  118.14840    3.53140    3.25090    -999.25    -999.25    3.25090    0.19660    0.19660    -999.25    9.99830    9.99830    9.99830    5.16760    -999.25    0.49010   70.14850   -7.82280    5.16760    -999.25 6194.13670
 15650.00000    -999.25    -999.25    -999.25    -999.25    -999.25    -999.25    -999.25   10.78060    -999.25  156.69810    2.28060    0.06360    2.64500    -999.25    0.03800    0.03800    6.38170    0.06360    -999.25    -999.25    -999.25    -999.25   90.60750  112.26340    -999.25    -999.25  112.26340  109.75860    -999.25  109.75860    6.38170    5.09470    -999.25    -999.25    5.09470    0.17480    0.17480    -999.25    9.58260    9.58260    9.58260    7.01690    -999.25    0.45730   71.29780   -7.09400    7.01690    -999.25 6358.06740
 15700.00000    -999.25    -999.25    -999.25    -999.25    -999.25    -999.25    -999.25   11.04280    -999.25  141.93860    2.54280    0.02490    2.65900    -999.25    0.02980    0.02980    7.04530    0.02490    -999.25    -999.25    -999.25    -999.25   89.60420  102.05200    -999.25    -999.25  102.05200  111.90080    -999.25  111.90080    7.04530    6.24480    -999.25    -999.25    6.24480    0.18410    0.18410    -999.25    9.29570    9.29570    9.29570    9.86370    -999.25    0.38510   74.73760   -5.67660    9.86370    -999.25 6125.10160
 15750.00000    -999.25    -999.25    -999.25    -999.25    -999.25    -999.25    -999.25   10.71540   10.86540  113.16190    2.21540    0.05490    2.69380    -999.25    0.00950    0.00950    8.83690    0.05490    -999.25    -999.25    -999.25    -999.25   66.67620   67.37720    -999.25    -999.25   67.37720    -999.25   44.54630   89.09260    8.83690    5.90940    -999.25    -999.25    5.90940    0.07810    0.07810    -999.25    7.54380    7.54380    7.54380   16.18890    -999.25    0.13990   75.05290   -7.38360   16.18890    -999.25 6486.56050
 15800.00000    -999.25    -999.25    -999.25    -999.25    -999.25    -999.25    -999.25   10.77740   47.24280   72.30030    2.27740    0.05760    2.63460    -999.25    0.04410    0.04410   13.83120    0.05760    -999.25    -999.25    -999.25    -999.25   92.88950   92.70930    -999.25    -999.25   92.88950    -999.25   55.80510  111.61020   13.83120   11.92950    -999.25    -999.25   11.92950    0.24840    0.17390    -999.25    -999.25    -999.25    -999.25   11.41260    -999.25    0.32030   78.07950   -5.75250   11.41260    -999.25 6589.42430
 15850.00000    -999.25    -999.25    -999.25    -999.25    -999.25    -999.25    -999.25    -999.25   42.33830  175.59880   -5.43660    -999.25    -999.25    -999.25    -999.25    -999.25    5.69480    -999.25    -999.25    -999.25    -999.25    -999.25    -999.25    -999.25    -999.25    -999.25    -999.25    -999.25   56.27430  112.54860    5.69480    3.49900    -999.25    -999.25    3.49900    0.23950    0.16760    -999.25    -999.25    -999.25    -999.25    6.48520    -999.25    -999.25   72.30080  -11.53120    6.48520    -999.25 6272.81300
 15900.00000    -999.25    -999.25    -999.25    -999.25    -999.25    6.49590    6.47360    6.47360  105.46760   71.89070    -999.25   -0.06680    2.56770    0.08320    -999.25    0.08320   13.91000    -999.25   -0.06680   98.59530  101.06950  100.16040    -999.25    -999.25  154.61140  154.61140  101.06950    -999.25  118.44470  105.46760    -999.25    -999.25   13.91000   15.39450    -999.25    0.18110    0.18110    -999.25    -999.25    -999.25    -999.25    -999.25    0.35880    0.37810    -999.25    -999.25   15.39450 4744.56740 5754.33640
 15950.00000    -999.25    -999.25    -999.25    -999.25    -999.25    7.36320    7.32440    7.32440  104.12490   65.86270    -999.25   -0.05810    2.65100    0.03450    -999.25    0.03450   15.18310    -999.25   -0.05810  100.28410   93.29210   89.93750    -999.25    -999.25  144.74310  144.74310  100.28410    -999.25  101.94640  104.12490    -999.25    -999.25   15.18310   15.45030    -999.25    0.19070    0.19070    -999.25    -999.25    -999.25    -999.25    -999.25    0.37520    0.37260    -999.25    -999.25   15.45030 4901.69820 5600.66310
