~Version ---------------------------------------------------
VERS. 2.0 : CWLS log ASCII Standard -VERSION 2.0
WRAP.  NO : ONE LINE PER DEPTH STEP
~Well ------------------------------------------------------
STRT.F                  3450.0 : START DEPTH
STOP.F                  8150.0 : STOP DEPTH
STEP.F                50.00000 : STEP LENGTH
NULL.                  -999.25 : NULL VALUE
COMP.      SAGE ENERGY COMPANY : COMPANY
WELL.         CALVIN VAUGHN #1 : WELL
FLD .                 GIDDINGS : FIELD
LOC .                          : LOCATION
CNTY.                 BURLESON : COUNTY
STAT.                    TEXAS : STATE
CTRY. UNITED STATES OF AMERICA : COUNTRY
SRVC.            Dresser Atlas : SERVICE COMPANY
DATE.              15-Nov-1983 : LOGDATE
API .           42051325800000 : API NUMBER
UWI .           42051325800000 : UNIQUE WELL ID
SLAT.WGS84       30.5582726608 : SURFACE LATITUDE
SLON.WGS84      -96.6022686075 : SURFACE LONGITUDE
~Curve Information -----------------------------------------
DEPT   .F    0   1   0  0 : 1 MEASURED DEPTH
GRN    .GAPI 35 310 01 00 : GAMMA RAY FROM GRN LOG
NEUT   .NAPI 35 330 01 00 : NEUTRON
CN_SS  .DEC  42 890 03 00 : COMPENSATED NEUTRON POROSITY SANDSTONE
GRR    .GAPI 07 310 01 00 : GAMMA RAY FROM RESISTIVITY LOG
PORD_SS.DEC  45 890 12 00 : DENSITY POROSITY [SANDSTONE]
RFOC   .OHMM 07 220 01 00 : SHALLOW FOCUSED LOG RESISTIVITY
RILD   .OHMM 07 120 46 00 : RAW DEEP INDUCTION RESISTIVITY
RILM   .OHMM 07 120 44 00 : RAW MEDIUM INDUCTION RESISTIVITY
SPR    .MV   07 010 01 00 : SPONTANEOUS POTENTIAL FROM RESISTIVITY LOG
CALR   .IN   07 280 01 00 : CALIPER FROM RESISTIVITY LOG
PORD_LS.DEC  45 890 10 00 : DENSITY POROSITY [LIMESTONE]
CN_LS  .DEC  42 890 01 00 : COMPENSATED NEUTRON POROSITY LIMESTONE
~Params ----------------------------------------------------
PD  .                     GL : PERMANENT DATUM
EPD .FT                  335 : ELEVATION PERMANENT DATUM
LMF .                     KB : LOG MEASURED FROM
DAPD.FT                   16 : FEET ABOVE PERMANENT DATUM
DMF .                     KB : DRILLING MEASURED FROM
EKB .FT                  351 : KELLY BUSHING
EDF .FT                  350 : DRILLING FLOOR
EGL .FT                  335 : GROUND LEVEL
DATE.               11/15/83 : RUN DATE
RUN .                      1 : RUN NUMBER
DD  .FT                 8180 : DEPTH DRILLER
DL  .FT                 8169 : DEPTH LOGGER
BLI .FT                 8167 : BOTTOM LOG INTERVAL
TLI .FT                 3410 : TOP LOG INTERVAL
CS  .IN                8.625 : CASING SIZE
CBD .FT                 3415 : CASING BOTTOM DRILLER
CBL .FT                 3410 : CASING BOTTOM LOGGER
BS  .IN                7.765 : BIT SIZE
BSD .FT                 8180 : BIT SIZE AT DEPTH
DFT .         LIGNOSULFONATE : DRILLING FLUID TYPE
DFD .                    9.2 : DRILLING FLUID DENSITY
DFV .                     47 : DRILLING FLUID VISCOSITY
DFPH.                    9.5 : DRILLING FLUID PH
DFL .                      7 : DRILLING FLUID LOSS
MSS .                    PIT : MUD SAMPLE SOURCE
RMS .OHMM               2.06 : RESISTIVITY MUD SAMPLE
MST .DEGF                 75 : MUD SAMPLE TEMPERATURE
RMF .OHMM               1.61 : RESISTIVITY MUD FILTRATE SAMPLE
MFST.DEGF                 75 : MUD FILTRATE SAMPLE TEMPERATURE
RMC .OHMM               2.58 : RESISTIVITY MUD CAKE
MCST.DEGF                 75 : MUD CAKE SAMPLE TEMPERATURE
MFSS.                   MEAS : MUD FILTRATE SAMPLE SOURCE
MCSS.                   MEAS : MUD CAKE SAMPLE SOURCE
RMB .OHMM                0.8 : RESISTIVITY MUD AT BHT
TCS .HRS                   4 : TIME CIRCULATED STOPPED
LUN .                   6245 : LOGGING UNIT NUMBER
LUL .                   GONZ : LOGGING UNIT LOCATION
ENGI.                REPSHER : RECORDING ENGINEER
WITN.                  BAKER : WITNESSED BY
CLNT.                A2DTECH : CLIENT CODE
ORIG.            2" 5" PRINT : ORIGIN OF DATA
UWI .         42051325800000 : UNIQUE WELL ID
DICO. A2D Technologies, Inc. : DIGITIZING COMPANY
~Other -----------------------------------------------------
~ASCII -----------------------------------------------------
 3450.00000    -999.25    -999.25    0.48970  102.55870    0.41370    4.00740    3.29750    3.49010  -17.80530   11.23930    -999.25    -999.25
 3500.00000    -999.25    -999.25    0.39920   66.25900    0.38980    7.10640    7.30390    8.39930  -51.64720    9.46140    -999.25    -999.25
 3550.00000    -999.25    -999.25    0.39720   99.17710    0.26300    4.79970    5.59260    5.68250  -32.48640    9.17710    -999.25    -999.25
 3600.00000    -999.25    -999.25    0.40730   78.84320    0.28850    7.02860    7.00410    8.03160  -44.41570    8.72890    -999.25    -999.25
 3650.00000    -999.25    -999.25    0.41850   62.55150    0.28480    6.86850    5.00450    5.29090  -36.35040    8.06660    -999.25    -999.25
 3700.00000    -999.25    -999.25    0.47210  128.16010    0.18710    5.42850    6.08610    6.03340  -37.97270    8.04230    -999.25    -999.25
 3750.00000    -999.25    -999.25    0.36060   78.02760    0.28960    3.80850    3.84890    4.32650  -36.96720    8.19510    -999.25    -999.25
 3800.00000    -999.25    -999.25    0.41440   57.35090    0.35070    7.03270    4.85040    6.53660  -59.37710    7.66310    -999.25    -999.25
 3850.00000    -999.25    -999.25    0.36020   68.59380    0.30010    3.82210    3.75830    4.19310  -43.04080    8.22420    -999.25    -999.25
 3900.00000    -999.25    -999.25    0.28750   75.15190    0.27250    6.58590    4.80860    5.07300  -53.47190    7.58690    -999.25    -999.25
 3950.00000    -999.25    -999.25    0.30980  100.49930    0.24220    2.69650    2.41960    2.64030  -28.32770    8.40100    -999.25    -999.25
 4000.00000    -999.25    -999.25    0.32260   94.41180    0.20700    2.46680    2.33860    2.35560  -23.70990    9.12420    -999.25    -999.25
 4050.00000    -999.25    -999.25    0.32540   94.51160    0.18460    2.22370    2.08630    2.12520  -22.33730    9.51350    -999.25    -999.25
 4100.00000    -999.25    -999.25    0.32610   93.40070    0.22110    2.55450    2.41470    2.46300  -24.38790    9.06630    -999.25    -999.25
 4150.00000    -999.25    -999.25    -999.25   96.95810    -999.25    2.76090    2.62300    2.64340  -26.69460    9.00950    -999.25    -999.25
 4200.00000    -999.25    -999.25    -999.25   90.37930    -999.25    2.47400    2.47580    2.49390  -24.36840    9.23490    -999.25    -999.25
 4250.00000    -999.25    -999.25    -999.25   87.05330    -999.25    2.36650    2.42740    2.44500  -24.11340    9.57960    -999.25    -999.25
 4300.00000    -999.25    -999.25    -999.25   98.71980    -999.25    2.06890    1.89820    1.91220  -23.83190   10.77410    -999.25    -999.25
 4350.00000    -999.25    -999.25    -999.25  100.74970    -999.25    1.79270    1.51610    1.52720  -22.16990   11.07190    -999.25    -999.25
 4400.00000    -999.25    -999.25    -999.25   94.47660    -999.25    2.14120    2.03470    2.04940  -22.91300   10.72500    -999.25    -999.25
 4450.00000    -999.25    -999.25    -999.25  100.22060    -999.25    1.79480    1.58900    1.60060  -24.55770   11.57980    -999.25    -999.25
 4500.00000    -999.25    -999.25    -999.25   91.65210    -999.25    1.78050    1.50620    1.51720  -26.40520   11.30120    -999.25    -999.25
 4550.00000    -999.25    -999.25    -999.25   97.63690    -999.25    1.60210    1.29710    1.30700  -27.79840   11.11260    -999.25    -999.25
 4600.00000    -999.25    -999.25    -999.25  110.96340    -999.25    1.81220    1.52730    1.53950  -26.17640   10.64240    -999.25    -999.25
 4650.00000    -999.25    -999.25    -999.25  112.20420    -999.25    2.00730    1.87590    1.88940  -30.01450    9.77400    -999.25    -999.25
 4700.00000    -999.25    -999.25    -999.25  104.67270    -999.25    1.53330    1.24890    1.25960  -27.67640   10.25150    -999.25    -999.25
 4750.00000    -999.25    -999.25    -999.25   96.58770    -999.25    1.26970    0.93010    0.91860  -25.71310    9.08680    -999.25    -999.25
 4800.00000    -999.25    -999.25    -999.25   92.34550    -999.25    2.24820    2.26080    2.27910  -26.54200    8.10350    -999.25    -999.25
 4850.00000    -999.25    -999.25    -999.25   85.19100    -999.25    2.03480    1.81660    1.83100  -31.18230    8.99130    -999.25    -999.25
 4900.00000    -999.25    -999.25    -999.25   94.59970    -999.25    1.80980    1.64220    1.65560  -28.56190    9.71670    -999.25    -999.25
 4950.00000    -999.25    -999.25    -999.25   89.27990    -999.25    1.84160    1.57660    1.58830  -27.43120    9.10420    -999.25    -999.25
 5000.00000    -999.25    -999.25    -999.25   83.79510    -999.25    1.60420    1.34080    1.35080  -29.15570    9.41220    -999.25    -999.25
 5050.00000    -999.25    -999.25    -999.25   78.10950    -999.25    1.80580    1.49350    1.50710  -31.06080    8.95680    -999.25    -999.25
 5100.00000    -999.25    -999.25    0.37390   94.65980    0.19620    1.35890    0.99840    1.00560  -27.63850   10.24200    -999.25    -999.25
 5150.00000    -999.25    -999.25    0.30290   89.48760    0.15220    1.54380    1.23420    1.24350  -27.50750   10.62030    -999.25    -999.25
 5200.00000    -999.25    -999.25    0.34650   91.49560    0.15820    1.35270    0.96860    0.97600  -26.35690   10.88170    -999.25    -999.25
 5250.00000    -999.25    -999.25    0.40370   95.32170    0.15120    1.37770    1.03200    1.04000  -23.65440   10.04030    -999.25    -999.25
 5300.00000   25.31170  281.37310    0.27290   82.17040    0.11210    1.86680    1.70640    1.71890  -24.74810    8.73150    -999.25    -999.25
 5350.00000   46.66990   90.49930    0.23310   91.91590    0.10550    2.28400    2.21720    2.23520  -21.28350    7.99820    -999.25    -999.25
 5400.00000   46.23220  192.50880    0.29500   87.46880    0.25270    1.48930    1.25610    1.26530  -21.69180    9.05040    -999.25    -999.25
 5450.00000   34.17350  129.61800    0.25550   77.14280    0.21570    1.74260    1.52900    1.59290  -27.85830    8.12770    -999.25    -999.25
 5500.00000   47.19300   80.13360    0.34780  104.64490    0.30650    1.49380    1.21970    1.22860  -25.15800    7.67880    -999.25    -999.25
 5550.00000   56.67030   43.11130    0.33540  107.81440    0.37690    1.36860    1.16890    1.17760  -21.88320    7.64550    -999.25    -999.25
 5600.00000   63.46140   46.82550    0.31110  106.72860    0.29000    1.41870    1.15370    1.16320  -20.33430    8.65130    -999.25    -999.25
 5650.00000   47.64570   44.28890    0.35250   93.59590    0.27400    1.35190    1.12300    1.13110  -23.14260    9.36250    -999.25    -999.25
 5700.00000   53.06120   38.65420    0.38580  111.48250    0.25090    1.19240    0.84530    0.85210  -19.32110    9.87180    -999.25    -999.25
 5750.00000   56.41450  100.85710    0.27010  101.34390    0.12260    1.71290    1.72220    1.73480  -22.07350    9.11280    -999.25    -999.25
 5800.00000   49.63350  128.23140    0.23970   96.81100    0.13770    1.84580    1.71740    1.76470  -22.06800    8.78130    -999.25    -999.25
 5850.00000   43.12800  161.36500    -999.25   90.16540    -999.25    1.87080    1.69680    1.72160  -23.47800    8.51320    -999.25    -999.25
 5900.00000   43.06770  154.94270    -999.25   95.43360    -999.25    1.88060    1.68170    1.69800  -23.55650    8.45000    -999.25    -999.25
 5950.00000   47.41770   77.46420    -999.25   90.20160    -999.25    1.72470    1.49830    1.50980  -24.15110    9.40880    -999.25    -999.25
 6000.00000   48.37050  136.54050    -999.25  105.70040    -999.25    1.69450    1.41150    1.42130  -26.26150    8.95350    -999.25    -999.25
 6050.00000   45.53470  107.93640    -999.25   95.84070    -999.25    1.69100    1.44080    1.45140  -26.61810    8.73350    -999.25    -999.25
 6100.00000   50.17040   60.93960    -999.25  110.54510    -999.25    1.53190    1.15270    1.17260  -30.79510    8.90530    -999.25    -999.25
 6150.00000   41.90810   36.02010    -999.25   94.70400    -999.25    1.45690    1.09150    1.09940  -35.10010    9.14250    -999.25    -999.25
 6200.00000   49.69500   64.05740    -999.25   88.86010    -999.25    1.62380    1.29260    1.30230  -35.96780    8.73440    -999.25    -999.25
