~Version ---------------------------------------------------
VERS. 2.0 : CWLS log ASCII Standard -VERSION 2.0
WRAP. YES : Multiple lines per depth step
~Well ------------------------------------------------------
STRT.FT                        650.0 : START DEPTH
STOP.FT                       7250.0 : STOP DEPTH
STEP.FT                     50.00000 : STEP LENGTH
NULL.                        -999.25 : NULL VALUE
COMP.      MACHII ROSS PETROLEUM CO. : COMPANY
WELL. WINN EXPLORATION HARPER NBC #1 : WELL
FLD .                             WC : FIELD
LOC .                                : LOCATION
CNTY.                       MAVERICK : COUNTY
STAT.                          TEXAS : STATE
CTRY.       UNITED STATES OF AMERICA : COUNTRY
SRVC.                   Schlumberger : SERVICE COMPANY
DATE.                    24-Sep-1978 : LOGDATE
API .                 42323312660000 : API NUMBER
UWI .                 42323312660000 : UNIQUE WELL ID
SLAT.WGS84             28.7830719209 : SURFACE LATITUDE
SLON.WGS84           -100.5041551949 : SURFACE LONGITUDE
~Curve Information -----------------------------------------
DEPT  .FT    : DEPTH
CALDED.IN    : CALIPER FROM DENSITY LOG (ADJ TO RES.)
CALSED.IN    : CALIPER FROM SONIC LOG (ADJ TO RES.)
CALWS .IN    : CALIPER (CALDED)
CONDWS.MMHO  : CONDUCTIVITY (1000/DRESWS)
DCORWS.G/C3  : DENSITY CORRECTION (DRHOED)
DENWS .G/C3  : BULK DENSITY  (FROM DPOWS ASSUMED LS)
DPHIED.V/V   : DENSITY POROSITY  (ADJ TO RES.)
DPOWS .V/V   : DENSITY POROSITY (M=2.71 F=1 DPHIED)
DRESWS.OHMM  : DEEP RESISTIVITY (ILDED)
DRHOED.G/C3  : DENSITY CORRECTION (ADJ TO RES.)
DTED  .US/F  : DELTA TIME
DTWS  .US/F  : DELTA TIME  (DTED)
GRRED .GAPI  : GAMMA RAY FROM RESISTIVITY LOG
GRSED .GAPI  : GAMMA RAY FROM SONIC LOG (ADJ TO RES.)
GRWS  .GAPI  : GAMMA RAY (GRSED)
ILDED .OHMM  : DEEP INDUCTION RESISTIVITY
ILMED .OHMM  : MEDIUM INDUCTION RESISTIVITY
LL8ED .OHMM  : LATEROLOG-8 RESISTIVITY
MRESWS.OHMM  : MEDIUM RESISTIVITY (ILMED)
NPHIED.V/V   : NEUTRON POROSITY (ADJ TO RES.)
NPOWS .V/V   : NEUTRON POROSITY ASSUMED LIMESTONE (NPHIED)
RHOBED.G/C3  : BULK DENSITY (ADJ TO RES.)
SPRED .MV    : SPONTANEOUS POTENTIAL FROM RESISTIVITY
SPWS  .MV    : SPONTANEOUS POTENTIAL BASELINE 0 MV (SPRED) (INVALID TOP-6222)
SRESWS.OHMM  : SHALLOW RESISTIVITY (LL8ED)
~Params ----------------------------------------------------
PD  .                     GL : PERMANENT DATUM
EPD .FT                  790 : ELEVATION PERMANENT DATUM
LMF .                     KB : LOG MEASURED FROM
DMF .                     KB : DRILLING MEASURED FROM
EGL .FT                  790 : GROUND LEVEL
DATE.              9-24-1978 : RUN DATE
RUN .                      2 : RUN NUMBER
DD  .FT                 7270 : DEPTH DRILLER
DL  .FT                 7271 : DEPTH LOGGER
BLI .FT                 7265 : BOTTOM LOG INTERVAL
TLI .FT                 6232 : TOP LOG INTERVAL
CS  .IN                8.625 : CASING SIZE
CBD .FT                 6231 : CASING BOTTOM DRILLER
CBL .FT                 6232 : CASING BOTTOM LOGGER
BS  .IN                7.875 : BIT SIZE
BSD .FT                 7270 : BIT SIZE AT DEPTH
DFT .              LIGNOSULF : DRILLING FLUID TYPE
DFD .                   14.4 : DRILLING FLUID DENSITY
DFV .                     51 : DRILLING FLUID VISCOSITY
DFPH.                     10 : DRILLING FLUID PH
DFL .                    8.2 : DRILLING FLUID LOSS
MSS .             CIRC. TANK : MUD SAMPLE SOURCE
RMS .OHMM               1.94 : RESISTIVITY MUD SAMPLE
MST .DEGF                 82 : MUD SAMPLE TEMPERATURE
RMF .OHMM               1.45 : RESISTIVITY MUD FILTRATE SAMPLE
MFST.DEGF                 82 : MUD FILTRATE SAMPLE TEMPERATURE
RMC .OHMM               2.91 : RESISTIVITY MUD CAKE
MCST.DEGF                 82 : MUD CAKE SAMPLE TEMPERATURE
MFSS.                   MEAS : MUD FILTRATE SAMPLE SOURCE
MCSS.                   CALC : MUD CAKE SAMPLE SOURCE
RMB .OHMM              0.855 : RESISTIVITY MUD AT BHT
TCS .HRS                 600 : TIME CIRCULATED STOPPED
TLAB.HRS                1300 : TIME LOGGER AT BOTTOM
LUL .                 LAREDO : LOGGING UNIT LOCATION
ENGI.                RENFROW : RECORDING ENGINEER
WITN.                 WALKER : WITNESSED BY
CLNT.                A2DTECH : CLIENT CODE
ORIG.          1" 2.5" PRINT : ORIGIN OF DATA
UWI .         42323312660000 : UNIQUE WELL ID
DICO. A2D Technologies, Inc. : DIGITIZING COMPANY
~Other -----------------------------------------------------
~ASCII -----------------------------------------------------
  650.00000    -999.25    -999.25    -999.25    -999.25    -999.25    -999.25    -999.25    -999.25    -999.25    -999.25  125.99360  125.99360   56.92990   56.92990    -999.25    -999.25    -999.25    -999.25    -999.25    -999.25    -999.25    -999.25    -999.25    -999.25    -999.25
  700.00000    -999.25    -999.25    -999.25  332.17070    -999.25    -999.25    -999.25    -999.25    3.01050    -999.25  104.85880  104.85880   66.86530   66.86530   66.86530    3.01050    2.90210    3.37200    2.90210    -999.25    -999.25    -999.25 -144.27490    -999.25    3.37200
  750.00000    -999.25    -999.25    -999.25  276.01440    -999.25    -999.25    -999.25    -999.25    3.62300    -999.25  101.29480  101.29480   72.74130   72.74130   72.74130    3.62300    3.75250    3.51630    3.75250    -999.25    -999.25    -999.25  -97.73990    -999.25    3.51630
  800.00000    -999.25    -999.25    -999.25  200.50930    -999.25    -999.25    -999.25    -999.25    4.98730    -999.25   93.61450   93.61450   69.12650   69.12650   69.12650    4.98730    4.86650    4.78640    4.86650    -999.25    -999.25    -999.25  -95.18070    -999.25    4.78640
  850.00000    -999.25    -999.25    -999.25  343.80800    -999.25    -999.25    -999.25    -999.25    2.90860    -999.25  104.60670  104.60670   71.60890   71.60890   71.60890    2.90860    2.82610    3.30140    2.82610    -999.25    -999.25    -999.25 -109.93760    -999.25    3.30140
  900.00000    -999.25    -999.25    -999.25  441.30630    -999.25    -999.25    -999.25    -999.25    2.26600    -999.25  112.28920  112.28920   69.12400   69.12400   69.12400    2.26600    2.28080    2.40810    2.28080    -999.25    -999.25    -999.25    -999.25    -999.25    2.40810
  950.00000    -999.25    -999.25    -999.25  244.75610    -999.25    -999.25    -999.25    -999.25    4.08570    -999.25   92.25830   92.25830   61.89760   61.89760   61.89760    4.08570    3.93840    4.13160    3.93840    -999.25    -999.25    -999.25    2.41060    -999.25    4.13160
 1000.00000    -999.25    -999.25    -999.25  378.87400    -999.25    -999.25    -999.25    -999.25    2.63940    -999.25   99.94050   99.94050   66.84500   66.84500   66.84500    2.63940    2.88530    2.97930    2.88530    -999.25    -999.25    -999.25 -124.69880    -999.25    2.97930
 1050.00000    -999.25    -999.25    -999.25  438.23130    -999.25    -999.25    -999.25    -999.25    2.28190    -999.25  113.34260  113.34260   61.89650   61.89650   61.89650    2.28190    2.23400    2.56510    2.23400    -999.25    -999.25    -999.25 -183.73450    -999.25    2.56510
 1100.00000    -999.25    -999.25    -999.25  450.67380    -999.25    -999.25    -999.25    -999.25    2.21890    -999.25  119.35140  119.35140   62.55390   62.55390   62.55390    2.21890    2.30690    2.24500    2.30690    -999.25    -999.25    -999.25 -181.97440    -999.25    2.24500
 1150.00000    -999.25    -999.25    -999.25  255.16060    -999.25    -999.25    -999.25    -999.25    3.91910    -999.25   96.77700   96.77700   65.96350   65.96350   65.96350    3.91910    4.10530    4.13140    4.10530    -999.25    -999.25    -999.25  -99.09780    -999.25    4.13140
 1200.00000    -999.25    -999.25    -999.25  406.07490    -999.25    -999.25    -999.25    -999.25    2.46260    -999.25  106.26510  106.26510   69.12650   69.12650   69.12650    2.46260    2.47810    2.84400    2.47810    -999.25    -999.25    -999.25    -999.25    -999.25    2.84400
 1250.00000    -999.25    -999.25    -999.25  143.47610    -999.25    -999.25    -999.25    -999.25    6.96980    -999.25   83.37250   83.37250   44.95480   44.95480   44.95480    6.96980    6.61530    7.03860    6.61530    -999.25    -999.25    -999.25 -123.28440    -999.25    7.03860
 1300.00000    -999.25    -999.25    -999.25  101.43740    -999.25    -999.25    -999.25    -999.25    9.85830    -999.25   70.72190   70.72190   40.03910   40.03910   40.03910    9.85830   10.29770   11.25670   10.29770    -999.25    -999.25    -999.25 -101.83440    -999.25   11.25670
 1350.00000    -999.25    -999.25    -999.25  174.23120    -999.25    -999.25    -999.25    -999.25    5.73950    -999.25   86.23480   86.23480   76.58190   76.58190   76.58190    5.73950    5.81440    6.79580    5.81440    -999.25    -999.25    -999.25 -169.12640    -999.25    6.79580
 1400.00000    -999.25    -999.25    -999.25  194.68510    -999.25    -999.25    -999.25    -999.25    5.13650    -999.25   86.68650   86.68650   57.03950   57.03950   57.03950    5.13650    5.20680    6.98890    5.20680    -999.25    -999.25    -999.25 -192.58950    -999.25    6.98890
 1450.00000   14.30840    -999.25   14.30840  143.80830    0.03930    2.55930    0.08810    0.08810    6.95370    0.03930   78.10270   78.10270   38.62950   38.62950   38.62950    6.95370    6.82450    6.79580    6.82450    0.11770    0.11770    2.56770    -999.25    -999.25    6.79580
 1500.00000   13.30550    -999.25   13.30550   81.24800    0.00300    2.59990    0.06440    0.06440   12.30800    0.00300   68.31350   68.31350   31.17510   31.17510   31.17510   12.30800   12.84810   18.38660   12.84810    0.08980    0.08980    2.59370  -81.32580    -999.25   18.38660
 1550.00000   13.08100    -999.25   13.08100   59.87770   -0.00070    2.56140    0.08690    0.08690   16.70070   -0.00070   67.56050   67.56050   34.78920   34.78920   34.78920   16.70070   21.13800   23.00980   21.13800    0.09800    0.09800    2.56730  -59.94000    -999.25   23.00980
 1600.00000   14.03480    -999.25   14.03480  126.64320    0.01340    2.39060    0.18680    0.18680    7.89620    0.01340   78.48640   78.48640   31.62650   31.62650   31.62650    7.89620    6.04830    4.33920    6.04830    0.20870    0.20870    2.33630  -37.34940    -999.25    4.33920
 1650.00000   12.73620    -999.25   12.73620   87.08300    0.00370    2.54330    0.09750    0.09750   11.48330    0.00370   70.42170   70.42170   30.49660   30.49660   30.49660   11.48330   13.95960   12.59250   13.95960    0.12150    0.12150    2.53650 -141.56630    -999.25   12.59250
 1700.00000   12.85810    -999.25   12.85810  184.17560    0.03260    2.38950    0.18740    0.18740    5.42960    0.03260   67.40960   67.40960   29.68350   29.68350   29.68350    5.42960    5.99650    5.35470    5.99650    0.19120    0.19120    2.45390 -137.10610    -999.25    5.35470
 1750.00000   13.58900    -999.25   13.58900  104.76800    0.00150    2.54340    0.09740    0.09740    9.54490    0.00150   67.71080   67.71080   28.91490   28.91490   28.91490    9.54490   11.82510   19.86010   11.82510    0.13020    0.13020    2.54390  -88.25370    -999.25   19.86010
 1800.00000   12.55570    -999.25   12.55570   61.01360    0.01060    2.54410    0.09700    0.09700   16.38980    0.01060   68.61820   68.61820   31.32700   31.32700   31.32700   16.38980   11.56320   20.85910   11.56320    0.08830    0.08830    2.56400  -37.94900    -999.25   20.85910
 1850.00000   13.69330    -999.25   13.69330  175.44780    0.02010    2.51060    0.11660    0.11660    5.69970    0.02010   78.55420   78.55420   42.69610   42.69610   42.69610    5.69970    6.94350    5.90680    6.94350    0.18850    0.18850    2.50970  -78.61420    -999.25    5.90680
 1900.00000   12.74680    -999.25   12.74680   54.58840    0.00450    2.58880    0.07090    0.07090   18.31890    0.00450   58.07230   58.07230   32.14540   32.14540   32.14540   18.31890   19.45420   18.13060   19.45420    0.06300    0.06300    2.60570  -42.46690    -999.25   18.13060
 1950.00000   12.67540    -999.25   12.67540   49.31110    0.00370    2.63920    0.04140    0.04140   20.27940    0.00370   61.08530   61.08530   28.69230   28.69230   28.69230   20.27940   22.03220   22.84970   22.03220    0.05990    0.05990    2.62200  -43.37150    -999.25   22.84970
 2000.00000   12.55240    -999.25   12.55240   73.59380    0.00590    2.59180    0.06910    0.06910   13.58810    0.00590   63.19470   63.19470   28.10660   28.10660   28.10660   13.58810   14.75260   19.54980   14.75260    0.08710    0.08710    2.58980  -60.24290    -999.25   19.54980
