~Version ---------------------------------------------------
VERS. 2.0 : CWLS log ASCII Standard -VERSION 2.0
WRAP.  NO : ONE LINE PER DEPTH STEP
~Well ------------------------------------------------------
STRT.F                   750.0 : START DEPTH
STOP.F                  6950.0 : STOP DEPTH
STEP.F                50.00000 : STEP LENGTH
NULL.                  -999.25 : NULL VALUE
COMP.       GALAXY OIL COMPANY : COMPANY
WELL.            EALEN BRAY #3 : WELL
FLD .              ROCKY CREEK : FIELD
LOC .                          : LOCATION
CNTY.                   DIMMIT : COUNTY
STAT.                    TEXAS : STATE
CTRY. UNITED STATES OF AMERICA : COUNTRY
SRVC.             Schlumberger : SERVICE COMPANY
DATE.              25-Mar-1977 : LOGDATE
API .           42127311880000 : API NUMBER
UWI .           42127311880000 : UNIQUE WELL ID
SLAT.WGS84        28.566060947 : SURFACE LATITUDE
SLON.WGS84       -99.941865568 : SURFACE LONGITUDE
~Curve Information -----------------------------------------
DEPT.F                 : 
NPHI.DEC  42 890 03 00 : NEUTRON POROSITY SANDSTONE.
GRD .GAPI 45 310 01 00 : GAMMA RAY DENSITY
CALD.IN   45 280 60 00 : CALIPER DENSITY
DRHO.G/C3 45 356 01 00 : DENSITY CORRECTION
RHOB.G/C3 45 350 01 00 : BULK DENSITY
SP  .MV   99 010 01 00 : SELF POTENTIAL
LL8 .OHMM 07 220 08 00 : LATEROLOG-8 RES.
ILD .OHMM 07 120 46 00 : DEEP INDUCTION RESISTIVITY
CILD.MMHO 07 110 46 00 : CONDUCTIVITY INDUCTION LOG DEEP
~Params ----------------------------------------------------
EKB .F                   657.18 : KELLY BUSHING
EGL .F                   642.68 : ELEVATION GROUND LEVEL
EDF .F                   656.18 : ELEVATION DERRICK FLOOR
EPD .F                   642.68 : ELEVATION PERMANENT DATUM
TD  .F                   6953.0 : TOTAL DEPTH
DATE.               25-MAR-1977 : DATE LOGGED
CLNT.                   A2DTECH : CLIENT CODE
SL  .    600' FSEL & 5670' FSWL : SURFACE LOCATION
PD  .                        GL : PERMANENT DATUM
LMF .                        KB : LOG MEASURED FROM
DMF .                        KB : DRILLING MEASURED FROM
DAPD.F                     14.5 : FEET ABOVE PERMANENT DATUM
DD  .F                     6950 : DEPTH DRILLER
DL  .F                     6953 : DEPTH LOGGER
BLI .F                     6952 : BOTTOM LOG INTERVAL
TLI .F                     3950 : TOP LOG INTERVAL
CS1 .IN                   8.625 : CASING SIZE
CBD1.             8.625" @ 721' : CASING DRILLER 1
BS1 .IN                   7.875 : BIT SIZE
BSD1.F                     6953 : DEPTH DRILLED WITH BIT1
DFT .           LIGHTLY TREATED : TYPE FLUID IN HOLE
DFD .                       9.6 : DENSITY
DFV .                        40 : VISCOSITY
DFPH.                       8.0 : PH
DFL .                       6.4 : FLUID LOSS
MSS .                  MUD TANK : SOURCE OF SAMPLE
RMS .OHMM                  2.41 : RM
RMF .OHMM                  2.26 : RMF
MFSS.                      MEAS : SOURCE RMF.
RMB .OHMM                  1.09 : RM. AT BHT
BHT .F                      172 : BHT.
TCS .HRS                   1900 : TIME CIRC. STOPPED
TLAB.HRS                    300 : TIME LOGGER AT BOTTOM
LUN .                      7739 : LOGGING UNIT NUMBER
LUL .                    LAREDO : LOGGING UNIT LOCATION
ENGI.                   STECKER : RECORDED BY
WITN. MR. ELLIOTT & MR. GERWICK : WITNESSED BY
ORIG.                2.5" PRINT : ORIGIN OF DATA
UWI .            42127311880000 : UNIQUE WELL ID
DICO.    A2D TECHNOLOGIES, INC. : DIGITIZING COMPANY
~Other -----------------------------------------------------
~ASCII -----------------------------------------------------
  750.00000    -999.25    -999.25    -999.25    -999.25    -999.25  -96.19100    5.24400    4.24400  239.13000
  800.00000    -999.25    -999.25    -999.25    -999.25    -999.25  -83.52000    3.16500    2.96700  333.99200
  850.00000    -999.25    -999.25    -999.25    -999.25    -999.25  -80.61900    2.47000    2.13100  419.63100
  900.00000    -999.25    -999.25    -999.25    -999.25    -999.25  -80.35600    2.57100    2.37300  373.50800
  950.00000    -999.25    -999.25    -999.25    -999.25    -999.25  -82.64100    3.21100    3.01300  313.98200
 1000.00000    -999.25    -999.25    -999.25    -999.25    -999.25  -88.19600    4.24800    4.05000  239.10100
 1050.00000    -999.25    -999.25    -999.25    -999.25    -999.25  -79.32200    1.86400    1.66600  575.09900
 1100.00000    -999.25    -999.25    -999.25    -999.25    -999.25  -78.12500    1.68800    1.49100  662.05500
 1150.00000    -999.25    -999.25    -999.25    -999.25    -999.25  -80.36100    6.43000    6.23300  152.17400
 1200.00000    -999.25    -999.25    -999.25    -999.25    -999.25  -83.09800    6.02700    5.26700  166.11900
 1250.00000    -999.25    -999.25    -999.25    -999.25    -999.25  -84.72800    9.16400    9.00900  104.74300
 1300.00000    -999.25    -999.25    -999.25    -999.25    -999.25  -83.26300    4.07100    3.87300  250.98800
 1350.00000    -999.25    -999.25    -999.25    -999.25    -999.25  -84.25700    6.73300    6.57400  158.10300
 1400.00000    -999.25    -999.25    -999.25    -999.25    -999.25  -91.31200    6.52700    5.55900  187.74700
 1450.00000    -999.25    -999.25    -999.25    -999.25    -999.25  -81.71200    4.82000    5.14700  199.35800
 1500.00000    -999.25    -999.25    -999.25    -999.25    -999.25  -95.18600    5.70000    4.04200  241.10700
 1550.00000    -999.25    -999.25    -999.25    -999.25    -999.25  -97.29700   13.46200   11.65900  119.98900
 1600.00000    -999.25    -999.25    -999.25    -999.25    -999.25  -81.64800    4.59500    4.40000  254.94100
 1650.00000    -999.25    -999.25    -999.25    -999.25    -999.25  -81.34400    8.53100    7.30400  120.55300
 1700.00000    -999.25    -999.25    -999.25    -999.25    -999.25  -79.17100    5.84500    4.70400  164.03200
 1750.00000    -999.25    -999.25    -999.25    -999.25    -999.25  -77.76400    4.51400    4.31600  243.08300
 1800.00000    -999.25    -999.25    -999.25    -999.25    -999.25  -76.41100    2.51400    2.30800  440.71100
 1850.00000    -999.25    -999.25    -999.25    -999.25    -999.25  -78.94700    3.95300    3.75500  276.96200
 1900.00000    -999.25    -999.25    -999.25    -999.25    -999.25  -77.60600    2.88400    2.68700  337.90000
 1950.00000    -999.25    -999.25    -999.25    -999.25    -999.25  -75.51200    2.17800    1.98000  522.83700
 2000.00000    -999.25    -999.25    -999.25    -999.25    -999.25  -77.19500    2.77400    2.57600  397.23300
 2050.00000    -999.25    -999.25    -999.25    -999.25    -999.25  -78.63000    6.15800    5.96100  167.98400
 2100.00000    -999.25    -999.25    -999.25    -999.25    -999.25  -82.97700    6.13000    5.44700  186.74400
 2150.00000    -999.25    -999.25    -999.25    -999.25    -999.25  -78.28900    4.81400    4.61600  237.71900
 2200.00000    -999.25    -999.25    -999.25    -999.25    -999.25  -79.06200    4.94800    4.15200  232.21300
 2250.00000    -999.25    -999.25    -999.25    -999.25    -999.25  -78.37900    3.26600    2.94700  318.18200
 2300.00000    -999.25    -999.25    -999.25    -999.25    -999.25  -84.46300    3.33900    3.14100  308.58300
 2350.00000    -999.25    -999.25    -999.25    -999.25    -999.25  -78.35000    1.68500    1.27600  666.00800
 2400.00000    -999.25    -999.25    -999.25    -999.25    -999.25  -74.42600    1.52700    1.33000  624.50600
 2450.00000    -999.25    -999.25    -999.25    -999.25    -999.25  -75.41600    2.41900    2.21200  488.14200
 2500.00000    -999.25    -999.25    -999.25    -999.25    -999.25  -78.84900    3.35000    3.33600  333.99200
 2550.00000    -999.25    -999.25    -999.25    -999.25    -999.25 -101.54000    5.14500    2.94200  339.42700
 2600.00000    -999.25    -999.25    -999.25    -999.25    -999.25 -111.31400    4.48000    1.55400  547.43100
 2650.00000    -999.25    -999.25    -999.25    -999.25    -999.25  -88.44700    3.57600    2.37100  393.28100
 2700.00000    -999.25    -999.25    -999.25    -999.25    -999.25  -75.78800    3.11900    2.72500  321.05600
 2750.00000    -999.25    -999.25    -999.25    -999.25    -999.25  -75.12200    2.17100    2.06900  452.56900
 2800.00000    -999.25    -999.25    -999.25    -999.25    -999.25  -75.43000    2.47700    2.56400  428.85400
 2850.00000    -999.25    -999.25    -999.25    -999.25    -999.25  -81.17200    4.41100    4.01600  247.03600
 2900.00000    -999.25    -999.25    -999.25    -999.25    -999.25  -74.85800    2.73900    2.70600  368.83500
 2950.00000    -999.25    -999.25    -999.25    -999.25    -999.25  -75.57800    3.30000    3.04200  290.51400
 3000.00000    -999.25    -999.25    -999.25    -999.25    -999.25  -76.19800    3.24400    3.45900  326.08700
 3050.00000    -999.25    -999.25    -999.25    -999.25    -999.25  -80.70500    3.74500    3.61600  280.63200
 3100.00000    -999.25    -999.25    -999.25    -999.25    -999.25  -81.33700    4.15400    3.75900  259.06000
 3150.00000    -999.25    -999.25    -999.25    -999.25    -999.25  -77.09100    4.17800    3.91300  254.94100
 3200.00000    -999.25    -999.25    -999.25    -999.25    -999.25  -79.66600    5.03900    4.64300  224.32700
 3250.00000    -999.25    -999.25    -999.25    -999.25    -999.25  -77.18200    4.05100    3.65600  274.70400
 3300.00000    -999.25    -999.25    -999.25    -999.25    -999.25  -76.52500    3.68000    3.28400  292.05400
 3350.00000    -999.25    -999.25    -999.25    -999.25    -999.25  -82.09600    3.86200    3.80500  248.61700
 3400.00000    -999.25    -999.25    -999.25    -999.25    -999.25  -78.09200    4.85000    4.60500  239.61900
 3450.00000    -999.25    -999.25    -999.25    -999.25    -999.25  -75.77400    3.65800    3.14600  294.46600
 3500.00000    -999.25    -999.25    -999.25    -999.25    -999.25  -75.28300    2.96200    2.56700  339.92100
 3550.00000    -999.25    -999.25    -999.25    -999.25    -999.25  -74.56800    2.86200    2.46700  381.42300
 3600.00000    -999.25    -999.25    -999.25    -999.25    -999.25  -70.22900    3.65600    3.26100  297.82000
 3650.00000    -999.25    -999.25    -999.25    -999.25    -999.25  -71.49700    2.83200    2.43700  377.47000
 3700.00000    -999.25    -999.25    -999.25    -999.25    -999.25  -70.16700    3.45900    3.06400  318.72000
 3750.00000    -999.25    -999.25    -999.25    -999.25    -999.25  -70.80100    2.47800    2.37200  402.45600
 3800.00000    -999.25    -999.25    -999.25    -999.25    -999.25  -40.28000    -999.25    -999.25  326.08700
 3850.00000    -999.25    -999.25    -999.25    -999.25    -999.25  -74.79800    3.25900    2.46900  422.92500
 3900.00000    -999.25    -999.25    -999.25    -999.25    -999.25  -75.02000    4.61600    3.82600  227.43700
 3950.00000    -999.25   62.26830   10.98460    -999.25    -999.25  -75.54200    4.69500    3.95100  244.56500
 4000.00000    0.11130   37.50040    9.79620    0.00000    2.56090  -77.65800   11.94400    9.82800  103.26100
 4050.00000    0.09210   33.10000    9.85800   -0.00770    2.60590  -79.79000   13.52600   11.49900   92.14400
 4100.00000    0.13330   43.51850   10.75760    0.01700    2.59120  -73.99200    8.37300    7.97700  146.64700
 4150.00000    0.10970   37.73050   10.72220   -0.00390    2.57260  -76.01400    8.70600    7.42200  135.37500
 4200.00000    0.10560   30.09070   10.01230   -0.01700    2.59580  -76.38600    9.65400    8.87000  109.68400
 4250.00000    0.08750   38.19260   10.10490   -0.00620    2.61590  -73.15200    7.83200    7.10700  148.02400
 4300.00000    0.06940   34.25740    9.36420    0.03090    2.62630  -76.75200   22.99700   20.62800   53.42300
 4350.00000    0.13560   33.33260    9.05550   -0.03160    2.41190  -74.86400   19.11700   15.89400   86.95700
