~Version ---------------------------------------------------
VERS. 2.0 : CWLS log ASCII Standard -VERSION 2.0
WRAP.  NO : ONE LINE PER DEPTH STEP
~Well ------------------------------------------------------
STRT.F                   300.0 : START DEPTH
STOP.F                 13300.0 : STOP DEPTH
STEP.F                50.00000 : STEP LENGTH
NULL.                  -999.25 : NULL VALUE
COMP.         DALECO RESOURCES : COMPANY
WELL.                 OLSON #1 : WELL
FLD .               CLAY CREEK : FIELD
LOC .                          : LOCATION
CNTY.               WASHINGTON : COUNTY
STAT.                    TEXAS : STATE
CTRY. UNITED STATES OF AMERICA : COUNTRY
SRVC.             Schlumberger : SERVICE COMPANY
DATE.              06-Jan-1984 : LOGDATE
API .           42477305280000 : API NUMBER
UWI .           42477305280000 : UNIQUE WELL ID
SLAT.WGS84           30.312105 : SURFACE LATITUDE
SLON.WGS84          -96.369064 : SURFACE LONGITUDE
~Curve Information -----------------------------------------
DEPT   .F                 : 
DCALR  .IN   07 280 01 00 : DIFFERENTIAL CALIPER FROM RESISTIVITY LOG
DPHI_LS.DEC  45 890 10 00 : DENSITY POROSITY LIMESTONE
DPHI_SS.DEC  45 890 12 00 : DENSITY POROSITY SANDSTONE
DRHO   .G/C3 45 356 01 00 : BULK DENSITY CORRECTION
GRR    .GAPI 07 310 01 00 : GAMMA RAY FROM RESISTIVITY LOG
ILD    .OHMM 07 120 46 00 : INDUCTION DEEP RESISTIVITY
ILM    .OHMM 07 120 44 00 : INDUCTION MEDIUM RESISTIVITY
NPHI_LS.DEC  42 890 01 00 : NEUTRON POROSITY LIMESTONE
NPHI_SS.DEC  42 890 03 00 : NEUTRON POROSITY SANDSTONE
SFLU   .OHMM 07 220 01 00 : SHALLOW FOCUSED RESISTIVITY (UNAVERAGED)
SPR    .MV   07 010 01 00 : SPONTANEOUS POTENTIAL FROM RESISTIVITY LOG
~Params ----------------------------------------------------
PD  .                     GL : PERMANENT DATUM
EPD .FT                  390 : ELEVATION PERMANENT DATUM
LMF .                     KB : LOG MEASURED FROM
DAPD.FT                   23 : MEASUREMENT ABOVE PERMANENT DATUM
DMF .                     KB : DRILLING MEASURED FROM
EKB .FT                  413 : KELLY BUSHING
EDF .FT                  412 : DRILLING FLOOR
EGL .FT                  390 : GROUND LEVEL
DATE.               01/06/84 : RUN DATE
RUN .                      3 : RUN NUMBER
DD  .FT                13320 : DEPTH DRILLER
DL  .FT                13323 : DEPTH LOGGER
BLI .FT                13317 : BOTTOM LOG INTERVAL
TLI .FT                11306 : TOP LOG INTERVAL
CS  .IN                7.625 : CASING SIZE
CBD .FT                11309 : CASING BOTTOM DRILLER
CBL .FT                11306 : CASING BOTTOM LOGGER
BS  .IN                  6.5 : BIT SIZE
BSD .FT                13320 : BIT SIZE AT DEPTH
DFT .                    LSN : DRILLING FLUID TYPE
DFD .                   10.4 : DRILLING FLUID DENSITY
DFV .                     45 : DRILLING FLUID VISCOSITY
DFPH.                      9 : DRILLING FLUID PH
DFL .                      4 : DRILLING FLUID LOSS
MSS .                   TANK : MUD SAMPLE SOURCE
RMS .OHMM               5.27 : RESISTIVITY MUD SAMPLE
MST .DEGF                107 : MUD SAMPLE TEMPERATURE
RMF .OHMM               3.95 : RESISTIVITY MUD FILTRATE SAMPLE
MFST.DEGF                107 : MUD FILTRATE SAMPLE TEMPERATURE
RMC .OHMM                7.9 : RESISTIVITY MUD CAKE
MCST.DEGF                107 : MUD CAKE SAMPLE TEMPERATURE
MFSS.                      C : MUD FILTRATE SAMPLE SOURCE
MCSS.                      C : MUD CAKE SAMPLE SOURCE
RMB .OHMM              2.513 : RESISTIVITY MUD AT BHT
TCS .HRS                1300 : TIME CIRCULATED STOPPED
TLAB.HRS                1930 : TIME LOGGER AT BOTTOM
LUN .                   8227 : LOGGING UNIT NUMBER
LUL .                BRENHAM : LOGGING UNIT LOCATION
ENGI.               BERDINIS : RECORDING ENGINEER
WITN.      ELLIS NORTH FILGO : WITNESSED BY
CLNT.                A2DTECH : CLIENT CODE
ORIG.            1" 5" PRINT : ORIGIN OF DATA
UWI .         42477305280000 : UNIQUE WELL ID
DICO. A2D Technologies, Inc. : DIGITIZING COMPANY
~Other -----------------------------------------------------
~ASCII -----------------------------------------------------
# ...
 3350.00000    1.72230    -999.25    0.25150    0.06040   71.87010    1.08890    1.18410    -999.25    0.48250    1.48590  -23.75460
 3400.00000    2.06670    -999.25    0.19490    0.10530   75.06640    0.95970    1.06470    -999.25    0.51320    1.28720  -23.30200
 3450.00000    1.83730    -999.25    0.19670    0.06070   73.32310    0.91490    1.00730    -999.25    0.47730    1.20960  -21.97210
 3500.00000    2.97250    -999.25    0.22420    0.06260   93.24250    0.91950    0.98370    -999.25    0.50200    1.13980  -29.00690
 3550.00000    1.88380    -999.25    0.20600    0.06370   81.59810    1.17210    1.22780    -999.25    0.47600    1.32870  -27.85130
 3600.00000    1.19400    -999.25    0.27430    0.04190   90.19430    0.77300    0.88300    -999.25    0.54370    1.04170  -26.50040
 3650.00000    2.01900    -999.25    0.24050    0.06910   78.70700    0.98020    1.05740    -999.25    0.52390    1.36780  -26.81350
 3700.00000    1.05170    -999.25    0.24370    0.09280   68.22900    1.41490    1.53990    -999.25    0.49720    2.39500  -29.99370
 3750.00000    3.16740    -999.25    0.21190    0.10150   65.01820    1.50900    1.59780    -999.25    0.47870    1.80840  -31.98590
 3800.00000   -0.17650    -999.25    0.28560    0.02290   38.42060    2.21110    2.40340    -999.25    0.32920    3.85100  -78.97280
 3850.00000   -0.21110    -999.25    0.28700    0.04900   28.47920    0.98110    1.13890    -999.25    0.32180    3.06090 -104.76940
 3900.00000   -0.14650    -999.25    0.24460    0.04420   49.05490    1.34850    1.43480    -999.25    0.36320    2.40620  -46.20180
 3950.00000   -2.38460    -999.25    0.33670    -999.25   42.50910    0.68160    0.79320    -999.25    0.36670    2.23230  -81.80680
 4000.00000    2.70080    -999.25    0.33480    0.07540   73.33600    1.22140    1.14310    -999.25    0.50430    1.15620  -44.31730
 4050.00000    3.19640    -999.25    0.32660    0.09220   72.40010    0.93330    0.82320    -999.25    0.51620    0.95790  -43.70210
 4100.00000    3.99410    -999.25    0.32250    0.02550   80.70960    0.88670    0.78870    -999.25    0.52060    0.99520  -41.91440
 4150.00000    5.50020    -999.25    0.22510    0.07040   73.37780    1.01960    0.98320    -999.25    0.47450    1.24170  -41.60060
 4200.00000    3.40550    -999.25    0.20740   -0.01840   74.60210    2.34390    2.05320    -999.25    0.54700    1.96640  -54.69610
 4250.00000    2.81700    -999.25    0.23120    0.00520   63.15260    2.01310    1.99750    -999.25    0.32250    2.52250  -65.85470
 4300.00000    4.34520    -999.25    0.15460    0.03480   68.41550    2.05280    1.87290    -999.25    0.38380    2.15960  -48.07900
 4350.00000    5.18890    -999.25    0.23870    0.03770   83.14960    1.20560    1.08060    -999.25    0.45310    1.23740  -46.95380
 4400.00000    4.69750    -999.25    0.26900    0.00110   76.78820    1.33120    1.15590    -999.25    0.42770    1.30970  -42.11890
 4450.00000    5.74480    -999.25    0.26140    0.03170   81.24080    0.90510    0.79630    -999.25    0.45240    0.91440  -40.08830
 4500.00000    5.59650    -999.25    0.26350    0.04660   80.09540    0.86830    0.75110    -999.25    0.41530    0.89980  -37.28170
 4550.00000    4.81250    -999.25    0.29230    0.02380   85.19190    1.08200    0.86440    -999.25    0.46940    0.92300  -36.57380
 4600.00000    5.79210    -999.25    0.24770    0.02840   85.15690    0.77960    0.71220    -999.25    0.39880    0.81140  -33.55490
 4650.00000    4.22060    -999.25    0.22560    0.04350   63.28550    1.79360    1.55670    -999.25    0.35210    1.62140  -46.03830
 4700.00000    1.21450    -999.25    0.17830    0.02120   65.42620    2.14810    2.42660    -999.25    0.38560    3.44690  -75.50090
 4750.00000    0.15520    -999.25    0.19500    0.02490   77.11930    2.25630    2.57200    -999.25    0.36630    3.63770  -69.96380
 4800.00000   -0.25730    -999.25    0.24900    0.00830   44.98660    1.62410    2.33270    -999.25    0.32140    5.34840 -102.83410
 4850.00000    0.02520    -999.25    0.19890    0.01310   43.14400    1.76030    2.39520    -999.25    0.39750    5.44600  -99.12720
 4900.00000    0.03480    -999.25    0.16200    0.03380   70.85890    2.00680    2.33360    -999.25    0.34910    3.96330  -80.56510
 4950.00000    0.56890    -999.25    0.12940    0.02560   79.83810    1.77600    1.69360    -999.25    0.38420    2.53050  -58.36410
 5000.00000    0.41840    -999.25    0.17770    0.02100   89.69540    2.01620    2.08350    -999.25    0.30430    3.60920  -67.11260
 5050.00000    0.40360    -999.25    0.16270    0.01130   96.02350    2.33570    2.57180    -999.25    0.30440    3.56100  -64.14480
 5100.00000    1.02180    -999.25    0.12760    0.07050   92.78150    2.36560    2.17090    -999.25    0.32910    2.39890  -41.20710
 5150.00000   -0.02130    -999.25    0.23750    0.01710   47.23030    1.65400    2.28090    -999.25    0.30050    4.64930  -97.60640
 5200.00000   -0.06980    -999.25    0.21950    0.01450   63.65030    1.70630    2.40410    -999.25    0.33480    5.15110  -98.07470
 5250.00000    0.38020    -999.25    0.17060    0.04100   87.52430    1.84570    1.79940    -999.25    0.34700    2.52340  -51.51350
 5300.00000   -0.22440    -999.25    0.21190    0.03250   66.87840    1.55450    2.28410    -999.25    0.31740    6.09030 -106.51100
 5350.00000    0.32850    -999.25    0.29490    0.02880   96.00010    1.33550    1.05640    -999.25    0.45460    1.07650  -29.54320
 5400.00000   -0.19140    -999.25    0.26610   -0.00480   61.82700    1.16070    1.62220    -999.25    0.31540    4.43330 -106.46310
 5450.00000   -0.34850    -999.25    0.27120    0.01300   54.93040    0.76120    0.98580    -999.25    0.30260    3.02880 -107.23660
 5500.00000   -0.14280    -999.25    0.13840    0.00770   61.33960    2.22390    2.79690    -999.25    0.31440    5.14200  -84.08640
 5550.00000   -0.10290    -999.25    0.25440   -0.00020   81.00800    1.40640    2.02010    -999.25    0.29650    4.60840 -101.60350
 5600.00000   -0.20250    -999.25    0.21120    0.00530   71.19050    1.77210    2.29910    -999.25    0.29550    5.62790  -89.97480
 5650.00000   -0.22430    -999.25    0.19400    0.03180   64.44390    1.66010    2.16780    -999.25    0.32300    3.76680  -78.87870
 5700.00000   -0.05680    -999.25    0.15170    0.02360   87.96870    2.07180    2.66870    -999.25    0.34720    4.61160  -76.05120
 5750.00000   -0.10900    -999.25    0.18340    0.01590   86.93540    1.54240    2.04890    -999.25    0.30100    4.50970  -85.59560
 5800.00000   -0.16710    -999.25    0.20120    0.01600   75.75390    1.74930    2.40510    -999.25    0.29940    5.04060  -89.47170
 5850.00000    0.13640    -999.25    0.14650    0.01490   99.42320    2.03490    2.36890    -999.25    0.33040    4.14810  -59.95790
 5900.00000    0.49880    -999.25    0.13870    0.02780   89.04820    2.01220    2.07990    -999.25    0.27360    3.59030  -48.90620
 5950.00000    0.02820    -999.25    0.05170    0.00480   48.12750    2.67460    3.42010    -999.25    0.22630   14.27970  -95.43930
 6000.00000   -0.01680    -999.25    0.17670    0.01160   81.01870    1.74870    2.33190    -999.25    0.28660    4.89470  -78.10410
 6050.00000   -0.12880    -999.25    0.25030   -0.00560   64.94810    1.04530    1.57440    -999.25    0.30150    5.04800 -100.99160
 6100.00000    0.05470    -999.25    0.16050    0.01330   79.07820    2.29740    2.59030    -999.25    0.28150    4.63950  -55.31950
 6150.00000   -0.21680    -999.25    0.22640    0.00710   61.72720    1.28380    1.65330    -999.25    0.27900    4.94580 -111.82730
 6200.00000    0.38580    -999.25    0.14870    0.01790   93.84340    1.91180    1.89130    -999.25    0.30230    2.58050  -40.52740
 6250.00000    0.27490    -999.25    0.16260    0.02890   87.13200    1.86290    2.07370    -999.25    0.25410    4.99710  -52.08670
 6300.00000    0.16040    -999.25    0.18640    0.02260   77.64670    1.58340    2.05440    -999.25    0.28010    4.79900  -76.01440
 6350.00000   -0.22020    -999.25    0.17970    0.02350   87.66260    1.00290    1.30530    -999.25    0.27780    4.53700  -93.85930
