~Version ---------------------------------------------------
VERS. 2.0 : CWLS log ASCII Standard -VERSION 2.0
WRAP.  NO : ONE LINE PER DEPTH STEP
~Well ------------------------------------------------------
STRT.F                     2750.0 : START DEPTH
STOP.F                    11000.0 : STOP DEPTH
STEP.F                   50.00000 : STEP LENGTH
NULL.                     -999.25 : NULL VALUE
COMP. HOUSTON OIL & MINERALS CORP : COMPANY
WELL.         ARTHUR C A ET AL #1 : WELL
FLD .                     WILDCAT : FIELD
LOC .                             : LOCATION
CNTY.                     MADISON : COUNTY
STAT.                       TEXAS : STATE
CTRY.    UNITED STATES OF AMERICA : COUNTRY
SRVC.                             : SERVICE COMPANY
DATE.                             : LOGDATE
API .              42313302370000 : API NUMBER
UWI .              42313302370000 : UNIQUE WELL ID
SLAT.WGS84          31.0049875571 : SURFACE LATITUDE
SLON.WGS84         -95.8184071728 : SURFACE LONGITUDE
~Curve Information -----------------------------------------
DEPT.F                 : 
DCAL.IN   45 280 30 00 : DIFFERENTIAL CALIPER
GR  .GAPI 42 310 01 00 : GAMMA RAY
NPHI.DEC  42 890 01 00 : NEUTRON POROSITY LIMESTONE
DPHI.DEC  45 890 10 00 : DENSITY POROSITY LIMESTONE
SP  .MV   07 010 01 00 : SPONTANEOUS POTENTIAL
ALL8.OHMM 11 221 08 00 : AMP. LATEROLOG-8
ASFL.OHMM 07 221 01 00 : AMPPLIFIED SHALLOW FOCUSED LOG RESISTIVITY
ILD .OHMM 07 120 46 00 : DEEP INDUCTION RESISTIVITY
CALR.IN   07 280 01 00 : CALIPER FROM RESISTIVITY
DRHO.G/C3 45 356 01 00 : DENSITY CORRECTION
~Params ----------------------------------------------------
EKB .F                       248.45 : Kelly bushing
EGL .F                       226.35 : Ground level
EDF .F                       247.45 : Drilling floor
EPD .F                        226.8 : Permanent datum
TD  .F                      11017.0 : Total depth
DATE.                   07-APR-1979 : DATE LOGGED
CLNT.                       A2DTECH : CLIENT CODE
SL  . 2653.84' FNEL & 3823.37' FNWL : SURFACE LOCATION
PD  .                            GL : PERMANENT DATUM
LMF .                            KB : LOG MEASURED FROM
DMF .                            KB : DRILLING MEASURED FROM
DAPD.F                        21.65 : FEET ABOVE PERMANENT DATUM
DD  .F                        11000 : DEPTH DRILLER
DL  .F                        11017 : DEPTH LOGGER
BLI .F                        11010 : BOTTOM LOG INTERVAL
TLI .F                         8350 : TOP LOG INTERVAL
CS1 .IN                       10.75 : CASING SIZE
CBD1.                10.75" @ 2715' : CASING DRILLER 1
BS1 .IN                       9.875 : BIT SIZE
BSD1.F                        11000 : DEPTH DRILLED WITH BIT1
DFT .                           GEL : TYPE FLUID IN HOLE
DFD .                          10.1 : DENSITY
DFV .                            42 : VISCOSITY
DFPH.                           9.5 : PH
DFL .                           5.8 : FLUID LOSS
MSS .                           PIT : SOURCE OF SAMPLE
RMS .OHMM                      2.08 : RM
RMF .OHMM                      1.13 : RMF
RMC .OHMM                      3.16 : RMC
MFSS.                          MEAS : SOURCE RMF.
MCSS.                          CALC : SOURCE RMC.
RMB .OHMM                      0.85 : RM. AT BHT
BHT .F                          214 : BHT.
TCS .HRS                       1600 : TIME CIRC. STOPPED
TLAB.                          2200 : TIME LOGGER AT BOTTOM
LUN .                          8096 : LOGGING UNIT NUMBER
LUL .                       BRENHAM : LOGGING UNIT LOCATION
ENGI.                     GILLILAND : RECORDED BY
WITN.      FOWLER, DAILEY, HUMPHREY : WITNESSED BY
ORIG.                   1" 5" PRINT : ORIGIN OF DATA
UWI .                42313302370000 : UNIQUE WELL ID
DICO.        A2D TECHNOLOGIES, INC. : DIGITIZING COMPANY
~Other -----------------------------------------------------
~ASCII -----------------------------------------------------
 2750.00000    2.49500   67.16360    -999.25    0.33020  -66.64110    6.17150    -999.25    4.82470    -999.25    0.01260
 2800.00000    1.58440   53.08220    -999.25    0.32800  -68.86940    7.35160    -999.25    5.85370    -999.25   -0.00300
 2850.00000    3.35670   81.27010    -999.25    0.29190  -52.76070    2.98630    -999.25    3.15830    -999.25   -0.00220
 2900.00000    1.66340   76.69080    -999.25    0.31600  -75.15340    7.20840    -999.25    5.33060    -999.25   -0.00670
 2950.00000    1.66340   72.05420    -999.25    0.29330  -73.24070    7.70470    -999.25    5.36590    -999.25   -0.00650
 3000.00000    2.38830   77.98020    -999.25    0.21660  -60.73620    4.14540    -999.25    3.60840    -999.25    0.01990
 3050.00000    1.97030   62.42790    -999.25    0.34880  -85.88960    8.52050    -999.25    5.32770    -999.25   -0.01000
 3100.00000    2.01980   58.88060    -999.25    0.32750  -84.04850    7.85690    -999.25    5.10670    -999.25   -0.01160
 3150.00000    4.31700   48.13720    -999.25    0.30790  -92.67640    8.24350    -999.25    5.26760    -999.25   -0.02290
 3200.00000    1.64700   45.61550    -999.25    0.30270  -71.77910   10.39760    -999.25    6.24170    -999.25   -0.01100
 3250.00000    1.00060   71.73780    -999.25    0.27060  -82.82210   10.62820    -999.25    5.03050    -999.25   -0.00390
 3300.00000    0.43530   56.59790    -999.25    0.25920  -91.47250   10.64950    -999.25    6.66890    -999.25   -0.00940
 3350.00000    3.04980   69.15110    -999.25    0.24760  -78.83440    5.73900    -999.25    4.74850    -999.25    0.06570
 3400.00000    2.09940   74.77720    -999.25    0.25470  -80.36660    5.80580    -999.25    4.44530    -999.25    0.06200
 3450.00000    3.80220   70.59900    -999.25    0.32400  -76.22680    5.75340    -999.25    4.92760    -999.25    0.08410
 3500.00000    4.18310   66.56300    -999.25    0.61690  -64.61440    5.06530    -999.25    4.08540    -999.25   -0.01990
 3550.00000    2.90210   75.00000    -999.25    0.26360  -82.36130    5.57590    -999.25    4.58840    -999.25    0.11000
 3600.00000    2.65360   55.11850    -999.25    0.36940  -97.54510    9.56900    -999.25    6.24450    -999.25    0.06890
 3650.00000    2.30390   52.38710    -999.25    0.44100  -99.73150   13.06310    -999.25    5.73940    -999.25    0.00260
 3700.00000    3.00490   42.31660    -999.25    0.36010 -106.04060    5.94990    -999.25    3.39940    -999.25    0.02290
 3750.00000    2.93940   83.12140    -999.25    0.62650  -50.15340    4.44460    -999.25    3.14130    -999.25   -0.01060
 3800.00000    1.58420   78.26910    -999.25    0.19440  -69.93870    6.55150    -999.25    4.35980    -999.25    0.07100
 3850.00000    1.02950   76.11620    -999.25    0.16330  -84.35520    9.45990    -999.25    4.23780    -999.25    0.00000
 3900.00000    1.94060   80.82140    -999.25    0.35870  -56.44170    5.25930    -999.25    3.87200    -999.25    0.04800
 3950.00000    0.51490   70.97020    -999.25    0.24260 -104.90740   10.00910    -999.25    4.29880    -999.25    0.03180
 4000.00000    0.47530   87.09030    -999.25    0.25830  -98.92640    8.32420    -999.25    4.02440    -999.25    0.03620
 4050.00000    1.31260   77.91200    -999.25    0.28250  -95.24630    7.35230    -999.25    4.72180    -999.25    0.06870
 4100.00000    0.95050   92.23600    -999.25    0.21390  -99.07980    7.69850    -999.25    4.37960    -999.25    0.05720
 4150.00000    0.31710   56.19650    -999.25    0.31920 -124.69230   10.69100    -999.25    3.30790    -999.25    0.00000
 4200.00000    2.40890   85.97010    -999.25    0.19620  -71.77910    3.80360    -999.25    2.71090    -999.25    0.08470
 4250.00000    0.91610   59.44190    -999.25    0.34490 -136.73310    5.80800    -999.25    2.22550    -999.25    0.03450
 4300.00000    0.36540   58.20900    -999.25    0.26010 -135.73620    4.90300    -999.25    1.37200    -999.25    0.04440
 4350.00000    1.78230   53.61180    -999.25    0.30150 -136.57980    5.51820    -999.25    1.63110    -999.25    0.02240
 4400.00000    -999.25    -999.25    -999.25    -999.25 -133.89570    3.44510    -999.25    1.74810    -999.25    0.00000
 4450.00000    -999.25    -999.25    -999.25    -999.25 -137.30840    5.48480    -999.25    1.43670    -999.25    -999.25
 4500.00000    -999.25    -999.25    -999.25    -999.25 -134.12560    3.83840    -999.25    1.29570    -999.25    -999.25
 4550.00000    -999.25    -999.25    -999.25    -999.25 -135.12290    5.42230    -999.25    1.08990    -999.25    -999.25
 4600.00000    -999.25    -999.25    -999.25    -999.25  -80.98160    7.69650    -999.25    2.16630    -999.25    -999.25
 4650.00000    -999.25    -999.25    -999.25    -999.25 -109.07440    6.26220    -999.25    1.29960    -999.25    -999.25
 4700.00000    -999.25    -999.25    -999.25    -999.25  -93.48180    6.31100    -999.25    1.87500    -999.25    -999.25
 4750.00000    -999.25    -999.25    -999.25    -999.25 -123.26490    4.38410    -999.25    1.34150    -999.25    -999.25
 4800.00000    -999.25    -999.25    -999.25    -999.25  -62.34110    3.34150    -999.25    2.19710    -999.25    -999.25
 4850.00000    -999.25    -999.25    -999.25    -999.25 -153.71910    6.99390    -999.25    0.76980    -999.25    -999.25
 4900.00000    -999.25    -999.25    -999.25    -999.25 -129.60120    4.83270    -999.25    1.32620    -999.25    -999.25
 4950.00000    -999.25    -999.25    -999.25    -999.25  -95.01650    4.07750    -999.25    1.31100    -999.25    -999.25
 5000.00000    -999.25    -999.25    -999.25    -999.25  -64.83700    3.71340    -999.25    1.89900    -999.25    -999.25
 5050.00000    -999.25    -999.25    -999.25    -999.25 -117.02440    5.66160    -999.25    1.16620    -999.25    -999.25
 5100.00000    -999.25    -999.25    -999.25    -999.25  -64.34030    2.78730    -999.25    2.01220    -999.25    -999.25
 5150.00000    -999.25    -999.25    -999.25    -999.25  -73.81130    2.48860    -999.25    1.37200    -999.25    -999.25
 5200.00000    -999.25    -999.25    -999.25    -999.25  -95.70550    4.69310    -999.25    1.73780    -999.25    -999.25
 5250.00000    -999.25    -999.25    -999.25    -999.25 -135.58220    7.44510    -999.25    0.99090    -999.25    -999.25
 5300.00000    -999.25    -999.25    -999.25    -999.25  -56.13380    2.44520    -999.25    1.79880    -999.25    -999.25
 5350.00000    -999.25    -999.25    -999.25    -999.25  -54.37140    2.55490    -999.25    1.93600    -999.25    -999.25
 5400.00000    -999.25    -999.25    -999.25    -999.25  -49.38650    2.38720    -999.25    1.93450    -999.25    -999.25
 5450.00000    -999.25    -999.25    -999.25    -999.25  -66.10260    5.01500    -999.25    2.03510    -999.25    -999.25
 5500.00000    -999.25    -999.25    -999.25    -999.25  -53.37420    2.74110    -999.25    2.08840    -999.25    -999.25
 5550.00000    -999.25    -999.25    -999.25    -999.25  -47.69930    2.36580    -999.25    1.83690    -999.25    -999.25
 5600.00000    -999.25    -999.25    -999.25    -999.25  -45.65980    2.03660    -999.25    1.52440    -999.25    -999.25
 5650.00000    -999.25    -999.25    -999.25    -999.25  -49.92330    2.43150    -999.25    1.79110    -999.25    -999.25
 5700.00000    -999.25    -999.25    -999.25    -999.25  -46.62580    2.15370    -999.25    1.60060    -999.25    -999.25
 5750.00000    -999.25    -999.25    -999.25    -999.25  -46.08900    2.36760    -999.25    1.74540    -999.25    -999.25
 5800.00000    -999.25    -999.25    -999.25    -999.25  -45.93630    2.32070    -999.25    1.73770    -999.25    -999.25
 5850.00000    -999.25    -999.25    -999.25    -999.25  -47.16260    2.49160    -999.25    1.91310    -999.25    -999.25
 5900.00000    -999.25    -999.25    -999.25    -999.25  -46.31900    2.39570    -999.25    1.86820    -999.25    -999.25
 5950.00000    -999.25    -999.25    -999.25    -999.25  -46.08820    2.50680    -999.25    1.95880    -999.25    -999.25
 6000.00000    -999.25    -999.25    -999.25    -999.25  -47.23930    2.64840    -999.25    2.16470    -999.25    -999.25
