~Version ---------------------------------------------------
VERS.      2.0 : CWLS log ASCII Standard -VERSION 2.0
WRAP.      YES : Multiple lines per depth step
CREA. 08/18/12 : LAS Creation Date
~Well ------------------------------------------------------
STRT.FT                 2900.0 : START DEPTH
STOP.FT                17850.0 : STOP DEPTH
STEP.FT               50.00000 : STEP LENGTH
NULL.                  -999.25 : NULL VALUE
COMP. AMOCO PRODUCTION COMPANY : COMPANY
WELL.   JIMMY HILL GAS UNIT #1 : WELL
FLD .                  WILDCAT : FIELD
LOC .                          : LOCATION
CNTY.                     LEON : COUNTY
STAT.                    TEXAS : STATE
CTRY. UNITED STATES OF AMERICA : COUNTRY
SRVC.             Schlumberger : SERVICE COMPANY
DATE.              04-Jun-1996 : LOGDATE
API .           42289312310000 : API NUMBER
UWI .           42289312310000 : UNIQUE WELL ID
SLAT.WGS84       31.2538599246 : SURFACE LATITUDE
SLON.WGS84      -96.2196025838 : SURFACE LONGITUDE
~Curve Information -----------------------------------------
DEPT    .FT                                                                                                : DEPTH FEET
AO10ED  .OHMM                                                                                              : ARRAY INDUCTION ONE FOOT RESISTIVITY A10 FROM AIT-PI-DITE-LDT-CNT LOG
AO20ED  .OHMM                                                                                              : ARRAY INDUCTION ONE FOOT RESISTIVITY A20 FROM AIT-PI-DITE-LDT-CNT LOG
AO30ED  .OHMM                                                                                              : ARRAY INDUCTION ONE FOOT RESISTIVITY A30 FROM AIT-PI-DITE-LDT-CNT LOG
AO60ED  .OHMM                                                                                              : ARRAY INDUCTION ONE FOOT RESISTIVITY A60 FROM AIT-PI-DITE-LDT-CNT LOG
AO90ED  .OHMM                                                                                              : ARRAY INDUCTION ONE FOOT RESISTIVITY A90 FROM AIT-PI-DITE-LDT-CNT LOG
CALSED  .IN                                                                                                : CALIPER FROM BCS-CALIPER-GR LOG [ADJ. TO GRRED]
CALWS   .IN                                                                                                : CALIPER [DCALED+BITS]
CONDWS  .MMHO                                                                                              : CONDUCTIVITY [1000/DRESWS]
DCALED  .IN                                                                                                : DIFFERENTIAL CALIPER FROM AIT-PI-DITE-LDT-CNT LOG
DCORWS  .G/C3                                                                                              : DENSITY CORRECTION [DRHED SPL. TO DRHOED @ 10860']
DENWS   .G/C3 :   FORMATION BULK DENSITY [RHOMED, DENWS CALCULATED FROM DPOWS FROM 7004'-10889'] [M:2.71,F : 1.0]
DPHILSED.V/V                                                      :   DENSITY POROSITY LIMESTONE [M:2.71,F : 1.0] FROM AIT-PI-DITE-LDT-CNT LOG
DPOLSED .V/V                                                                                               : DENSITY POROSITY LIMESTONE FROM HOSTILE LDL-CN-GR LOG
DPOWS   .V/V                                                                                               : DENSITY POROSITY [DPHILSED SPL. TO DPOLSED @ 10852']
DRESWS  .OHMM                                                                                              : DEEP RESISTIVITY [AO30ED SPL. TO IDPHED]
DRHED   .G/C3                                                                                              : BULK DENSITY CORRECTION FROM HOSTILE LDL-CN-GR LOG
DRHOED  .G/C3                                                                                              : BULK DENSITY CORRECTION FROM AIT-PI-DITE-LDT-CNT LOG
DTED    .US/F                                                                                              : DELTA T FROM BCS-CALIPER-GR LOG [ADJ. TO GRRED/NPHILSED]
DTLFED  .US/F                                                                                              : DELTA-T LONG SPACING FAR FROM AIT-PI-DITE-LDT-CNT-PI-LSS-GR LOG
DTLNED  .US/F                                                                                              : DELTA-T LONG SPACING NEAR FROM AIT-PI-DITE-LDT-CNT-PI-LSS-GR LOG
DTWS    .US/F                                                                                              : COMPRESSIONAL SONIC [DTED SPL. TO DTLNED @ 10865.5'-15946.5']
GRRED   .GAPI                                                                                              : GAMMA RAY FROM AIT-PI-DITE-LDT-CNT LOG
GRSED   .GAPI                                                                                              : GAMMA RAY FROM BCS-CALIPER-GR-PI-LSS LOG [ADJ. TO GRRED]
GRWS    .GAPI                                                                                              : GAMMA RAY [GRRED]
IDPHED  .OHMM                                                                                              : DEEP INDUCTION PHASOR FROM AIT-PI-DITE-LDT-CNT- PI-LSS-GR LOG
LCALED  .IN                                                                                                : LOWER CALIPER FROM HOSTILE LDL-CN-GR LOG
MRESWS  .OHMM                                                                                              : MEDIUM RESISTIVITY [AO30ED]
NPHILSED.V/V                                                                                               : NEUTRON POROSITY LIMESTONE FROM AIT-PI-DITE-LDT-CNT LOG
NPOWS   .V/V                                                                                               : NEUTRON POROSITY [NPHILSED]
PEFED   .B/E                                                                                               : PHOTOELECTRIC FACTOR FROM AIT-PI-DITE-LDT-CNT LOG
PEFLED  .B/E                                                                                               : HLDT PEF LONG SPACING FROM HOSTILE LDL-CN-GR LOG
PEFSED  .B/E                                                                                               : SHORT SPACED CORRECTED PHOTOELECTRIC FACTOR FROM HOSTILE LDL-CN-GR LOG
PEFWS   .B/E                                                                                               : PHOTOELECTRIC FACTOR [PEFED SPL. TO PEFSED @ 10847.5']
RHOMED  .G/C3                                                                                              : CORRECTED BULK DENSITY FROM HOSTILE LDL-CN-GR LOG
SPRED   .MV                                                                                                : SPONTANEOUS POTENTIAL  FROM AIT-PI-DITE-LDT-CNT LOG
SPWS    .MV                                                                                                : SPONTANEOUS POTENTIAL [BASELINE 0, MV SPRED]
SRESWS  .OHMM                                                                                              : SHALLOW RESISTIVITY [AO10ED]
TENDED  .LBF                                                                                               : DIFFERENTIAL TENSION FROM HOSTILE LDL-CN-GR LOG
TENRED  .LBF                                                                                               : TENSION FROM AIT-PI-DITE-LDT-CNT LOG
TENSED  .LBF                                                                                               : TOTAL TENSION FROM BCS-CALIPER-GR LOG [ADJ. TO GRRED]
~Params ----------------------------------------------------
PD  .                     GL : PERMANENT DATUM
EPD .FT                 3759 : ELEVATION PERMANENT DATUM
LMF .                     KB : LOG MEASURED FROM
DAPD.FT                 37.2 : FEET ABOVE PERMANENT DATUM
DMF .                     KB : DRILLING MEASURED FROM
EKB .FT                 4131 : KELLY BUSHING
EDF .FT                 4121 : DRILLING FLOOR
EGL .FT                 3759 : GROUND LEVEL
DATE.               06/04/96 : RUN DATE
RUN .                      4 : RUN NUMBER
DD  .FT                17800 : DEPTH DRILLER
DL  .FT                17800 : DEPTH LOGGER
BLI .FT                17797 : BOTTOM LOG INTERVAL
TLI .FT                15944 : TOP LOG INTERVAL
CS  .IN                    7 : CASING SIZE
CBD .FT                15950 : CASING BOTTOM DRILLER
CBL .FT                15944 : CASING BOTTOM LOGGER
BS  .IN                5.875 : BIT SIZE
BSD .FT                17800 : BIT SIZE AT DEPTH
DFT .              OIL BASED : DRILLING FLUID TYPE
DFD .                     18 : DRILLING FLUID DENSITY
DFV .                     88 : DRILLING FLUID VISCOSITY
RMC .OHMM      OIL BASED MUD : RESISTIVITY MUD CAKE
MCST.DEGF      OIL BASED MUD : MUD CAKE SAMPLE TEMPERATURE
TCS .HRS                2100 : TIME CIRCULATED STOPPED
TLAB.HRS                1500 : TIME LOGGER AT BOTTOM
LUN .                   2019 : LOGGING UNIT NUMBER
LUL .                  TYLER : LOGGING UNIT LOCATION
ENGI.                 FERRIS : RECORDING ENGINEER
WITN.              MCGINNUSS : WITNESSED BY
CLNT.                A2DTECH : CLIENT CODE
ORIG.               5' PRINT : ORIGIN OF DATA
UWI .         42289312310000 : UNIQUE WELL ID
DICO. A2D Technologies, Inc. : DIGITIZING COMPANY
~Other -----------------------------------------------------
~ASCII -----------------------------------------------------
# ...
 9200.00000    3.02370    3.86640    4.78880    5.01430    5.41370   16.43850   16.48820  184.71660    4.23820    0.02590    2.19700    0.30000    -999.25    0.30000    5.41370    -999.25    0.02590   77.68120    -999.25    -999.25   77.68120   67.02430   67.31160   67.02430    -999.25    -999.25    4.78880    0.24110    0.24110    3.88410    -999.25    -999.25    3.88410    -999.25  -15.04790   -5.56420    3.02370    -999.25 3148.94600 3175.62280
 9250.00000    1.92310    2.52350    3.22980    6.13110    6.39620   17.90340   18.03770  156.34280    5.78770    0.10950    2.21990    0.28660    -999.25    0.28660    6.39620    -999.25    0.10950   91.36430    -999.25    -999.25   91.36430   94.40790   94.77390   94.40790    -999.25    -999.25    3.22980    0.30000    0.30000    3.46550    -999.25    -999.25    3.46550    -999.25  -18.37750   -8.38240    1.92310    -999.25 3208.38790 3110.90410
 9300.00000   14.43960   37.79450   16.74250    6.70450    6.79570   13.97970   14.00930  147.15190    1.75930    0.06340    2.57110    0.08120    -999.25    0.08120    6.79570    -999.25    0.06340   65.28970    -999.25    -999.25   65.28970   81.83340   80.29690   81.83340    -999.25    -999.25   16.74250    0.09960    0.09960    4.43800    -999.25    -999.25    4.43800    -999.25  -20.02670   -9.52030   14.43960    -999.25 3155.06450 3111.10300
 9350.00000   16.76600   30.16950   21.21600   21.55920   29.54190   13.36080   13.41500   33.85020    1.16500    0.01150    2.67260    0.02190    -999.25    0.02190   29.54190    -999.25    0.01150   58.94370    -999.25    -999.25   58.94370   50.68310   51.56390   50.68310    -999.25    -999.25   21.21600    0.06570    0.06570    4.71970    -999.25    -999.25    4.71970    -999.25  -20.53590   -9.51820   16.76600    -999.25 3225.76730 3198.39750
 9400.00000   12.95310   19.06970   18.97920   15.73680   15.29750   13.35470   13.37140   65.37020    1.12140    0.02880    2.67970    0.01770    -999.25    0.01770   15.29750    -999.25    0.02880   58.58920    -999.25    -999.25   58.58920   35.03250   35.05500   35.03250    -999.25    -999.25   18.97920    0.04550    0.04550    4.39440    -999.25    -999.25    4.39440    -999.25  -15.68090   -4.15180   12.95310    -999.25 3292.39670 3268.16940
 9450.00000    1.73490    2.45340    1.95940    2.07880    2.06270   18.13420   18.06860  484.80150    5.81860    0.04240    2.19770    0.29960    -999.25    0.29960    2.06270    -999.25    0.04240   88.87180    -999.25    -999.25   88.87180   82.40590   84.03480   82.40590    -999.25    -999.25    1.95940    0.30060    0.30060    3.40930    -999.25    -999.25    3.40930    -999.25  -15.70570   -3.66530    1.73490    -999.25 3216.86300 3224.72220
 9500.00000   60.05760  137.86870  148.76000  246.37620  155.78580   13.55000   13.59370    6.41910    1.34370    0.01590    2.63730    0.04250    -999.25    0.04250  155.78580    -999.25    0.01590   53.20240    -999.25    -999.25   53.20240   32.74440   33.49930   32.74440    -999.25    -999.25  148.76000   -0.00070   -0.00070    4.55260    -999.25    -999.25    4.55260    -999.25  -58.06130  -46.00050   60.05760    -999.25 3233.37920 3200.91140
 9550.00000   67.12330  113.41840  147.32730  160.61050  170.55850   13.53980   13.60100    5.86310    1.35100    0.04850    2.68550    0.01430    -999.25    0.01430  170.55850    -999.25    0.04850   51.06260    -999.25    -999.25   51.06260   23.90760   23.82320   23.90760    -999.25    -999.25  147.32730   -0.00040   -0.00040    4.57790    -999.25    -999.25    4.57790    -999.25  -49.57350  -38.26030   67.12330    -999.25 3159.74610 3176.57710
 9600.00000  120.59280  138.20260  158.71710  220.09630  188.26890   13.85250   13.93470    5.31160    1.68470    0.01540    2.68300    0.01580    -999.25    0.01580  188.26890    -999.25    0.01540   49.85660    -999.25    -999.25   49.85660   32.82300   33.58310   32.82300    -999.25    -999.25  158.71710    0.00120    0.00120    4.85380    -999.25    -999.25    4.85380    -999.25  -96.15030  -85.58470  120.59280    -999.25 3201.05130 3213.42820
 9650.00000   90.31880  142.65800  164.15720  241.50780   92.22490   13.66440   13.74450   10.84310    1.49450    0.01230    2.68090    0.01700    -999.25    0.01700   92.22490    -999.25    0.01230   51.08440    -999.25    -999.25   51.08440   50.05670   50.61840   50.05670    -999.25    -999.25  164.15720   -0.00010   -0.00010    4.58570    -999.25    -999.25    4.58570    -999.25  -75.39660  -65.57850   90.31880    -999.25 3313.74340 3273.64550
 9700.00000    4.32140    5.35560    5.51640    5.71340    5.73690   13.69120   13.77180  174.31020    1.52180    0.01570    2.61080    0.05800    -999.25    0.05800    5.73690    -999.25    0.01570   56.23180    -999.25    -999.25   56.23180   23.08810   23.92880   23.08810    -999.25    -999.25    5.51640    0.04750    0.04750    4.59820    -999.25    -999.25    4.59820    -999.25 -117.32820 -108.25770    4.32140    -999.25 3224.33960 3241.56350
 9750.00000   11.03250   19.35250   19.09570   21.14560   21.21240   13.76450   13.81140   47.14220    1.56140    0.01470    2.68880    0.01240    -999.25    0.01240   21.21240    -999.25    0.01470   54.51520    -999.25    -999.25   54.51520   42.08980   43.82010   42.08980    -999.25    -999.25   19.09570    0.02790    0.02790    4.69210    -999.25    -999.25    4.69210    -999.25  -33.44420  -25.47960   11.03250    -999.25 3333.69750 3295.48120
 9800.00000    7.19610   12.25930   12.31720   22.27690   19.93840   13.95760   14.01670   50.15450    1.76670   -0.00270    2.57800    0.07720    -999.25    0.07720   19.93840    -999.25   -0.00270   56.35620    -999.25    -999.25   56.35620   54.32130   52.69310   54.32130    -999.25    -999.25   12.31720    0.21050    0.21050    3.78770    -999.25    -999.25    3.78770    -999.25  -18.78620  -12.94740    7.19610    -999.25 3353.04470 3292.36110
 9850.00000    7.08740   14.06500   10.13330    9.23010   14.87160   13.82880   13.87280   67.24230    1.62280    0.03560    2.66350    0.02720    -999.25    0.02720   14.87160    -999.25    0.03560   55.66010    -999.25    -999.25   55.66010   46.57450   44.53970   46.57450    -999.25    -999.25   10.13330    0.09180    0.09180    4.37050    -999.25    -999.25    4.37050    -999.25  -13.93870  -10.22580    7.08740    -999.25 3386.68730 3338.84420
 9900.00000   13.48830   35.33190   16.53050   20.30340   22.00950   13.60850   13.71620   45.43490    1.46620    0.03190    2.64300    0.03920    -999.25    0.03920   22.00950    -999.25    0.03190   57.78600    -999.25    -999.25   57.78600   53.66360   54.21300   53.66360    -999.25    -999.25   16.53050    0.06130    0.06130    3.21640    -999.25    -999.25    3.21640    -999.25  -37.36400  -35.77690   13.48830    -999.25 3341.12820 3341.55830
 9950.00000    3.31280    4.21990    3.38110    3.45280    3.88730   13.96270   13.99790  257.24800    1.74790    0.02780    2.60190    0.06320    -999.25    0.06320    3.88730    -999.25    0.02780   70.69670    -999.25    -999.25   70.69670   86.89720   88.17810   86.89720    -999.25    -999.25    3.38110    0.17080    0.17080    2.84150    -999.25    -999.25    2.84150    -999.25  -20.49790  -21.03660    3.31280    -999.25 3363.66890 3351.17360
 10000.00000   10.98180   32.71830   34.38910   41.96130   40.48860   14.24410   14.27260   24.69830    2.02260    0.00450    2.66210    0.02800    -999.25    0.02800   40.48860    -999.25    0.00450   53.79060    -999.25    -999.25   53.79060   42.91380   42.75990   42.91380    -999.25    -999.25   34.38910    0.01220    0.01220    4.53100    -999.25    -999.25    4.53100    -999.25  -16.11980  -17.38020   10.98180    -999.25 3346.72410 3350.15800
 10050.00000    5.17050    6.28480    5.44830    5.26880    5.86830   13.95410   14.01880  170.40710    1.76880    0.01170    2.60070    0.06390    -999.25    0.06390    5.86830    -999.25    0.01170   65.57590    -999.25    -999.25   65.57590   72.80690   74.56030   72.80690    -999.25    -999.25    5.44830    0.10150    0.10150    3.81880    -999.25    -999.25    3.81880    -999.25   -0.80840   -2.32250    5.17050    -999.25 3330.98900 3345.77390
