~Version ---------------------------------------------------
VERS. 2.0 : CWLS log ASCII Standard -VERSION 2.0
WRAP.  NO : ONE LINE PER DEPTH STEP
~Well ------------------------------------------------------
STRT.F                      2450.0 : START DEPTH
STOP.F                      9950.0 : STOP DEPTH
STEP.F                    50.00000 : STEP LENGTH
NULL.                      -999.25 : NULL VALUE
COMP. ANTLE OPERATING INCORPORATED : COMPANY
WELL.        MIESCH ST. KATRINA #1 : WELL
FLD .                    NINE YEAR : FIELD
LOC .                              : LOCATION
CNTY.                     LA SALLE : COUNTY
STAT.                        TEXAS : STATE
CTRY.     UNITED STATES OF AMERICA : COUNTRY
SRVC.                 Schlumberger : SERVICE COMPANY
DATE.                  04-Oct-1994 : LOGDATE
API .               42283315560000 : API NUMBER
UWI .               42283315560000 : UNIQUE WELL ID
SLAT.WGS84           28.5415220893 : SURFACE LATITUDE
SLON.WGS84          -99.3115633507 : SURFACE LONGITUDE
~Curve Information -----------------------------------------
DEPT.F                 : 
AF10.OHMM 06 120 10 00 : 10-IN. RESISTIVITY, 4-FT RESOLUTION
AF60.OHMM 06 120 60 00 : 60-IN. RESISTIVITY, 4-FT RESOLUTION
CILD.MMHO 06 110 46 00 : CONDUCTIVITY INDUCTION LOG DEEP
AFCO.MMHO 06 110 46 00 : CONDUCTIVITY, 4-FT RESOLUTION
IDPH.OHMM 06 120 46 00 : INDUCTION DEEP PHASOR RES.
IMPH.OHMM 06 120 44 00 : INDUCTION MEDIUM PHASOR RES.
SFLU.OHMM 06 220 01 00 : SPHERICALLY FOCUSED LOG UNAVERAGED RES.
SPR .MV   06 010 01 00 : SPONTANEOUS POTENTIAL FROM RES.
GRR .GAPI 06 310 01 00 : GAMMA RAY FROM RES.
~Params ----------------------------------------------------
PD  .                     GL : PERMANENT DATUM
EPD .F                 541.9 : ELEVATION PERMANENT DATUM
LMF .                    RKB : LOG MEASURED FROM
DAPD.F                  17.6 : FEET ABOVE PERMANENT DATUM
DMF .                    RKB : DRILLING MEASURED FROM
EKB .F                 569.5 : KELLING BUSHING
EDF .F                 568.5 : DRILLING FLOOR
EGL .F                 541.9 : GROUND LEVEL
DATE.               10/04/94 : RUN DATE
RUN .                      2 : RUN NUMBER
DD  .F                  9980 : DEPTH DRILLER
DL  .F                  9977 : DEPTH LOGGER
BLI .F                  9950 : BOTTOM LOG INTERVAL
TLI .F                  9445 : TOP LOG INTERVAL
CS  .IN                    7 : CASING SIZE
CBD .F                  9460 : CASING BOTTOM DRILLER
CBL .F                  9445 : CASING BOTTOM LOGGER
BS  .IN                6.125 : BIT SIZE
BSD .F                  9980 : BIT SIZE AT DEPTH
DFT .                LIGNITE : DRILLING FLUID TYPE
DFD .                    9.1 : DRILLING FLUID DENSITY
DFV .                     37 : DRILLING FLUID VISCOSITY
DFPH.                   10.5 : DRILLING FLUID PH
DFL .                    6.6 : DRILLING FLUID LOSS
MSS .               CIRC PIT : MUD SAMPLE SOURCE
RMS .OHMM               0.87 : RESISTIVITY MUD SAMPLE
RMF .OHMM                1.3 : RESISTIVITY MUD FILTRATE SAMPLE
MFST.F                    74 : MUD FILTRATE SAMPLE TEMPERATURE
RMC .OHMM              1.305 : RESISTIVITY MUD CAKE
MCST.F                   116 : MUD CAKE SAMPLE TEMPERATURE
MFSS.                   MEAS : MUD FILTRATE SAMPLE SOURCE
MCSS.                   CALC : MUD CAKE SAMPLE SOURCE
RMB .OHMM              0.469 : RESISTIVITY MUD AT BHT
TCS .HRS                1630 : TIME CURCULATED STOPPED
TLAB.HRS                2100 : TIME LOGGER AT BOTTOM
LUN .                   2024 : LOGGING UNIT NUMBER
LUL .                 LAREDO : LOGGING UNIT LOCATION
ENGI.              STRUBHART : RECORDING ENGINEER
WITN.           ANTLE MIESCH : WITNESSED BY
CLNT.                A2DTECH : CLIENT CODE
ORIG.            1" 5" PRINT : ORIGIN OF DATA
UWI .         42283315560000 : UNIQUE WELL ID
DICO. A2D Technologies, Inc. : DIGITIZING COMPANY
~Other -----------------------------------------------------
~ASCII -----------------------------------------------------
 2450.00000    -999.25    -999.25    -999.25    -999.25    -999.25    -999.25    -999.25    -999.25   45.51570
 2500.00000    -999.25    -999.25    -999.25    -999.25    -999.25    -999.25    -999.25    -999.25   52.24290
 2550.00000    -999.25    -999.25    -999.25    -999.25    -999.25    -999.25    -999.25    -999.25   44.03040
 2600.00000    -999.25    -999.25    -999.25    -999.25    -999.25    -999.25    -999.25    -999.25   34.36730
 2650.00000    -999.25    -999.25  610.17760    -999.25    1.76840    1.77020    1.79460   -9.34130   64.12720
 2700.00000    -999.25    -999.25  297.08490    -999.25    3.56120    3.39540    3.44990  -15.17740   64.12230
 2750.00000    -999.25    -999.25  302.37920    -999.25    3.98190    4.63690    5.00150  -12.78250   58.96860
 2800.00000    -999.25    -999.25  174.88790    -999.25    5.80770    6.54020    6.49500  -28.80170   69.50560
 2850.00000    -999.25    -999.25  195.50550    -999.25    5.20120    5.50830    5.36580  -26.13170   58.07180
 2900.00000    -999.25    -999.25  201.42000    -999.25    5.14350    5.29170    5.37870  -21.78330   56.64830
 2950.00000    -999.25    -999.25  178.31340    -999.25    5.63480    7.25120    7.22180  -32.05900   60.20320
 3000.00000    -999.25    -999.25  208.05490    -999.25    5.02550    6.32770    7.15220  -32.18010   68.72380
 3050.00000    -999.25    -999.25  164.42450    -999.25    6.01800    7.30140    7.69540  -32.03010   72.42170
 3100.00000    -999.25    -999.25  192.32680    -999.25    5.42500    7.80340    9.76340  -34.43610   49.77610
 3150.00000    -999.25    -999.25  214.99720    -999.25    4.69100    4.89970    4.58010  -23.90950   55.82960
 3200.00000    -999.25    -999.25  186.05790    -999.25    5.42010    7.66150    9.56450  -49.62410   49.77610
 3250.00000    -999.25    -999.25  142.06570    -999.25    7.25890   10.01850   10.46170  -47.66470   45.29150
 3300.00000    -999.25    -999.25  440.33830    -999.25    2.57620    2.56240    2.57030  -15.48900   67.48880
 3350.00000    -999.25    -999.25  144.68060    -999.25    7.14570    7.73460    9.53140  -30.43180   59.19280
 3400.00000    -999.25    -999.25  180.67460    -999.25    5.68900    7.55670    9.88170  -46.32750   49.54970
 3450.00000    -999.25    -999.25  189.46210    -999.25    5.45880    7.15230    9.35260  -45.60290   40.54050
 3500.00000    -999.25    -999.25  245.88940    -999.25    4.19160    4.91240    5.37610  -36.06220   40.79280
 3550.00000    -999.25    -999.25  205.53060    -999.25    4.89550    4.13420    4.24970  -19.78860   66.34180
 3600.00000    -999.25    -999.25  269.05830    -999.25    3.60130    3.27510    3.09200  -15.13450   81.18550
 3650.00000    -999.25    -999.25  264.20090    -999.25    4.58490    4.77860    5.05170  -12.73370   75.78710
 3700.00000    -999.25    -999.25  320.53470    -999.25    2.92800    2.90800    2.98680  -13.63290   77.36240
 3750.00000    -999.25    -999.25  551.75680    -999.25    1.79410    1.76200    1.89240  -11.98200   78.48790
 3800.00000    -999.25    -999.25  571.77280    -999.25    1.73330    1.75730    1.84070  -12.28190   72.19040
 3850.00000    -999.25    -999.25  508.22050    -999.25    1.91240    1.95580    2.01380  -13.48380   72.41420
 3900.00000    -999.25    -999.25  577.72800    -999.25    1.95240    1.98970    2.15000  -13.03300   64.54180
 3950.00000    -999.25    -999.25  468.62820    -999.25    2.31910    2.37950    2.50140  -12.35730   63.08110
 4000.00000    -999.25    -999.25  813.90140    -999.25    1.28210    1.30790    1.32790  -11.89850   75.56230
 4050.00000    -999.25    -999.25  446.76310    -999.25    3.03320    3.06430    2.85100  -12.09550   70.84000
 4100.00000    -999.25    -999.25  398.97400    -999.25    2.85100    3.02700    3.31710  -11.68160   67.02010
 4150.00000    -999.25    -999.25  279.33470    -999.25    3.50490    3.98580    6.42330  -14.08410   49.02580
 4200.00000    -999.25    -999.25  189.08820    -999.25    4.77760    4.73360    5.01360  -14.98500   56.67240
 4250.00000    -999.25    -999.25  302.73980    -999.25    3.40970    2.94490    3.03320  -16.78690   58.92090
 4300.00000    -999.25    -999.25  211.88340    -999.25    4.87390    5.16280    6.12110  -16.33540   51.95010
 4350.00000    -999.25    -999.25  185.35640    -999.25    5.10050    5.00150    4.97920  -14.83480   51.95010
 4400.00000    -999.25    -999.25  211.00970    -999.25    4.30890    4.22040    3.62760  -14.53450   51.27470
 4450.00000    -999.25    -999.25  333.27390    -999.25    2.85100    2.83320    2.81200  -15.43520   52.96170
 4500.00000    -999.25    -999.25  436.69780    -999.25    2.37880    2.34480    2.60690  -16.03580   57.34630
 4550.00000    -999.25    -999.25  300.26160    -999.25    3.22700    3.24520    3.31710  -17.68820   58.37240
 4600.00000    -999.25    -999.25  284.25120    -999.25    3.57800    3.72080    3.48090  -14.83470   61.16940
 4650.00000    -999.25    -999.25  380.04500    -999.25    2.72630    2.68370    2.65220  -16.33660   58.92020
 4700.00000    -999.25    -999.25  405.82860    -999.25    2.61180    2.66650    2.59990  -15.53270   58.33210
 4750.00000    -999.25    -999.25  267.37670    -999.25    3.27860    3.76290    4.25970  -14.78170   62.22930
 4800.00000    -999.25    -999.25  445.59540    -999.25    2.30730    2.38330    2.41940  -13.28190   64.63960
 4850.00000    -999.25    -999.25  389.94750    -999.25    2.72220    2.79340    2.77910  -15.68220   59.45950
 4900.00000    -999.25    -999.25  415.17190    -999.25    2.48900    2.57300    2.63000  -12.38320   59.90990
 4950.00000    -999.25    -999.25  389.88520    -999.25    2.52340    2.57620    2.66640  -14.93190   60.80950
 5000.00000    -999.25    -999.25  416.79280    -999.25    2.40000    2.40470    2.69010  -11.65970   57.65760
 5050.00000    -999.25    -999.25  341.36770    -999.25    2.97720    2.98890    3.93050  -12.68190   52.34740
 5100.00000    -999.25    -999.25  452.54110    -999.25    2.23960    2.26020    2.48900  -11.78340   61.71170
 5150.00000    -999.25    -999.25  522.60650    -999.25    1.96930    2.00840    2.16860  -12.83310   68.46850
 5200.00000    -999.25    -999.25  235.93080    -999.25    4.11550    4.03130    4.05910   -7.89850   53.37840
 5250.00000    -999.25    -999.25  258.59480    -999.25    3.94880    3.81510    3.88940   -9.02060   62.11070
 5300.00000    -999.25    -999.25  320.25520    -999.25    3.61920    4.37870    4.98910  -25.14500   53.89230
 5350.00000    -999.25    -999.25  453.10170    -999.25    2.21760    3.41190    5.06020  -59.87690   44.36950
 5400.00000    -999.25    -999.25  275.52900    -999.25    3.52470    3.53110    4.78890  -13.56680   47.41200
 5450.00000    -999.25    -999.25  450.67360    -999.25    2.13900    3.16760    5.64990  -47.52220   47.29690
 5500.00000    -999.25    -999.25  403.46120    -999.25    2.48890    3.10280    3.86800  -30.60040   49.56250
 5550.00000    -999.25    -999.25  348.40720    -999.25    2.97720    3.51240    4.37050   -7.58560   59.00900
 5600.00000    -999.25    -999.25  659.19280    -999.25    1.51570    1.49950    1.43980   -7.88550   65.76690
 5650.00000    -999.25    -999.25  409.75340    -999.25    2.48900    2.48900    2.66650   -7.73560   77.47750
 5700.00000    -999.25    -999.25  495.14200    -999.25    2.64820    2.75270    2.40470   -5.03780   67.91600
 5750.00000    -999.25    -999.25  360.30220    -999.25    3.38710    3.36760    3.44060   -3.36950   62.16220
 5800.00000    -999.25    -999.25  285.27460    -999.25    3.68600    3.57350    3.61850   -8.72160   60.49480
 5850.00000    -999.25    -999.25  263.63980    -999.25    3.84150    3.92170    3.85740   -8.48500   61.17740
 5900.00000    -999.25    -999.25  401.59260    -999.25    2.58210    2.55270    2.64800   -5.78710   72.39710
 5950.00000    -999.25    -999.25  347.16000    -999.25    3.03960    3.16780    3.10700   -3.68840   75.11200
 6000.00000    -999.25    -999.25  367.16270    -999.25    2.79810    2.78970    2.72230   -6.54030   66.59660
 6050.00000    -999.25    -999.25  383.03500    -999.25    2.69330    2.74110    2.74100   -1.88910  107.78320
