~Version ---------------------------------------------------
VERS. 2.0 : CWLS log ASCII Standard -VERSION 2.0
WRAP.  NO : ONE LINE PER DEPTH STEP
~Well ------------------------------------------------------
STRT.F                       2550.0 : START DEPTH
STOP.F                      16500.0 : STOP DEPTH
STEP.F                     50.00000 : STEP LENGTH
NULL.                       -999.25 : NULL VALUE
COMP.       UNION PACIFIC RESOURCES : COMPANY
WELL. UPR T BAR X LIGHTNING UNIT #1 : WELL
FLD .                       WILDCAT : FIELD
LOC .                               : LOCATION
CNTY.                     ROBERTSON : COUNTY
STAT.                         TEXAS : STATE
CTRY.      UNITED STATES OF AMERICA : COUNTRY
SRVC.                               : SERVICE COMPANY
DATE.                               : LOGDATE
API .                42395304830000 : API NUMBER
UWI .                42395304830000 : UNIQUE WELL ID
SLAT.WGS84            31.1540924699 : SURFACE LATITUDE
SLON.WGS84           -96.3276535393 : SURFACE LONGITUDE
~Curve Information -----------------------------------------
DEPT.F                 : 
DCAL.IN   07 280 30 00 : DIFFERENTIAL CALIPER
AT90.OHMM 07 120 90 00 : 2FT VERT. RES. 90IN D.I.
AT20.OHMM 07 120 20 00 : 2FT VERT. RES. 20IN D.I.
SP  .MV   07 010 01 00 : SPONTANEOUS POTENTIAL
GR  .GAPI 07 310 01 00 : GAMMA RAY - GAPI
ILD .OHMM 07 120 46 00 : DEEP INDUCTION RESISTIVITY
SFL .OHMM 07 220 01 00 : SPHERICAL FOCUSED RESISTIVITY
DT  .US/F 07 520 00 00 : 
AT30.OHMM 06 120 30 00 : 
HDRA.G/C3 45 356 01 00 : 
PEFZ.B/E  45 358 01 00 : 
ILM .OHMM 00 120 44 00 : MEDIUM IND.
DPHI.DEC  45 890 10 00 : 
NPHI.DEC  42 890 01 00 : 
CAL .IN   07 280 01 00 : 
~Params ----------------------------------------------------
EKB .F                399.0 : KELLY BUSHING
EGL .F                  373 : ELEVATION GROUND LEVEL
EDF .F                  398 : ELEVATION DERRICK FLOOR
EPD .F                  373 : ELEVATION PERMANENT DATUM
TD  .F              16500.0 : TOTAL DEPTH
CLNT.               A2DTECH : CLIENT CODE
PD  .                    GL : PERMANENT DATUM
LMF .                   RKB : LOG MEASURED FROM
DMF .                   RKB : DRILLING MEASURED FROM
DAPD.F                 26.9 : FEET ABOVE PERMANENT DATUM
DATE.           26-MAY-1997 : DATE LOGGED
DD  .F                16500 : DEPTH DRILLER
DL  .F                16500 : DEPTH LOGGER
BLI .F                16498 : BOTTOM LOG INTERVAL
TLI .F                15524 : TOP LOG INTERVAL
CS1 .IN               7.625 : CASING SIZE
CBD1.        7.625" @ 15550 : CASING DRILLER 1
CBL1.F                15524 : CASING LOGGER 1
BS1 .IN                6.75 : BIT SIZE
BSD1.F                16500 : DEPTH DRILLED WITH BIT1
DFT .         LOW-LIME DISP : TYPE FLUID IN HOLE
DFD .                  17.7 : DENSITY
DFV .                  46 S : VISCOSITY
DFPH.                  11.3 : PH
DFL .                  18.2 : FLUID LOSS
MSS .              FLOWLINE : SOURCE OF SAMPLE
RMS .OHMM              0.75 : RM
RMF .OHMM              0.56 : RMF
MFSS.                  CALC : SOURCE RMF.
RMC .OHMM              0.94 : RMC
MCSS.                  CALC : SOURCE RMC.
RMB .OHMM               0.4 : RM. AT BHT
BHT .F                  360 : BHT.
TCS .HRS                 17 : TIME CIRC. STOPPED
LUN .               HL 6542 : LOGGING UNIT NUMBER
LUL .                 TYLER : LOGGING UNIT LOCATION
ENGI.                DIDUCH : RECORDED BY
WITN.               CLAWSON : WITNESSED BY
ORIG.              5" PRINT : ORIGIN OF DATA
UWI .        42395304830000 : UNIQUE WELL ID
DICO. A2D TECHNOLOGIES INC. : DIGITIZING COMPANY
SL  .       845' FWL & 1' F : SURFACE LOCATION
~Other -----------------------------------------------------
~ASCII -----------------------------------------------------
# ...
 9450.00000    2.90820   16.31330   16.30270  -71.38410   70.75510    -999.25    -999.25   54.48610   21.49760    0.11380    4.90580    -999.25    0.00800    0.06720    -999.25
 9500.00000    2.36950   11.90860   14.02370  -60.66650   70.19880    -999.25    -999.25   57.60160   11.96560    0.09390    4.24580    -999.25   -0.00270    0.07810    -999.25
 9550.00000    2.41060   26.86020    5.99330  -51.48290  106.60430    -999.25    -999.25   60.54720   12.93640    0.14830    3.48020    -999.25    0.00020    0.13360    -999.25
 9600.00000    8.52020    3.22920    0.72740  -57.88260   97.64570    -999.25    -999.25   94.98440    0.70830    0.03770    7.95040    -999.25    0.34960    0.35000    -999.25
 9650.00000    1.49860   18.35480   10.60100  -70.48580   63.43740    -999.25    -999.25   61.65110   23.34060    0.05110    2.65620    -999.25    0.07500    0.03360    -999.25
 9700.00000    1.91270    2.96070    3.17660  -73.80220   55.66040    -999.25    -999.25   64.45370    2.88490    0.02290    3.31250    -999.25    0.07190    0.08360    -999.25
 9750.00000    1.94100    5.12130    6.54690  -59.56190   90.24780    -999.25    -999.25   64.56490    4.94500    0.03420    3.12470    -999.25    0.05010    0.06550    -999.25
 9800.00000    1.56310   12.21070    8.10030  -66.04070   92.99070    -999.25    -999.25   65.10610   11.56270    0.04800    2.89860    -999.25    0.02590    0.09300    -999.25
 9850.00000    1.69520    4.92010    6.34830  -51.80100   80.37270    -999.25    -999.25   63.36450    5.99740    0.01030    3.15620    -999.25    0.03950    0.07730    -999.25
 9900.00000    0.51070    8.01540   10.71510  -80.40420   68.95470    -999.25    -999.25   60.11940    7.59610    0.01820    2.90970    -999.25    0.07750    0.04160    -999.25
 9950.00000    0.32660    8.47930   10.22390  -68.58530   39.76040    3.87910    -999.25    -999.25    -999.25    -999.25    -999.25    -999.25    -999.25    -999.25    -999.25
 10000.00000    -999.25    -999.25    -999.25  -47.77600  114.37540    4.52480    4.70020   75.63220    -999.25   -0.00380    8.63620    5.63120    0.02650    0.21160   10.42600
 10050.00000    -999.25    -999.25    -999.25  -71.28570   62.34370   14.13110   18.71010   62.64890    -999.25   -0.01220    3.44770   13.47980    0.10210    0.05720    9.79770
 10100.00000    -999.25    -999.25    -999.25  -71.41520   71.48420   12.94250   15.33030   60.63740    -999.25   -0.01110    3.94710   13.99910    0.06260    0.06860    9.49150
 10150.00000    -999.25    -999.25    -999.25  -84.26610   38.51640   18.06540   26.63490   59.43570    -999.25   -0.01940    4.06330   21.11190    0.10160    0.03360    9.36680
 10200.00000    -999.25    -999.25    -999.25 -109.67320   34.41530   16.78050   39.96600   59.43780    -999.25   -0.07740    6.75280   24.19220    0.13540    0.03870    9.24240
 10250.00000    -999.25    -999.25    -999.25 -100.65320   34.21880   23.16280   41.97340   63.07520    -999.25   -0.17000    9.94930   27.36400    0.13450    0.05360    8.93070
 10300.00000    -999.25    -999.25    -999.25  -78.56920   42.36860    7.40670   23.61300   61.76590    -999.25   -0.02730    5.19510    5.80600   -0.06280    0.04850    9.47580
 10350.00000    -999.25    -999.25    -999.25  -51.61160   50.42430   12.96740   25.79290   57.81680    -999.25    0.00250    3.60370   13.08610    0.06990    0.05050    9.56940
 10400.00000    -999.25    -999.25    -999.25  -60.21770   63.24450   19.40630   19.09050   60.06270    -999.25   -0.01250    3.60380   14.32240    0.05790    0.04580    9.24240
 10450.00000    -999.25    -999.25    -999.25  -63.48370   69.31200    7.33770    8.39850   61.00190    -999.25   -0.01000    3.63480    7.47850    0.05500    0.06970    9.88870
 10500.00000    -999.25    -999.25    -999.25  -60.77370   70.10370   15.07190   19.09030   59.59240    -999.25   -0.00260    4.36430   17.42290    0.04750    0.06170    9.17990
 10550.00000    -999.25    -999.25    -999.25  -95.85800   38.32320   22.91540   34.84080   56.99330    -999.25   -0.01470   10.00010   25.32850    0.08730    0.02220    9.11760
 10600.00000    -999.25    -999.25    -999.25  -83.40960   39.30870   29.33910   53.11890   54.73330    -999.25   -0.01320    5.47560   33.96850    0.06200    0.02450    9.24230
 10650.00000    -999.25    -999.25    -999.25 -100.68040   28.34290   24.22880   42.61840   68.12270    -999.25   -0.03980   10.06240   32.88340    0.10740    0.01690    8.74380
 10700.00000    -999.25    -999.25    -999.25  -90.85270   39.81940   29.32240   37.16910   57.33280    -999.25   -0.02190    5.42990   34.33960    0.10160    0.02550    8.94890
 10750.00000    -999.25    -999.25    -999.25  -94.55160   32.93780   20.36180   35.66160   59.05690    -999.25   -0.01940    7.44030   25.64660    0.09920    0.02320    8.99300
 10800.00000    -999.25    -999.25    -999.25  -89.76650   47.27160   22.42830   25.12360   58.49530    -999.25   -0.03200    6.24400   24.94890    0.06570    0.03690    9.02420
 10850.00000    -999.25    -999.25    -999.25  -77.66350   43.50740   16.01800   42.27310   57.39850    -999.25   -0.09310    9.98300   19.15460    0.10930    0.03340    8.86840
 10900.00000    -999.25    -999.25    -999.25  -98.55400   41.88400   15.56470   24.01690   59.74920    -999.25   -0.13580    6.35330   16.82310    0.14210    0.03530    9.04490
 10950.00000    -999.25    -999.25    -999.25  -68.54890   77.57010   14.80490   15.76850   60.58510    -999.25   -0.05190    8.37730   18.54240    0.07590    0.08470    9.08640
 11000.00000    -999.25    -999.25    -999.25  -73.74810   51.61590   31.97150   44.25250   57.39840    -999.25   -0.02410    4.75280   33.60330    0.06260    0.04270    9.10460
 11050.00000    -999.25    -999.25    -999.25  -90.54460   26.47900   34.71620   58.82850   55.51720    -999.25   -0.00690    3.07330   35.46960    0.08990    0.02060    9.14880
 11100.00000    -999.25    -999.25    -999.25  -96.84310   31.87790   25.24050   39.81300   55.83070    -999.25   -0.00280    7.77330   27.49200    0.10860    0.02820    9.22400
 11150.00000    -999.25    -999.25    -999.25  -77.18320   49.72900   23.16290   38.58940   55.62160    -999.25   -0.00380    5.24280   23.63310    0.06910    0.05510    8.96180
 11200.00000    -999.25    -999.25    -999.25  -60.03680   75.86890   13.83050   17.33190   61.47340    -999.25   -0.01790    4.40510   15.09650    0.05510    0.08060    9.19030
 11250.00000    -999.25    -999.25    -999.25  -59.38710   41.45790   20.07080   38.79370   60.37470    -999.25   -0.17780    9.97250   17.56720    0.10780    0.04650    9.00860
 11300.00000    -999.25    -999.25    -999.25  -75.76980   40.68780   25.24110   40.78530   57.59400    -999.25   -0.01470    3.60360   26.75910    0.08640    0.02610    9.33570
 11350.00000    -999.25    -999.25    -999.25  -46.53190   65.40900   10.12820   14.75160   62.41370    -999.25    0.01020    3.82220   12.29600    0.05280    0.06100    9.79790
 11400.00000    -999.25    -999.25    -999.25  -57.08420   27.70480   41.85720   88.72030   55.36050    -999.25   -0.02730    3.64440   39.09640    0.09980    0.00960    9.12020
 11450.00000    -999.25    -999.25    -999.25  -43.74930   55.52530   22.18930   24.17980   58.29960    -999.25   -0.02880    3.23120   24.82850    0.07980    0.03080    9.05750
 11500.00000    -999.25    -999.25    -999.25  -51.87180   57.53480   12.42190   20.76340   58.02510    -999.25   -0.00380    2.75020   15.93590    0.08790    0.04730    9.11760
 11550.00000    -999.25    -999.25    -999.25  -51.36220   44.53450   28.50090   63.13790   57.97280    -999.25   -0.00060    3.11280   38.52160    0.09340    0.02670    8.93080
 11600.00000    -999.25    -999.25    -999.25  -35.93750   82.25770    9.49570   16.20450   64.03340    -999.25   -0.07590    3.49970   12.98020    0.08250    0.07150    9.25520
 11650.00000    -999.25    -999.25    -999.25  -29.68650   89.98000    7.43650   10.16250   58.07060    -999.25    0.00510   10.00650    7.31830    0.02180    0.05240   10.01580
 11700.00000    -999.25    -999.25    -999.25  -28.12500   85.20090   13.34740   21.88890   61.22500    -999.25   -0.00060    2.88610   15.26460    0.05730    0.05600    8.96180
