~Version ---------------------------------------------------
VERS.      2.0 : CWLS log ASCII Standard -VERSION 2.0
WRAP.      YES : Multiple lines per depth step
CREA. 03/04/13 : LAS Creation Date
~Well ------------------------------------------------------
STRT.FT                 1400.0 : START DEPTH
STOP.FT                10150.0 : STOP DEPTH
STEP.FT               50.00000 : STEP LENGTH
NULL.                  -999.25 : NULL VALUE
COMP.     TXO PRODUCTION CORP. : COMPANY
WELL.               GUEST A #1 : WELL
FLD .               BEAR GRASS : FIELD
LOC .                          : LOCATION
CNTY.                     LEON : COUNTY
STAT.                    TEXAS : STATE
CTRY. UNITED STATES OF AMERICA : COUNTRY
SRVC.            Dresser Atlas : SERVICE COMPANY
DATE.              30-Oct-1981 : LOGDATE
API .           42289304700000 : API NUMBER
UWI .           42289304700000 : UNIQUE WELL ID
SLAT.WGS84        31.355337108 : SURFACE LATITUDE
SLON.WGS84       -96.287476523 : SURFACE LONGITUDE
~Curve Information -----------------------------------------
DEPT    .FT    : DEPTH FEET
ACED    .US/F  : ACOUSTIC FROM SONIC LOG
CALDED  .IN    : CALIPER FROM DENSITY LOG
CALSED  .IN    : CALIPER FROM SONIC LOG [ADJ. TO CALDED]
CALWS   .IN    : CALIPER [CALSED]
CNLSED  .V/V   : COMPENSATED NEUTRON POROSITY LIME FROM DENSITY LOG
CONDWS  .MMHO  : CONDUCTIVITY [1000/DRESWS]
CORRED  .G/C3  : DENSITY CORRECTION FROM DENSITY LOG
DCORWS  .G/C3  : DENSITY CORRECTION [CORRED]
DENED   .G/C3  : COMPENSATED BULK DENSITY FROM DENSITY LOG
DENWS   .G/C3  : FORMATION BULK DENSITY [DENED]
DPOWS   .V/V   : DENSITY POROSITY LIME [PORDLSED]
DRESWS  .OHMM  : DEEP RESISTIVITY [RILDED]
DTWS    .US/F  : COMPRESSIONAL SONIC [ACED]
GR1ED   .GAPI  : GAMMA RAY FROM CBL LOG [ADJ. TO GRDED]
GRDED   .GAPI  : GAMMA RAY FROM DENSITY LOG
GRED    .GAPI  : GAMMA RAY FROM CBL LOG [ADJ. TO GRDED]
GRSED   .GAPI  : GAMMA RAY FROM SONIC LOG [ADJ. TO GRDED]
GRWS    .GAPI  : GAMMA RAY [GRED SPL. TO GRDED 2138'- 2296' & 10100.5-10122']
MRESWS  .OHMM  : MEDIUM RESISTIVITY [RILMED]
NPOWS   .V/V   : NEUTRON POROSITY LIME [CNLSED]
PORDLSED.V/V   : DENSITY POROSITY LIME [M=2.71, F=1.0] FROM DENSITY LOG
RFOCED  .OHMM  : SHALLOW FOCUSED RESISTIVITY FROM RESISTIVITY LOG
RILDED  .OHMM  : DEEP INDUCTION RESISTIVITY FROM RESISTIVITY LOG
RILMED  .OHMM  : MEDIUM INDUCTION RESISTIVITY FROM RESISITIVITY LOG
SPRED   .MV    : SPONTANEOUS POTENTIAL FROM RESISTIVITY LOG
SPSED   .MV    : SPONTANEOUS POTENTIAL FROM SONIC LOG [ADJ. TO SPRED]
SPWS    .MV    : SPONATNEOUS POTENTIAL [BASELINE 0 MV, SPRED]
SRESWS  .OHMM  : SHALLOW RESISTIVITY [RFOCED]
TENDED  .LBF   : TENSION FROM DENSITY LOG
TENRED  .LBF   : TENSION FROM RESISTIVITY LOG
TENSED  .LBF   : TENSION FROM SONIC LOG
~Params ----------------------------------------------------
PD  .                     GL : PERMANENT DATUM
EPD .FT                  418 : ELEVATION PERMANENT DATUM
LMF .                     KB : LOG MEASURED FROM
DAPD.FT                   23 : FEET ABOVE PERMANENT DATUM
DMF .                     KB : DRILLING MEASURED FROM
EKB .FT                  441 : KELLY BUSHING
EDF .FT                  440 : DRILLING FLOOR
EGL .FT                  418 : GROUND LEVEL
DATE.               10/30/81 : RUN DATE
RUN .                      2 : RUN NUMBER
DD  .FT                10174 : DEPTH DRILLER
DL  .FT                10156 : DEPTH LOGGER
BLI .FT                10154 : BOTTOM LOG INTERVAL
TLI .FT                 9800 : TOP LOG INTERVAL
CS  .IN                8.625 : CASING SIZE
CBD .FT                 1350 : CASING BOTTOM DRILLER
BS  .IN                7.875 : BIT SIZE
BSD .FT                10174 : BIT SIZE AT DEPTH
DFT .                  LIGNO : DRILLING FLUID TYPE
DFD .                     10 : DRILLING FLUID DENSITY
DFPH.                     10 : DRILLING FLUID PH
DFL .                   10.5 : DRILLING FLUID LOSS
MSS .               FLOWLINE : MUD SAMPLE SOURCE
RMS .OHMM               1.48 : RESISTIVITY MUD SAMPLE
MST .DEGF                 90 : MUD SAMPLE TEMPERATURE
RMF .OHMM               1.11 : RESISTIVITY MUD FILTRATE SAMPLE
MFST.DEGF                 90 : MUD FILTRATE SAMPLE TEMPERATURE
RMC .OHMM               1.85 : RESISTIVITY MUD CAKE
MCST.DEGF                 90 : MUD CAKE SAMPLE TEMPERATURE
MFSS.                      C : MUD FILTRATE SAMPLE SOURCE
MCSS.                      C : MUD CAKE SAMPLE SOURCE
RMB .OHMM               0.51 : RESISTIVITY MUD AT BHT
TCS .HRS                 600 : TIME CIRCULATED STOPPED
LUN .                   6335 : LOGGING UNIT NUMBER
LUL .                  TYLER : LOGGING UNIT LOCATION
ENGI.                  BANKS : RECORDING ENGINEER
WITN.                  WYNNE : WITNESSED BY
CLNT.                A2DTECH : CLIENT CODE
ORIG.            2" 5" PRINT : ORIGIN OF DATA
UWI .         42289304700000 : UNIQUE WELL ID
DICO. A2D Technologies, Inc. : DIGITIZING COMPANY
~Other -----------------------------------------------------
TOOL RUN: CBL-DIL-SFL-CNFD-SONIC
~ASCII -----------------------------------------------------
# ...
 6000.00000   58.64040   10.59430   10.51590   10.51590    0.03680   83.81040   -0.02890   -0.02890    2.63190    2.63190    0.04420   11.93170   58.64040   32.47500   26.77800   37.62980   20.86820   26.77800   12.14920    0.03680    0.04420   12.07120   11.93170   12.14920  -80.20020  -58.96220  -11.69720   12.07120    2.33650    5.28750   -4.24900
 6050.00000   62.25890   10.90960   11.31960   11.31960    0.05630  128.32850    0.00370    0.00370    2.64490    2.64490    0.03630    7.79250   62.25890   39.31160   39.33050   39.99350   30.63430   39.33050    9.31700    0.05630    0.03630    7.32170    7.79250    9.31700  -76.40350  -54.07990   -7.90050    7.32170    1.89600   -1.24500   -4.37960
 6100.00000   58.75960   10.50830   10.43590   10.43590    0.04580  114.66570   -0.05450   -0.05450    2.63180    2.63180    0.04370    8.72100   58.75960   37.56410   35.75370   36.77220   26.65130   35.75370   11.26220    0.04580    0.04370    7.55020    8.72100   11.26220  -81.11590  -60.20720  -12.61290    7.55020    8.80000    3.12010    0.27330
 6150.00000   61.76440   11.36350   11.00840   11.00840    0.05140   99.67700   -0.02890   -0.02890    2.66210    2.66210    0.02500   10.03240   61.76440   45.25140   44.69080   52.14590   35.57690   44.69080   11.32820    0.05140    0.02500   10.13150   10.03240   11.32820  -72.26910  -52.21900   -3.76610   10.13150    3.81790   -7.03110   -4.21170
 6200.00000   88.65270   11.91400   12.35800   12.35800    0.13590  295.42100    0.05860    0.05860    2.47330    2.47330    0.12700    3.38500   88.65270   42.46000   88.44640   41.42930   69.71440   88.44640    4.09480    0.13590    0.12700    5.39970    3.38500    4.09480  -71.61140  -51.82250   -3.14180    5.39970    3.03220   -2.70740   -0.85910
 6250.00000   57.35170   10.32490   10.21780   10.21780    0.02200   49.60420   -0.02360   -0.02360    2.68930    2.68930    0.01130   20.15960   57.35170   49.53550   48.84360   39.02050   29.60830   48.84360   22.08450    0.02200    0.01130   24.96180   20.15960   22.08450  -89.99860  -68.60460  -22.36460   24.96180    3.89610   -1.17250    6.90960
 6300.00000   71.19420   11.14910   11.07150   11.07150    0.11930  253.78130    0.07400    0.07400    2.51310    2.51310    0.11500    3.94040   71.19420   45.48480   77.07240   52.64030   55.73900   77.07240    4.49160    0.11930    0.11500    7.62480    3.94040    4.49160  -69.90200  -47.65000   -3.10350    7.62480    6.05390    7.44050    4.95210
 6350.00000   83.51340   11.27200   11.59730   11.59730    0.15390  356.51890    0.10540    0.10540    2.47990    2.47990    0.13490    2.80490   83.51340   48.96510   84.95630   52.82190   62.87130   84.95630    3.49180    0.15390    0.13490    4.36610    2.80490    3.49180  -67.59250  -43.84890   -1.67010    4.36610    0.69810    0.68480   -3.94850
 6400.00000   60.65780   10.88980   10.64400   10.64400    0.07510  116.94950   -0.01820   -0.01820    2.65610    2.65610    0.02910    8.55070   60.65780    -999.25   56.28650    -999.25   47.68600   56.28650    8.74080    0.07510    0.02910    9.81830    8.55070    8.74080  -70.37150  -46.86810   -6.63600    9.81830   -1.88990    1.58830    8.89520
 6450.00000   76.67040   12.18520   11.83650   11.83650    0.18090  495.27020    0.12380    0.12380    2.38340    2.38340    0.19090    2.01910   76.67040    -999.25   63.48600    -999.25   55.51130   63.48600    2.13430    0.18090    0.19090    3.34490    2.01910    2.13430  -66.57390  -45.88170   -2.83060    3.34490   -1.63730   -4.87690    6.06800
 6500.00000   93.90620   14.16930   14.63010   14.63010    0.25810  562.65120    0.17110    0.17110    2.27920    2.27920    0.25190    1.77730   93.90620    -999.25   79.05060    -999.25   69.41170   79.05060    1.97490    0.25810    0.25190    2.49990    1.77730    1.97490  -68.23770  -45.11040   -4.18730    2.49990   -0.84830    7.93220    3.78110
 6550.00000   63.40760    9.94630   10.03320   10.03320    0.05770  100.38650   -0.03130   -0.03130    2.66420    2.66420    0.02350    9.96150   63.40760    -999.25   55.72090    -999.25   43.94370   55.72090   12.75970    0.05770    0.02350   12.31120    9.96150   12.75970  -69.88110  -45.41320   -5.62090   12.31120   -3.27740    2.91150    3.07140
 6600.00000   59.72790   10.23800    9.97940    9.97940    0.05840  131.97140   -0.05400   -0.05400    2.63970    2.63970    0.04110    7.57740   59.72790    -999.25   47.79060    -999.25   39.21880   47.79060    9.40430    0.05840    0.04110   14.84570    7.57740    9.40430  -66.02580  -43.81300   -2.10650   14.84570  -12.83450   -1.46480    8.91770
 6650.00000   88.53720   13.72060   13.63080   13.63080    0.21290  797.13030    0.17240    0.17240    2.00150    2.00150    0.45500    1.25450   88.53720    -999.25   70.64780    -999.25   50.71080   70.64780    1.27160    0.21290    0.45500    2.59640    1.25450    1.27160  -67.81850  -42.59890   -4.24020    2.59640  178.68330   -1.86040   -6.29470
 6700.00000   96.38400   14.56320   14.08390   14.08390    0.25280  780.33550    0.15620    0.15620    -999.25    -999.25    0.47690    1.28150   96.38400    -999.25   67.92740    -999.25   57.94690   67.92740    1.33930    0.25280    0.47690    2.78690    1.28150    1.33930  -67.28210  -43.08110   -4.04480    2.78690    0.11650   -3.71880    3.58140
 6750.00000   89.53650   11.96600   12.13260   12.13260    0.19110  370.60370    0.19180    0.19180    2.11510    2.11510    0.34780    2.69830   89.53650    -999.25   55.90400    -999.25   46.19230   55.90400    2.61320    0.19110    0.34780    2.52830    2.69830    2.61320  -64.66870  -40.32690   -1.77230    2.52830   13.90340   -1.48640   -1.44760
 6800.00000   60.11320   10.65200   10.80020   10.80020    0.09390  272.44240    0.00120    0.00120    2.56520    2.56520    0.08480    3.67050   60.11320    -999.25   54.37370    -999.25   38.70050   54.37370    4.21870    0.09390    0.08480    4.43900    3.67050    4.21870  -65.86610  -44.17210   -3.31070    4.43900    8.16210   -6.68290  -11.36830
 6850.00000   56.39190   10.29690   10.18920   10.18920    0.03330   79.65080   -0.01810   -0.01810    2.66740    2.66740    0.02490   12.55480   56.39190    -999.25   34.32940    -999.25   25.60720   34.32940   14.80450    0.03330    0.02490   11.24290   12.55480   14.80450  -70.26070  -48.04590   -8.04620   11.24290    7.85830    8.32930    2.02160
 6900.00000   60.64610   10.68400   10.11840   10.11840    0.02520   51.20510   -0.02010   -0.02010    2.68990    2.68990    0.01030   19.52930   60.64610    -999.25   42.30780    -999.25   32.72390   42.30780   25.54270    0.02520    0.01030   23.21820   19.52930   25.54270  -68.44700  -47.77780   -6.57350   23.21820    0.84900    2.49650   -4.77450
 6950.00000   59.84960   10.80040   10.79280   10.79280    0.04540  144.66550   -0.03640   -0.03640    2.66040    2.66040    0.02780    6.91250   59.84960    -999.25   43.57830    -999.25   33.35950   43.57830    7.34360    0.04540    0.02780    7.70100    6.91250    7.34360  -67.67020  -45.07650   -6.13760    7.70100   -0.36200    3.76250   -3.30550
 7000.00000   51.72970   10.56320   10.64000   10.64000    0.03960  100.07610    0.00540    0.00540    2.68490    2.68490    0.01340    9.99240   51.72970    -999.25   55.13220    -999.25   38.73460   55.13220   10.82730    0.03960    0.01340    9.00340    9.99240   10.82730  -66.95880  -46.21460   -5.76720    9.00340    0.87570    4.65670   -2.62940
 7050.00000   68.85610   10.60170   10.36180   10.36180    0.04370  140.57580   -0.05170   -0.05170    2.65040    2.65040    0.03320    7.11360   68.85610    -999.25   42.69050    -999.25   38.63780   42.69050    7.56550    0.04370    0.03320   10.72280    7.11360    7.56550  -65.55960  -42.42880   -4.70890   10.72280    4.53130    2.88440   -9.81290
 7100.00000   85.55070   13.83070   14.15530   14.15530    0.23710  698.66550    0.23500    0.23500    2.23190    2.23190    0.27960    1.43130   85.55070    -999.25   83.65560    -999.25   66.91500   83.65560    1.57730    0.23710    0.27960    2.66930    1.43130    1.57730  -66.06250  -42.27570   -5.55280    2.66930   -3.57630   -0.39910   -4.57140
