~Version ---------------------------------------------------
VERS. 2.0 : CWLS log ASCII Standard -VERSION 2.0
WRAP. YES : MULTIPLE LINES PER DEPTH STEP
~Well ------------------------------------------------------
STRT.FT                   3900.0 : START DEPTH
STOP.FT                   7900.0 : STOP DEPTH
STEP.FT                 50.00000 : STEP LENGTH
NULL.                    -999.25 : NULL VALUE
COMP. CHAMPLIN PETROLEUM COMPANY : COMPANY
WELL.        MELVIN M. HRONEK #1 : WELL
FLD .                   GIDDINGS : FIELD
LOC .                            : LOCATION
CNTY.                   BURLESON : COUNTY
STAT.                      TEXAS : STATE
CTRY.   UNITED STATES OF AMERICA : COUNTRY
SRVC.               Schlumberger : SERVICE COMPANY
DATE.                08-Jul-1980 : LOGDATE
API .             42051308330000 : API NUMBER
UWI .             42051308330000 : UNIQUE WELL ID
SLAT.WGS84         30.5404535436 : SURFACE LATITUDE
SLON.WGS84        -96.6440104121 : SURFACE LONGITUDE
~Curve Information -----------------------------------------
DEPT    .FT    : DEPTH FEET
CALDED  .IN    : CALIPER FROM CNFL [DEPTH ADJ. TO GRR.]
CALWS   .IN    : CALIPER [CALDED]
CONDWS  .MMHO  : CONDUCTIVITY [1000/DRESWS]
DCORWS  .G/C3  : DENSITY CORRECTION [DRHOED]
DENWS   .G/C3  : BULK DENSITY [M=2.71 F=1.0] [RHOBED]
DPHILSED.V/V   : DENSITY POROSITY [M=2.71 F=1.0] FROM CNFL [DEPTH ADJ. TO GRR.]
DPOWS   .V/V   : DENSITY POROSITY [M=2.71 F=1.0] [CALCULATED FROM DENWS]
DRESWS  .OHMM  : DEEP RESISTIVITY [ILDED]
DRHOED  .G/C3  : DENSITY CORRECTION FROM DENSITY LOG
DTED    .US/F  : DELTA TIME FROM DUAL INDUCTION SFL -SONIC LOG
DTWS    .US/F  : DELTA TIME [DTED]
GRDED   .GAPI  : GAMMA RAY FROM CNFL [DEPTH ADJ. TO GRR.]
GRRED   .GAPI  : GAMMA RAY FROM DUAL INDUCTION SFL -SONIC LOG
GRWS    .GAPI  : GAMMA RAY [GRDED]
ILDED   .OHMM  : INDUCTION LOG DEEP FROM DUAL INDUCTION SFL -SONIC LOG
ILMED   .OHMM  : INDUCTION LOG MEDIUM FROM DUAL INDUCTION SFL -SONIC LOG
MRESWS  .OHMM  : MEDIUM RESISTIVITY [ILMED]
NPHILSED.V/V   : NEUTRON POROSITY LIMESTONE FROM CNFL [DEPTH ADJ. TO GRR.]
NPOWS   .V/V   : NEUTRON POROSITY LIMESTONE [NPHILSED]
RHOBED  .G/C3  : BULK DENSITY FROM CNFL [DEPTH ADJ. TO GRR.]
SFLUED  .OHMM  : SPHERICALLY FOCUSED FROM DUAL INDUCTION SFL -SONIC LOG
SPHILSED.V/V   : SONIC POROSITY FROM DENSITY SONIC LOG [DEPTH ADJ. TO GRR.]
SPOWS   .V/V   : SONIC POROSITY [SPHIED]
SPRED   .MV    : SPONTANEOUS POTENTIAL FROM DUAL INDUCTION SFL -SONIC LOG
SPWS    .MV    : SPONTANEOUS POTENTIAL [BASELINE 0 MV] [SPRED]
SRESWS  .OHMM  : SHALLOW RESISTIVITY [SFLUED]
~Params ----------------------------------------------------
PD  .                     GL : PERMANENT DATUM
EPD .FT                  404 : ELEVATION PERMANENT DATUM
LMF .                     KB : LOG MEASURED FROM
DAPD.FT                   14 : FEET ABOVE PERMANENT DATUM
DMF .                     KB : DRILLING MEASURED FROM
EKB .FT                  418 : KELLY BUSHING
EDF .FT                  417 : DRILLING FLOOR
EGL .FT                  404 : GROUND LEVEL
DATE.               07/08/80 : RUN DATE
RUN .                      1 : RUN NUMBER
DD  .FT                 7958 : DEPTH DRILLER
DL  .FT                 7938 : DEPTH LOGGER
BLI .FT                 7932 : BOTTOM LOG INTERVAL
TLI .FT                 3892 : TOP LOG INTERVAL
CS  .IN                9.625 : CASING SIZE
CBD .FT                 3910 : CASING BOTTOM DRILLER
CBL .FT                 3892 : CASING BOTTOM LOGGER
BS  .IN                 8.75 : BIT SIZE
BSD .FT                 7958 : BIT SIZE AT DEPTH
DFT .               BROCK WL : DRILLING FLUID TYPE
DFD .                    9.7 : DRILLING FLUID DENSITY
DFV .                     40 : DRILLING FLUID VISCOSITY
DFPH.                    8.5 : DRILLING FLUID PH
DFL .                   0.15 : DRILLING FLUID LOSS
MSS .                   TANK : MUD SAMPLE SOURCE
RMS .OHMM               2.44 : RESISTIVITY MUD SAMPLE
MST .DEGF                 79 : MUD SAMPLE TEMPERATURE
RMF .OHMM                2.1 : RESISTIVITY MUD FILTRATE SAMPLE
MFST.DEGF                 75 : MUD FILTRATE SAMPLE TEMPERATURE
RMC .OHMM               3.66 : RESISTIVITY MUD CAKE
MCST.DEGF                 79 : MUD CAKE SAMPLE TEMPERATURE
MFSS.                      M : MUD FILTRATE SAMPLE SOURCE
MCSS.                      C : MUD CAKE SAMPLE SOURCE
RMB .OHMM               0.98 : RESISTIVITY MUD AT BHT
TCS .HRS                 100 : TIME CIRCULATED STOPPED
TLAB.HRS                 530 : TIME LOGGER AT BOTTOM
LUN .                   7750 : LOGGING UNIT NUMBER
LUL .                BRENHAM : LOGGING UNIT LOCATION
ENGI.                 HARRIS : RECORDING ENGINEER
WITN.                 SCHELL : WITNESSED BY
CLNT.                A2DTECH : CLIENT CODE
ORIG.            2" 5" PRINT : ORIGIN OF DATA
UWI .         42051308330000 : UNIQUE WELL ID
DICO. A2D Technologies, Inc. : DIGITIZING COMPANY
~Other -----------------------------------------------------
~ASCII -----------------------------------------------------
# ...
 5250.00000    -999.25    -999.25  633.75370    -999.25    -999.25    -999.25    -999.25    1.57790    -999.25  100.29770  100.29770    -999.25   77.29170  100.29770    1.57790    1.65820    1.65820    -999.25    -999.25    -999.25    1.79160    -999.25    -999.25  -10.17180   -4.38930    1.79160
 5300.00000    -999.25    -999.25  618.81190    -999.25    -999.25    -999.25    -999.25    1.61600    -999.25   99.78100   99.78100    -999.25   75.64790   99.78100    1.61600    1.68910    1.68910    -999.25    -999.25    -999.25    1.50630    -999.25    -999.25   -8.15240   -2.80660    1.50630
 5350.00000    -999.25    -999.25  603.02720    -999.25    -999.25    -999.25    -999.25    1.65830    -999.25   92.76490   92.76490    -999.25   68.38310   92.76490    1.65830    1.72150    1.72150    -999.25    -999.25    -999.25    1.76190    -999.25    -999.25   -8.82360   -3.91450    1.76190
 5400.00000    -999.25    -999.25  558.90900    -999.25    -999.25    -999.25    -999.25    1.78920    -999.25   91.14310   91.14310    -999.25   61.83020   91.14310    1.78920    1.82850    1.82850    -999.25    -999.25    -999.25    1.87980    -999.25    -999.25  -14.07280   -9.60040    1.87980
 5450.00000    -999.25    -999.25  636.53720    -999.25    -999.25    -999.25    -999.25    1.57100    -999.25   91.74880   91.74880    -999.25   77.93640   91.74880    1.57100    1.63470    1.63470    -999.25    -999.25    -999.25    1.73520    -999.25    -999.25   -4.87100   -0.83530    1.73520
 5500.00000    -999.25    -999.25  867.75430    -999.25    -999.25    -999.25    -999.25    1.15240    -999.25  101.88910  101.88910    -999.25  100.35800  101.88910    1.15240    1.18860    1.18860    -999.25    -999.25    -999.25    1.22910    -999.25    -999.25   -4.95550   -1.86960    1.22910
 5550.00000    -999.25    -999.25  745.99030    -999.25    -999.25    -999.25    -999.25    1.34050    -999.25   96.44750   96.44750    -999.25   86.08000   96.44750    1.34050    1.39690    1.39690    -999.25    -999.25    -999.25    1.51420    -999.25    -999.25   -4.27730   -2.17390    1.51420
 5600.00000    -999.25    -999.25  743.32860    -999.25    -999.25    -999.25    -999.25    1.34530    -999.25   95.20330   95.20330    -999.25   82.18090   95.20330    1.34530    1.38930    1.38930    -999.25    -999.25    -999.25    1.66930    -999.25    -999.25   -6.41110   -5.29030    1.66930
 5650.00000    -999.25    -999.25 1226.84330    -999.25    -999.25    -999.25    -999.25    0.81510    -999.25  112.00430  112.00430    -999.25  103.27630  112.00430    0.81510    0.84640    0.84640    -999.25    -999.25    -999.25    0.92950    -999.25    -999.25   -1.90710   -1.67800    0.92950
 5700.00000    -999.25    -999.25  708.31560    -999.25    -999.25    -999.25    -999.25    1.41180    -999.25  101.50670  101.50670    -999.25  100.46230  101.50670    1.41180    1.46470    1.46470    -999.25    -999.25    -999.25    1.53440    -999.25    -999.25   -3.73030   -3.72670    1.53440
 5750.00000    -999.25    -999.25  530.56030    -999.25    -999.25    -999.25    -999.25    1.88480    -999.25   89.69490   89.69490    -999.25   78.29680   89.69490    1.88480    1.94130    1.94130    -999.25    -999.25    -999.25    2.15340    -999.25    -999.25   -3.84260   -4.06460    2.15340
 5800.00000    -999.25    -999.25  571.06960    -999.25    -999.25    -999.25    -999.25    1.75110    -999.25   92.64370   92.64370    -999.25   81.78000   92.64370    1.75110    1.78960    1.78960    -999.25    -999.25    -999.25    1.85930    -999.25    -999.25   -5.17230   -5.61990    1.85930
 5850.00000    -999.25    -999.25  597.80010    -999.25    -999.25    -999.25    -999.25    1.67280    -999.25   93.97350   93.97350    -999.25   83.13870   93.97350    1.67280    1.72340    1.72340    -999.25    -999.25    -999.25    1.82090    -999.25    -999.25   -5.54150   -6.21470    1.82090
 5900.00000    -999.25    -999.25  604.26610    -999.25    -999.25    -999.25    -999.25    1.65490    -999.25   95.06160   95.06160    -999.25   76.87130   95.06160    1.65490    1.69720    1.69720    -999.25    -999.25    -999.25    1.94330    -999.25    -999.25   -5.36630   -6.26510    1.94330
 5950.00000    -999.25    -999.25  678.47210    -999.25    -999.25    -999.25    -999.25    1.47390    -999.25   96.40570   96.40570    -999.25   86.08660   96.40570    1.47390    1.51970    1.51970    -999.25    -999.25    -999.25    1.64120    -999.25    -999.25   -2.86360   -3.98790    1.64120
 6000.00000   10.98500   10.98500  654.79310    0.12210    2.47500    0.13580    0.13740    1.52720    0.12210   96.00200   96.00200   80.19380   76.39100   96.00200    1.52720    1.58880    1.58880    0.28120    0.28120    2.47500    1.65180    -999.25    -999.25   -3.80180   -5.15170    1.65180
 6050.00000   12.35680   12.35680  933.09690    0.10370    2.25510    0.26410    0.26600    1.07170    0.10370  105.47930  105.47930   98.40900   92.70760  105.47930    1.07170    1.11520    1.11520    0.36010    0.36010    2.25510    1.19930    -999.25    -999.25   -5.11700   -6.69250    1.19930
 6100.00000   11.35120   11.35120  582.41120    0.07950    2.47590    0.13770    0.13690    1.71700    0.07950   92.44830   92.44830   89.96940   80.41050   92.44830    1.71700    1.78880    1.78880    0.25320    0.25320    2.47590    2.01700    -999.25    -999.25   -3.36860   -5.16970    2.01700
 6150.00000   10.77470   10.77470  730.35350    0.19150    2.47420    0.13850    0.13790    1.36920    0.19150   98.76890   98.76890   89.76020   82.76090   98.76890    1.36920    1.42570    1.42570    0.28850    0.28850    2.47420    1.63260    -999.25    -999.25   -7.66880   -9.69550    1.63260
 6200.00000    9.73380    9.73380  381.41730   -0.00160    2.56530    0.08510    0.08460    2.62180   -0.00160   83.89160   83.89160   60.75270   63.99760   83.89160    2.62180    2.73530    2.73530    0.17390    0.17390    2.56530    2.76650    -999.25    -999.25   -0.40580   -2.65800    2.76650
 6250.00000    9.67450    9.67450  314.34680   -0.00300    2.55920    0.08780    0.08820    3.18120   -0.00300   74.43420   74.43420   41.29590   34.32090   74.43420    3.18120    3.30600    3.30600    0.11570    0.11570    2.55920    3.98540    -999.25    -999.25   -7.98070  -10.45850    3.98540
 6300.00000    9.69370    9.69370  313.70580   -0.00390    2.56920    0.08110    0.08230    3.18770   -0.00390   78.40100   78.40100   50.49680   49.56600   78.40100    3.18770    3.25980    3.25980    0.14750    0.14750    2.56920    3.52250    -999.25    -999.25   -0.29840   -3.00180    3.52250
 6350.00000    9.51620    9.51620  248.05890   -0.00560    2.56410    0.08470    0.08530    4.03130   -0.00560   72.92470   72.92470   46.36380   38.92280   72.92470    4.03130    4.21260    4.21260    0.11780    0.11780    2.56410    5.50610    -999.25    -999.25  -10.42380  -13.35280    5.50610
 6400.00000    9.59650    9.59650  478.83550    0.04980    2.52530    0.10870    0.10800    2.08840    0.04980   88.73730   88.73730   83.65400   81.05770   88.73730    2.08840    2.16370    2.16370    0.22430    0.22430    2.52530    2.23890    -999.25    -999.25    0.86650   -2.42370    2.23890
 6450.00000    9.59920    9.59920  380.24260    0.03360    2.56110    0.08980    0.08710    2.62990    0.03360   78.43650   78.43650   74.81520   61.13600   78.43650    2.62990    2.83370    2.83370    0.14290    0.14290    2.56110    3.83510    -999.25    -999.25   -4.73180   -8.65870    3.83510
 6500.00000    9.65730    9.65730  347.10170    0.01680    2.56760    0.08230    0.08330    2.88100    0.01680   82.12850   82.12850   72.21600   75.28810   82.12850    2.88100    2.95230    2.95230    0.16470    0.16470    2.56760    3.30790    -999.25    -999.25    3.06630   -1.49740    3.30790
 6550.00000    9.68210    9.68210  400.41640    0.05940    2.51750    0.11450    0.11260    2.49740    0.05940   85.10010   85.10010   84.50970   76.29430   85.10010    2.49740    2.57130    2.57130    0.21670    0.21670    2.51750    2.93340    -999.25    -999.25   -0.25520   -5.45560    2.93340
