~Version ---------------------------------------------------
VERS. 2.0 : CWLS log ASCII Standard -VERSION 2.0
WRAP.  NO : ONE LINE PER DEPTH STEP
~Well ------------------------------------------------------
STRT.F                    3850.0 : START DEPTH
STOP.F                    9650.0 : STOP DEPTH
STEP.F                  50.00000 : STEP LENGTH
NULL.                    -999.25 : NULL VALUE
COMP. CHAMPLIN PETROLEUM COMPANY : COMPANY
WELL.           TIEMAN DIPPLE #1 : WELL
FLD .                   GIDDINGS : FIELD
LOC .                            : LOCATION
CNTY.                   BURLESON : COUNTY
STAT.                      TEXAS : STATE
CTRY.   UNITED STATES OF AMERICA : COUNTRY
SRVC.              Dresser Atlas : SERVICE COMPANY
DATE.                08-Dec-1980 : LOGDATE
API .             42051310330000 : API NUMBER
UWI .             42051310330000 : UNIQUE WELL ID
SLAT.WGS84         30.3800390856 : SURFACE LATITUDE
SLON.WGS84        -96.6080194648 : SURFACE LONGITUDE
~Curve Information -----------------------------------------
DEPT.F                 : 
CN  .DEC  42 890 03 00 : COMPENSATED NEUTRON POROSITY
PORD.DEC  45 890 12 00 : DENSITY POROSITY
GRD .GAPI 45 310 01 00 : GAMMA RAY FROM DENSITY LOG
CORR.G/C3 45 356 01 00 : CORRELATION LOG
DEN .G/C3 45 350 01 00 : COMPENSATED BULK DENSITY
CALD.IN   45 280 60 00 : CALIPER FROM DENSITY LOG
AC  .US/F 60 500 00 00 : ACOUSTIC
SPR .MV   07 010 01 00 : SPONTANEOUS POTENTIAL FROM RESISTIVITY
RFOC.OHMM 07 220 06 00 : CALIBRATED REAL FOCUS
RILD.OHMM 07 120 46 00 : RAW DEEP RESISTIVITY
RILM.OHMM 07 120 44 00 : RAW MEDIUM RESISTIVITY
~Params ----------------------------------------------------
PD  .                     GL : PERMANENT DATUM
EPD .FT                  306 : ELEVATION PERMANENT DATUM
LMF .                     KB : LOG MEASURED FROM
DAPD.FT                   18 : FEET ABOVE PERMANENT DATUM
DMF .                     KB : DRILLING MEASURED FROM
EKB .FT                  324 : KELLY BUSHING
EDF .FT                  323 : DRILLING FLOOR
EGL .FT                  306 : GROUND LEVEL
DATE.               12/08/80 : RUN DATE
RUN .                      1 : RUN NUMBER
DD  .FT                 9710 : DEPTH DRILLER
BLI .FT                 9660 : BOTTOM LOG INTERVAL
TLI .FT                 3840 : TOP LOG INTERVAL
CS  .IN                9.625 : CASING SIZE
CBD .FT                 3850 : CASING BOTTOM DRILLER
CBL .FT                 3840 : CASING BOTTOM LOGGER
BS  .IN                 8.75 : BIT SIZE
BSD .FT                 9710 : BIT SIZE AT DEPTH
DFT .          BEN EX WL 100 : DRILLING FLUID TYPE
DFD .                    9.5 : DRILLING FLUID DENSITY
DFV .                     40 : DRILLING FLUID VISCOSITY
DFPH.                      9 : DRILLING FLUID PH
DFL .                    8.8 : DRILLING FLUID LOSS
MSS .               CIRC PIT : MUD SAMPLE SOURCE
RMS .OHMM               2.21 : RESISTIVITY MUD SAMPLE
MST .DEGF                 64 : MUD SAMPLE TEMPERATURE
RMF .OHMM               1.72 : RESISTIVITY MUD FILTRATE SAMPLE
MFST.DEGF                 68 : MUD FILTRATE SAMPLE TEMPERATURE
RMC .OHMM               2.65 : RESISTIVITY MUD CAKE
MCST.DEGF                 64 : MUD CAKE SAMPLE TEMPERATURE
MFSS.                   MEAS : MUD FILTRATE SAMPLE SOURCE
MCSS.                   MEAS : MUD CAKE SAMPLE SOURCE
RMB .OHMM               0.66 : RESISTIVITY MUD AT BHT
TCS .HRS                   8 : TIME CIRCULATED STOPPED
LUN .                   6245 : LOGGING UNIT NUMBER
LUL .                 LAREDO : LOGGING UNIT LOCATION
ENGI.       ANDERWS FAULKNER : RECORDING ENGINEER
WITN.                 KRAUHS : WITNESSED BY
CLNT.                A2DTECH : CLIENT CODE
ORIG.          1" 2.5" PRINT : ORIGIN OF DATA
UWI .         42051310330000 : UNIQUE WELL ID
DICO. A2D Technologies, Inc. : DIGITIZING COMPANY
~Other -----------------------------------------------------
~ASCII -----------------------------------------------------
# ...
 6900.00000    0.20400    0.26760   55.85020   -0.01420    2.22180   10.21500  101.78430  -76.25130    2.97080    3.10290    2.81400
 6950.00000    0.24740    0.18520   86.15160    0.07810    2.34520   10.30270   91.70210  -61.93720    2.01990    1.66450    1.71260
 7000.00000    0.27230    0.15000   88.88220   -0.03150    2.27170    8.89700   87.65280  -61.46050    1.96160    1.81560    1.86450
 7050.00000    0.29140    0.18380  102.62730    0.04570    2.35400   10.00140   75.72880  -58.64150    1.71110    1.35190    1.38850
 7100.00000    0.29150    0.21410   92.38920    0.04870    2.29490   11.11830   91.84820  -55.88120    1.85740    1.50740    1.55010
 7150.00000    0.25190    0.14770   98.02380    0.04880    2.40510   13.49120   93.32550  -57.47530    1.80750    1.54500    1.59310
 7200.00000    0.18500    0.14500  101.71180    0.06390    2.41690   13.98230   92.87960  -56.78710    1.97110    1.55700    1.59890
 7250.00000    0.26330    0.15550  110.20310    0.02830    2.39100   13.77170   97.28070  -56.25870    1.72990    1.30990    1.35230
 7300.00000    0.26030    0.15850   93.93360    0.04430    2.38820   12.82660   92.66050  -58.71940    1.85810    1.65490    1.70320
 7350.00000    0.27230    0.16210  101.42830    0.04330    2.38220   13.66350   57.80820  -58.05220    1.65680    1.30290    1.33790
 7400.00000    0.28360    0.16540  106.62140    0.04830    2.37780   13.07960   57.16660  -53.79320    1.67220    1.28070    1.31510
 7450.00000    0.24110    0.08680   98.59740    0.04860    2.50590   11.44310   49.85050  -52.46700    2.19660    1.95080    1.99760
 7500.00000    0.25890    0.10570   94.89470    0.03580    2.47750   11.95730   55.56720  -53.77770    2.00840    1.60830    1.67640
 7550.00000    0.27510    0.10400   98.55310    0.06950    2.47950   11.45710   70.47130  -51.67160    1.91040    1.81020    1.86320
 7600.00000    0.26260    0.13110   89.63290    0.09390    2.42900   10.27470   89.69310  -53.60630    2.02450    1.53020    1.49280
 7650.00000    0.24270    0.13890   99.78620   -0.03440    2.42160   10.80810   92.54950  -52.52470    2.09560    1.63330    1.68680
 7700.00000    0.25820    0.18770  165.18420    0.02200    2.34640   11.75380   63.97710  -54.55450    1.42610    1.32150    1.35710
 7750.00000    0.21580    0.15450  101.96480    0.07730    2.45640   12.10590   97.03900  -21.89650    1.73400    1.17060    1.20260
 7800.00000    0.21060    0.11770   87.22310    0.06180    2.50470   10.50750   89.53840  -20.80430    2.14480    2.26640    2.14120
 7850.00000    0.11360    0.10800   56.50070   -0.02660    2.52710    9.99900   75.66220  -24.48720    2.99440    3.12760    3.16580
 7900.00000    0.10470    0.11210   52.89990   -0.03930    2.51230    9.76490   72.27630  -27.09720    3.70370    3.55940    3.71370
 7950.00000    0.09220    0.08430   58.47650   -0.00620    2.58390    9.82110   73.01440  -26.66280    3.90580    4.04240    4.18930
 8000.00000    0.15660    0.10600   80.99050    0.01440    2.52730    9.68970   83.90330  -25.03790    2.94350    2.24270    2.33530
 8050.00000    0.18080    0.14270   89.83760    0.06460    2.45880    9.93080   85.60150  -22.15570    2.33820    1.85780    1.93680
 8100.00000    0.17030    0.15770   94.40130   -0.01190    2.43660    9.82520   85.65530  -22.82850    2.58720    2.21030    2.30110
 8150.00000    0.13490    0.10150   84.63140   -0.01390    2.51500    9.99690   78.02410  -22.70920    3.18010    2.89530    3.00910
 8200.00000    0.13460    0.08890   81.42640   -0.01410    2.54920    9.81470   78.17700  -22.04760    3.30270    3.20800    3.33940
 8250.00000    0.20920    0.13000   97.09650    0.07720    2.48640    9.81260   88.05160  -22.67500    2.39140    2.04380    2.13340
 8300.00000    0.14340    0.11290   85.96400    0.01660    2.51740    9.89310   84.69690  -23.50040    2.95170    2.55450    2.69900
 8350.00000    0.18640    0.12710   95.34950    0.06920    2.48880   10.04670   89.09140  -21.84140    2.43350    1.91720    2.02390
 8400.00000    0.18920    0.15140  100.81050    0.06690    2.45060   10.03070   87.30320  -20.04830    2.29610    1.91200    1.99100
 8450.00000    0.22670    0.14880  100.64070    0.08790    2.46170    9.49010   90.72560  -22.44380    2.31110    1.87100    1.94410
 8500.00000    0.21730    0.13700   92.98770    0.02510    2.47700    9.40240   86.15350  -21.94730    2.36900    1.93670    2.01350
 8550.00000    0.22540    0.17610   95.97990    0.14490    2.41990    9.89180   89.82440  -22.40610    2.10720    1.59430    1.69630
 8600.00000    0.20800    0.12900  104.65100    0.04730    2.49050    9.71840   89.82000  -21.56510    2.18990    1.69910    1.76580
 8650.00000    0.22610    0.17290  102.79700    0.07430    2.41620    9.74030   88.84120  -21.86290    2.19760    1.69850    1.78210
 8700.00000    0.23280    0.14230   99.99500    0.08450    2.46940    9.89120   91.91690  -19.74920    2.04390    1.51200    1.57130
 8750.00000    0.21980    0.19500  105.79850    0.01270    2.37540    9.46660   90.86220  -18.70430    2.02630    1.62510    1.68850
 8800.00000    0.22150    0.10610  107.18440    0.04170    2.52780    9.22140   87.21850  -20.86120    2.33000    1.89490    2.00680
 8850.00000    0.19680    0.13200   96.97350   -0.03450    2.48110    9.16190   86.69700  -19.37560    2.45970    1.99960    2.09830
 8900.00000    0.21320    0.13190  100.21300   -0.01860    2.48380    9.19800   85.52040  -21.88390    2.34670    1.93240    2.02890
 8950.00000    0.07810    0.08130   50.69630   -0.02070    2.57050    9.08310   64.25760  -30.02640    5.96440    9.94170    7.74000
 9000.00000    0.07680    0.08410   68.17510   -0.00750    2.57330    9.11460   64.52920  -36.75350   10.79540   16.80070   14.76040
 9050.00000    0.07630    0.09480   61.63090   -0.02280    2.54890    9.33990   63.86830  -42.64750   11.83980   15.70870   15.56820
 9100.00000    0.07730    0.10980   35.95230   -0.05540    2.51410    9.27900   61.34560  -41.07300   17.24390   29.74860   26.37500
 9150.00000    0.07620    0.09800   23.75500   -0.04150    2.54580    9.24750   59.24670  -44.89530   24.33610   17.39910   16.28120
 9200.00000    0.31240    0.33090  100.74860    0.15480    2.11150   11.32540   96.16800  -23.56070    2.71720    1.88630    1.66280
 9250.00000    0.28330    0.42550  100.96840    0.15430    1.98960   12.35290   93.57900  -21.55980    3.13250    2.61080    2.57780
 9300.00000    0.31510    0.45840   98.02770    0.11250    1.89920   12.75930  100.09630  -20.31540    2.38050    1.72950    1.61210
 9350.00000    0.25480    0.27760   95.25580    0.16650    2.23430   13.38880   93.30130  -20.13910    3.66940    2.42280    2.25300
 9400.00000    0.19960    0.12150   97.93560   -0.00760    2.50010    9.31950   84.21910  -16.35640    9.15950    8.67820    8.93340
 9450.00000    0.23220    0.20570   98.68030    0.12900    2.33770    9.61330   88.76440  -17.14920    5.90330    3.89460    3.67370
 9500.00000    0.04960    0.05230   37.56050    0.02690    2.61070    8.93760   57.36950  -29.58910    8.76820   13.51180   15.06350
 9550.00000    0.01190    0.02650   22.24450   -0.00750    2.66410    8.76960   51.59290  -42.25990   48.53980   72.89890   44.65100
 9600.00000    0.02990    0.47180   18.87950    0.10580    1.90430    6.24230   52.85010  -45.97880   55.47730   60.86660   40.38360
 9650.00000    -999.25    -999.25    -999.25    -999.25    -999.25    6.12120    -999.25  -44.61720  739.35800   99.00860  102.18420
