~Version ---------------------------------------------------
VERS. 2.0 : CWLS log ASCII Standard -VERSION 2.0
WRAP.  NO : One line per depth step
~Well ------------------------------------------------------
STRT.FT                          300.0 : START DEPTH
STOP.FT                        14400.0 : STOP DEPTH
STEP.FT                       50.00000 : STEP LENGTH
NULL.                          -999.25 : NULL VALUE
COMP.    AMERADA PETROLEUM CORPORATION : COMPANY
WELL.                MABEL GRIMES B #1 : WELL
FLD .               LOWE RANCH EDWARDS : FIELD
LOC .                                  : LOCATION
CNTY.                        MC MULLEN : COUNTY
STAT.                            TEXAS : STATE
CTRY.         UNITED STATES OF AMERICA : COUNTRY
SRVC. Schlumberger Well Surveying Corp : SERVICE COMPANY
DATE.                      20-Feb-1958 : LOGDATE
API .                   42311013640000 : API NUMBER
UWI .                   42311013640000 : UNIQUE WELL ID
SLAT.WGS84               28.3207374348 : SURFACE LATITUDE
SLON.WGS84              -98.6948976176 : SURFACE LONGITUDE
~Curve Information -----------------------------------------
DEPT  .FT    : DEPTH
ASNED .OHMM  : AMPLIFIED SHORT NORMAL 16 IN.
CALMED.IN    : CALIPER FROM MICRO LOG (ADJ TO RES.)
CALWS .IN    : CALIPER (CALMED)
CILDED.MMHO  : CONDUCTIVITY FROM LOG
CONDWS.MMHO  : CONDUCTIVITY (1000/DRESws)
DRESWS.OHMM  : DEEP RESISTIVITY (LNED/ILDED @ 5122) (IF DRESws<1, THEN 1000/CILDED)
GRNED .CU    : GAMMA RAY FROM NEUTRON LOG (ADJ TO RES.)
GRWS  .CU    : GAMMA RAY (GRNED)
ILDED .OHMM  : DEEP INDUCTION RESISTIVITY
LNED  .OHMM  : LONG NORMAL 64 IN.
LT18ED.OHMM  : LATERAL
NEUTED.CU    : NEUTRON FROM GAMMA RAY NEUTRON LOG (ADJ TO RES.)
NEUTWS.CU    : NEUTRON FROM GAMMA RAY NEUTRON LOG (NEUTED)
SPWS  .MV    : SPONTANEOUS POTENTIAL BASELINE 0 MV (SPRED)
SPRED .MV    : SPONTANEOUS POTENTIAL FROM RESISTIVITY
SRESWS.OHMM  : SHALLOW RESISTIVITY (ASNED)
~Params ----------------------------------------------------
PD  .                     GL : PERMANENT DATUM
LMF .                     KB : LOG MEASURED FROM
DAPD.F                 16.05 : FEET ABOVE PERMANENT DATUM
DMF .                     KB : DRILLING MEASURED FROM
EDF .F                   323 : DRILLING FLOOR
DATE.               02/20/58 : RUN DATE
RUN .                      3 : RUN NUMBER
DD  .F                 14409 : DEPTH DRILLER
DL  .F                 14411 : DEPTH LOGGER
BLI .F                 14405 : BOTTOM LOG INTERVAL
TLI .F                 13725 : TOP LOG INTERVAL
CBD .F                 13725 : CASING BOTTOM DRILLER
CBL .F                 13725 : CASING BOTTOM LOGGER
BS  .IN                 8.75 : BIT SIZE
BSD .F                 14409 : BIT SIZE AT DEPTH
DFT .               OIL EMUL : DRILLING FLUID TYPE
DFD .                   12.4 : DRILLING FLUID DENSITY
DFV .                     46 : DRILLING FLUID VISCOSITY
DFPH.                     12 : DRILLING FLUID PH
DFL .                    6.5 : DRILLING FLUID LOSS
MSS .                MUD PIT : MUD SAMPLE SOURCE
RMS .OHMM               0.82 : RESISTIVITY MUD SAMPLE
MST .F                    78 : MUD SAMPLE TEMPERATURE
RMF .OHMM               0.16 : RESISTIVITY MUD FILTRATE SAMPLE
MFST.F                   310 : MUD FILTRATE SAMPLE TEMPERATURE
RMC .OHMM               0.31 : RESISTIVITY MUD CAKE
MCST.F                   310 : MUD CAKE SAMPLE TEMPERATURE
RMB .OHMM               0.21 : RESISTIVITY MUD AT BHT
TCS .HRS                   2 : TIME CURCULATED STOPPED
LUL .                    VIC : LOGGING UNIT LOCATION
ENGI.                WHITNEY : RECORDING ENGINEER
WITN.                 GOLSON : WITNESSED BY
CLNT.                A2DTECH : CLIENT CODE
ORIG.               2" PRINT : ORIGIN OF DATA
UWI .         42311013640000 : UNIQUE WELL ID
DICO. A2D Technologies, Inc. : DIGITIZING COMPANY
~Other -----------------------------------------------------
~ASCII -----------------------------------------------------
# ...
 6750.00000    1.48390    -999.25    -999.25  784.23820  753.63630    1.32690    -999.25    -999.25    1.32690    -999.25    -999.25    -999.25    -999.25   -1.59820  -19.62320    1.48390
 6800.00000    1.54810    -999.25    -999.25  726.77410  757.34630    1.32040    -999.25    -999.25    1.32040    -999.25    -999.25    -999.25    -999.25   -2.41600  -20.51880    1.54810
 6850.00000    1.43420    -999.25    -999.25  802.09800  750.86350    1.33180    -999.25    -999.25    1.33180    -999.25    -999.25    -999.25    -999.25   -3.41440  -21.59510    1.43420
 6900.00000    1.63330    -999.25    -999.25  733.60530  708.91820    1.41060    -999.25    -999.25    1.41060    -999.25    -999.25    -999.25    -999.25   -4.27940  -22.53790    1.63330
 6950.00000    2.17090    -999.25    -999.25  485.94380  517.94690    1.93070    -999.25    -999.25    1.93070    -999.25    -999.25    -999.25    -999.25   -6.82610  -25.17880    2.17090
 7000.00000    2.24970    -999.25    -999.25  469.87950  492.02910    2.03240    -999.25    -999.25    2.03240    -999.25    -999.25    -999.25    -999.25   -5.65320  -24.10400    2.24970
 7050.00000    2.76440    -999.25    -999.25  364.10420  437.44530    2.28600    -999.25    -999.25    2.28600    -999.25    -999.25    -999.25    -999.25   -4.50940  -23.05840    2.76440
 7100.00000    2.35250    -999.25    -999.25  449.35300  470.01320    2.12760    -999.25    -999.25    2.12760    -999.25    -999.25    -999.25    -999.25   -5.27810  -23.92530    2.35250
 7150.00000    2.07020    -999.25    -999.25  534.80590  537.11460    1.86180    -999.25    -999.25    1.86180    -999.25    -999.25    -999.25    -999.25   -5.17870  -23.92410    2.07020
 7200.00000    2.24550    -999.25    -999.25  487.28250  490.70120    2.03790    -999.25    -999.25    2.03790    -999.25    -999.25    -999.25    -999.25   -5.97710  -24.82070    2.24550
 7250.00000    2.37370    -999.25    -999.25  447.79120  478.97310    2.08780    -999.25    -999.25    2.08780    -999.25    -999.25    -999.25    -999.25   -4.62490  -23.56670    2.37370
 7300.00000    2.03140    -999.25    -999.25  549.30760  529.01650    1.89030    -999.25    -999.25    1.89030    -999.25    -999.25    -999.25    -999.25   -4.16810  -23.20810    2.03140
 7350.00000    2.08790    -999.25    -999.25  552.20810  547.79510    1.82550    -999.25    -999.25    1.82550    -999.25    -999.25    -999.25    -999.25   -4.24930  -23.38740    2.08790
 7400.00000    2.10920    -999.25    -999.25  518.30760  538.56100    1.85680    -999.25    -999.25    1.85680    -999.25    -999.25    -999.25    -999.25   -4.33040  -23.56670    2.10920
 7450.00000    1.93240    -999.25    -999.25  591.70150  576.86760    1.73350    -999.25    -999.25    1.73350    -999.25    -999.25    -999.25    -999.25   -4.41100  -23.74550    1.93240
 7500.00000    1.88080    -999.25    -999.25  603.74840  584.04390    1.71220    -999.25    -999.25    1.71220    -999.25    -999.25    -999.25    -999.25   -4.13220  -23.56490    1.88080
 7550.00000    1.75180    -999.25    -999.25  634.53810  630.35800    1.58640    -999.25    -999.25    1.58640    -999.25    -999.25    -999.25    -999.25   -3.85590  -23.38680    1.75180
 7600.00000    1.67620    -999.25    -999.25  691.58760  652.18800    1.53330    -999.25    -999.25    1.53330    -999.25    -999.25    -999.25    -999.25   -2.50390  -22.13300    1.67620
 7650.00000    2.38320    -999.25    -999.25  434.18400  470.36690    2.12600    -999.25    -999.25    2.12600    -999.25    -999.25    -999.25    -999.25   -3.30150  -23.02870    2.38320
 7700.00000    2.60170    -999.25    -999.25  381.52610  403.60010    2.47770    -999.25    -999.25    2.47770    -999.25    -999.25    -999.25    -999.25   -3.91960  -23.74500    2.60170
 7750.00000    2.84320    -999.25    -999.25  361.44580  381.63570    2.62030    -999.25    -999.25    2.62030    -999.25    -999.25    -999.25    -999.25   -5.61380  -25.53740    2.84320
 7800.00000    2.76520    -999.25    -999.25  366.90730  403.58380    2.47780    -999.25    -999.25    2.47780    -999.25    -999.25    -999.25    -999.25   -4.84440  -24.86620    2.76520
 7850.00000    2.72970    -999.25    -999.25  378.17510  439.34800    2.27610    -999.25    -999.25    2.27610    -999.25    -999.25    -999.25    -999.25   -3.40070  -23.52070    2.72970
 7900.00000    3.17250    -999.25    -999.25  325.30120  360.29540    2.77550    -999.25    -999.25    2.77550    -999.25    -999.25    -999.25    -999.25   -3.16820  -23.38640    3.17250
 7950.00000    3.94390    -999.25    -999.25  259.70550  260.93310    3.83240    -999.25    -999.25    3.83240    -999.25    -999.25    -999.25    -999.25   -4.52030  -24.82030    3.94390
 8000.00000    2.51860    -999.25    -999.25  396.25170  464.01560    2.15510    -999.25    -999.25    2.15510    -999.25    -999.25    -999.25    -999.25   -3.87240  -24.13410    2.51860
 8050.00000    2.15820    -999.25    -999.25  506.04570  534.27360    1.87170    -999.25    -999.25    1.87170    -999.25    -999.25    -999.25    -999.25   -3.16350  -23.38690    2.15820
 8100.00000    2.48850    -999.25    -999.25  425.70280  470.25630    2.12650    -999.25    -999.25    2.12650    -999.25    -999.25    -999.25    -999.25   -3.02220  -23.20720    2.48850
 8150.00000    2.77010    -999.25    -999.25  374.83270  431.55530    2.31720    -999.25    -999.25    2.31720    -999.25    -999.25    -999.25    -999.25   -3.24060  -23.38730    2.77010
 8200.00000    2.38690    -999.25    -999.25  443.71520  486.73640    2.05450    -999.25    -999.25    2.05450    -999.25    -999.25    -999.25    -999.25   -2.56190  -22.67030    2.38690
 8250.00000    2.65900    -999.25    -999.25  404.51130  463.60680    2.15700    -999.25    -999.25    2.15700    -999.25    -999.25    -999.25    -999.25   -2.60020  -22.67030    2.65900
 8300.00000    2.74410    -999.25    -999.25  406.49650  423.15510    2.36320    -999.25    -999.25    2.36320    -999.25    -999.25    -999.25    -999.25   -4.07270  -24.10450    2.74410
 8350.00000    2.79230    -999.25    -999.25  372.15390  410.62700    2.43530    -999.25    -999.25    2.43530    -999.25    -999.25    -999.25    -999.25   -3.75200  -23.74550    2.79230
 8400.00000    2.65090    -999.25    -999.25  399.16140  441.77410    2.26360    -999.25    -999.25    2.26360    -999.25    -999.25    -999.25    -999.25   -3.78920  -23.74440    2.65090
 8450.00000    2.20290    -999.25    -999.25  497.54000  524.30140    1.90730    -999.25    -999.25    1.90730    -999.25    -999.25    -999.25    -999.25   -2.21560  -22.13250    2.20290
 8500.00000    2.46570    -999.25    -999.25  439.72180  491.95650    2.03270    -999.25    -999.25    2.03270    -999.25    -999.25    -999.25    -999.25   -4.40430  -24.28290    2.46570
 8550.00000    2.59080    -999.25    -999.25  418.56310  463.64980    2.15680    -999.25    -999.25    2.15680    -999.25    -999.25    -999.25    -999.25   -4.62290  -24.46310    2.59080
 8600.00000    3.16180    -999.25    -999.25  337.04640  378.34360    2.64310    -999.25    -999.25    2.64310    -999.25    -999.25    -999.25    -999.25   -5.02130  -24.82320    3.16180
 8650.00000    3.00540    -999.25    -999.25  368.13710  392.78840    2.54590    -999.25    -999.25    2.54590    -999.25    -999.25    -999.25    -999.25   -5.05740  -24.82100    3.00540
 8700.00000    2.66750    -999.25    -999.25  416.05450  430.83020    2.32110    -999.25    -999.25    2.32110    -999.25    -999.25    -999.25    -999.25   -4.28920  -24.01450    2.66750
 8750.00000    2.47320    -999.25    -999.25  503.35520  480.26130    2.08220    -999.25    -999.25    2.08220    -999.25    -999.25    -999.25    -999.25   -3.88050  -23.56750    2.47320
 8800.00000    2.71730    -999.25    -999.25  413.06280  453.78230    2.20370    -999.25    -999.25    2.20370    -999.25    -999.25    -999.25    -999.25   -4.09720  -23.74590    2.71730
 8850.00000    2.70830    -999.25    -999.25  445.78310  406.95070    2.45730    -999.25    -999.25    2.45730    -999.25    -999.25    -999.25    -999.25   -4.49330  -24.10370    2.70830
