~Version ---------------------------------------------------
VERS. 2.0 : CWLS log ASCII Standard -VERSION 2.0
WRAP. YES : MULTIPLE LINES PER DEPTH STEP
~Well ------------------------------------------------------
STRT.FT                       2050.0 : START DEPTH
STOP.FT                      10550.0 : STOP DEPTH
STEP.FT                     50.00000 : STEP LENGTH
NULL.                        -999.25 : NULL VALUE
COMP. QUINTANA PETROLEUM CORPORATION : COMPANY
WELL.                       HARLE #1 : WELL
FLD .                        BUCKLEY : FIELD
LOC .                                : LOCATION
CNTY.                       LA SALLE : COUNTY
STAT.                          TEXAS : STATE
CTRY.       UNITED STATES OF AMERICA : COUNTRY
SRVC.    HALLIBURTON Sperry Drilling : SERVICE COMPANY
DATE.                    12-Nov-1991 : LOGDATE
API .                 42283314640000 : API NUMBER
UWI .                 42283314640000 : UNIQUE WELL ID
SLAT.WGS84             28.3427642272 : SURFACE LATITUDE
SLON.WGS84            -99.0284847769 : SURFACE LONGITUDE
~Curve Information -----------------------------------------
DEPT    .FT    : DEPTH FEET
CALRED  .IN    : CALIPER FROM RESISTIVITY LOG
CALWS   .IN    : CALIPER [DCALRED+8.75]
CONDWS  .MMHO  : CONDUCTIVITY [1000/DRESWS]
DCALRED .IN    : DIFFERENTIAL CALIPER FROM RESISTIVITY LOG
DCORWS  .G/C3  : DENSITY CORRECTION [DRHOED]
DENWS   .G/C3  : BULK DENSITY  [CALCULATED FROM DPOWS][M=2.65 F=1.0]<9190>[M=2.71 F=1.0]
DFLED   .OHMM  : DIGITALLY FOCUSED LATEROLOG
DPHILSED.V/V   : DENSITY POROSITY [M=2.71 F=1.0] FROM DENSITY LOG
DPHISSED.V/V   : DENSITY POROSITY [M=2.65 F=1.0] FROM DENSITY LOG
DPOWS   .V/V   : DENSITY POROSITY [DPHISSED]<9190>DPHILSED
DRESWS  .OHMM  : DEEP RESISTIVITY [HDRSED]
DRHOED  .G/C3  : DENSITY CORRECTION FROM RES. LOG, DEPTH ADJUSTED WITH [GRRED]
DTED    .US/F  : DELTA TIME FROM SONIC LOG
DTWS    .US/F  : DELTA TIME [DTED]
GRKTED  .GAPI  : GAMMA RAY KT FROM SPECTRAL LOG, DEPTH ADJUSTED WITH [GRRED]
GRKUTED .GAPI  : GAMMA RAY KUT FROM SPECTRAL LOG, DEPTH ADJUSTED WITH [GRRED]
GRR1ED  .GAPI  : GAMMA RAY FROM INDUCTION [ILDED] LOG, DEPTH ADJUSTED WITH [GRRED]
GRRED   .GAPI  : GAMMA RAY FROM RESISTIVITY LOG
GRTHED  .GAPI  : GAMMA RAY TH FROM SPECTRAL LOG, DEPTH ADJUSTED WITH [GRRED]
GRWS    .GAPI  : GAMMA RAY [GRRED]
GUARDED .OHMM  : GUARD LOG RESISTIVITY
HDRSED  .OHMM  : HRI DEEP RESISTIVITY
HMRSED  .OHMM  : HRI MEDIUM RESISTIVITY
ILDED   .OHMM  : INDUCTION LOG DEEP RESISTIVITY , DEPTH ADJUSTED WITH [GRRED]
ILMED   .OHMM  : INDUCTION LOG MEDIUM RESISTIVITY, DEPTH ADJUSTED WITH [GRRED]
MRESWS  .OHMM  : MEDIUM RESISTIVITY [HMRSED]
NPHILSED.V/V   : NEUTRON POROSITY LIMESTONE FROM DENSITY LOG
NPHISSED.V/V   : NEUTRON POROSITY SANDSTONE FROM DENSITY LOG
NPOWS   .V/V   : NEUTRON POROSITY SANDSTONE [NPHISSED]<9190>LIMESTONE [NPHILSED]
SFLED   .OHMM  : SPHERICALLY FOCUSED LOG RESISTIVITY
SPRED   .MV    : SPONTANEOUS POTENTIAL FROM RESISTIVITY LOG
SPWS    .MV    : SPONTANEOUS POTENTIAL [BASELINE 0 MV] [SPRED]
SRESWS  .OHMM  : SHALLOW RESISTIVITY [DFLED]
TENRED  .LBF   : TENSION FROM RESISTIVITY LOG
~Params ----------------------------------------------------
PD  .                     GL : PERMANENT DATUM
EPD .F                 379.7 : ELEVATION PERMANENT DATUM
LMF .                    TKB : LOG MEASURED FROM
DAPD.F                    19 : FEET ABOVE PERMANENT DATUM
DMF .                    TKB : DRILLING MEASURED FROM
EKB .F                 398.7 : KELLING BUSHING
EDF .F                 397.7 : DRILLING FLOOR
EGL .F                 379.7 : GROUND LEVEL
DATE.             11-12-1991 : RUN DATE
RUN .                      1 : RUN NUMBER
DD  .F                 10615 : DEPTH DRILLER
DL  .F                 10568 : DEPTH LOGGER
BLI .F                 10566 : BOTTOM LOG INTERVAL
TLI .F                  2010 : TOP LOG INTERVAL
CS  .IN                9.625 : CASING SIZE
CBD .F                  2012 : CASING BOTTOM DRILLER
CBL .F                  2010 : CASING BOTTOM LOGGER
BS  .IN                 8.75 : BIT SIZE
BSD .F                 10615 : BIT SIZE AT DEPTH
DFT .              LIGNO-HFI : DRILLING FLUID TYPE
DFD .                   10.3 : DRILLING FLUID DENSITY
DFV .                     42 : DRILLING FLUID VISCOSITY
DFPH.                   10.5 : DRILLING FLUID PH
DFL .                    5.7 : DRILLING FLUID LOSS
MSS .               FLOWLINE : MUD SAMPLE SOURCE
RMS .OHMM               1.31 : RESISTIVITY MUD SAMPLE
MST .F                    75 : MUD SAMPLE TEMPERATURE
RMF .OHMM               1.04 : RESISTIVITY MUD FILTRATE SAMPLE
MFST.F                    75 : MUD FILTRATE SAMPLE TEMPERATURE
RMC .OHMM                2.6 : RESISTIVITY MUD CAKE
MCST.F                    75 : MUD CAKE SAMPLE TEMPERATURE
MFSS.                   MEAS : MUD FILTRATE SAMPLE SOURCE
MCSS.                   MEAS : MUD CAKE SAMPLE SOURCE
RMB .OHMM               0.43 : RESISTIVITY MUD AT BHT
TCS .HRS                16.5 : TIME CURCULATED STOPPED
TLAB.HRS                1200 : TIME LOGGER AT BOTTOM
LUN .                  51561 : LOGGING UNIT NUMBER
LUL .                  ALICE : LOGGING UNIT LOCATION
ENGI.                MERRELL : RECORDING ENGINEER
WITN.  MR. EVANS/MR. DUCKETT : WITNESSED BY
CLNT.                A2DTECH : CLIENT CODE
ORIG.               5" PRINT : ORIGIN OF DATA
UWI .         42283314640000 : UNIQUE WELL ID
DICO. A2D Technologies, Inc. : DIGITIZING COMPANY
~Other -----------------------------------------------------
~ASCII -----------------------------------------------------
# ...
 9400.00000   11.07940   10.90930  148.11960    2.15930    0.02290    2.60610    7.43400    0.06080    -999.25    0.06080    6.75130    0.02290   68.57140   68.57140   43.62520   59.10110   52.37460   62.24400   15.59190   62.24400    6.87100    6.75130    6.84480    5.97800    6.29100    6.84480    0.11500    -999.25    0.11500    0.69130  -46.10920  -12.51560    7.43400 4106.71480
 9450.00000   10.51190   10.31210   80.21050    1.56210    0.03190    2.59140   11.56840    0.06940    -999.25    0.06940   12.46720    0.03190   65.86470   65.86470   40.83670   50.27100   46.47180   47.62810   15.45800   47.62810   15.12100   12.46720   11.15090   10.52700   12.09100   11.15090    0.09060    -999.25    0.09060    1.72910  -41.44320   -8.65730   11.56840 3920.22220
 9500.00000   10.16010   10.01530   32.87610    1.26530    0.01100    2.56990   37.37420    0.08190    -999.25    0.08190   30.41720    0.01100   59.77440   59.77440   27.93030   43.82790   39.68340   47.57110   12.76200   47.57110   43.47300   30.41720   26.87830   12.85800   14.19400   26.87830    0.08940    -999.25    0.08940    5.87670  -33.63360   -1.65540   37.37420 3922.36250
 9550.00000   10.23330   10.13610   70.79750    1.38610    0.02910    2.62860   14.72300    0.04760    -999.25    0.04760   14.12480    0.02910   63.33170   63.33170   33.74880   46.91510   43.97180   46.21820   14.34440   46.21820   15.44000   14.12480   13.33280   13.47100   13.49600   13.33280    0.08170    -999.25    0.08170    1.37070  -35.43570   -4.26510   14.72300 3990.82130
 9600.00000   10.24410   10.10490   52.82730    1.35490    0.02000    2.62210   18.99370    0.05140    -999.25    0.05140   18.92960    0.02000   61.36400   61.36400   29.73310   45.00800   40.10660   47.60390   11.13800   47.60390   18.32100   18.92960   18.04070   18.35600   18.61200   18.04070    0.07320    -999.25    0.07320    1.92210  -32.07350   -1.71060   18.99370 3918.35840
 9650.00000   10.68070   10.55250  102.86580    1.80250    0.01990    2.60790   11.62480    0.05970    -999.25    0.05970    9.72140    0.01990   67.20730   67.20730   41.80370   60.90750   55.20040   63.67320   18.00420   63.67320   12.22400    9.72140    9.58580    9.56200   10.01800    9.58580    0.12020    -999.25    0.12020    1.07590  -39.03900   -9.41200   11.62480 3911.07930
 9700.00000   11.30200   11.17740  165.33840    2.42740    0.03180    2.59860    7.03370    0.06520    -999.25    0.06520    6.04820    0.03180   72.87770   72.87770   59.16630   72.18350   63.54160   62.48400   23.76710   62.48400    8.04700    6.04820    5.88440    5.41500    5.75400    5.88440    0.14330    -999.25    0.14330    0.83710  -48.04810  -19.05370    7.03370 3927.75440
 9750.00000   11.33150   11.23640  119.69450    2.48640    0.02320    2.61310    9.63010    0.05670    -999.25    0.05670    8.35460    0.02320   68.57140   68.57140   50.06660   62.19600   56.08360   67.61100   24.25790   67.61100    8.80900    8.35460    8.35460    7.73100    7.67700    8.35460    0.09780    -999.25    0.09780    0.98780  -45.64320  -17.28140    9.63010 4024.43190
 9800.00000   11.63540   11.47590   80.90160    2.72590    0.02580    2.62440   14.63380    0.05010    -999.25    0.05010   12.36070    0.02580   66.74150   66.74150   47.28030   64.61790   54.35310   62.12180   19.58980   62.12180   12.42500   12.36070   11.30520   10.57400   10.38000   11.30520    0.10460    -999.25    0.10460    0.89850  -42.64260  -14.91340   14.63380 4135.22020
 9850.00000   12.21300   12.03880  302.73670    3.28880    0.14570    2.51340    3.81990    0.11490    -999.25    0.11490    3.30320    0.14570   79.32360   79.32360   71.69940   89.41860   78.32190   80.72590   30.11580   80.72590    5.37200    3.30320    3.46610    3.71200    4.19800    3.46610    0.21470    -999.25    0.21470    0.49520  -48.94890  -21.85230    3.81990 4072.14110
 9900.00000   11.12190   10.90930  197.51920    2.15930    0.07350    2.58650    6.35730    0.07220    -999.25    0.07220    5.06280    0.07350   75.18790   75.18790   67.65280   81.64400   73.95690   75.95590   26.92290   75.95590    5.95500    5.06280    5.27140    3.94600    4.52600    5.27140    0.20290    -999.25    0.20290    0.60820  -51.65160  -25.18760    6.35730 3977.46190
 9950.00000   11.00090   10.84860  186.97530    2.09860    0.03200    2.58410    6.51220    0.07360    -999.25    0.07360    5.34830    0.03200   77.81980   77.81980   62.61170   79.46930   69.40260   74.73440   28.04540   74.73440    6.32900    5.34830    5.49340    5.30100    5.41400    5.49340    0.17830    -999.25    0.17830    0.61700  -51.95190  -26.12040    6.51220 4115.60940
 10000.00000   11.09870   11.02790   84.29220    2.27790    0.03490    2.58530   13.18750    0.07290    -999.25    0.07290   11.86350    0.03490   64.66170   64.66170   46.68720   60.00940   53.62400   55.28530   21.84890   55.28530   13.02000   11.86350   11.94420   10.38400   11.21200   11.94420    0.11660    -999.25    0.11660    1.32750  -46.24280  -21.04390   13.18750 3969.39920
 10050.00000   10.35230   10.16500  115.11190    1.41500    0.01120    2.66280   10.86700    0.02760    -999.25    0.02760    8.68720    0.01120   64.36090   64.36090   44.87470   57.48100   55.53680   60.34320   20.94520   60.34320   11.91600    8.68720    9.13550    7.26800    7.47800    9.13550    0.10560    -999.25    0.10560    1.29650  -55.64390  -31.07760   10.86700 4079.06520
 10100.00000   10.60760   10.52230   28.00850    1.77230    0.03210    2.55130   43.98780    0.09280    -999.25    0.09280   35.70350    0.03210   67.21830   67.21830   33.16780   67.52550   60.48030   69.34890   15.12720   69.34890   40.14000   35.70350   35.14050   29.67700   28.73300   35.14050    0.12150    -999.25    0.12150    4.32380  -40.58410  -16.65040   43.98780 4094.67020
 10150.00000   10.27040   10.04560   12.73620    1.29560    0.03200    2.52020  128.73590    0.11100    -999.25    0.11100   78.51620    0.03200   66.84210   66.84210   41.59320   87.50060   71.13070   78.46550   17.81260   78.46550  110.81300   78.51620   70.84080   51.37600   43.67500   70.84080    0.11220    -999.25    0.11220   11.65600  -18.06310   -8.73690  128.73590 4076.82540
 10200.00000   10.78690   10.61160   18.59790    1.86160    0.02910    2.53520   71.71040    0.10220    -999.25    0.10220   53.76940    0.02910   70.82690   70.82690   41.42220   78.84740   70.11800   83.47030   18.55490   83.47030   66.70400   53.76940   50.58450   55.80200   43.68500   50.58450    0.15940    -999.25    0.15940    7.11700  -10.47450  -28.14870   71.71040 4115.51370
 10250.00000   10.72880   10.61150    0.71130    1.86150    0.08910    2.69110  270.10420    0.01110    -999.25    0.01110 1405.82300    0.08910   50.44070   50.44070   17.22730   21.21900   20.26720   21.61280    6.99160   21.61280  137.12100 1405.82300  218.69360 6313.81740  124.08600  218.69360    0.01620    -999.25    0.01620   13.87610   38.74220   -7.25920  270.10420 4078.94510
 10300.00000   12.25560   12.10070   60.10010    3.35070    0.09200    2.66810   21.21250    0.02450    -999.25    0.02450   16.63890    0.09200   59.54890   59.54890   54.66720   64.99520   55.81910   58.56960   24.56850   58.56960   21.94200   16.63890   16.84240   13.11300   14.06600   16.84240    0.13130    -999.25    0.13130    2.16940  -31.15410 -116.21800   21.21250 4126.90430
 10350.00000   10.90030   10.94060    -999.25    2.19060    0.08910    2.69280  809.88930    0.01010    -999.25    0.01010    -999.25    0.08910   48.87780   48.87780   14.66430   22.11360   19.95230   23.24320    7.25290   23.24320  742.16100    -999.25    -999.25    -999.25  146.39000    -999.25    0.01270    -999.25    0.01270   91.80420  112.01700    0.27810  809.88930 4123.98580
 10400.00000   11.67710   11.41800  102.77700    2.66800    0.01720    2.59610   84.18130    0.06660    -999.25    0.06660    9.72980    0.01720   53.45860   53.45860   13.88270   24.62050   22.85500   24.42810    6.25710   24.42810   75.49100    9.72980   17.22050   12.50200   21.09500   17.22050    0.02410    -999.25    0.02410    7.81840  108.96520   -6.44320   84.18130 4112.41890
