~Version ---------------------------------------------------
VERS. 2.0 : CWLS log ASCII Standard -VERSION 2.0
WRAP.  NO : ONE LINE PER DEPTH STEP
~Well ------------------------------------------------------
STRT.F                    3550.0 : START DEPTH
STOP.F                    9650.0 : STOP DEPTH
STEP.F                  50.00000 : STEP LENGTH
NULL.                    -999.25 : NULL VALUE
COMP. CHAMPLIN PETROLEUM COMPANY : COMPANY
WELL.           MARTIN KNESEK #1 : WELL
FLD .                   GIDDINGS : FIELD
LOC .                            : LOCATION
CNTY.                   BURLESON : COUNTY
STAT.                      TEXAS : STATE
CTRY.   UNITED STATES OF AMERICA : COUNTRY
SRVC.              Dresser Atlas : SERVICE COMPANY
DATE.                04-Sep-1981 : LOGDATE
API .             42051317410000 : API NUMBER
UWI .             42051317410000 : UNIQUE WELL ID
SLAT.WGS84         30.3822790376 : SURFACE LATITUDE
SLON.WGS84         -96.614289695 : SURFACE LONGITUDE
~Curve Information -----------------------------------------
DEPT.F                 : 
CALR.IN   07 280 01 00 : CALIPER FROM RESISTIVITY LOG
SPR .MV   07 010 01 00 : SPONTANEOUS POTENTIAL FROM RESISTIVITY LOG
ILD .OHMM 07 120 46 00 : INDUCTION DEEP RESISTIVITY
GRR .GAPI 07 310 01 00 : GAMMA RAY FROM RESISTIVITY LOG
ILM .OHMM 07 120 44 00 : INDUCTION MEDIUM RESISTIVITY
SFL .OHMM 07 220 01 00 : SPHERICALLY FOCUSED LOG
NPHI.DEC  42 890 01 00 : NEUTRON POROSITY
DPHI.DEC  45 890 10 00 : DENSITY POROSITY
CORR.G/C3 45 356 01 00 : DENSITY CORRECTION
GRN .CPS  35 310 30 00 : GAMMA RAY FROM GRN LOG
NEUT.CPS  35 330 30 00 : NEUTRON
~Params ----------------------------------------------------
PD  .                     GL : PERMANENT DATUM
EPD .FT                  309 : ELEVATION PERMANENT DATUM
LMF .                     KB : LOG MEASURED FROM
DAPD.FT                   18 : FEET ABOVE PERMANENT DATUM
DMF .                     KB : DRILLING MEASURED FROM
EKB .FT                  327 : KELLY BUSHING
EDF .FT                  326 : DRILLING FLOOR
EGL .FT                  309 : GROUND LEVEL
DATE.               09/04/81 : RUN DATE
RUN .                      1 : RUN NUMBER
DD  .FT                 9726 : DEPTH DRILLER
DL  .FT                 9630 : DEPTH LOGGER
BLI .FT                 9628 : BOTTOM LOG INTERVAL
TLI .FT                 3536 : TOP LOG INTERVAL
CS  .IN                9.625 : CASING SIZE
CBD .FT                 3536 : CASING BOTTOM DRILLER
CBL .FT                 3536 : CASING BOTTOM LOGGER
BS  .IN                 8.75 : BIT SIZE
BSD .FT                 9726 : BIT SIZE AT DEPTH
DFT .                  BENEX : DRILLING FLUID TYPE
DFD .                    9.1 : DRILLING FLUID DENSITY
DFV .                     35 : DRILLING FLUID VISCOSITY
DFPH.                      9 : DRILLING FLUID PH
DFL .                    8.6 : DRILLING FLUID LOSS
MSS .               FLOWLINE : MUD SAMPLE SOURCE
RMS .OHMM                1.7 : RESISTIVITY MUD SAMPLE
MST .DEGF                 80 : MUD SAMPLE TEMPERATURE
RMF .OHMM               1.23 : RESISTIVITY MUD FILTRATE SAMPLE
MFST.DEGF                 80 : MUD FILTRATE SAMPLE TEMPERATURE
RMC .OHMM               2.13 : RESISTIVITY MUD CAKE
MCST.DEGF                 80 : MUD CAKE SAMPLE TEMPERATURE
MFSS.                   CALC : MUD FILTRATE SAMPLE SOURCE
MCSS.                   CALC : MUD CAKE SAMPLE SOURCE
RMB .OHMM               0.75 : RESISTIVITY MUD AT BHT
TCS .HRS                   4 : TIME CIRCULATED STOPPED
LUN .                   6300 : LOGGING UNIT NUMBER
LUL .                  BRYAN : LOGGING UNIT LOCATION
ENGI.            BROWN DWYER : RECORDING ENGINEER
WITN.                  VODAK : WITNESSED BY
CLNT.                A2DTECH : CLIENT CODE
ORIG.            2" 5" PRINT : ORIGIN OF DATA
UWI .         42051317410000 : UNIQUE WELL ID
DICO. A2D Technologies, Inc. : DIGITIZING COMPANY
~Other -----------------------------------------------------
~ASCII -----------------------------------------------------
 3550.00000   11.74310 -100.48120    8.91300   54.68150   10.07280    4.85800    -999.25    -999.25    -999.25    -999.25    -999.25
 3600.00000   12.43400 -101.58540    7.70520   45.72860    8.92930    3.96020    -999.25    -999.25    -999.25    -999.25    -999.25
 3650.00000   13.06360 -101.32360    4.88430   69.46510    4.98460    2.98010    -999.25    -999.25    -999.25    -999.25    -999.25
 3700.00000   12.58110  -88.67300    3.59860   70.56440    4.67090    3.93860    -999.25    -999.25    -999.25    -999.25    -999.25
 3750.00000   11.95460 -110.81630    7.01080   67.80610    7.58470    3.74780    -999.25    -999.25    -999.25    -999.25    -999.25
 3800.00000   11.04440 -108.90370    9.75800   46.37760   12.32420    4.61130    -999.25    -999.25    -999.25    -999.25    -999.25
 3850.00000   14.09720 -110.30220    8.61960   68.05820    9.72200    4.01010    -999.25    -999.25    -999.25    -999.25    -999.25
 3900.00000   15.85960 -105.72650    9.71920   63.62470   10.07970    3.70580    -999.25    -999.25    -999.25    -999.25    -999.25
 3950.00000   15.84870 -108.44090   10.52010   42.69450   11.05370    4.66260    -999.25    -999.25    -999.25    -999.25    -999.25
 4000.00000   15.83790 -107.30670    9.96670   36.36970   10.35180    4.67180    -999.25    -999.25    -999.25    -999.25    -999.25
 4050.00000   11.33890 -104.58410   11.35300   46.07140   11.47660    3.46580    -999.25    -999.25    -999.25    -999.25    -999.25
 4100.00000   10.41010 -106.25870   11.51530   52.40930   12.22230    6.08450    -999.25    -999.25    -999.25    -999.25    -999.25
 4150.00000   10.98950 -102.26210    8.47250   52.46600    7.71800    4.64750    -999.25    -999.25    -999.25    -999.25    -999.25
 4200.00000   12.78510 -101.50080    8.30010   45.76530    9.98320    5.19180    -999.25    -999.25    -999.25    -999.25    -999.25
 4250.00000   14.15310 -102.89460    6.38430   69.08570    7.14760    3.03850    -999.25    -999.25    -999.25    -999.25    -999.25
 4300.00000   11.20000 -119.38780    4.69350   49.74700    6.00860    4.94610    -999.25    -999.25    -999.25    -999.25    -999.25
 4350.00000   13.06080 -118.69280    3.34710   45.25810    4.18730    3.35670    -999.25    -999.25    -999.25    -999.25    -999.25
 4400.00000    9.94670 -115.42430    3.98940   49.90290    5.97000    3.59860    -999.25    -999.25    -999.25    -999.25    -999.25
 4450.00000   10.92220 -119.97280    4.07040   51.88780    3.73860    2.74890    -999.25    -999.25    -999.25    -999.25    -999.25
 4500.00000   10.50740 -129.48830    2.75960   57.91840    3.77570    3.95320    -999.25    -999.25    -999.25    -999.25    -999.25
 4550.00000   11.08940 -121.83670    5.01130   48.88390    4.38240    4.12720    -999.25    -999.25    -999.25    -999.25    -999.25
 4600.00000   12.00240  -99.08990    3.31350   76.16840    3.52860    2.27060    -999.25    -999.25    -999.25    -999.25    -999.25
 4650.00000   10.19500 -143.66180    1.73910   54.79590    2.55750    3.51840    -999.25    -999.25    -999.25    -999.25    -999.25
 4700.00000   10.86370 -108.22390    3.00300   76.38850    3.77310    3.85510    -999.25    -999.25    -999.25    -999.25    -999.25
 4750.00000   11.21360  -95.73160    1.72250   67.63840    2.29740    2.24140    -999.25    -999.25    -999.25    -999.25    -999.25
 4800.00000    9.62240 -149.12960    1.11050   50.96940    1.54430    3.18610    -999.25    -999.25    -999.25    -999.25    -999.25
 4850.00000    9.63590 -155.51020    0.90060   28.01020    1.02010    2.17080    -999.25    -999.25    -999.25    -999.25    -999.25
 4900.00000    9.30380 -153.99310    0.87440   52.12720    1.22390    2.98190    -999.25    -999.25    -999.25    -999.25    -999.25
 4950.00000    9.82240 -136.76020    1.85260   65.35710    3.00980    4.48720    -999.25    -999.25    -999.25    -999.25    -999.25
 5000.00000   10.29580  -92.23650    2.29830   94.66920    2.80100    2.05720    -999.25    -999.25    -999.25    -999.25    -999.25
 5050.00000    9.78440 -117.34690    2.32060   61.07140    3.42860    7.86790    -999.25    -999.25    -999.25    -999.25    -999.25
 5100.00000    9.51380 -131.98820    1.80420   70.32440    2.60860    3.50650    -999.25    -999.25    -999.25    -999.25    -999.25
 5150.00000    9.38170 -127.42080    1.44410   68.79860    2.12250    3.20080    -999.25    -999.25    -999.25    -999.25    -999.25
 5200.00000    9.35930 -100.32470    1.64700   80.66330    2.28610    1.98410    -999.25    -999.25    -999.25    -999.25    -999.25
 5250.00000    9.37760  -86.74750    2.63020   90.74340    2.61870    1.98650    -999.25    -999.25    -999.25    -999.25    -999.25
 5300.00000   10.17190  -79.02490    2.17370   95.21870    2.17150    2.08430    -999.25    -999.25    -999.25    -999.25    -999.25
 5350.00000   10.29590  -79.59730    2.05150   85.70560    2.02740    1.98570    -999.25    -999.25    -999.25    -999.25    -999.25
 5400.00000   10.43870  -83.61760    2.08780   71.17350    2.24570    2.19910    -999.25    -999.25    -999.25    -999.25    -999.25
 5450.00000    9.69160  -83.06120    2.29490   81.53720    2.35330    2.00940    -999.25    -999.25    -999.25    -999.25    -999.25
 5500.00000    9.97990  -78.94970    2.36930   76.92680    2.42730    1.84640    -999.25    -999.25    -999.25    -999.25    -999.25
 5550.00000   10.72330  -72.88380    2.32690   83.02550    2.31480    1.84640    -999.25    -999.25    -999.25    -999.25    -999.25
 5600.00000   11.02030  -75.71430    2.34970   76.37750    2.37800    1.91720    -999.25    -999.25    -999.25    -999.25    -999.25
 5650.00000   11.67310  -68.08130    2.11570   85.64740    2.18530    1.77270    -999.25    -999.25    -999.25    -999.25    -999.25
 5700.00000   11.68370  -72.19460    2.36830   80.18170    2.49430    1.90730    -999.25    -999.25    -999.25    -999.25    -999.25
 5750.00000   12.77320  -69.18370    2.00550   81.80480    1.96860    1.81310    -999.25    -999.25    -999.25    -999.25    -999.25
 5800.00000   13.09090  -67.63570    1.66710   86.97740    1.75710    1.61260    -999.25    -999.25    -999.25    -999.25    -999.25
 5850.00000   13.29680  -74.14970    1.50820   80.05100    1.58170    1.53000    -999.25    -999.25    -999.25    -999.25    -999.25
 5900.00000   14.19390  -73.96730    1.56790   84.18450    1.65400    1.52280    -999.25    -999.25    -999.25    -999.25    -999.25
 5950.00000   14.52910  -74.44670    1.62250   86.84480    1.56050    1.49350    -999.25    -999.25    -999.25    -999.25    -999.25
 6000.00000   13.30740  -73.73900    1.41730   87.11260    1.45560    1.46170    -999.25    -999.25    -999.25    -999.25    -999.25
 6050.00000   12.88350  -66.93940    1.30980   88.40550    1.30410    1.29630    -999.25    -999.25    -999.25    -999.25    -999.25
 6100.00000   12.90010  -66.26520    1.69810   85.40710    1.74600    1.52880    0.31100    0.16310   -0.00270    -999.25    -999.25
 6150.00000   13.95490  -64.18420    1.40430   88.06790    1.36690    1.40840    0.29300    0.18640   -0.00270    -999.25    -999.25
 6200.00000   13.31540  -64.66300    1.47360   76.35230    1.45980    1.40080    0.27260    0.11060    0.00530    -999.25    -999.25
 6250.00000   12.21330  -63.22810    2.11870   74.79920    2.02500    1.69570    0.26620    0.11180   -0.03300    -999.25    -999.25
 6300.00000   11.67240  -58.86540    1.73880   72.89190    1.76870    1.65940    0.31570    0.13620    0.00260    -999.25    -999.25
 6350.00000   11.48890  -55.78470    1.68080   77.62780    1.61820    1.62650    0.28310    0.11660   -0.00500    -999.25    -999.25
 6400.00000   11.27850  -60.15710    1.47350   73.42210    1.38790    1.50070    0.27790    0.16310   -0.00570    -999.25    -999.25
 6450.00000   12.14660  -58.57140    1.45710   73.67580    1.41400    1.50890    0.26460    0.11840   -0.02240    -999.25    -999.25
 6500.00000   12.70670  -56.35130    1.12200   75.38030    1.09080    1.15290    0.31160    0.12060   -0.00910    -999.25    -999.25
 6550.00000   12.43850  -61.04730    1.48640   73.93300    1.45640    1.44170    0.29840    0.17590    0.00230    -999.25    -999.25
