~Version ---------------------------------------------------
VERS. 2.0 : CWLS log ASCII Standard -VERSION 2.0
WRAP. YES : MULTIPLE LINES PER DEPTH STEP
~Well ------------------------------------------------------
STRT.FT                        2500.0 : START DEPTH
STOP.FT                       11350.0 : STOP DEPTH
STEP.FT                      50.00000 : STEP LENGTH
NULL.                         -999.25 : NULL VALUE
COMP. UNION PACIFIC RESOURCES COMPANY : COMPANY
WELL.             BOZKA-BOZKA UNIT #1 : WELL
FLD .                     PEACH CREEK : FIELD
LOC .                                 : LOCATION
CNTY.                        GONZALES : COUNTY
STAT.                           TEXAS : STATE
CTRY.        UNITED STATES OF AMERICA : COUNTRY
SRVC.                    Schlumberger : SERVICE COMPANY
DATE.                     08-Oct-1991 : LOGDATE
API .                  42177319460000 : API NUMBER
UWI .                  42177319460000 : UNIQUE WELL ID
SLAT.WGS84              29.4649895079 : SURFACE LATITUDE
SLON.WGS84             -97.2961371962 : SURFACE LONGITUDE
~Curve Information -----------------------------------------
DEPT    .FT    : DEPTH FEET
C1ED    .IN    : CALIPER 1 FROM CALIPER LOG
C2ED    .IN    : CALIPER 2 FROM CALIPER LOG
CALRED  .IN    : CALIPER FROM RESISTIVITY LOG
CALWS   .IN    : CALIPER [CALRED]
CONDWS  .MMHO  : CONDUCTIVITY [1000/DRESWS]
DCORWS  .G/C3  : DENSITY CORRECTION [DRHOED]
DENWS   .G/C3  : BULK DENSITY [M=2.65 F=1.0] [CALCULATED FROM DPOWS]
DPHISSED.V/V   : DENSITY POROSITY SANDSTONE [M=2.65 F=1.0] FROM DENSITY LOG, DEPTH ADJUSTED WITH [GRRED]
DPOWS   .V/V   : DENSITY POROSITY [DPHISSED]
DRESWS  .OHMM  : DEEP RESISTIVITY [ILDED]
DRHOED  .G/C3  : DENSITY CORRECTION FROM DENSITY LOG, DEPTH ADJUSTED WITH [GRRED]
GRDED   .GAPI  : GAMMA RAY FROM DENSITY LOG, DEPTH ADJUSTED WITH [GRRED]
GRRED   .GAPI  : GAMMA RAY FROM RESISTIVITY LOG
GRWS    .GAPI  : GAMMA RAY [GRRED]
ILDED   .OHMM  : INDUCTION LOG DEEP RESISTIVITY
ILMED   .OHMM  : INDUCTION LOG MEDIUM RESISTIVITY
MRESWS  .OHMM  : MEDIUM RESISTIVITY [ILMED]
NPHISSED.V/V   : NEUTRON POROSITY SANDSTONE FROM DENSITY LOG, DEPTH ADJUSTED WITH [GRRED]
NPOWS   .V/V   : NEUTRON POROSITY SANDSTONE [NPHISSED]
PEFED   .B/E   : PHOTOELECTRIC FACTOR FROM DENSITY LOG, DEPTH ADJUSTED WITH [GRRED]
PEFWS   .B/E   : PHOTOELECTRIC FACTOR [PEFED]
SFLUED  .OHMM  : SPHERICALLY FOCUSED LOG RESISTIVITY
SPRED   .MV    : SPONTANEOUS POTENTIAL FROM RESISTIVITY LOG
SPWS    .MV    : SPONTANEOUS POTENTIAL [BASELINE 0 MV] [SPRED]
SRESWS  .OHMM  : SHALLOW RESISTIVITY [SFLUED]
TENDED  .LBF   : TENSION FROM DENSITY LOG, DEPTH ADJUSTED WITH [GRRED]
TENRED  .LBF   : TENSION FROM RESISTIVITY LOG
~Params ----------------------------------------------------
PD  .                     GL : PERMANENT DATUM
EPD .FT                  312 : ELEVATION PERMANENT DATUM
LMF .                    RKB : LOG MEASURED FROM
DAPD.FT                   24 : FEET ABOVE PERMANENT DATUM
DMF .                    RKB : DRILLING MEASURED FROM
EKB .FT                  336 : KELLY BUSHING
EDF .FT                  335 : DRILLING FLOOR
EGL .FT                  312 : GROUND LEVEL
DATE.               10/09/91 : RUN DATE
RUN .                      1 : RUN NUMBER
DD  .FT                11400 : DEPTH DRILLER
DL  .FT                11376 : DEPTH LOGGER
BLI .FT                11370 : BOTTOM LOG INTERVAL
TLI .FT                 2518 : TOP LOG INTERVAL
CS  .IN                10.75 : CASING SIZE
CBD .FT                 2520 : CASING BOTTOM DRILLER
CBL .FT                 2518 : CASING BOTTOM LOGGER
BS  .IN                9.875 : BIT SIZE
BSD .FT                11400 : BIT SIZE AT DEPTH
DFT .          NEW DRILL GEL : DRILLING FLUID TYPE
DFD .                    9.6 : DRILLING FLUID DENSITY
MSS .              CIRC TANK : MUD SAMPLE SOURCE
MST .DEGF                 75 : MUD SAMPLE TEMPERATURE
RMF .OHMM               2.01 : RESISTIVITY MUD FILTRATE SAMPLE
MFST.DEGF                 75 : MUD FILTRATE SAMPLE TEMPERATURE
RMC .OHMM               4.02 : RESISTIVITY MUD CAKE
MCST.DEGF                 75 : MUD CAKE SAMPLE TEMPERATURE
MFSS.                   MEAS : MUD FILTRATE SAMPLE SOURCE
MCSS.                   CALC : MUD CAKE SAMPLE SOURCE
TCS .HRS                2200 : TIME CIRCULATED STOPPED
TLAB.HRS                2020 : TIME LOGGER AT BOTTOM
LUL .               ALICE TX : LOGGING UNIT LOCATION
ENGI.             ROTAN CAMP : RECORDING ENGINEER
WITN.                   SVOR : WITNESSED BY
CLNT.                A2DTECH : CLIENT CODE
ORIG.         1" 2" 5" PRINT : ORIGIN OF DATA
UWI .         42177319460000 : UNIQUE WELL ID
DICO. A2D Technologies, Inc. : DIGITIZING COMPANY
~Other -----------------------------------------------------
~ASCII -----------------------------------------------------
# ...
 7700.00000    -999.25    -999.25    -999.25    -999.25  451.71200    -999.25    -999.25    -999.25    -999.25    2.21380    -999.25   88.15800   86.01940   86.01940    2.21380    2.29490    2.29490    0.29560    0.29560    -999.25    -999.25    2.82130  -11.67770   -5.68720    2.82130 3806.83200 1564.36160
 7750.00000    -999.25    -999.25    -999.25    -999.25  471.80940    -999.25    -999.25    -999.25    -999.25    2.11950    -999.25   90.04680   91.14780   91.14780    2.11950    2.18610    2.18610    0.31430    0.31430    -999.25    -999.25    2.47400   -8.51330   -2.43730    2.47400 3610.90210 1481.50680
 7800.00000    -999.25    -999.25    -999.25    -999.25  505.28020    -999.25    -999.25    -999.25    -999.25    1.97910    -999.25   93.26820   94.26990   94.26990    1.97910    2.04930    2.04930    0.33270    0.33270    -999.25    -999.25    2.47610  -14.46320   -8.30170    2.47610 3615.74980 1500.74020
 7850.00000    -999.25    -999.25    -999.25    -999.25  558.37850    -999.25    -999.25    -999.25    -999.25    1.79090    -999.25  101.92010  101.68040  101.68040    1.79090    1.85390    1.85390    0.32500    0.32500    -999.25    -999.25    2.24710  -10.48950   -3.70280    2.24710 3608.01390 1481.85330
 7900.00000    -999.25    -999.25    -999.25    -999.25  458.96820    -999.25    -999.25    -999.25    -999.25    2.17880    -999.25   95.45480   94.56760   94.56760    2.17880    2.25570    2.25570    0.30860    0.30860    -999.25    -999.25    2.74870  -20.63370  -13.11120    2.74870 3648.03340 1484.41890
 7950.00000    -999.25    -999.25    -999.25    -999.25  486.97350    -999.25    -999.25    -999.25    -999.25    2.05350    -999.25   92.54800   92.50850   92.50850    2.05350    2.11630    2.11630    0.28980    0.28980    -999.25    -999.25    2.58130  -20.33890  -12.08060    2.58130 3735.03120 1513.16190
 8000.00000    -999.25    -999.25    -999.25    -999.25  525.87290    -999.25    -999.25    -999.25    -999.25    1.90160    -999.25   90.23900   93.13760   93.13760    1.90160    1.97970    1.97970    0.28450    0.28450    -999.25    -999.25    2.45530  -16.88610   -7.89200    2.45530 3655.23660 1499.08680
 8050.00000    -999.25    -999.25    -999.25    -999.25  437.34970    -999.25    -999.25    -999.25    -999.25    2.28650    -999.25   82.29230   82.31590   82.31590    2.28650    2.35370    2.35370    0.22130    0.22130    -999.25    -999.25    2.82920  -16.34000   -6.61010    2.82920 3648.14650 1498.33730
 8100.00000    -999.25    -999.25    -999.25    -999.25  588.54690    -999.25    -999.25    -999.25    -999.25    1.69910    -999.25   81.46660   80.52450   80.52450    1.69910    1.78300    1.78300    0.29280    0.29280    -999.25    -999.25    2.28830  -15.34370   -4.87800    2.28830 3707.45410 1501.30550
 8150.00000    -999.25    -999.25    -999.25    -999.25  592.31180    -999.25    -999.25    -999.25    -999.25    1.68830    -999.25   66.35160   66.68390   66.68390    1.68830    1.75450    1.75450    0.24810    0.24810    -999.25    -999.25    2.43470  -19.61550   -8.41410    2.43470 3392.92720 1512.36460
 8200.00000    -999.25    -999.25    -999.25    -999.25  582.44510    -999.25    -999.25    -999.25    -999.25    1.71690    -999.25   79.11020   79.38210   79.38210    1.71690    1.76740    1.76740    0.29220    0.29220    -999.25    -999.25    2.31310  -15.25000   -3.31280    2.31310 3788.98630 1541.31100
 8250.00000    -999.25    -999.25    -999.25    -999.25  589.48360    -999.25    -999.25    -999.25    -999.25    1.69640    -999.25   69.99530   70.01350   70.01350    1.69640    1.73830    1.73830    0.30960    0.30960    -999.25    -999.25    2.18020  -17.04570   -4.37270    2.18020 3715.97340 1514.17740
 8300.00000    -999.25    -999.25    -999.25    -999.25  811.95190    -999.25    -999.25    -999.25    -999.25    1.23160    -999.25   74.16030   73.34660   73.34660    1.23160    1.27610    1.27610    0.37370    0.37370    -999.25    -999.25    1.66440  -15.44620   -2.03740    1.66440 3745.75340 1508.56600
 8350.00000    -999.25    -999.25    -999.25    -999.25  730.35350    -999.25    -999.25    -999.25    -999.25    1.36920    -999.25   84.08750   83.69410   83.69410    1.36920    1.40410    1.40410    0.32350    0.32350    -999.25    -999.25    1.98480  -14.00750    0.13710    1.98480 3745.71410 1518.55520
 8400.00000    -999.25    -999.25    -999.25    -999.25  700.91820    -999.25    -999.25    -999.25    -999.25    1.42670    -999.25   83.90100   83.33610   83.33610    1.42670    1.46200    1.46200    0.34090    0.34090    -999.25    -999.25    1.95860  -14.08280    0.79760    1.95860 3722.81960 1518.62350
 8450.00000    -999.25    -999.25    -999.25    -999.25  804.95850    -999.25    -999.25    -999.25    -999.25    1.24230    -999.25   73.58560   72.76730   72.76730    1.24230    1.29520    1.29520    0.35430    0.35430    -999.25    -999.25    1.79330  -16.41850   -0.80240    1.79330 3731.36840 1511.64900
 8500.00000    -999.25    -999.25    -999.25    -999.25  667.33400    -999.25    -999.25    -999.25    -999.25    1.49850    -999.25   81.32800   79.26010   79.26010    1.49850    1.53610    1.53610    0.38200    0.38200    -999.25    -999.25    2.04850  -18.89270   -2.54080    2.04850 3724.43600 1495.21640
 8550.00000    -999.25    -999.25    -999.25    -999.25  949.03670    -999.25    -999.25    -999.25    -999.25    1.05370    -999.25   87.27730   87.61190   87.61190    1.05370    1.09800    1.09800    0.48660    0.48660    -999.25    -999.25    1.54240  -23.59610   -6.50840    1.54240 3702.24320 1509.54030
 8600.00000    -999.25    -999.25    -999.25    -999.25  565.19530    -999.25    -999.25    -999.25    -999.25    1.76930    -999.25   68.16740   67.67570   67.67570    1.76930    1.85860    1.85860    0.34980    0.34980    -999.25    -999.25    2.31620  -16.44420    1.37930    2.31620 3684.55910 1498.84570
 8650.00000    -999.25    -999.25    -999.25    -999.25  829.25620    -999.25    -999.25    -999.25    -999.25    1.20590    -999.25  174.89880  173.22410  173.22410    1.20590    1.27760    1.27760    0.42130    0.42130    -999.25    -999.25    1.18410  -15.87310    2.68620    1.18410 3624.16360 1485.88890
 8700.00000    -999.25    -999.25    -999.25    -999.25  649.13990    -999.25    -999.25    -999.25    -999.25    1.54050    -999.25   73.33390   73.52180   73.52180    1.54050    1.60460    1.60460    0.30920    0.30920    -999.25    -999.25    2.44310  -18.83430    0.46080    2.44310 3728.59770 1521.58850
 8750.00000    -999.25    -999.25    -999.25    -999.25  516.26230    -999.25    -999.25    -999.25    -999.25    1.93700    -999.25   73.01380   73.87350   73.87350    1.93700    2.02280    2.02280    0.32070    0.32070    -999.25    -999.25    2.88240  -20.65440   -0.62350    2.88240 3774.59960 1523.93590
 8800.00000    -999.25    -999.25    -999.25    -999.25  630.51700    -999.25    -999.25    -999.25    -999.25    1.58600    -999.25   76.53000   75.15380   75.15380    1.58600    1.65580    1.65580    0.42120    0.42120    -999.25    -999.25    2.04000  -14.39610    6.37050    2.04000 3806.79420 1531.37890
 8850.00000    -999.25    -999.25    -999.25    -999.25  605.29020    -999.25    -999.25    -999.25    -999.25    1.65210    -999.25   89.52830   88.57330   88.57330    1.65210    1.71330    1.71330    0.44430    0.44430    -999.25    -999.25    1.99480  -18.33120    3.17120    1.99480 3822.83860 1550.62890
 8900.00000    -999.25    -999.25    -999.25    -999.25  531.74520    -999.25    -999.25    -999.25    -999.25    1.88060    -999.25   77.42710   74.62480   74.62480    1.88060    1.86160    1.86160    0.42560    0.42560    -999.25    -999.25    2.15840  -12.65340    9.58480    2.15840 3876.02050 1534.40670
 8950.00000    -999.25    -999.25    -999.25    -999.25  528.01100    -999.25    -999.25    -999.25    -999.25    1.89390    -999.25   76.54240   76.64940   76.64940    1.89390    1.97530    1.97530    0.34500    0.34500    -999.25    -999.25    2.28590  -14.38950    8.58450    2.28590 4012.11300 1580.71120
