~Version ---------------------------------------------------
VERS. 2.0 : CWLS log ASCII Standard -VERSION 2.0
WRAP. YES : MULTIPLE LINES PER DEPTH STEP
~Well ------------------------------------------------------
STRT.FT                       2050.0 : START DEPTH
STOP.FT                      10550.0 : STOP DEPTH
STEP.FT                     50.00000 : STEP LENGTH
NULL.                        -999.25 : NULL VALUE
COMP. QUINTANA PETROLEUM CORPORATION : COMPANY
WELL.                       HARLE #1 : WELL
FLD .                        BUCKLEY : FIELD
LOC .                                : LOCATION
CNTY.                       LA SALLE : COUNTY
STAT.                          TEXAS : STATE
CTRY.       UNITED STATES OF AMERICA : COUNTRY
SRVC.    HALLIBURTON Sperry Drilling : SERVICE COMPANY
DATE.                    12-Nov-1991 : LOGDATE
API .                 42283314640000 : API NUMBER
UWI .                 42283314640000 : UNIQUE WELL ID
SLAT.WGS84             28.3427642272 : SURFACE LATITUDE
SLON.WGS84            -99.0284847769 : SURFACE LONGITUDE
~Curve Information -----------------------------------------
DEPT    .FT    : DEPTH FEET
CALRED  .IN    : CALIPER FROM RESISTIVITY LOG
CALWS   .IN    : CALIPER [DCALRED+8.75]
CONDWS  .MMHO  : CONDUCTIVITY [1000/DRESWS]
DCALRED .IN    : DIFFERENTIAL CALIPER FROM RESISTIVITY LOG
DCORWS  .G/C3  : DENSITY CORRECTION [DRHOED]
DENWS   .G/C3  : BULK DENSITY  [CALCULATED FROM DPOWS][M=2.65 F=1.0]<9190>[M=2.71 F=1.0]
DFLED   .OHMM  : DIGITALLY FOCUSED LATEROLOG
DPHILSED.V/V   : DENSITY POROSITY [M=2.71 F=1.0] FROM DENSITY LOG
DPHISSED.V/V   : DENSITY POROSITY [M=2.65 F=1.0] FROM DENSITY LOG
DPOWS   .V/V   : DENSITY POROSITY [DPHISSED]<9190>DPHILSED
DRESWS  .OHMM  : DEEP RESISTIVITY [HDRSED]
DRHOED  .G/C3  : DENSITY CORRECTION FROM RES. LOG, DEPTH ADJUSTED WITH [GRRED]
DTED    .US/F  : DELTA TIME FROM SONIC LOG
DTWS    .US/F  : DELTA TIME [DTED]
GRKTED  .GAPI  : GAMMA RAY KT FROM SPECTRAL LOG, DEPTH ADJUSTED WITH [GRRED]
GRKUTED .GAPI  : GAMMA RAY KUT FROM SPECTRAL LOG, DEPTH ADJUSTED WITH [GRRED]
GRR1ED  .GAPI  : GAMMA RAY FROM INDUCTION [ILDED] LOG, DEPTH ADJUSTED WITH [GRRED]
GRRED   .GAPI  : GAMMA RAY FROM RESISTIVITY LOG
GRTHED  .GAPI  : GAMMA RAY TH FROM SPECTRAL LOG, DEPTH ADJUSTED WITH [GRRED]
GRWS    .GAPI  : GAMMA RAY [GRRED]
GUARDED .OHMM  : GUARD LOG RESISTIVITY
HDRSED  .OHMM  : HRI DEEP RESISTIVITY
HMRSED  .OHMM  : HRI MEDIUM RESISTIVITY
ILDED   .OHMM  : INDUCTION LOG DEEP RESISTIVITY , DEPTH ADJUSTED WITH [GRRED]
ILMED   .OHMM  : INDUCTION LOG MEDIUM RESISTIVITY, DEPTH ADJUSTED WITH [GRRED]
MRESWS  .OHMM  : MEDIUM RESISTIVITY [HMRSED]
NPHILSED.V/V   : NEUTRON POROSITY LIMESTONE FROM DENSITY LOG
NPHISSED.V/V   : NEUTRON POROSITY SANDSTONE FROM DENSITY LOG
NPOWS   .V/V   : NEUTRON POROSITY SANDSTONE [NPHISSED]<9190>LIMESTONE [NPHILSED]
SFLED   .OHMM  : SPHERICALLY FOCUSED LOG RESISTIVITY
SPRED   .MV    : SPONTANEOUS POTENTIAL FROM RESISTIVITY LOG
SPWS    .MV    : SPONTANEOUS POTENTIAL [BASELINE 0 MV] [SPRED]
SRESWS  .OHMM  : SHALLOW RESISTIVITY [DFLED]
TENRED  .LBF   : TENSION FROM RESISTIVITY LOG
~Params ----------------------------------------------------
PD  .                     GL : PERMANENT DATUM
EPD .F                 379.7 : ELEVATION PERMANENT DATUM
LMF .                    TKB : LOG MEASURED FROM
DAPD.F                    19 : FEET ABOVE PERMANENT DATUM
DMF .                    TKB : DRILLING MEASURED FROM
EKB .F                 398.7 : KELLING BUSHING
EDF .F                 397.7 : DRILLING FLOOR
EGL .F                 379.7 : GROUND LEVEL
DATE.             11-12-1991 : RUN DATE
RUN .                      1 : RUN NUMBER
DD  .F                 10615 : DEPTH DRILLER
DL  .F                 10568 : DEPTH LOGGER
BLI .F                 10566 : BOTTOM LOG INTERVAL
TLI .F                  2010 : TOP LOG INTERVAL
CS  .IN                9.625 : CASING SIZE
CBD .F                  2012 : CASING BOTTOM DRILLER
CBL .F                  2010 : CASING BOTTOM LOGGER
BS  .IN                 8.75 : BIT SIZE
BSD .F                 10615 : BIT SIZE AT DEPTH
DFT .              LIGNO-HFI : DRILLING FLUID TYPE
DFD .                   10.3 : DRILLING FLUID DENSITY
DFV .                     42 : DRILLING FLUID VISCOSITY
DFPH.                   10.5 : DRILLING FLUID PH
DFL .                    5.7 : DRILLING FLUID LOSS
MSS .               FLOWLINE : MUD SAMPLE SOURCE
RMS .OHMM               1.31 : RESISTIVITY MUD SAMPLE
MST .F                    75 : MUD SAMPLE TEMPERATURE
RMF .OHMM               1.04 : RESISTIVITY MUD FILTRATE SAMPLE
MFST.F                    75 : MUD FILTRATE SAMPLE TEMPERATURE
RMC .OHMM                2.6 : RESISTIVITY MUD CAKE
MCST.F                    75 : MUD CAKE SAMPLE TEMPERATURE
MFSS.                   MEAS : MUD FILTRATE SAMPLE SOURCE
MCSS.                   MEAS : MUD CAKE SAMPLE SOURCE
RMB .OHMM               0.43 : RESISTIVITY MUD AT BHT
TCS .HRS                16.5 : TIME CURCULATED STOPPED
TLAB.HRS                1200 : TIME LOGGER AT BOTTOM
LUN .                  51561 : LOGGING UNIT NUMBER
LUL .                  ALICE : LOGGING UNIT LOCATION
ENGI.                MERRELL : RECORDING ENGINEER
WITN.  MR. EVANS/MR. DUCKETT : WITNESSED BY
CLNT.                A2DTECH : CLIENT CODE
ORIG.               5" PRINT : ORIGIN OF DATA
UWI .         42283314640000 : UNIQUE WELL ID
DICO. A2D Technologies, Inc. : DIGITIZING COMPANY
~Other -----------------------------------------------------
~ASCII -----------------------------------------------------
# ...
 4150.00000    -999.25   10.49590  249.78140    1.74590    0.13390    2.41920    4.17280    -999.25    0.13990    0.13990    4.00350    0.13390   88.19820   88.19820    -999.25    -999.25   84.51830   86.40250    -999.25   86.40250    3.32040    4.00350    3.82360    2.71660    2.76770    3.82360    -999.25    0.32380    0.32380    4.60610  -46.77660   -9.69920    4.17280 2307.48360
 4200.00000    -999.25    8.89050  196.26320    0.14050    0.05890    2.42050    6.65890    -999.25    0.13910    0.13910    5.09520    0.05890   84.59440   84.59440    -999.25    -999.25   58.61770   68.85750    -999.25   68.85750    8.63490    5.09520    5.78240    5.04100    6.30610    5.78240    -999.25    0.30320    0.30320    6.57850  -56.07200  -19.43590    6.65890 2298.31790
 4250.00000    -999.25    9.27810  220.64830    0.52810    0.05580    2.27150   10.84800    -999.25    0.22940    0.22940    4.53210    0.05580   84.29450   84.29450    -999.25    -999.25   53.91120   58.06090    -999.25   58.06090   10.04130    4.53210    6.41240    4.18790    6.52760    6.41240    -999.25    0.27150    0.27150    9.70820  -78.08850  -41.89370   10.84800 2295.02200
 4300.00000    -999.25   10.70500  410.15540    1.95500    0.18510    2.30960    2.47500    -999.25    0.20630    0.20630    2.43810    0.18510   97.95800   97.95800    -999.25    -999.25   82.44070   86.09430    -999.25   86.09430    2.64730    2.43810    2.45950    2.62390    2.76680    2.45950    -999.25    0.32920    0.32920    3.27630  -39.28040   -3.52690    2.47500 2349.09030
 4350.00000    -999.25    9.81310  375.02340    1.06310    0.12210    2.23950    3.63680    -999.25    0.24880    0.24880    2.66650    0.12210   94.12910   94.12910    -999.25    -999.25   76.53560   86.31070    -999.25   86.31070    6.48480    2.66650    5.32330    2.30280    2.62040    5.32330    -999.25    0.34990    0.34990    2.41380  -41.37930   -5.76110    3.63680 2363.78660
 4400.00000    -999.25   10.02010  161.83320    1.27010    0.05860    2.46690    5.88430    -999.25    0.11100    0.11100    6.17920    0.05860   87.29730   87.29730    -999.25    -999.25   92.78050   94.19450    -999.25   94.19450    5.40940    6.17920    5.39700    4.83510    4.89070    5.39700    -999.25    0.30930    0.30930    5.11370  -43.47830   -7.77400    5.88430 2424.03100
 4450.00000    -999.25    9.24550  214.65220    0.49550    0.07080    2.38470    4.92110    -999.25    0.16080    0.16080    4.65870    0.07080   87.29690   87.29690    -999.25    -999.25   75.56470   83.05550    -999.25   83.05550    6.51220    4.65870    4.81230    4.21520    4.75790    4.81230    -999.25    0.30670    0.30670    5.51570  -57.27110  -21.48060    4.92110 2311.31080
 4500.00000    -999.25    8.79650  168.66250    0.04650    0.06160    2.52670   16.72740    -999.25    0.07470    0.07470    5.92900    0.06160   72.73190   72.73190    -999.25    -999.25   67.88940   72.54080    -999.25   72.54080   23.05560    5.92900    7.80370    6.14680   10.04860    7.80370    -999.25    0.18660    0.18660   15.31920  -79.76010  -43.88340   16.72740 2397.67850
 4550.00000    -999.25    9.30540  216.67530    0.55540    0.08570    2.47740    5.12830    -999.25    0.10460    0.10460    4.61520    0.08570   80.84080   80.84080    -999.25    -999.25   87.00690   88.79000    -999.25   88.79000    4.28170    4.61520    4.61520    3.77550    3.89980    4.61520    -999.25    0.30640    0.30640    4.95160  -44.65910   -8.69630    5.12830 2393.21000
 4600.00000    -999.25   10.73800  243.51050    1.98800    -999.25    2.53020    4.46980    -999.25    0.07260    0.07260    4.10660    -999.25   82.64260   82.64260    -999.25    -999.25  101.22560  101.73790    -999.25  101.73790    4.01440    4.10660    4.02290    3.50530    4.09290    4.02290    -999.25    0.28540    0.28540    4.30730  -41.08800   -5.03900    4.46980 2469.94140
 4650.00000    -999.25   10.67560  194.90900    1.92560    0.07240    2.39970    4.69020    -999.25    0.15170    0.15170    5.13060    0.07240   82.49180   82.49180    -999.25    -999.25   84.09320   88.54590    -999.25   88.54590    3.64660    5.13060    4.73470    3.52500    3.39230    4.73470    -999.25    0.29330    0.29330    4.83910  -46.17820  -10.04300    4.69020 2525.14920
 4700.00000    -999.25   10.20060  385.49010    1.45060    0.14900    2.40740    2.44120    -999.25    0.14700    0.14700    2.59410    0.14900   97.50750   97.50750    -999.25    -999.25   95.46790  103.61750    -999.25  103.61750    3.20920    2.59410    2.50980    2.44700    2.44590    2.50980    -999.25    0.36360    0.36360    2.84010  -42.57940   -6.35810    2.44120 2451.60250
 4750.00000    -999.25    8.67600  357.37260   -0.07400    0.09160    2.26790    5.38120    -999.25    0.23160    0.23160    2.79820    0.09160   93.37700   93.37700    -999.25    -999.25   75.12090   76.49260    -999.25   76.49260    6.03700    2.79820    3.86870    2.81050    3.71650    3.86870    -999.25    0.31650    0.31650    7.47070  -86.61770  -50.31020    5.38120 2469.79050
 4800.00000    -999.25    9.06310  380.22810    0.31310    0.04340    2.25680    8.58750    -999.25    0.23830    0.23830    2.63000    0.04340   87.29600   87.29600    -999.25    -999.25   59.92450   65.46730    -999.25   65.46730    8.05010    2.63000    4.02190    2.67260    4.43010    4.02190    -999.25    0.27080    0.27080    8.17240 -103.14840  -66.75470    8.58750 2492.79640
 4850.00000    -999.25    9.00650  262.10260    0.25650    0.04950    2.29900   10.92300    -999.25    0.21270    0.21270    3.81530    0.04950   85.49550   85.49550    -999.25    -999.25   58.24950   65.74790    -999.25   65.74790    9.55940    3.81530    5.43450    3.67310    5.45590    5.43450    -999.25    0.25580    0.25580   10.08280  -99.24960  -62.76980   10.92300 2458.48170
 4900.00000    -999.25   10.34810  342.90020    1.59810    0.16700    2.45780    2.95930    -999.25    0.11650    0.11650    2.91630    0.16700   88.64770   88.64770    -999.25    -999.25   93.79300   91.24050    -999.25   91.24050    3.43130    2.91630    2.90210    2.97010    3.06730    2.90210    -999.25    0.33630    0.33630    3.42280  -44.07670   -7.51070    2.95930 2455.46950
 4950.00000    -999.25    8.94500  317.87410    0.19500    0.04640    2.29940    8.29740    -999.25    0.21250    0.21250    3.14590    0.04640   86.24550   86.24550    -999.25    -999.25   64.21780   64.10390    -999.25   64.10390    9.49480    3.14590    4.59430    3.05130    4.59420    4.59430    -999.25    0.25810    0.25810    8.00680  -72.56370  -35.91150    8.29740 2525.98780
 5000.00000    -999.25   10.16710  480.58440    1.41710    0.16990    2.43880    2.20200    -999.25    0.12800    0.12800    2.08080    0.16990   96.60540   96.60540    -999.25    -999.25  101.02130   99.50360    -999.25   99.50360    2.53910    2.08080    2.15760    2.06310    2.20570    2.15760    -999.25    0.40530    0.40530    2.54820  -40.47980   -3.74150    2.20200 2561.66550
 5050.00000    -999.25    9.24320  115.46810    0.49320    0.06140    2.50410   18.41670    -999.25    0.08840    0.08840    8.66040    0.06140   68.44210   68.44210    -999.25    -999.25   52.16160   60.24610    -999.25   60.24610   19.13000    8.66040   11.40100    5.93710    8.69370   11.40100    -999.25    0.16640    0.16640   23.47090  -67.97610  -31.15160   18.41670 2587.38570
 5100.00000    -999.25   10.10780  411.45490    1.35780    0.12480    2.48450    2.61700    -999.25    0.10030    0.10030    2.43040    0.12480   96.60560   96.60560    -999.25    -999.25  104.50920  111.79170    -999.25  111.79170    2.77680    2.43040    2.17280    2.14980    2.16080    2.17280    -999.25    0.40080    0.40080    2.72050  -40.16650   -3.25590    2.61700 2543.78170
 5150.00000    -999.25    9.84100  405.56440    1.09100    0.17000    2.42410    2.39260    -999.25    0.13690    0.13690    2.46570    0.17000   95.25500   95.25500    -999.25    -999.25   97.78500  105.29940    -999.25  105.29940    3.05840    2.46570    2.34480    2.13680    2.28440    2.34480    -999.25    0.33790    0.33790    2.63320  -41.97850   -4.98170    2.39260 2580.01540
