~Version ---------------------------------------------------
VERS.      2.0 : CWLS log ASCII Standard -VERSION 2.0
WRAP.      YES : Multiple lines per depth step
CREA. 03/28/16 : LAS Creation Date
~Well ------------------------------------------------------
STRT.FT                                      300.0 : START DEPTH
STOP.FT                                    14300.0 : STOP DEPTH
STEP.FT                                   50.00000 : STEP LENGTH
NULL.                                      -999.25 : NULL VALUE
COMP.               COLUMBIA GAS DEVELOPMENT CORP. : COMPANY
WELL.                                 UNION FEE #1 : WELL
FLD .                                      WILDCAT : FIELD
LOC .                                              : LOCATION
CNTY.                                       GRIMES : COUNTY
STAT.                                        TEXAS : STATE
CTRY.                     UNITED STATES OF AMERICA : COUNTRY
SRVC. ATLAS WIRELINE SERVICES / WESTERN ATLAS INTL : SERVICE COMPANY
DATE.                                  20-Jul-1990 : LOGDATE
API .                               42185304230000 : API NUMBER
UWI .                               42185304230000 : UNIQUE WELL ID
SLAT.WGS84                           30.6748360809 : SURFACE LATITUDE
SLON.WGS84                          -95.9134095283 : SURFACE LONGITUDE
~Curve Information -----------------------------------------
DEPT    .FT    : DEPTH FEET
ACED    .US/F  : DELTA TIME (ACOUSTIC) FROM DIND-FOC/BHC SONIC LOG
C13ED   .IN    : CALIPER 1-3 FROM COMPENSATED Z-DENSILOG/CN/GR LOG
CALDED  .IN    : CALIPER FROM DENSITY LOG [DSH TO GRRED]
CALRED  .IN    : CALIPER FROM DIND-FOC/BHC SONIC LOG
CALWS   .IN    : CALIPER [TOP CALRED 11608' CALDED 11850' C13ED TD]
CNCLSED .V/V   : NEUTRON POROSITY LIMESTONE FROM COMPENSATED Z-DENSILOG/CN/GR LOG [DSH TO GRRED]
CNCSSED .V/V   : NEUTRON POROSITY SANDSTONE FROM COMPENSATED Z-DENSILOG/CN/GR LOG [DSH TO GRRED]
CONDWS  .MMHO  : DEEP CONDUCTIVITY [1000/DRESWS]
DCORWS  .G/C3  : DENSITY CORRECTION [ZCORED]
DENWS   .G/C3  : BULK DENSITY [CALCULATED FROM DPOLSWS, M=2.71,F=1.0]
DPOLSWS .V/V   : DENSITY POROSITY (LS) [TOP PORZLSED 11338' PORZSSED CONVERTED TO LIMESTONE 11850' PORZLSED TD]
DRESWS  .OHMM  : DEEP RESISTIVITY [RILDED]
DTWS    .US/F  : DELTA TIME COMPRESSIONAL [ACED]
GRDED   .GAPI  : GAMMA RAY FROM COMPENSATED Z-DENSILOG/CN/GR LOG [DSH TO GRRED]
GRMED   .GAPI  : GAMMA RAY MICROLOG [DSH TO GRRED]
GRN1ED  .GAPI  : GAMMA RAY FROM GRN LOG (HALLIBURTON) [DSH TO GRRED]
GRNED   .CU    : GAMMA RAY FROM GRN LOG (PENWOOD) [DSH TO GRRED]
GRRED   .GAPI  : GAMMA RAY FROM DIND-FOC/BHC SONIC LOG
GRWS    .GAPI  : GAMMA RAY [TOP GRRED 10990 GRDED 11250 GRRED 14107 GRDED 14250 GRMED TD (IN CASING 3012-2965 GRRED+15)]
MCALED  .IN    : CALIPER FROM MICROLOG [DSH TO GRRED]
MRESWS  .OHMM  : MEDIUM RESISTIVITY [RILMED]
NEUT1ED .NAPI  : NEUTRON FROM GRN LOG (HALLIBURTON) [DSH TO GRRED]
NEUTED  .CU    : NEUTRON FROM GRN LOG (PENWOOD [DSH TO GRRED])
NPOLSWS .V/V   : NEUTRON POROSITY LIMESTONE [TOP CNCLSED 11338' CNCSSED CONVERTED TO LIMESTONE 11850' CNCLSED TD]
PEFED   .B/E   : PHOTOELECTRIC FACTOR FROM COMPENSATED Z-DENSILOG/CN/GR LOG [DSH TO GRRED]
PEFWS   .B/E   : PHOTOELECTRIC FACTOR [PEFED]
PORZLSED.V/V   : DENSITY POROSITY (LS) [M=2.71 F=1.0] FROM COMPENSATED Z-DENSILOG/CN/GR LOG [DSH TO GRRED]
PORZSSED.V/V   : DENSITY POROSITY (SS) [M=2.65 F=1.0] FROM COMPENSATED Z-DENSILOG/CN/GR LOG [DSH TO GRRED]
RFOCED  .OHMM  : FOCUSED RESISTIVITY FROM DIND-FOC/BHC SONIC LOG
RILDED  .OHMM  : INDUCTION LOG DEEP RESISTIVITY FROM DIND-FOC/BHC SONIC LOG
RILMED  .OHMM  : INDUCTION LOG MEDIUM RESISTIVITY FROM DIND-FOC/BHC SONIC LOG
SPRED   .MV    : SPONTANEOUS POTENTIAL FROM DIND-FOC/BHC SONIC LOG
SPWS    .MV    : SPONTANEOUS POTENTIAL [BASELINE 0 MV] [SPRED]
SRESWS  .OHMM  : SHALLOW RESISTIVITY [RFOCED]
TENDED  .LBF   : TENSION FROM COMPENSATED Z-DENSILOG/CN/GR LOG [DSH TO GRRED]
TENRED  .LBF   : TENSION FROM DIND-FOC/BHC SONIC LOG
ZCORED  .G/C3  : DENSITY CORRECTION FROM COMPENSATED Z-DENSILOG/CN/GR LOG [DSH TO GRRED]
~Params ----------------------------------------------------
PD  .                     GL : PERMANENT DATUM
EPD .FT                  366 : ELEVATION PERMANENT DATUM
LMF .                    RKB : LOG MEASURED FROM
DAPD.FT                   21 : FEET ABOVE PERMANENT DATUM
DMF .                    RKB : DRILLING MEASURED FROM
EKB .FT                  387 : KELLY BUSHING
EDF .FT                  386 : DRILLING FLOOR
EGL .FT                  366 : GROUND LEVEL
DATE.               07/20/90 : RUN DATE
RUN .                      1 : RUN NUMBER
DD  .FT                14300 : DEPTH DRILLER
DL  .FT                14300 : DEPTH LOGGER
BLI .FT                14297 : BOTTOM LOG INTERVAL
TLI .FT                11428 : TOP LOG INTERVAL
CS  .IN                9.625 : CASING SIZE
CBD .FT                 3814 : CASING BOTTOM DRILLER
CBL .FT                 3814 : CASING BOTTOM LOGGER
BS  .IN                 8.75 : BIT SIZE
BSD .FT                14300 : BIT SIZE AT DEPTH
DFT .                        : DRILLING FLUID TYPE
DFD .                    9.9 : DRILLING FLUID DENSITY
DFV .                     36 : DRILLING FLUID VISCOSITY
DFPH.                    9.5 : DRILLING FLUID PH
DFL .                    6.8 : DRILLING FLUID LOSS
MSS .                    PIT : MUD SAMPLE SOURCE
RMS .OHMM               1.26 : RESISTIVITY MUD SAMPLE
MST .DEGF                 78 : MUD SAMPLE TEMPERATURE
RMF .OHMM               0.78 : RESISTIVITY MUD FILTRATE SAMPLE
MFST.DEGF                 78 : MUD FILTRATE SAMPLE TEMPERATURE
RMC .OHMM               1.68 : RESISTIVITY MUD CAKE
MCST.DEGF                 78 : MUD CAKE SAMPLE TEMPERATURE
MFSS.                   MEAS : MUD FILTRATE SAMPLE SOURCE
MCSS.                   MEAS : MUD CAKE SAMPLE SOURCE
RMB .OHMM               0.32 : RESISTIVITY MUD AT BHT
TCS .HRS                  18 : TIME CIRCULATED STOPPED
TLAB.HRS                   0 : TIME LOGGER AT BOTTOM
LUN .                HL 6428 : LOGGING UNIT NUMBER
LUL .               BEALMONT : LOGGING UNIT LOCATION
ENGI.                SHERRIN : RECORDING ENGINEER
WITN.                  SADDO : WITNESSED BY
CLNT.                A2DTECH : CLIENT CODE
ORIG.               5" PRINT : ORIGIN OF DATA
UWI .         42185304230000 : UNIQUE WELL ID
DICO. A2D Technologies, Inc. : DIGITIZING COMPANY
OS  .                        : OTHER SERVICES
PWI .                        : PRIMARY WELL IDENTIFIER
R1  .                        : REMARKS 1
R2  .                        : REMARKS 2
LSRV.                        : LOG MNEMONIC
~Other -----------------------------------------------------
~ASCII -----------------------------------------------------
# ...
 13300.00000   52.62360   13.27730    -999.25    -999.25   13.27730    0.12890    -999.25   87.76930    0.07860    2.58890    0.07080   11.39350   52.62360   35.03800   34.38110    -999.25    -999.25   33.67490   33.67490   11.37550   15.51320    -999.25    -999.25    0.12890    5.89670    5.89670    0.07080    -999.25   20.48360   11.39350   15.51320  -24.73130  -80.17070   20.48360   16.01990  -10.13600    0.07860
 13350.00000   51.31150   11.15470    -999.25    -999.25   11.15470    0.09270    -999.25   13.33590   -0.00870    2.64710    0.03680   74.98550   51.31150   26.31690   25.77140    -999.25    -999.25   24.55860   24.55860   10.49050   89.52490    -999.25    -999.25    0.09270    7.02150    7.02150    0.03680    -999.25  140.59060   74.98550   89.52490  -38.92240  -96.36190  140.59060    5.92980   -8.86470   -0.00870
 13400.00000   50.98730    9.48520    -999.25    -999.25    9.48520    0.15190    -999.25   19.81600    0.06030    2.62060    0.05230   50.46430   50.98730   28.03850   26.95700    -999.25    -999.25   27.82810   27.82810   10.14020   66.18860    -999.25    -999.25    0.15190    6.98890    6.98890    0.05230    -999.25  156.47080   50.46430   66.18860  -53.63090 -113.07050  156.47080    0.26770    0.20320    0.06030
 13450.00000   56.32300   10.40660    -999.25    -999.25   10.40660    0.14420    -999.25   63.45940    0.02210    2.61490    0.05560   15.75810   56.32300   43.32990   45.96750    -999.25    -999.25   43.64600   43.64600    9.69510   32.28800    -999.25    -999.25    0.14420    6.30020    6.30020    0.05560    -999.25   33.16900   15.75810   32.28800  -33.89930  -95.33900   33.16900    3.76190    5.91730    0.02210
 13500.00000   57.80310   10.49400    -999.25    -999.25   10.49400    0.13050    -999.25   61.50330    0.12480    2.53150    0.10440   16.25930   57.80310   38.13910   37.58190    -999.25    -999.25   34.89690   34.89690    9.75280   30.57350    -999.25    -999.25    0.13050    6.29560    6.29560    0.10440    -999.25   25.35580   16.25930   30.57350  -19.59140  -83.03120   25.35580    0.90910    5.76990    0.12480
 13550.00000   56.96440   10.66100    -999.25    -999.25   10.66100    0.01580    -999.25   31.94450   -0.00380    2.66260    0.02770   31.30430   56.96440   40.16500   37.29660    -999.25    -999.25   42.94260   42.94260    9.63580   42.40490    -999.25    -999.25    0.01580    6.78910    6.78910    0.02770    -999.25   62.82340   31.30430   42.40490  -28.87690  -94.31690   62.82340    0.27200   -2.32420   -0.00380
 13600.00000   85.71250   11.70890    -999.25    -999.25   11.70890    0.15570    -999.25  175.94170    0.20760    2.10940    0.35120    5.68370   85.71250   79.24060   75.74490    -999.25    -999.25   78.14180   78.14180    9.88180   18.89740    -999.25    -999.25    0.15570    3.25830    3.25830    0.35120    -999.25    8.78330    5.68370   18.89740  -30.79010  -98.23020    8.78330    5.23510   -4.08210    0.20760
 13650.00000   74.12270   11.77020    -999.25    -999.25   11.77020    0.14860    -999.25   88.13520    0.21050    2.15560    0.32420   11.34620   74.12270   52.17090   58.55760    -999.25    -999.25   53.72230   53.72230   10.27660   21.03270    -999.25    -999.25    0.14860    4.99490    4.99490    0.32420    -999.25   10.15190   11.34620   21.03270  -34.16760 -103.60780   10.15190    2.41040    9.66680    0.21050
 13700.00000   62.45720   10.30100    -999.25    -999.25   10.30100    0.15060    -999.25  142.33660   -0.00820    2.50120    0.12210    7.02560   62.45720   52.23830   53.39550    -999.25    -999.25   51.71490   51.71490    9.50070    8.86850    -999.25    -999.25    0.15060    5.31730    5.31730    0.12210    -999.25   22.50750    7.02560    8.86850  -45.74850 -117.18880   22.50750    1.90670    7.79010   -0.00820
 13750.00000   64.69940    9.97980    -999.25    -999.25    9.97980    0.14060    -999.25   84.81190    0.02730    2.66180    0.02820   11.79080   64.69940   58.41530   57.44020    -999.25    -999.25   56.14640   56.14640    9.51560   20.49900    -999.25    -999.25    0.14060    5.07250    5.07250    0.02820    -999.25   17.25900   11.79080   20.49900   -2.01230  -75.45270   17.25900    4.56060   -0.75000    0.02730
 13800.00000   51.47490    9.74530    -999.25    -999.25    9.74530    0.13180    -999.25   10.19630    0.04180    2.69960    0.00610   98.07520   51.47490   39.37600   37.66970    -999.25    -999.25   35.79840   35.79840    9.58810   55.43270    -999.25    -999.25    0.13180    6.96350    6.96350    0.00610    -999.25  155.88200   98.07520   55.43270   -6.29220  -81.73270  155.88200    0.37960    1.48890    0.04180
 13850.00000   55.98630    9.53790    -999.25    -999.25    9.53790    0.14410    -999.25   34.64850    0.00530    2.69100    0.01110   28.86130   55.98630   50.22480   51.20810    -999.25    -999.25   49.47520   49.47520    9.07720   31.93300    -999.25    -999.25    0.14410    6.46540    6.46540    0.01110    -999.25   52.73240   28.86130   31.93300   29.73550  -47.70510   52.73240    1.00950    4.69430    0.00530
 13900.00000   54.28370    9.41190    -999.25    -999.25    9.41190    0.11780    -999.25   23.54480    0.00550    2.67750    0.01900   42.47220   54.28370   48.22290   42.17680    -999.25    -999.25   41.50110   41.50110    8.91880   39.82230    -999.25    -999.25    0.11780    7.02450    7.02450    0.01900    -999.25   79.11750   42.47220   39.82230   74.16240   -5.27830   79.11750   -7.31480    2.69290    0.00550
 13950.00000   50.95540    8.98320    -999.25    -999.25    8.98320    0.10260    -999.25   21.94820    0.03990    2.70910    0.00050   45.56190   50.95540   36.72460   27.70530    -999.25    -999.25   26.29470   26.29470    8.55320   64.78280    -999.25    -999.25    0.10260    7.07110    7.07110    0.00050    -999.25  158.60150   45.56190   64.78280   60.61100  -19.94980  158.60150   -4.29960   62.30040    0.03990
 14000.00000   55.72800    8.54710    -999.25    -999.25    8.54710    0.13030    -999.25   17.90300   -0.00530    2.66640    0.02550   55.85670   55.72800   32.73500   28.28630    -999.25    -999.25   28.09750   28.09750    8.74590    9.33100    -999.25    -999.25    0.13030    7.00720    7.00720    0.02550    -999.25   73.18360   55.85670    9.33100   22.39280  -58.16800   73.18360    0.23780   36.78750   -0.00530
 14050.00000   48.00460    8.54310    -999.25    -999.25    8.54310    0.14870    -999.25   26.03750   -0.00750    2.66870    0.02420   38.40620   48.00460   29.00590   31.10070    -999.25    -999.25   29.52940   29.52940    8.57470    8.42060    -999.25    -999.25    0.14870    7.08920    7.08920    0.02420    -999.25   97.30800   38.40620    8.42060   13.95160  -66.60920   97.30800   -2.47050    6.15030   -0.00750
 14100.00000   52.52400    8.67620    -999.25    -999.25    8.67620    0.15980    -999.25   83.01100    0.01930    2.60690    0.06030   12.04660   52.52400   33.60520   33.79390    -999.25    -999.25   31.16580   31.16580    8.65760    5.39090    -999.25    -999.25    0.15980    6.31380    6.31380    0.06030    -999.25   19.61450   12.04660    5.39090  -32.02860 -112.58940   19.61450    3.49280   -7.14990    0.01930
 14150.00000   50.99710    8.38290    -999.25    -999.25    8.38290    0.11640    -999.25   28.81770    0.03930    2.62430    0.05010   34.70090   50.99710   32.88050   33.27580    -999.25    -999.25   31.36040   32.88050    8.66250   22.93200    -999.25    -999.25    0.11640    7.16260    7.16260    0.05010    -999.25   10.55540   34.70090   22.93200  -50.20180 -130.76260   10.55540   14.76790  -12.13870    0.03930
 14200.00000    -999.25    8.30580    -999.25    -999.25    8.30580    0.09270    -999.25    9.29800    0.01470    2.64620    0.03730  107.54950    -999.25   29.56470   34.77970    -999.25    -999.25   35.15880   29.56470    8.52300   66.44100    -999.25    -999.25    0.09270    7.13480    7.13480    0.03730    -999.25  254.64230  107.54950   66.44100 -131.19040 -211.75120  254.64230  629.01740 1410.36910    0.01470
 14250.00000    -999.25    7.67700    -999.25    -999.25    7.67700    0.11130    -999.25    9.66930    0.07710    2.61420    0.05600  103.42010    -999.25   30.75630   31.12810    -999.25    -999.25   32.64830   30.75630    8.49120   69.31200    -999.25    -999.25    0.11130    7.02820    7.02820    0.05600    -999.25  460.50000  103.42010   69.31200  -96.47170 -177.03250  460.50000   -0.77060  384.25990    0.07710
