~Version ---------------------------------------------------
VERS. 2.0 : CWLS log ASCII Standard -VERSION 2.0
WRAP.  NO : ONE LINE PER DEPTH STEP
~Well ------------------------------------------------------
STRT.F                   300.0 : START DEPTH
STOP.F                  7150.0 : STOP DEPTH
STEP.F                50.00000 : STEP LENGTH
NULL.                  -999.25 : NULL VALUE
COMP.        EASON OIL COMPANY : COMPANY
WELL.      FLOWERS AND WARD #1 : WELL
FLD .                  WILDCAT : FIELD
LOC .                          : LOCATION
CNTY.                   ZAVALA : COUNTY
STAT.                    TEXAS : STATE
CTRY. UNITED STATES OF AMERICA : COUNTRY
SRVC.             Schlumberger : SERVICE COMPANY
DATE.              04-Feb-1980 : LOGDATE
API .           42507312960000 : API NUMBER
UWI .           42507312960000 : UNIQUE WELL ID
SLAT.WGS84        29.077013402 : SURFACE LATITUDE
SLON.WGS84     -100.0065409806 : SURFACE LONGITUDE
~Curve Information -----------------------------------------
DEPT   .F    0   1   0  0 : 1 MEASURED DEPTH
NPHI_SS.DEC  42 890 03 00 : NEUTRON POROSITY SANDSTONE
GRD    .GAPI 45 310 01 00 : GAMMA RAY FROM DENSITY LOG
DPHI_SS.DEC  45 890 12 00 : DENSITY POROSITY SANDSTONE
CALD   .IN   45 280 60 00 : CALIPER FROM DENSITY LOG
NPHI_LS.DEC  42 890 01 00 : NEUTRON POROSITY LIMESTONE
DPHI_LS.DEC  45 890 10 00 : DENSITY POROSITY LIMESTONE
CORR   .G/C3 45 356 01 00 : DENSITY CORRECTION
RHOB   .G/C3 45 350 01 00 : BULK DENSITY
DT     .MS/F 60 500 00 00 : DELTA-T (INTERVAL TRANSIT TIME)
ILD    .OHMM 07 120 46 00 : INDUCTION DEEP RESISTIVITY
ILM    .OHMM 07 120 44 00 : INDUCTION MEDIUM RESISTIVITY
SFL    .OHMM 07 220 01 00 : SPHERICALLY FOCUSED LOG
SPR    .MV   07 010 01 00 : SPONTANEOUS POTENTIAL FROM RESISTIVITY LOG
~Params ----------------------------------------------------
PD  .                     GL : PERMANENT DATUM
EPD .FT               808.45 : ELEVATION PERMANENT DATUM
LMF .                     KB : LOG MEASURED FROM
DAPD.FT                   13 : FEET ABOVE PERMANENT DATUM
DMF .                     KB : DRILLING MEASURED FROM
EKB .FT               821.45 : KELLY BUSHING
EDF .FT               820.45 : DRILLING FLOOR
EGL .FT               808.45 : GROUND LEVEL
DATE.               02/04/80 : RUN DATE
RUN .                      1 : RUN NUMBER
DD  .FT                 7151 : DEPTH DRILLER
DL  .FT                 7191 : DEPTH LOGGER
BLI .FT                 7188 : BOTTOM LOG INTERVAL
TLI .FT                  513 : TOP LOG INTERVAL
CS  .IN                8.625 : CASING SIZE
CBD .FT                  516 : CASING BOTTOM DRILLER
CBL .FT                  513 : CASING BOTTOM LOGGER
BS  .IN                7.875 : BIT SIZE
BSD .FT                 7151 : BIT SIZE AT DEPTH
DFT .         LIGNOSULFONATE : DRILLING FLUID TYPE
DFD .                    9.3 : DRILLING FLUID DENSITY
DFV .                     44 : DRILLING FLUID VISCOSITY
DFPH.                   10.7 : DRILLING FLUID PH
DFL .                    7.7 : DRILLING FLUID LOSS
MSS .                    PIT : MUD SAMPLE SOURCE
RMS .OHMM               1.32 : RESISTIVITY MUD SAMPLE
MST .DEGF                 73 : MUD SAMPLE TEMPERATURE
RMF .OHMM               0.99 : RESISTIVITY MUD FILTRATE SAMPLE
MFST.DEGF                 73 : MUD FILTRATE SAMPLE TEMPERATURE
RMC .OHMM               1.98 : RESISTIVITY MUD CAKE
MCST.DEGF                 73 : MUD CAKE SAMPLE TEMPERATURE
MFSS.                  CHART : MUD FILTRATE SAMPLE SOURCE
MCSS.                  CHART : MUD CAKE SAMPLE SOURCE
RMB .OHMM               0.63 : RESISTIVITY MUD AT BHT
TCS .HRS                 530 : TIME CIRCULATED STOPPED
TLAB.HRS                1430 : TIME LOGGER AT BOTTOM
LUN .                   8145 : LOGGING UNIT NUMBER
LUL .                  PLEAS : LOGGING UNIT LOCATION
ENGI.                   FAIR : RECORDING ENGINEER
WITN.                 LONDON : WITNESSED BY
CLNT.                A2DTECH : CLIENT CODE
ORIG.               5" PRINT : ORIGIN OF DATA
UWI .         42507312960000 : UNIQUE WELL ID
DICO. A2D Technologies, Inc. : DIGITIZING COMPANY
~Other -----------------------------------------------------
~ASCII -----------------------------------------------------
  300.00000    0.60320   49.51400    -999.25    -999.25    -999.25    -999.25    -999.25    -999.25    -999.25    -999.25    -999.25    -999.25    -999.25
  350.00000    0.65470   52.72400    -999.25    -999.25    -999.25    -999.25    -999.25    -999.25    -999.25    -999.25    -999.25    -999.25    -999.25
  400.00000    0.44680   27.26490    -999.25    -999.25    -999.25    -999.25    -999.25    -999.25    -999.25    -999.25    -999.25    -999.25    -999.25
  450.00000    0.56670   45.37630    -999.25    -999.25    -999.25    -999.25    -999.25    -999.25    -999.25    -999.25    -999.25    -999.25    -999.25
  500.00000    0.27640   15.92460    -999.25    -999.25    -999.25    -999.25    -999.25    -999.25    -999.25    -999.25    -999.25    -999.25    -999.25
  550.00000    0.28340    8.71180    0.17480    9.55880    -999.25    -999.25   -0.00470    2.36280   75.60510  118.57840   60.86730  126.32340 -140.19020
  600.00000    0.53450   28.94240    0.35180   13.50520    -999.25    -999.25    0.07520    2.03500  109.02820    2.53970    2.38540    2.79260 -119.08670
  650.00000    0.17990    7.36540    0.09000   11.28180    -999.25    -999.25   -0.00540    2.49900   71.64230   21.13810   25.75170   38.59520 -161.17810
  700.00000    0.33360   16.25250    0.15630   10.78940    -999.25    -999.25   -0.00570    2.39330   86.76410   10.68860    8.41290    8.36850 -131.42060
  750.00000    0.22730   18.84330    0.06870   11.03050    -999.25    -999.25   -0.01290    2.50500   68.97650    5.80240    6.49700    9.02580 -131.60260
  800.00000    0.25280   15.49320    0.10800   11.73640    -999.25    -999.25   -0.00860    2.47260   77.82850    6.10670    6.49950    7.39960 -151.10250
  850.00000    0.24610   29.90930    0.08790    9.84830    -999.25    -999.25   -0.00840    2.50370   72.71780    8.95230    8.50700    8.54150 -129.46510
  900.00000    0.21160   55.07580    0.04110   10.15530    -999.25    -999.25   -0.00680    2.58210   77.53180   11.29030   10.56560    9.82700 -118.67260
  950.00000    0.20730   37.56200    0.07720   10.36870    -999.25    -999.25   -0.01270    2.52410   76.86100    8.74490    8.36500    7.94400 -131.66750
 1000.00000    0.14480   17.81510    0.03210   10.52850    -999.25    -999.25   -0.00970    2.59630   65.63470   16.66240   17.31220   18.02910 -134.15930
 1050.00000    0.20360   27.61510    0.05070    9.86250    -999.25    -999.25   -0.00540    2.56240   70.18400   10.98090   10.60420   10.21520 -141.58290
 1100.00000    0.22700   29.89780    0.06400    9.82920    -999.25    -999.25   -0.00150    2.54840   78.53890    6.74530    6.48160    6.07040 -130.52430
 1150.00000    0.36530   40.03940    0.19300    9.90800    -999.25    -999.25   -0.02620    2.26380   87.52980    4.00420    4.43790    4.15680 -125.24540
 1200.00000    0.18890   25.69400    0.05600    9.50800    -999.25    -999.25   -0.02110    2.56050   67.09910   11.19800   11.88680   10.09400 -144.63590
 1250.00000    0.48140   65.37290    0.40600    9.83700    -999.25    -999.25    0.00280    1.99610  104.16550    5.68130    4.25370    4.27440 -122.96880
 1300.00000    0.23680   34.54780    0.07150    9.30290    -999.25    -999.25   -0.00980    2.53120   74.88060    7.33550    7.05810    6.37470 -139.67090
 1350.00000    0.22730   18.13810    0.09990    9.85860    -999.25    -999.25   -0.01140    2.48740   70.28430    5.39530    5.47970    6.15390 -153.26210
 1400.00000    0.23980   17.54870    0.11980   11.03550    -999.25    -999.25   -0.00610    2.45190   71.85240    3.75300    3.79400    6.00030 -160.57670
 1450.00000    0.27620   20.59050    0.14720   11.79380    -999.25    -999.25   -0.00990    2.40660   82.13140    2.58380    2.72230    3.66960 -161.37950
 1500.00000    0.26930   20.00590    0.15130   11.41120    -999.25    -999.25   -0.00550    2.39890   79.10030    2.70890    2.83700    4.34240 -160.43300
 1550.00000    0.23380   19.24280    0.10600   10.57370    -999.25    -999.25   -0.01030    2.47410   71.64130    4.26020    4.46790    5.51610 -154.31820
 1600.00000    0.23180   28.79950    0.11760   11.03890    -999.25    -999.25   -0.00990    2.45490   76.14470    4.02850    4.27000    6.06510 -156.78910
 1650.00000    0.21790   48.89940    0.08910    9.02680    -999.25    -999.25   -0.02190    2.50230   70.17930   17.86310   18.37480   25.37550 -145.60150
 1700.00000    0.23790   66.90610    0.06080    9.69870    -999.25    -999.25   -0.00730    2.55350   73.05180   12.79940   12.20510   11.79250 -136.37270
 1750.00000    0.33390   60.12740    0.10710    9.67620    -999.25    -999.25   -0.00490    2.47300   82.39750    9.32710    9.24900    8.92440 -142.42430
 1800.00000    0.28820   45.75540    0.03030    8.74230    -999.25    -999.25   -0.00290    2.60000   78.17940   11.77170   10.91320   13.62870 -116.68600
 1850.00000    0.35810   74.92650    0.18780    8.72850    -999.25    -999.25   -0.00620    2.34030   84.24710   10.84720   10.19950   12.95310 -133.89780
 1900.00000    0.33740   87.54240    0.14820    8.69940    -999.25    -999.25    0.01150    2.38410   84.80780   75.28720   59.05460   81.15380 -107.39040
 1950.00000    0.19200   11.13920    0.10550    9.95270    -999.25    -999.25   -0.01930    2.46330   64.91440   15.22910   17.32240   21.21370 -131.75900
 2000.00000    0.15950   12.52340    0.08240   10.20030    -999.25    -999.25   -0.01640    2.51460   63.72050   18.18040   17.95760   24.67960 -139.36090
 2050.00000    0.27110   46.91470    0.13050   11.35470    -999.25    -999.25    0.12480    2.41360   83.73930   12.53660   10.45290   11.24880 -113.06120
 2100.00000    0.51280   58.30850    0.41150   15.56410    -999.25    -999.25    0.07550    1.97710   99.53520    7.13750    6.17460    6.59640 -107.07850
 2150.00000    0.48000   67.07390    0.42800   13.98610    -999.25    -999.25    0.15790    1.94830  100.63160    7.37130    6.79940    7.69480 -106.93710
 2200.00000    0.26110   44.52740   -0.05490    9.57170    -999.25    -999.25   -0.01100    2.73580   71.52230   18.82240   18.25000   17.67550 -115.52770
 2250.00000    0.14640   14.33080    0.05080   10.09320    -999.25    -999.25   -0.00680    2.56190   60.86360   39.93480   33.62180   33.72280 -128.86690
 2300.00000    0.11240   12.65110    0.03530    9.19420    -999.25    -999.25   -0.01810    2.59030   57.29560   74.61230   57.76870   66.38130 -131.54510
 2350.00000    0.10210   25.67120   -0.00550    8.63330    -999.25    -999.25   -0.01000    2.65910   59.97350   78.66620   65.35960   78.32510 -119.42690
 2400.00000    0.13350   18.84940    0.03080    8.48790    -999.25    -999.25   -0.00960    2.60090   61.15440   65.88640   53.58120   53.25470 -129.53230
 2450.00000    0.25030   29.97400    0.13940    9.66030    -999.25    -999.25    0.00210    2.42110   71.79140   23.09290   21.65190   21.16830 -123.72040
 2500.00000    0.26950   25.14560    0.17610   10.53200    -999.25    -999.25   -0.00950    2.35980   75.49010   14.23080   13.77940   12.98740 -129.93550
 2550.00000    0.32110   16.08620    0.21340   11.09010    -999.25    -999.25    0.01250    2.30190   81.34340    9.47900    9.14550    8.34970 -126.47400
 2600.00000    0.31860   22.25750    0.21390   11.96610    -999.25    -999.25   -0.00550    2.29940   80.20400   10.24750    9.81850    9.28770 -119.78070
 2650.00000    0.29580   23.62570    0.19070   11.79690    -999.25    -999.25   -0.00440    2.33540   75.01610   11.65690   11.13910   10.56060 -124.45730
 2700.00000    0.36660   14.47860    0.21800   12.98060    0.36260    0.21970   -0.00060    2.29040   80.41610    9.76920    9.13730    7.43690 -121.45440
 2750.00000    -999.25   13.69740    -999.25    8.74050    0.01560   -0.12570   -0.02150    2.92540   49.47560 1736.97010  317.18850 1023.28280 -101.27090
 2800.00000    -999.25   21.64530    -999.25    9.41660    0.01640   -0.07960   -0.01160    2.84000   54.06730 1627.33350  299.79940 1249.99580  -95.33950
 2850.00000    -999.25   57.10190    -999.25    9.27140    0.19790    0.10260    0.03250    2.53240   82.77850   25.61820   19.12690   22.72910  -18.82000
