~Version ---------------------------------------------------
VERS.      2.0 : CWLS log ASCII Standard -VERSION 2.0
WRAP.      YES : Multiple lines per depth step
CREA. 01/04/13 : LAS Creation Date
~Well ------------------------------------------------------
STRT.FT                 2000.0 : START DEPTH
STOP.FT                 9700.0 : STOP DEPTH
STEP.FT               50.00000 : STEP LENGTH
NULL.                  -999.25 : NULL VALUE
COMP.   TXO PRODUCTION COMPANY : COMPANY
WELL.              TXO HULL #1 : WELL
FLD .                  BRANTON : FIELD
LOC .                          : LOCATION
CNTY.                     LEON : COUNTY
STAT.                    TEXAS : STATE
CTRY. UNITED STATES OF AMERICA : COUNTRY
SRVC.             Schlumberger : SERVICE COMPANY
DATE.              17-Jul-1985 : LOGDATE
API .           42289306650000 : API NUMBER
UWI .           42289306650000 : UNIQUE WELL ID
SLAT.WGS84       31.3703569787 : SURFACE LATITUDE
SLON.WGS84      -96.2242249712 : SURFACE LONGITUDE
~Curve Information -----------------------------------------
DEPT    .FT    : DEPTH FEET
CALDED  .IN    : CALIPER FROM CNLD LOG [ADJ.TO GRRED]
CALRED  .IN    : CALIPER FROM DIL-SFL-SONIC LOG
CALWS   .IN    : CALIPER [CALRED SPL.TO CALDED @ 9704']
CONDWS  .MMHO  : CONDUCTIVITY [1000/DRESWS]
DCORWS  .G/C3  : DENSITY CORRECTION [DRHOED]
DENWS   .G/C3  : FORMATION BULK DENSITY [CALCULATED FROM DPOWS, M=2.71, F=1.0]
DPHILSED.V/V   : DENSITY POROSITY LIMESTONE [M=2.71, F=1.0] FROM CNLD LOG [ADJ.TO GRRED]
DPOWS   .V/V   : DENSITY POROSITY LIMESTONE [DPHILSED]
DRESWS  .OHMM  : DEEP RESISTIVITY [ILMED]
DRHOED  .G/C3  : DENSITY CORRECTION FROM CNLD LOG [ADJ.TO GRRED]
DTED    .US/F  : DELTA-T FROM DIL-SFL-SONIC LOG
DTWS    .US/F  : COMPRESSIONAL SONIC [DTED]
GRDED   .GAPI  : GAMMA RAY FROM CNLD LOG [ADJ.TO GRRED]
GRRED   .GAPI  : GAMMA RAY FROM DIL-SFL-SONIC LOG
GRWS    .GAPI  : GAMMA RAY [GRRED]
ILDED   .OHMM  : DEEP INDUCTION FROM DIL-SFL-SONIC LOG
ILMED   .OHMM  : MEDIUM INDUCTION FROM DIL-SFL-SONIC LOG
MRESWS  .OHMM  : MEDIUM RESISTIVITY [ILMED]
NPHILSED.V/V   : NEUTRON POROSITY LIMESTONE FROM CNLD LOG [ADJ.TO GRRED]
NPOWS   .V/V   : NEUTRON POROSITY LIMESTONE [NPHILSED]
SFLUED  .OHMM  : SHALLOW FOCUSED FROM DIL-SFL-SONIC LOG
SPRED   .MV    : SPONTANEOUS POTENTIAL FROM DIL-SFL-SONIC LOG
SPWS    .MV    : SPONTANEOUS POTENTIAL [BASELINE 0 MV, SPRED]
SRESWS  .OHMM  : SHALLOW RESISTIVITY [SFLUED]
TENDED  .LBF   : TENSION FROM CNLD LOG [ADJ.TO GRRED]
TENRED  .LBF   : TENSION FROM DIL-SFL-SONIC LOG
~Params ----------------------------------------------------
PD  .                     GL : PERMANENT DATUM
EPD .FT                  503 : ELEVATION PERMANENT DATUM
LMF .                    RKB : LOG MEASURED FROM
DAPD.FT                 13.5 : FEET ABOVE PERMANENT DATUM
DMF .                    RKB : DRILLING MEASURED FROM
EKB .FT                516.5 : KELLY BUSHING
EDF .FT                515.5 : DRILLING FLOOR
EGL .FT                  503 : GROUND LEVEL
DATE.               07/17/85 : RUN DATE
RUN .                      2 : RUN NUMBER
DD  .FT                 9750 : DEPTH DRILLER
DL  .FT                 9736 : DEPTH LOGGER
BLI .FT                 9730 : BOTTOM LOG INTERVAL
TLI .FT                 8100 : TOP LOG INTERVAL
CS  .IN                8.625 : CASING SIZE
CBD .FT                 2000 : CASING BOTTOM DRILLER
CBL .FT                 2000 : CASING BOTTOM LOGGER
BS  .IN                7.875 : BIT SIZE
BSD .FT                 9750 : BIT SIZE AT DEPTH
DFT .         LIGNOSULFONATE : DRILLING FLUID TYPE
DFD .                    9.9 : DRILLING FLUID DENSITY
DFV .                     45 : DRILLING FLUID VISCOSITY
DFPH.                    9.5 : DRILLING FLUID PH
DFL .                   11.4 : DRILLING FLUID LOSS
MSS .               CIR TANK : MUD SAMPLE SOURCE
RMS .OHMM               2.23 : RESISTIVITY MUD SAMPLE
MST .DEGF                 75 : MUD SAMPLE TEMPERATURE
RMF .OHMM               1.99 : RESISTIVITY MUD FILTRATE SAMPLE
MFST.DEGF                 75 : MUD FILTRATE SAMPLE TEMPERATURE
RMC .OHMM               3.34 : RESISTIVITY MUD CAKE
MCST.DEGF                 75 : MUD CAKE SAMPLE TEMPERATURE
MFSS.                   MEAS : MUD FILTRATE SAMPLE SOURCE
MCSS.                   CALC : MUD CAKE SAMPLE SOURCE
RMB .OHMM               1.11 : RESISTIVITY MUD AT BHT
TCS .HRS                 100 : TIME CIRCULATED STOPPED
TLAB.HRS                1000 : TIME LOGGER AT BOTTOM
LUN .                   8276 : LOGGING UNIT NUMBER
LUL .                   3808 : LOGGING UNIT LOCATION
ENGI.              LANGHAMER : RECORDING ENGINEER
WITN.              GILLESPIE : WITNESSED BY
CLNT.                A2DTECH : CLIENT CODE
ORIG.            2" 5" PRINT : ORIGIN OF DATA
UWI .         42289306650000 : UNIQUE WELL ID
DICO. A2D Technologies, Inc. : DIGITIZING COMPANY
~Other -----------------------------------------------------
~ASCII -----------------------------------------------------
 2000.00000    -999.25   11.97700   11.97700    -999.25    -999.25    -999.25    -999.25    -999.25    -999.25    -999.25    -999.25    -999.25    -999.25   55.58540   55.58540    -999.25    -999.25    -999.25    -999.25    -999.25    -999.25    -999.25    -999.25    -999.25    -999.25    -999.25
 2050.00000    -999.25   11.55200   11.55200  620.42440    -999.25    -999.25    -999.25    -999.25    1.61180    -999.25  124.55500  124.55500    -999.25   79.84820   79.84820    1.61180    1.45870    1.45870    -999.25    -999.25    1.66900  -30.32050   -4.20050    1.66900    -999.25    -999.25
 2100.00000    -999.25   11.00180   11.00180  506.09850    -999.25    -999.25    -999.25    -999.25    1.97590    -999.25  120.07750  120.07750    -999.25   94.33820   94.33820    1.97590    1.83530    1.83530    -999.25    -999.25    2.03170  -33.19020   -6.18520    2.03170    -999.25    -999.25
 2150.00000    -999.25    9.74120    9.74120  629.64360    -999.25    -999.25    -999.25    -999.25    1.58820    -999.25  125.51380  125.51380    -999.25  100.40610  100.40610    1.58820    1.48900    1.48900    -999.25    -999.25    1.73760  -31.11460   -3.22460    1.73760    -999.25    -999.25
 2200.00000    -999.25   13.19870   13.19870  333.82290    -999.25    -999.25    -999.25    -999.25    2.99560    -999.25  104.06510  104.06510    -999.25   91.13770   91.13770    2.99560    2.76600    2.76600    -999.25    -999.25    2.57920  -35.88300   -7.43480    2.57920    -999.25    -999.25
 2250.00000    -999.25    9.26870    9.26870  465.54930    -999.25    -999.25    -999.25    -999.25    2.14800    -999.25  114.45170  114.45170    -999.25  100.89330  100.89330    2.14800    2.07080    2.07080    -999.25    -999.25    2.22810  -29.22700   -2.22840    2.22810    -999.25    -999.25
 2300.00000    -999.25   12.42650   12.42650  406.37190    -999.25    -999.25    -999.25    -999.25    2.46080    -999.25  112.66670  112.66670    -999.25   97.30570   97.30570    2.46080    2.22710    2.22710    -999.25    -999.25    2.31370  -29.81090   -4.26180    2.31370    -999.25    -999.25
 2350.00000    -999.25    9.09860    9.09860  428.89000    -999.25    -999.25    -999.25    -999.25    2.33160    -999.25  117.17860  117.17860    -999.25  111.71490  111.71490    2.33160    2.15630    2.15630    -999.25    -999.25    2.24390  -28.46330   -4.36370    2.24390    -999.25    -999.25
 2400.00000    -999.25    8.66390    8.66390  693.81810    -999.25    -999.25    -999.25    -999.25    1.44130    -999.25  121.50140  121.50140    -999.25   74.19300   74.19300    1.44130    1.38490    1.38490    -999.25    -999.25    1.52760  -26.04170   -3.39160    1.52760    -999.25    -999.25
 2450.00000    -999.25   10.73030   10.73030  682.59390    -999.25    -999.25    -999.25    -999.25    1.46500    -999.25  117.45700  117.45700    -999.25   79.67150   79.67150    1.46500    1.36700    1.36700    -999.25    -999.25    1.64980  -25.01020   -3.18440    1.64980    -999.25    -999.25
 2500.00000    -999.25   11.51470   11.51470  648.67670    -999.25    -999.25    -999.25    -999.25    1.54160    -999.25  135.59540  135.59540    -999.25   76.55330   76.55330    1.54160    1.46910    1.46910    -999.25    -999.25    1.58580  -27.16670   -5.56440    1.58580    -999.25    -999.25
 2550.00000    -999.25    9.79310    9.79310  817.59460    -999.25    -999.25    -999.25    -999.25    1.22310    -999.25  133.40970  133.40970    -999.25   94.88590   94.88590    1.22310    1.17030    1.17030    -999.25    -999.25    1.42540  -26.20360   -4.82480    1.42540    -999.25    -999.25
 2600.00000    -999.25    9.59440    9.59440  810.43840    -999.25    -999.25    -999.25    -999.25    1.23390    -999.25  129.55000  129.55000    -999.25   93.91060   93.91060    1.23390    1.18080    1.18080    -999.25    -999.25    1.42070  -24.98550   -3.83020    1.42070    -999.25    -999.25
 2650.00000    -999.25    9.33230    9.33230  500.85140    -999.25    -999.25    -999.25    -999.25    1.99660    -999.25  116.88730  116.88730    -999.25   70.94590   70.94590    1.99660    1.92570    1.92570    -999.25    -999.25    2.62870  -28.89130   -8.14470    2.62870    -999.25    -999.25
 2700.00000    -999.25    9.09990    9.09990  430.81160    -999.25    -999.25    -999.25    -999.25    2.32120    -999.25  112.45250  112.45250    -999.25   75.50960   75.50960    2.32120    2.21890    2.21890    -999.25    -999.25    2.55540  -27.24610   -7.56470    2.55540    -999.25    -999.25
 2750.00000    -999.25    9.53670    9.53670  507.92360    -999.25    -999.25    -999.25    -999.25    1.96880    -999.25  105.98330  105.98330    -999.25   83.78940   83.78940    1.96880    1.78330    1.78330    -999.25    -999.25    2.18520  -28.14320   -9.52710    2.18520    -999.25    -999.25
 2800.00000    -999.25   10.65050   10.65050  568.11730    -999.25    -999.25    -999.25    -999.25    1.76020    -999.25  104.25790  104.25790    -999.25   74.85970   74.85970    1.76020    1.60080    1.60080    -999.25    -999.25    1.51550  -22.34840   -4.79760    1.51550    -999.25    -999.25
 2850.00000    -999.25   11.38140   11.38140  844.45200    -999.25    -999.25    -999.25    -999.25    1.18420    -999.25  116.52120  116.52120    -999.25   96.04680   96.04680    1.18420    1.12740    1.12740    -999.25    -999.25    1.23370  -18.98680   -2.50120    1.23370    -999.25    -999.25
 2900.00000    -999.25    8.92500    8.92500  811.62240    -999.25    -999.25    -999.25    -999.25    1.23210    -999.25  121.15370  121.15370    -999.25  119.65510  119.65510    1.23210    1.17000    1.17000    -999.25    -999.25    1.26440  -20.52890   -4.85870    1.26440    -999.25    -999.25
 2950.00000    -999.25   10.63600   10.63600  634.31650    -999.25    -999.25    -999.25    -999.25    1.57650    -999.25  111.03690  111.03690    -999.25   89.38460   89.38460    1.57650    1.47820    1.47820    -999.25    -999.25    1.72360  -20.57960   -5.62750    1.72360    -999.25    -999.25
 3000.00000    -999.25   10.61190   10.61190  533.53250    -999.25    -999.25    -999.25    -999.25    1.87430    -999.25  105.41140  105.41140    -999.25   94.36060   94.36060    1.87430    1.81210    1.81210    -999.25    -999.25    1.91760  -21.37700   -7.14310    1.91760    -999.25    -999.25
 3050.00000    -999.25   10.80710   10.80710  700.62360    -999.25    -999.25    -999.25    -999.25    1.42730    -999.25  121.36320  121.36320    -999.25   88.32140   88.32140    1.42730    1.33900    1.33900    -999.25    -999.25    1.47310  -19.03100   -5.51530    1.47310    -999.25    -999.25
 3100.00000    -999.25   11.16100   11.16100  974.37400    -999.25    -999.25    -999.25    -999.25    1.02630    -999.25  129.08920  129.08920    -999.25   90.25220   90.25220    1.02630    0.99390    0.99390    -999.25    -999.25    1.13820  -16.24630   -3.44870    1.13820    -999.25    -999.25
 3150.00000    -999.25    9.67020    9.67020  629.76260    -999.25    -999.25    -999.25    -999.25    1.58790    -999.25  112.99170  112.99170    -999.25   88.84640   88.84640    1.58790    1.52200    1.52200    -999.25    -999.25    1.66510  -18.97240   -6.62010    1.66510    -999.25    -999.25
 3200.00000    -999.25    8.88200    8.88200  924.81270    -999.25    -999.25    -999.25    -999.25    1.08130    -999.25  122.62540  122.62540    -999.25   97.18160   97.18160    1.08130    1.04340    1.04340    -999.25    -999.25    1.21690  -18.40770   -6.05540    1.21690    -999.25    -999.25
 3250.00000    -999.25   10.16380   10.16380  771.78360    -999.25    -999.25    -999.25    -999.25    1.29570    -999.25  111.38030  111.38030    -999.25   98.88930   98.88930    1.29570    1.25270    1.25270    -999.25    -999.25    1.40630  -19.60530   -7.25300    1.40630    -999.25    -999.25
 3300.00000    -999.25   10.69180   10.69180 1006.03620    -999.25    -999.25    -999.25    -999.25    0.99400    -999.25  122.49480  122.49480    -999.25  103.08000  103.08000    0.99400    0.96350    0.96350    -999.25    -999.25    1.13270  -15.14630   -2.79400    1.13270    -999.25    -999.25
