~Version ---------------------------------------------------
VERS. 2.0 : CWLS log ASCII Standard -VERSION 2.0
WRAP. YES : MULTIPLE LINES PER DEPTH STEP
~Well ------------------------------------------------------
STRT.FT                 3100.0 : START DEPTH
STOP.FT                 8450.0 : STOP DEPTH
STEP.FT               50.00000 : STEP LENGTH
NULL.                  -999.25 : NULL VALUE
COMP.    REATA OIL & GAS CORP. : COMPANY
WELL.        E. J. BURKHART #1 : WELL
FLD .                  WILDCAT : FIELD
LOC .                          : LOCATION
CNTY.                ROBERTSON : COUNTY
STAT.                    TEXAS : STATE
CTRY. UNITED STATES OF AMERICA : COUNTRY
SRVC.            Dresser Atlas : SERVICE COMPANY
DATE.              18-Jun-1984 : LOGDATE
API .           42395303030000 : API NUMBER
UWI .           42395303030000 : UNIQUE WELL ID
SLAT.WGS84       30.9364688509 : SURFACE LATITUDE
SLON.WGS84      -96.3553009714 : SURFACE LONGITUDE
~Curve Information -----------------------------------------
DEPT    .FT    : DEPTH FEET
CALRED  .IN    : CALIPER FROM RESISTIVITY LOG
CALWS   .IN    : CALIPER [CALRED]
CNLSED  .V/V   : NEUTRON POROSITY LIMESTONE FROM DENSITY LOG
CNSSED  .V/V   : NEUTRON POROSITY SANDSTONE FROM DENSITY LOG
CONDWS  .MMHO  : CONDUCTIVITY [1000/DRESWS]
CORRED  .G/C3  : DENSITY CORRECTION FROM DENSITY LOG
DCORWS  .G/C3  : DENSITY CORRECTION [CORRED]
DENWS   .G/C3  : BULK DENSITY [CALCULATED FROM DPORLSED <7048> DPORSSED <7500.5> DPORLSED]
DPOWS   .V/V   : DENSITY POROSITY [M=2.71 F=1.0] <7048> [M=2.68 F=1.0] <7500.5> [M=2.71 F=1.0] [CALCULATED FROM DENWS]
DRESWS  .OHMM  : DEEP RESISTIVITY [RILDED]
GRRED   .GAPI  : GAMMA RAY FROM RESISTIVITY LOG
GRWS    .GAPI  : GAMMA RAY [GRRED, CSG ABOE 3112]
MRESWS  .OHMM  : MEDIUM RESISTIVITY [RILMED]
NPOWS   .V/V   : NEUTRON POROSITY [SPL CNLSED <7048> CNSSED <7500.5> CNLSED]
PORDLSED.V/V   : DENSITY POROSITY [M=2.71 F=1.0] FROM DENSITY LOG
PORDSSED.V/V   : DENSITY POROSITY [M=2.68 F=1.0] FROM DENSITY LOG
RFOCED  .OHMM  : FOCUSED RESISTIVITY
RILDED  .OHMM  : INDUCTION LOG DEEP RESISTIVITY
RILMED  .OHMM  : INDUCTION LOG MEDIUM RESISTIVITY
SPRED   .MV    : SPONTANEOUS POTENTIAL FROM RESISTIVITY LOG
SPWS    .MV    : SPONTANEOUS POTENTIAL [BASELINE 0 MV] [SPRED]
SRESWS  .OHMM  : SHALLOW RESISTIVITY [RFOCED]
TENRED  .LBF   : TENSION FROM RESISTIVITY LOG
~Params ----------------------------------------------------
PD  .                     GL : PERMANENT DATUM
EPD .FT                  428 : ELEVATION PERMANENT DATUM
LMF .                     KB : LOG MEASURED FROM
DAPD.FT                   16 : FEET ABOVE PERMANENT DATUM
DMF .                     KB : DRILLING MEASURED FROM
EKB .FT                  444 : KELLY BUSHING
EDF .FT                  443 : DRILLING FLOOR
EGL .FT                  428 : GROUND LEVEL
DATE.               06/18/84 : RUN DATE
RUN .                      1 : RUN NUMBER
DD  .FT                 8479 : DEPTH DRILLER
DL  .FT                 8460 : DEPTH LOGGER
BLI .FT                 8458 : BOTTOM LOG INTERVAL
TLI .FT                 3112 : TOP LOG INTERVAL
CS  .IN                9.625 : CASING SIZE
CBD .FT                 3116 : CASING BOTTOM DRILLER
CBL .FT                 3112 : CASING BOTTOM LOGGER
BS  .IN                 8.75 : BIT SIZE
BSD .FT                 8479 : BIT SIZE AT DEPTH
DFT .                  BENEX : DRILLING FLUID TYPE
DFD .                    9.3 : DRILLING FLUID DENSITY
DFV .                     42 : DRILLING FLUID VISCOSITY
DFPH.                      9 : DRILLING FLUID PH
DFL .                      7 : DRILLING FLUID LOSS
MSS .                   TANK : MUD SAMPLE SOURCE
RMS .OHMM               3.93 : RESISTIVITY MUD SAMPLE
MST .DEGF                 75 : MUD SAMPLE TEMPERATURE
RMF .OHMM               1.76 : RESISTIVITY MUD FILTRATE SAMPLE
MFST.DEGF                 75 : MUD FILTRATE SAMPLE TEMPERATURE
RMC .OHMM               4.91 : RESISTIVITY MUD CAKE
MCST.DEGF                 75 : MUD CAKE SAMPLE TEMPERATURE
MFSS.               MEASURED : MUD FILTRATE SAMPLE SOURCE
MCSS.               MEASURED : MUD CAKE SAMPLE SOURCE
RMB .OHMM               1.64 : RESISTIVITY MUD AT BHT
TCS .HRS                   8 : TIME CIRCULATED STOPPED
LUN .                HL 6300 : LOGGING UNIT NUMBER
LUL .                  BRYAN : LOGGING UNIT LOCATION
ENGI.                 WRIGHT : RECORDING ENGINEER
WITN.                MCBRIDE : WITNESSED BY
CLNT.                A2DTECH : CLIENT CODE
ORIG.            2" 5" PRINT : ORIGIN OF DATA
UWI .         42395303030000 : UNIQUE WELL ID
DICO. A2D Technologies, Inc. : DIGITIZING COMPANY
~Other -----------------------------------------------------
~ASCII -----------------------------------------------------
# ...
 4650.00000    -999.25    -999.25    -999.25    -999.25  765.99010    -999.25    -999.25    -999.25    -999.25    1.30550   74.61640   74.61640    1.35120    -999.25    -999.25    -999.25    2.06410    1.30550    1.35120  -66.50470   -9.13700    2.06410   19.11690
 4700.00000    -999.25    -999.25    -999.25    -999.25  965.15780    -999.25    -999.25    -999.25    -999.25    1.03610   80.64810   80.64810    1.07400    -999.25    -999.25    -999.25    1.81110    1.03610    1.07400  -63.69010   -6.67360    1.81110   24.21230
 4750.00000    -999.25    -999.25    -999.25    -999.25  608.49460    -999.25    -999.25    -999.25    -999.25    1.64340   77.87850   77.87850    1.70200    -999.25    -999.25    -999.25    2.30030    1.64340    1.70200  -68.16730  -11.50200    2.30030   14.76380
 4800.00000    -999.25    -999.25    -999.25    -999.25  689.60770    -999.25    -999.25    -999.25    -999.25    1.45010   73.37060   73.37060    1.49980    -999.25    -999.25    -999.25    2.23600    1.45010    1.49980  -65.88480   -9.57070    2.23600   15.13850
 4850.00000    -999.25    -999.25    -999.25    -999.25  510.62090    -999.25    -999.25    -999.25    -999.25    1.95840   62.11780   62.11780    2.02620    -999.25    -999.25    -999.25    2.61870    1.95840    2.02620  -62.96430   -7.00130    2.61870    3.92910
 4900.00000    -999.25    -999.25    -999.25    -999.25  319.96930    -999.25    -999.25    -999.25    -999.25    3.12530   49.95480   49.95480    3.25350    -999.25    -999.25    -999.25    3.41070    3.12530    3.25350  -62.25280   -6.64100    3.41070    5.93960
 4950.00000    -999.25    -999.25    -999.25    -999.25  541.62380    -999.25    -999.25    -999.25    -999.25    1.84630   76.10510   76.10510    2.02610    -999.25    -999.25    -999.25    2.31050    1.84630    2.02610  -60.85940   -5.59880    2.31050   11.61370
 5000.00000    -999.25    -999.25    -999.25    -999.25  857.78010    -999.25    -999.25    -999.25    -999.25    1.16580   80.14290   80.14290    1.22760    -999.25    -999.25    -999.25    1.87270    1.16580    1.22760  -59.09130   -4.18190    1.87270   16.11780
 5050.00000    -999.25    -999.25    -999.25    -999.25  852.29690    -999.25    -999.25    -999.25    -999.25    1.17330   75.75170   75.75170    1.21600    -999.25    -999.25    -999.25    1.88690    1.17330    1.21600  -58.77430   -4.21610    1.88690   19.12240
 5100.00000    -999.25    -999.25    -999.25    -999.25  616.29490    -999.25    -999.25    -999.25    -999.25    1.62260   74.48760   74.48760    1.67870    -999.25    -999.25    -999.25    2.14560    1.62260    1.67870  -61.50550   -7.29840    2.14560   24.02790
 5150.00000    -999.25    -999.25    -999.25    -999.25  551.35910    -999.25    -999.25    -999.25    -999.25    1.81370   71.73760   71.73760    1.90960    -999.25    -999.25    -999.25    2.64690    1.81370    1.90960  -62.44140   -8.58550    2.64690   19.41180
 5200.00000    -999.25    -999.25    -999.25    -999.25  992.35890    -999.25    -999.25    -999.25    -999.25    1.00770   92.59440   92.59440    1.04330    -999.25    -999.25    -999.25    1.72120    1.00770    1.04330  -57.33990   -3.83520    1.72120   17.29920
 5250.00000    -999.25    -999.25    -999.25    -999.25  711.28810    -999.25    -999.25    -999.25    -999.25    1.40590   97.68960   97.68960    1.45420    -999.25    -999.25    -999.25    1.99620    1.40590    1.45420  -54.74060   -1.54130    1.99620   25.00330
 5300.00000    -999.25    -999.25    -999.25    -999.25  698.56790    -999.25    -999.25    -999.25    -999.25    1.43150   91.06640   91.06640    1.48070    -999.25    -999.25    -999.25    1.98650    1.43150    1.48070  -55.27380   -2.00890    1.98650   10.38570
 5350.00000    -999.25    -999.25    -999.25    -999.25  778.45250    -999.25    -999.25    -999.25    -999.25    1.28460   85.08400   85.08400    1.29690    -999.25    -999.25    -999.25    1.75970    1.28460    1.29690  -55.56010   -2.22960    1.75970    9.96270
 5400.00000    -999.25    -999.25    -999.25    -999.25 1088.37610    -999.25    -999.25    -999.25    -999.25    0.91880  108.81760  108.81760    0.95040    -999.25    -999.25    -999.25    1.50160    0.91880    0.95040  -55.15100   -1.75500    1.50160   19.58640
 5450.00000    -999.25    -999.25    -999.25    -999.25  935.19120    -999.25    -999.25    -999.25    -999.25    1.06930   81.11510   81.11510    1.10630    -999.25    -999.25    -999.25    1.68740    1.06930    1.10630  -56.13200   -2.67040    1.68740   16.57640
 5500.00000    -999.25    -999.25    -999.25    -999.25  803.40650    -999.25    -999.25    -999.25    -999.25    1.24470   86.51100   86.51100    1.30810    -999.25    -999.25    -999.25    1.81770    1.24470    1.30810  -56.92180   -3.39460    1.81770    9.82040
 5550.00000    -999.25    -999.25    -999.25    -999.25 1126.63370    -999.25    -999.25    -999.25    -999.25    0.88760   90.52140   90.52140    0.91870    -999.25    -999.25    -999.25    1.65600    0.88760    0.91870  -57.63260   -4.03990    1.65600   13.86540
 5600.00000    -999.25    -999.25    -999.25    -999.25 1102.65750    -999.25    -999.25    -999.25    -999.25    0.90690   82.61140   82.61140    0.93840    -999.25    -999.25    -999.25    1.65640    0.90690    0.93840  -60.85570   -7.19740    1.65640   18.71600
 5650.00000    -999.25    -999.25    -999.25    -999.25  785.66940    -999.25    -999.25    -999.25    -999.25    1.27280   92.65900   92.65900    1.31670    -999.25    -999.25    -999.25    1.94370    1.27280    1.31670  -57.60010   -3.87630    1.94370   18.08670
 5700.00000    -999.25    -999.25    -999.25    -999.25  882.92430    -999.25    -999.25    -999.25    -999.25    1.13260  105.68470  105.68470    1.17220    -999.25    -999.25    -999.25    1.80000    1.13260    1.17220  -53.99830   -0.20890    1.80000    9.40180
 5750.00000    -999.25    -999.25    -999.25    -999.25 1118.94370    -999.25    -999.25    -999.25    -999.25    0.89370   99.93570   99.93570    0.93240    -999.25    -999.25    -999.25    1.48090    0.89370    0.93240  -55.96980   -2.57330    1.48090   12.76700
 5800.00000    -999.25    -999.25    -999.25    -999.25  733.99880    -999.25    -999.25    -999.25    -999.25    1.36240   83.82710   83.82710    1.41560    -999.25    -999.25    -999.25    1.99200    1.36240    1.41560  -58.80860   -5.86760    1.99200   13.33020
 5850.00000    -999.25    -999.25    -999.25    -999.25  865.50110    -999.25    -999.25    -999.25    -999.25    1.15540   92.30430   92.30430    1.18650    -999.25    -999.25    -999.25    1.79940    1.15540    1.18650  -55.24710   -2.76160    1.79940    7.29490
 5900.00000    -999.25    -999.25    -999.25    -999.25 1020.72060    -999.25    -999.25    -999.25    -999.25    0.97970   82.11320   82.11320    1.01340    -999.25    -999.25    -999.25    1.67480    0.97970    1.01340  -56.46670   -4.43670    1.67480   16.94890
 5950.00000   12.60710   12.60710    -999.25    -999.25  855.94450    -999.25    -999.25    -999.25    -999.25    1.16830   82.04730   82.04730    1.21010    -999.25    -999.25    -999.25    1.91840    1.16830    1.21010  -57.18990   -5.61540    1.91840   13.48490
 6000.00000   13.05310   13.05310    -999.25    -999.25  781.31110    -999.25    -999.25    -999.25    -999.25    1.27990   75.13930   75.13930    1.32370    -999.25    -999.25    -999.25    2.01480    1.27990    1.32370  -57.43000   -6.31100    2.01480    9.69190
 6050.00000   13.02400   13.02400    -999.25    -999.25  854.18980    -999.25    -999.25    -999.25    -999.25    1.17070   79.56100   79.56100    1.21950    -999.25    -999.25    -999.25    2.01440    1.17070    1.21950  -55.89290   -5.22940    2.01440   15.50210
 6100.00000   12.14310   12.14310    -999.25    -999.25  654.02220    -999.25    -999.25    -999.25    -999.25    1.52900   67.25480   67.25480    1.58190    -999.25    -999.25    -999.25    2.29280    1.52900    1.58190  -54.34730   -4.13920    2.29280   12.88170
 6150.00000   10.78680   10.78680    -999.25    -999.25  468.62550    -999.25    -999.25    -999.25    -999.25    2.13390   54.69460   54.69460    2.20600    -999.25    -999.25    -999.25    2.91070    2.13390    2.20600  -51.02490   -1.27230    2.91070   11.54960
