~Version ---------------------------------------------------
VERS.      2.0 : CWLS log ASCII Standard -VERSION 2.0
WRAP.      YES : Multiple lines per depth step
CREA. 01/09/13 : LAS Creation Date
~Well ------------------------------------------------------
STRT.FT                    1500.0 : START DEPTH
STOP.FT                    9700.0 : STOP DEPTH
STEP.FT                  50.00000 : STEP LENGTH
NULL.                     -999.25 : NULL VALUE
COMP.        MARATHON OIL COMPANY : COMPANY
WELL.                 NEWELL A #4 : WELL
FLD .                  BEAR GRASS : FIELD
LOC .                             : LOCATION
CNTY.                        LEON : COUNTY
STAT.                       TEXAS : STATE
CTRY.    UNITED STATES OF AMERICA : COUNTRY
SRVC. HALLIBURTON Sperry Drilling : SERVICE COMPANY
DATE.                 24-Apr-2000 : LOGDATE
API .              42289313210000 : API NUMBER
UWI .              42289313210000 : UNIQUE WELL ID
SLAT.WGS84          31.3590171152 : SURFACE LATITUDE
SLON.WGS84         -96.2605957839 : SURFACE LONGITUDE
~Curve Information -----------------------------------------
DEPT    .FT    : DEPTH FEET
CALDED  .IN    : CALIPER FROM HRI-DFL-SD-DSN-GR LOG
CALWS   .IN    : CALIPER [CALDED]
CONDWS  .MMHO  : CONDUCTIVITY [1000/DRESWS]
DCALED  .IN    : DIFFERENTIAL CALIPER FROM HRI-DFL-SD-DSN-GR LOG
DCORED  .G/C3  : DENSITY CORRECTION FROM HRI-DFL-SD-DSN-GR LOG
DCORWS  .G/C3  : DENSITY CORRECTION [DCORED]
DENWS   .G/C3  : FORMATION BULK DENSITY [CALCULATED FROM DPOWS, M=2.71, F=1.0]
DFLED   .OHMM  : DIGITALLY FOCUSED LATEROLOG FROM HRI-DFL-SD-DSN-GR LOG
DPORLSED.V/V   : DENSITY POROSITY LIMESTONE [M=2.71, F=1.0] FROM HRI-DFL-SD-DSN-GR LOG
DPOWS   .V/V   : DENSITY POROSITY LIMESTONE [DPORLSED]
DRESWS  .OHMM  : DEEP RESISTIVITY [HDRSED]
GRRED   .GAPI  : GAMMA RAY FROM HRI-DFL-SD-DSN-GR LOG
GRWS    .GAPI  : GAMMA RAY [GRRED]
HDRSED  .OHMM  : DEEP HIGH RESOLUTION RESISTIVITY FROM HRI-DFL-SD-DSN-GR LOG
HMRSED  .OHMM  : MEDIUM HIGH RESOLUTION RESISTIVITY FROM HRI-DFL-SD-DSN-GR LOG
MRESWS  .OHMM  : MEDIUM RESISTIVITY [HMRSEDS]
NPORLSED.V/V   : NEUTRON POROSITY LIMESTONE FROM HRI-DFL-SD-DSN-GR LOG
NPOWS   .V/V   : NEUTRON POROSITY LIMESTONE [NPORSLSED]
SPRED   .MV    : SPONTANEOUS POTENTIAL FROM HRI-DFL-SD-DSN-GR LOG
SPWS    .MV    : SPONTANEOUS POTENTIAL [BASELINE 0 MV, SPRED]
SRESWS  .OHMM  : SHALLOW RESISTIVITY [DLFED]
TENRED  .LBF   : TENSION FROM HRI-DFL-SD-DSN-GR LOG
~Params ----------------------------------------------------
PD  .                     GL : PERMANENT DATUM
EPD .FT                  508 : ELEVATION PERMANENT DATUM
LMF .                     KB : LOG MEASURED FROM
DAPD.FT                   12 : FEET ABOVE PERMANENT DATUM
DMF .                     KB : DRILLING MEASURED FROM
EKB .FT                  520 : KELLY BUSHING
EDF .FT                  519 : DRILLING FLOOR
EGL .FT                  508 : GROUND LEVEL
DATE.               04/24/00 : RUN DATE
RUN .                      1 : RUN NUMBER
DD  .FT                 9709 : DEPTH DRILLER
DL  .FT                 9701 : DEPTH LOGGER
BLI .FT                 9693 : BOTTOM LOG INTERVAL
TLI .FT                 1523 : TOP LOG INTERVAL
CS  .IN                9.625 : CASING SIZE
CBD .FT                 1525 : CASING BOTTOM DRILLER
CBL .FT                 1523 : CASING BOTTOM LOGGER
BS  .IN                7.875 : BIT SIZE
BSD .FT                 9709 : BIT SIZE AT DEPTH
DFT .              FRESH MUD : DRILLING FLUID TYPE
DFD .                   10.1 : DRILLING FLUID DENSITY
DFV .                     39 : DRILLING FLUID VISCOSITY
DFPH.                    9.6 : DRILLING FLUID PH
DFL .                     15 : DRILLING FLUID LOSS
MSS .               MUD TANK : MUD SAMPLE SOURCE
RMS .OHMM                0.7 : RESISTIVITY MUD SAMPLE
MST .FT                   80 : MUD SAMPLE TEMPERATURE
RMF .OHMM               0.53 : RESISTIVITY MUD FILTRATE SAMPLE
MFST.FT                   79 : MUD FILTRATE SAMPLE TEMPERATURE
RMC .OHMM               0.87 : RESISTIVITY MUD CAKE
MCST.FT                   80 : MUD CAKE SAMPLE TEMPERATURE
MFSS.                   MEAS : MUD FILTRATE SAMPLE SOURCE
MCSS.                   MEAS : MUD CAKE SAMPLE SOURCE
RMB .OHMM              0.257 : RESISTIVITY MUD AT BHT
TCS .HRS                1300 : TIME CURCULATED STOPPED
TLAB.HRS                1245 : TIME LOGGER AT BOTTOM
LUN .                  52562 : LOGGING UNIT NUMBER
LUL .                 KILGOR : LOGGING UNIT LOCATION
ENGI.               J BUTLER : RECORDING ENGINEER
WITN.           PERRY FRANKS : WITNESSED BY
CLNT.                A2DTECH : CLIENT CODE
ORIG.         1" 2" 5" PRINT : ORIGIN OF DATA
UWI .         42289313210000 : UNIQUE WELL ID
DICO. A2D Technologies, Inc. : DIGITIZING COMPANY
~Other -----------------------------------------------------
~ASCII -----------------------------------------------------
# ...
 4700.00000    -999.25    -999.25  268.44920    -999.25    -999.25    -999.25    -999.25    4.34000    -999.25    -999.25    3.72510   40.36560   40.36560    3.72510    3.78210    3.78210    -999.25    -999.25 -119.75060   -6.62840    4.34000 2620.23220
 4750.00000    -999.25    -999.25  340.39080    -999.25    -999.25    -999.25    -999.25    3.16700    -999.25    -999.25    2.93780   69.70840   69.70840    2.93780    3.01210    3.01210    -999.25    -999.25 -119.90190   -6.73520    3.16700 2632.16820
 4800.00000    -999.25    -999.25  265.16760    -999.25    -999.25    -999.25    -999.25    4.50540    -999.25    -999.25    3.77120   79.09820   79.09820    3.77120    4.02020    4.02020    -999.25    -999.25 -120.28040   -7.06920    4.50540 2671.54150
 4850.00000    -999.25    -999.25  194.22760    -999.25    -999.25    -999.25    -999.25    6.29540    -999.25    -999.25    5.14860   22.87350   22.87350    5.14860    5.33610    5.33610    -999.25    -999.25 -144.90410  -31.64840    6.29540 2665.30440
 4900.00000    -999.25    -999.25 1047.33980    -999.25    -999.25    -999.25    -999.25    1.10380    -999.25    -999.25    0.95480  116.66310  116.66310    0.95480    0.97190    0.97190    -999.25    -999.25 -116.65320   -3.35290    1.10380 2680.49150
 4950.00000    -999.25    -999.25  518.51080    -999.25    -999.25    -999.25    -999.25    2.04940    -999.25    -999.25    1.92860  115.89190  115.89190    1.92860    1.95880    1.95880    -999.25    -999.25 -121.07930   -7.73450    2.04940 2667.37670
 5000.00000    -999.25    -999.25  573.29590    -999.25    -999.25    -999.25    -999.25    1.87760    -999.25    -999.25    1.74430   98.12450   98.12450    1.74430    1.77140    1.77140    -999.25    -999.25 -119.51090   -6.12160    1.87760 2708.53250
 5050.00000    -999.25    -999.25  900.65750    -999.25    -999.25    -999.25    -999.25    1.33720    -999.25    -999.25    1.11030  103.15220  103.15220    1.11030    1.12880    1.12880    -999.25    -999.25 -119.20890   -5.77510    1.33720 2709.49050
 5100.00000    -999.25    -999.25  862.88720    -999.25    -999.25    -999.25    -999.25    1.36150    -999.25    -999.25    1.15890  101.90250  101.90250    1.15890    1.17710    1.17710    -999.25    -999.25 -115.59790   -2.11960    1.36150 2752.79610
 5150.00000    -999.25    -999.25  785.23750    -999.25    -999.25    -999.25    -999.25    1.55880    -999.25    -999.25    1.27350   93.40540   93.40540    1.27350    1.29290    1.29290    -999.25    -999.25 -116.74440   -3.22160    1.55880 2744.57130
 5200.00000    -999.25    -999.25  623.98600    -999.25    -999.25    -999.25    -999.25    1.96660    -999.25    -999.25    1.60260   98.92990   98.92990    1.60260    1.62730    1.62730    -999.25    -999.25 -116.62150   -3.05420    1.96660 2747.39920
 5250.00000    -999.25    -999.25  508.46600    -999.25    -999.25    -999.25    -999.25    2.42440    -999.25    -999.25    1.96670  118.58560  118.58560    1.96670    2.00840    2.00840    -999.25    -999.25 -115.82410   -2.21230    2.42440 2800.89650
 5300.00000    -999.25    -999.25  444.12860    -999.25    -999.25    -999.25    -999.25    2.89580    -999.25    -999.25    2.25160  112.97810  112.97810    2.25160    2.29600    2.29600    -999.25    -999.25 -114.98830   -1.33200    2.89580 2807.33590
 5350.00000    -999.25    -999.25  652.23060    -999.25    -999.25    -999.25    -999.25    1.65930    -999.25    -999.25    1.53320   87.04720   87.04720    1.53320    1.56550    1.56550    -999.25    -999.25 -117.94830   -4.24750    1.65930 2823.06230
 5400.00000    -999.25    -999.25  625.78220    -999.25    -999.25    -999.25    -999.25    1.93190    -999.25    -999.25    1.59800   92.25000   92.25000    1.59800    1.63590    1.63590    -999.25    -999.25 -119.01340   -5.26800    1.93190 2830.15310
 5450.00000    -999.25    -999.25  668.09190    -999.25    -999.25    -999.25    -999.25    1.78350    -999.25    -999.25    1.49680   93.68970   93.68970    1.49680    1.52100    1.52100    -999.25    -999.25 -119.05280   -5.26290    1.78350 2855.62840
 5500.00000    -999.25    -999.25  841.39670    -999.25    -999.25    -999.25    -999.25    1.35750    -999.25    -999.25    1.18850  105.43620  105.43620    1.18850    1.20690    1.20690    -999.25    -999.25 -115.57560   -1.74120    1.35750 2894.78930
 5550.00000    -999.25    -999.25  506.66260    -999.25    -999.25    -999.25    -999.25    2.52240    -999.25    -999.25    1.97370   87.35630   87.35630    1.97370    2.00370    2.00370    -999.25    -999.25 -119.06330   -5.18440    2.52240 2899.18990
 5600.00000    -999.25    -999.25  695.21690    -999.25    -999.25    -999.25    -999.25    1.80310    -999.25    -999.25    1.43840   90.68950   90.68950    1.43840    1.48710    1.48710    -999.25    -999.25 -118.46710   -4.54370    1.80310 2907.62960
 5650.00000    -999.25    -999.25  422.95820    -999.25    -999.25    -999.25    -999.25    2.67070    -999.25    -999.25    2.36430   77.25290   77.25290    2.36430    2.41360    2.41360    -999.25    -999.25 -118.25910   -4.29120    2.67070 2930.84160
 5700.00000    -999.25    -999.25   57.72170    -999.25    -999.25    -999.25    -999.25   27.30520    -999.25    -999.25   17.32450   19.67950   19.67950   17.32450   18.85980   18.85980    -999.25    -999.25 -129.87330  -15.86090   27.30520 2986.15380
 5750.00000    -999.25    -999.25  165.23190    -999.25    -999.25    -999.25    -999.25    7.13540    -999.25    -999.25    6.05210   42.30000   42.30000    6.05210    6.27970    6.27970    -999.25    -999.25 -117.28420   -3.22730    7.13540 2981.30000
 5800.00000    -999.25    -999.25  180.03100    -999.25    -999.25    -999.25    -999.25    5.73730    -999.25    -999.25    5.55460   35.21110   35.21110    5.55460    5.83120    5.83120    -999.25    -999.25 -118.23480   -4.13340    5.73730 2982.13600
 5850.00000    -999.25    -999.25  117.28970    -999.25    -999.25    -999.25    -999.25    9.79500    -999.25    -999.25    8.52590   31.66500   31.66500    8.52590    8.68740    8.68740    -999.25    -999.25 -123.39230   -9.24630    9.79500 2997.23970
 5900.00000    -999.25    -999.25  124.12950    -999.25    -999.25    -999.25    -999.25    8.29980    -999.25    -999.25    8.05610   20.38990   20.38990    8.05610    9.51600    9.51600    -999.25    -999.25 -134.63910  -20.44860    8.29980 3048.37130
 5950.00000    -999.25    -999.25   53.11770    -999.25    -999.25    -999.25    -999.25   23.13960    -999.25    -999.25   18.82610   17.55340   17.55340   18.82610   20.94210   20.94210    -999.25    -999.25 -142.14800  -27.91300   23.13960 3086.43680
 6000.00000    -999.25    -999.25  130.86950    -999.25    -999.25    -999.25    -999.25    9.12790    -999.25    -999.25    7.64120   30.70350   30.70350    7.64120    7.76340    7.76340    -999.25    -999.25 -124.85920  -10.57970    9.12790 3062.85770
 6050.00000    -999.25    -999.25   78.85010    -999.25    -999.25    -999.25    -999.25   19.51850    -999.25    -999.25   12.68230   20.50780   20.50780   12.68230   13.68280   13.68280    -999.25    -999.25 -127.75700  -13.43300   19.51850 3041.44580
 6100.00000    -999.25    -999.25  118.48620    -999.25    -999.25    -999.25    -999.25    9.36210    -999.25    -999.25    8.43980   30.23940   30.23940    8.43980    8.81670    8.81670    -999.25    -999.25 -128.88980  -14.52130    9.36210 3097.80420
 6150.00000    -999.25    -999.25  149.42990    -999.25    -999.25    -999.25    -999.25    7.67210    -999.25    -999.25    6.69210   31.89740   31.89740    6.69210    6.80000    6.80000    -999.25    -999.25 -122.65330   -8.24030    7.67210 3160.78740
 6200.00000    -999.25    -999.25   90.00820    -999.25    -999.25    -999.25    -999.25   12.66290    -999.25    -999.25   11.11010   23.57490   23.57490   11.11010   11.48980   11.48980    -999.25    -999.25 -129.46210  -15.00460   12.66290 3131.51680
 6250.00000    -999.25    -999.25  193.53590    -999.25    -999.25    -999.25    -999.25    6.80870    -999.25    -999.25    5.16700   36.60600   36.60600    5.16700    5.49180    5.49180    -999.25    -999.25 -120.73420   -6.23220    6.80870 3199.33300
