~Version ---------------------------------------------------
VERS. 2.0 : CWLS log ASCII Standard -VERSION 2.0
WRAP.  NO : ONE LINE PER DEPTH STEP
~Well ------------------------------------------------------
STRT.F                     3500.0 : START DEPTH
STOP.F                     9300.0 : STOP DEPTH
STEP.F                   50.00000 : STEP LENGTH
NULL.                     -999.25 : NULL VALUE
COMP. MITCHELL ENERGY CORPORATION : COMPANY
WELL.         LEAH G. BARNES A #1 : WELL
FLD .               ALABAMA FERRY : FIELD
LOC .                             : LOCATION
CNTY.                        LEON : COUNTY
STAT.                       TEXAS : STATE
CTRY.    UNITED STATES OF AMERICA : COUNTRY
SRVC.                Schlumberger : SERVICE COMPANY
DATE.                 19-May-1988 : LOGDATE
API .              42289309850000 : API NUMBER
UWI .              42289309850000 : UNIQUE WELL ID
SLAT.WGS84          31.2253718237 : SURFACE LATITUDE
SLON.WGS84          -95.886243373 : SURFACE LONGITUDE
~Curve Information -----------------------------------------
DEPT   .F    0   1   0  0 : 1 MEASURED DEPTH
CALD   .IN   45 280 60 00 : CALIPER FROM DENSITY LOG
DPHI_LS.DEC  45 890 10 00 : DENSITY POROSITY LIMESTONE
DRHO   .G/C3 45 356 01 00 : BULK DENSITY CORRECTION
GRR    .GAPI 07 310 01 00 : GAMMA RAY FROM RESISTIVITY LOG
DT     .US/F 60 500 00 00 : DELTA-T (INTERVAL TRANSIT TIME)
ILD    .OHMM 07 120 46 00 : INDUCTION DEEP RESISTIVITY
ILM    .OHMM 07 120 44 00 : INDUCTION MEDIUM RESISTIVITY
SFLU   .OHMM 07 220 06 00 : SHALLOW FOCUSED RESISTIVITY (UNAVERAGED)
SPR    .MV   07 010 01 00 : SPONTANEOUS POTENTIAL FROM RESISTIVITY LOG
DCAL   .IN   07 280 01 00 : DIFFERENTIAL CALIPER
~Params ----------------------------------------------------
PD  .                     GL : PERMANENT DATUM
EPD .FT                  309 : ELEVATION PERMANENT DATUM
LMF .                     KB : LOG MEASURED FROM
DAPD.FT                   16 : FEET ABOVE PERMANENT DATUM
DMF .                     KB : DRILLING MEASURED FROM
EKB .FT                  325 : KELLY BUSHING
EDF .FT                  324 : DRILLING FLOOR
EGL .FT                  309 : GROUND LEVEL
DATE.               05/19/88 : RUN DATE
RUN .                      1 : RUN NUMBER
DD  .FT                 9335 : DEPTH DRILLER
DL  .FT                 9335 : DEPTH LOGGER
BLI .FT                 9332 : BOTTOM LOG INTERVAL
TLI .FT                 6360 : TOP LOG INTERVAL
CS  .IN                8.625 : CASING SIZE
CBD .FT                 3486 : CASING BOTTOM DRILLER
CBL .FT                 3486 : CASING BOTTOM LOGGER
BS  .IN                7.875 : BIT SIZE
BSD .FT                 9335 : BIT SIZE AT DEPTH
DFT .                  BENEX : DRILLING FLUID TYPE
DFD .                    9.9 : DRILLING FLUID DENSITY
DFV .                     43 : DRILLING FLUID VISCOSITY
DFPH.                      9 : DRILLING FLUID PH
DFL .                    8.4 : DRILLING FLUID LOSS
MSS .               FLOWLINE : MUD SAMPLE SOURCE
RMS .OHMM               1.95 : RESISTIVITY MUD SAMPLE
MST .DEGF                108 : MUD SAMPLE TEMPERATURE
RMF .OHMM               2.54 : RESISTIVITY MUD FILTRATE SAMPLE
MFST.DEGF                 80 : MUD FILTRATE SAMPLE TEMPERATURE
RMC .OHMM               2.59 : RESISTIVITY MUD CAKE
MCST.DEGF                 80 : MUD CAKE SAMPLE TEMPERATURE
MFSS.                   MEAS : MUD FILTRATE SAMPLE SOURCE
MCSS.                   CALC : MUD CAKE SAMPLE SOURCE
RMB .OHMM              1.038 : RESISTIVITY MUD AT BHT
TCS .HRS                1700 : TIME CIRCULATED STOPPED
TLAB.HRS                2130 : TIME LOGGER AT BOTTOM
LUN .                   8407 : LOGGING UNIT NUMBER
LUL .               TYLER OH : LOGGING UNIT LOCATION
ENGI.                  RICKS : RECORDING ENGINEER
WITN.       THOMPSON BULLARD : WITNESSED BY
CLNT.                A2DTECH : CLIENT CODE
ORIG.           5" 25" PRINT : ORIGIN OF DATA
UWI .         42289309850000 : UNIQUE WELL ID
DICO. A2D Technologies, Inc. : DIGITIZING COMPANY
~Other -----------------------------------------------------
~ASCII -----------------------------------------------------
 3500.00000    -999.25    -999.25    -999.25   80.50820  102.62880    3.71850    3.94860    4.27060  -39.90730    0.59800
 3550.00000    -999.25    -999.25    -999.25   76.84330    -999.25    2.54680    2.63770    2.69050  -26.15550    0.75340
 3600.00000    -999.25    -999.25    -999.25   78.72690    -999.25    2.68610    2.78110    2.80190  -31.61800    0.22520
 3650.00000    -999.25    -999.25    -999.25   80.74180    -999.25    2.23840    2.31950    2.41330  -24.26620    0.63870
 3700.00000    -999.25    -999.25    -999.25   74.61930    -999.25    2.03560    2.10860    2.17930  -24.30560    0.59600
 3750.00000    -999.25    -999.25    -999.25   82.18330    -999.25    2.20970    2.28760    2.39080  -25.51100    0.79270
 3800.00000    -999.25    -999.25    -999.25   81.41220    -999.25    2.03570    2.10770    2.22230  -25.32480    1.07210
 3850.00000    -999.25    -999.25    -999.25   79.84120    -999.25    2.75130    2.84900    2.98170  -27.80260    0.94740
 3900.00000    -999.25    -999.25    -999.25   86.95690    -999.25    2.10090    2.17700    2.36400  -25.31870    0.76140
 3950.00000    -999.25    -999.25    -999.25   78.41930    -999.25    2.30770    2.39040    2.54050  -25.97500    0.77280
 4000.00000    -999.25    -999.25    -999.25   79.82460    -999.25    2.20450    2.28280    2.32160  -26.04670    0.85370
 4050.00000    -999.25    -999.25    -999.25  100.06510    -999.25    1.99440    2.06480    2.13160  -25.83810    1.05580
 4100.00000    -999.25    -999.25    -999.25   83.20680    -999.25    1.97130    2.04070    2.16640  -26.96810    0.97920
 4150.00000    -999.25    -999.25    -999.25   96.10960    -999.25    1.95850    2.02750    2.20400  -25.32530    0.83290
 4200.00000    -999.25    -999.25    -999.25   83.54770    -999.25    2.18680    2.26420    2.34480  -26.51140    0.89360
 4250.00000    -999.25    -999.25    -999.25   90.93520    -999.25    2.16860    2.24520    2.36460  -25.50870    0.86470
 4300.00000    -999.25    -999.25    -999.25   94.17250    -999.25    2.30010    2.38120    2.47490  -27.62880    0.82360
 4350.00000    -999.25    -999.25    -999.25   92.14310    -999.25    2.28420    2.36490    2.42240  -29.02440    1.45860
 4400.00000    -999.25    -999.25    -999.25   80.26130    -999.25    2.28060    2.36080    2.42800  -32.32510    0.71310
 4450.00000    -999.25    -999.25    -999.25   80.25080    -999.25    2.76230    2.88070    3.07660  -32.08320    0.74040
 4500.00000    -999.25    -999.25    -999.25   73.43160    -999.25    2.47630    2.56360    2.52310  -30.70870    1.28190
 4550.00000    -999.25    -999.25    -999.25  100.02670    -999.25    1.97710    2.04670    2.09600  -27.14420    0.88390
 4600.00000    -999.25    -999.25    -999.25   79.01070    -999.25    1.23950    1.28360    1.40540  -23.23310    0.89600
 4650.00000    -999.25    -999.25    -999.25   77.04820    -999.25    1.18730    1.22900    1.35870  -23.01180    0.90590
 4700.00000    -999.25    -999.25    -999.25   75.48960    -999.25    1.88550    2.12360    1.82510  -24.39270    0.72710
 4750.00000    -999.25    -999.25    -999.25   76.44300    -999.25    2.14310    2.30000    2.95630  -28.43830    0.49780
 4800.00000    -999.25    -999.25    -999.25   81.19120    -999.25    1.08410    1.12230    1.13630  -29.28070    1.24410
 4850.00000    -999.25    -999.25    -999.25   95.07530    -999.25    1.15200    1.19360    1.18700  -27.86120    0.70420
 4900.00000    -999.25    -999.25    -999.25   82.98430    -999.25    1.35650    1.40430    1.42840  -27.02650    1.35380
 4950.00000    -999.25    -999.25    -999.25   95.80570    -999.25    1.18320    1.22520    1.28900  -26.43780    2.15920
 5000.00000    -999.25    -999.25    -999.25   87.87230    -999.25    0.91280    0.95510    1.05000  -23.79420    1.69950
 5050.00000    -999.25    -999.25    -999.25   93.42760    -999.25    0.89650    0.92850    1.00470  -24.41870    1.26090
 5100.00000    -999.25    -999.25    -999.25   92.42100    -999.25    0.89550    0.92700    1.02520  -24.75790    2.12320
 5150.00000    -999.25    -999.25    -999.25   94.13750    -999.25    0.99650    1.03170    1.16280  -23.99600    2.03600
 5200.00000    -999.25    -999.25    -999.25   90.39110    -999.25    1.14160    1.18210    1.24330  -22.87630    1.50720
 5250.00000    -999.25    -999.25    -999.25   87.44350    -999.25    1.21470    1.30960    1.72190  -23.30290    1.31760
 5300.00000    -999.25    -999.25    -999.25   91.81100    -999.25    1.28790    1.33470    1.45520  -22.98310    1.69450
 5350.00000    -999.25    -999.25    -999.25   84.63810    -999.25    1.17060    1.21240    1.37780  -22.98570    1.28690
 5400.00000    -999.25    -999.25    -999.25   65.20060    -999.25    4.50520    4.76790    5.33870  -27.41960    0.41320
 5450.00000    -999.25    -999.25    -999.25   71.78050    -999.25    4.19540    4.34850    4.38640  -35.80660    0.33750
 5500.00000    -999.25    -999.25    -999.25  105.36810    -999.25    2.37520    2.45410    2.34180  -25.95120    0.81690
 5550.00000    -999.25    -999.25    -999.25   69.28570    -999.25    3.26220    3.42090    3.35840  -23.98520    0.37700
 5600.00000    -999.25    -999.25    -999.25   98.31830    -999.25    1.69430    1.75440    1.96680  -25.20160    1.28240
 5650.00000    -999.25    -999.25    -999.25   85.30140    -999.25    2.29050    2.40890    2.85540  -25.12670    0.58960
 5700.00000    -999.25    -999.25    -999.25   77.37490    -999.25    1.52050    1.57420    1.80960  -23.92680    1.31570
 5750.00000    -999.25    -999.25    -999.25   84.56730    -999.25    1.30780    1.36400    1.60890  -22.34720    1.23670
 5800.00000    -999.25    -999.25    -999.25   82.34870    -999.25    1.96930    2.03920    2.38050  -24.33770    0.90600
 5850.00000    -999.25    -999.25    -999.25   79.88870    -999.25    1.68720    1.74650    1.99850  -22.53740    1.01350
 5900.00000    -999.25    -999.25    -999.25   69.75630    -999.25    2.18870    2.26810    2.64630  -21.16200    0.63230
 5950.00000    -999.25    -999.25    -999.25   76.12980    -999.25    1.41570    1.46570    1.72850  -23.21260    2.05560
 6000.00000    -999.25    -999.25    -999.25   39.36850    -999.25    4.30690    4.46270    5.31660  -25.12100    0.43110
 6050.00000    -999.25    -999.25    -999.25   66.39430    -999.25    2.95140    3.05530    3.45780  -20.85920    0.75410
 6100.00000    -999.25    -999.25    -999.25   97.34460    -999.25    1.75160    1.81540    1.99690  -23.05850    1.65170
 6150.00000    -999.25    -999.25    -999.25   80.23470    -999.25    1.62900    1.68640    1.96240  -23.36770    2.16140
 6200.00000    -999.25    -999.25    -999.25   75.19620    -999.25    1.74770    1.81110    2.05670  -23.79090    2.02140
 6250.00000    -999.25    -999.25    -999.25   82.75460    -999.25    1.66320    1.72680    1.94240  -24.02390    1.69490
 6300.00000    -999.25    -999.25    -999.25   69.82300   88.80640    2.17660    2.25380    2.53090  -30.62020    1.26460
 6350.00000   10.50240    0.24960    0.03700   79.48600  102.14500    1.34900    1.39820    1.60570  -33.07800    2.85880
 6400.00000    9.05070    0.11380   -0.02660   41.89340   79.40350    4.14930    4.29770    4.37730  -31.85010    1.19300
 6450.00000    9.69040    0.13410   -0.02140   41.69820   81.40950    2.97600    3.08570    2.84580  -29.67140    1.63740
 6500.00000    8.91910    0.08200   -0.01530   36.02330   67.03630    7.98830    8.46760    9.00130  -35.91740    0.78130
 6550.00000    8.60400    0.09990   -0.02820   36.45210   67.38570    9.68380   10.34300   11.04260  -43.29320    0.65380
 6600.00000    8.61780    0.09510   -0.00150   23.64940   64.76590    9.97700   12.15770   11.40180  -56.00260    0.54150
 6650.00000    9.51310    0.16620   -0.00200   54.38070   82.00690    2.84120    2.94890    3.16800  -37.53630    1.32660
 6700.00000   10.84000    0.23160    0.09240   77.30680   85.03100    2.09570    2.22330    2.74750  -29.79300    2.26740
 6750.00000   12.44520    0.25070    0.00410   87.09260  100.27270    1.26610    1.31090    1.60530  -30.72370    3.38310
