~Version ---------------------------------------------------
VERS. 2.0 : CWLS log ASCII Standard -VERSION 2.0
WRAP. YES : MULTIPLE LINES PER DEPTH STEP
~Well ------------------------------------------------------
STRT.FT                    2550.0 : START DEPTH
STOP.FT                    7750.0 : STOP DEPTH
STEP.FT                  50.00000 : STEP LENGTH
NULL.                     -999.25 : NULL VALUE
COMP. ROYAL OIL & GAS CORPORATION : COMPANY
WELL.          DAVID N. BEHLEN #1 : WELL
FLD .                 PEACH CREEK : FIELD
LOC .                             : LOCATION
CNTY.                    GONZALES : COUNTY
STAT.                       TEXAS : STATE
CTRY.    UNITED STATES OF AMERICA : COUNTRY
SRVC.                Schlumberger : SERVICE COMPANY
DATE.                 02-Sep-1983 : LOGDATE
API .              42177314700000 : API NUMBER
UWI .              42177314700000 : UNIQUE WELL ID
SLAT.WGS84          29.5523655899 : SURFACE LATITUDE
SLON.WGS84         -97.3843892893 : SURFACE LONGITUDE
~Curve Information -----------------------------------------
DEPT    .FT    : DEPTH FEET
BITED   .IN    : BIT SIZE FROM LOG HEADER
CALWS   .IN    : CALIPER [DCALED+BITED]
CONDWS  .MMHO  : CONDUCTIVITY [1000/DRESWS]
DCALED  .IN    : DIFFERENTIAL CALIPER FROM DENSITY LOG
DCORWS  .G/C3  : DENSITY CORRECTION [DRHOED]
DENWS   .G/C3  : BULK DENSITY [M=2.65 F=1.0 CALCULATED FROM DPHISSED TO 7000 FEET, THEN CALCULATED FROM SPLICE OF DPHILSED WITH TEMP CURVE DPHI2 [M=2.71, F=1 TO TD1]
DPHILSED.V/V   : DENSITY POROSITY LIMESTONE FROM DENSITY LOG
DPHISSED.V/V   : DENSITY POROSITY SANDSTONE FROM DENSITY LOG
DPOWS   .V/V   : DENSITY POROSITY [M=2.71 F=1.0] [CALCULATED FROM TEMP CURVE RHOB2 TO 7000 FEET, THEN CALCULATED FROM SPLICE OF DPHILSED WITH TEMP CURVE DPHI2 TO TD]
DRESWS  .OHMM  : DEEP RESISTIVITY [ILDED]
DRHOED  .G/C3  : DENSITY CORRECTION FROM DENSITY LOG
GRRED   .GAPI  : GAMMA RAY FROM RESISTIVITY LOG
GRWS    .GAPI  : GAMMA RAY [GRRED]
ILDED   .OHMM  : INDUCTION LOG DEEP RESISTIVITY
ILMED   .OHMM  : INDUCTION LOG MEDIUM RESISTIVITY
MRESWS  .OHMM  : MEDIUM RESISTIVITY [ILMED]
NPHILSED.V/V   : NEUTRON POROSITY LIMESTONE FROM DENSITY LOG
NPHISSED.V/V   : NEUSTRON POROSITY SANDSTONE FROM DENSITY LOG
NPOWS   .V/V   : NEUTRON POROSITY LIMESTONE [CONVERTED FROM NPHISSED TO 7000 FEET, THEN EQUALS NPHILSED TO TD]
RHOBED  .G/C3  : BULK DENSITY FROM DENSITY LOG [DEPTH SHIFTED TO DPHILSED]
SFLUED  .OHMM  : SPHERICALLY FOCUSED LOG RESISTIVITY
SPRED   .MV    : SPONTANEOUS POTENTIAL FROM RESISTIVITY LOG
SPWS    .MV    : SPONTANEOUS POTENTIAL [BASELINE 0 MV] [SPRED]
SRESWS  .OHMM  : SHALLOW RESISTIVITY [SFLUED]
TENRED  .LBF   : TENSION FROM RESISTIVITY LOG
~Params ----------------------------------------------------
PD  .                     GL : PERMANENT DATUM
LMF .                    RKB : LOG MEASURED FROM
DAPD.F                  12.5 : FEET ABOVE PERMANENT DATUM
DMF .                    RKB : DRILLING MEASURED FROM
EKB .F                 316.6 : KELLING BUSHING
EDF .F                 315.6 : DRILLING FLOOR
EGL .F                 304.1 : GROUND LEVEL
DATE.               9/2/1983 : RUN DATE
RUN .                      1 : RUN NUMBER
DD  .F                  7760 : DEPTH DRILLER
DL  .F                  7745 : DEPTH LOGGER
BLI .F                  7742 : BOTTOM LOG INTERVAL
TLI .F                  2512 : TOP LOG INTERVAL
CS  .IN                8.625 : CASING SIZE
CBD .F                  2512 : CASING BOTTOM DRILLER
CBL .F                  2512 : CASING BOTTOM LOGGER
BS  .IN                7.875 : BIT SIZE
BSD .F                  7760 : BIT SIZE AT DEPTH
DFT .         LIGNOSULFONATE : DRILLING FLUID TYPE
DFD .                    9.2 : DRILLING FLUID DENSITY
DFV .                     42 : DRILLING FLUID VISCOSITY
DFPH.                   10.5 : DRILLING FLUID PH
DFL .                    6.4 : DRILLING FLUID LOSS
MSS .              CIRC TANK : MUD SAMPLE SOURCE
RMS .OHMM               3.89 : RESISTIVITY MUD SAMPLE
MST .F                    75 : MUD SAMPLE TEMPERATURE
RMF .OHMM               3.56 : RESISTIVITY MUD FILTRATE SAMPLE
MFST.F                    75 : MUD FILTRATE SAMPLE TEMPERATURE
RMC .OHMM               5.83 : RESISTIVITY MUD CAKE
MCST.F                    75 : MUD CAKE SAMPLE TEMPERATURE
MFSS.                   MEAS : MUD FILTRATE SAMPLE SOURCE
MCSS.                  CHART : MUD CAKE SAMPLE SOURCE
RMB .OHMM              1.743 : RESISTIVITY MUD AT BHT
TCS .HRS                 130 : TIME CURCULATED STOPPED
TLAB.HRS                 615 : TIME LOGGER AT BOTTOM
LUN .                   8299 : LOGGING UNIT NUMBER
LUL .               VICTORIA : LOGGING UNIT LOCATION
ENGI.             DALE LOGAN : RECORDING ENGINEER
WITN.          DAVID WEBSTER : WITNESSED BY
CLNT.                A2DTECH : CLIENT CODE
ORIG.               5" PRINT : ORIGIN OF DATA
UWI .         42177314700000 : UNIQUE WELL ID
DICO. A2D Technologies, Inc. : DIGITIZING COMPANY
~Other -----------------------------------------------------
1. TEMPORARY CURVE RHOB2 CALCULATED FROM DPHISSED [M=2.65, F=1] TO MAKE UPPER PART OF DENWS.
2. TEMPORARY CURVE DPHI2 CALCULATED FROM DEPTH SHIFTED RHOBED [M=2.71, F=1]. REASON: DPHILSED DID NOT WRAP, AND SOME OF ITS HIGH-END VALUES WERE TRUNCATED AT .45 V/V. DPHI2 WAS SPLICED IN TO INCLUDE PLACES WHERE POROSITY VALUES WERE GREATER THAN .45 V/V IN THE LIMESTONE PORTION OF THE WELL.
3. DPOWS WAS COMPUTED FROM DENWS (RHOB2) ABOVE 7000 FEET M=2.71, F=1. LIMESTONE SECTION FROM 7000 FEET DOWN WAS COMPUTED FROM DPHILSED/DPHI2 SPLICE. M=2.71, F=1.
4. NPOWS ABOVE 7000 FEET WAS CONVERTED TO LIMESTONE MATRIX AS FOLLOWS: INPUT = NPHISSED. OUTPUT = NPOWS. COMPANY = SWS. TOOL = CNL(NPHI). INPUT MATRIX: QTZ (4.6) OUTPUT MATRIX = LIME (7.1). BELOW 7000 FEET, NPOWS = NPHILSED.
~ASCII -----------------------------------------------------
# ...
 3950.00000    7.87500    9.41470  369.27620    1.53970    -999.25    -999.25    -999.25    -999.25    -999.25    2.70800    -999.25    -999.25    -999.25    2.70800    2.73420    2.73420    -999.25    -999.25    -999.25    -999.25    2.49170    0.80880  -14.88750    2.49170 2163.33030
 4000.00000    7.87500    7.98020  635.20290    0.10520    -999.25    -999.25    -999.25    -999.25    -999.25    1.57430    -999.25    -999.25    -999.25    1.57430    1.83740    1.83740    -999.25    -999.25    -999.25    -999.25    6.37760  -67.52470  -83.34310    6.37760 2221.41160
 4050.00000    7.87500    8.37260  652.18800    0.49760    -999.25    -999.25    -999.25    -999.25    -999.25    1.53330    -999.25    -999.25    -999.25    1.53330    1.81120    1.81120    -999.25    -999.25    -999.25    -999.25    3.12500  -28.94400  -44.88450    3.12500 2189.56030
 4100.00000    7.87500    9.44970  530.58840    1.57470    -999.25    -999.25    -999.25    -999.25    -999.25    1.88470    -999.25    -999.25    -999.25    1.88470    1.90200    1.90200    -999.25    -999.25    -999.25    -999.25    2.61880   12.87130   -3.19130    2.61880 2244.58010
 4150.00000    7.87500    8.07620  403.24210    0.20120    -999.25    -999.25    -999.25    -999.25    -999.25    2.47990    -999.25    -999.25    -999.25    2.47990    2.58930    2.58930    -999.25    -999.25    -999.25    -999.25    3.82810   -1.93810  -17.85120    3.82810 2307.71700
 4200.00000    7.87500    7.70050  479.84640   -0.17450    -999.25    -999.25    -999.25    -999.25    -999.25    2.08400    -999.25    -999.25    -999.25    2.08400    2.20140    2.20140    -999.25    -999.25    -999.25    -999.25    6.47300  -51.36490  -66.52430    6.47300 2302.07890
 4250.00000    7.87500    7.95550  246.96240    0.08050    -999.25    -999.25    -999.25    -999.25    -999.25    4.04920    -999.25    -999.25    -999.25    4.04920    5.19640    5.19640    -999.25    -999.25    -999.25    -999.25   42.69930  -47.66300  -62.06870   42.69930 2313.54100
 4300.00000    7.87500    8.01390  497.71050    0.13890    -999.25    -999.25    -999.25    -999.25    -999.25    2.00920    -999.25    -999.25    -999.25    2.00920    2.22160    2.22160    -999.25    -999.25    -999.25    -999.25    5.93240  -42.57430  -56.22640    5.93240 2344.56270
 4350.00000    7.87500    8.01410  422.24380    0.13910    -999.25    -999.25    -999.25    -999.25    -999.25    2.36830    -999.25    -999.25    -999.25    2.36830    2.52480    2.52480    -999.25    -999.25    -999.25    -999.25    4.32860  -29.50490  -42.40330    4.32860 2302.09130
 4400.00000    7.87500    8.24400  404.05670    0.36900    -999.25    -999.25    -999.25    -999.25    -999.25    2.47490    -999.25    -999.25    -999.25    2.47490    2.63080    2.63080    -999.25    -999.25    -999.25    -999.25    3.39580  -15.14850  -27.29320    3.39580 2343.65380
 4450.00000    7.87500    7.86550  672.08820   -0.00950    -999.25    -999.25    -999.25    -999.25    -999.25    1.48790    -999.25    -999.25    -999.25    1.48790    1.68150    1.68150    -999.25    -999.25    -999.25    -999.25    5.36660  -77.96480  -89.35580    5.36660 2361.82420
 4500.00000    7.87500    8.33600  392.24910    0.46100    -999.25    -999.25    -999.25    -999.25    -999.25    2.54940    -999.25    -999.25    -999.25    2.54940    2.59050    2.59050    -999.25    -999.25    -999.25    -999.25    3.09710   -8.43650  -19.07380    3.09710 2462.08350
 4550.00000    7.87500    8.68450  420.96400    0.80950    -999.25    -999.25    -999.25    -999.25    -999.25    2.37550    -999.25    -999.25    -999.25    2.37550    2.41930    2.41930    -999.25    -999.25    -999.25    -999.25    2.22170   -4.65360  -14.53720    2.22170 2424.12480
 4600.00000    7.87500    8.70990  420.57450    0.83490    -999.25    -999.25    -999.25    -999.25    -999.25    2.37770    -999.25    -999.25    -999.25    2.37770    2.34520    2.34520    -999.25    -999.25    -999.25    -999.25    2.60910    0.59280   -8.53710    2.60910 2445.61280
 4650.00000    7.87500    8.33590  317.85390    0.46090    -999.25    -999.25    -999.25    -999.25    -999.25    3.14610    -999.25    -999.25    -999.25    3.14610    3.20410    3.20410    -999.25    -999.25    -999.25    -999.25    3.98690   -2.77230  -11.14850    3.98690 2443.56740
 4700.00000    7.87500    8.49010  397.72500    0.61510    -999.25    -999.25    -999.25    -999.25    -999.25    2.51430    -999.25    -999.25    -999.25    2.51430    2.55130    2.55130    -999.25    -999.25    -999.25    -999.25    2.57010   -1.32360   -8.94610    2.57010 2482.37990
 4750.00000    7.87500    8.90420  439.30940    1.02920    -999.25    -999.25    -999.25    -999.25    -999.25    2.27630    -999.25    -999.25    -999.25    2.27630    2.34510    2.34510    -999.25    -999.25    -999.25    -999.25    2.49610    0.37020   -6.49860    2.49610 2499.48290
 4800.00000    7.87500    8.49560  289.82150    0.62060    -999.25    -999.25    -999.25    -999.25    -999.25    3.45040    -999.25    -999.25    -999.25    3.45040    3.32100    3.32100    -999.25    -999.25    -999.25    -999.25    4.13530   -9.61500  -15.73010    4.13530 2598.01810
 4850.00000    7.87500    8.91740  365.80460    1.04240    -999.25    -999.25    -999.25    -999.25    -999.25    2.73370    -999.25    -999.25    -999.25    2.73370    2.70200    2.70200    -999.25    -999.25    -999.25    -999.25    2.76450    0.63380   -5.13690    2.76450 2552.30960
 4900.00000    7.87500    9.24990  396.07100    1.37490    -999.25    -999.25    -999.25    -999.25    -999.25    2.52480    -999.25    -999.25    -999.25    2.52480    2.47900    2.47900    -999.25    -999.25    -999.25    -999.25    2.57810    4.70040   -2.47100    2.57810 2616.99410
 4950.00000    7.87500    9.03700  418.21760    1.16200    -999.25    -999.25    -999.25    -999.25    -999.25    2.39110    -999.25    -999.25    -999.25    2.39110    2.32650    2.32650    -999.25    -999.25    -999.25    -999.25    2.36280    6.45550   -2.11650    2.36280 2603.35940
 5000.00000    7.87500    9.10440  590.73720    1.22940    -999.25    -999.25    -999.25    -999.25    -999.25    1.69280    -999.25    -999.25    -999.25    1.69280    1.73580    1.73580    -999.25    -999.25    -999.25    -999.25    1.83730    4.23610   -5.56500    1.83730 2569.68040
 5050.00000    7.87500    9.15180  624.68760    1.27680    -999.25    -999.25    -999.25    -999.25    -999.25    1.60080    -999.25    -999.25    -999.25    1.60080    1.63030    1.63030    -999.25    -999.25    -999.25    -999.25    1.71360    7.14960   -3.75100    1.71360 2614.98510
 5100.00000    7.87500    9.99800  653.16780    2.12300    -999.25    -999.25    -999.25    -999.25    -999.25    1.53100    -999.25    -999.25    -999.25    1.53100    1.55920    1.55920    -999.25    -999.25    -999.25    -999.25    1.60840   10.03110   -1.96900    1.60840 2686.49070
 5150.00000    7.87500   10.64010  642.67350    2.76510    -999.25    -999.25    -999.25    -999.25    -999.25    1.55600    -999.25    -999.25    -999.25    1.55600    1.58470    1.58470    -999.25    -999.25    -999.25    -999.25    1.58980    9.47700   -2.75770    1.58980 2640.25710
 5200.00000    7.87500   10.59330  709.72320    2.71830    -999.25    -999.25    -999.25    -999.25    -999.25    1.40900    -999.25    -999.25    -999.25    1.40900    1.43500    1.43500    -999.25    -999.25    -999.25    -999.25    1.49790    2.59740   -9.81800    1.49790 2698.82980
 5250.00000    7.87500   10.32960  659.32620    2.45460    -999.25    -999.25    -999.25    -999.25    -999.25    1.51670    -999.25    -999.25    -999.25    1.51670    1.54470    1.54470    -999.25    -999.25    -999.25    -999.25    1.59090   -1.98230  -14.57840    1.59090 2681.36470
 5300.00000    7.87500   10.43300  744.04760    2.55800    -999.25    -999.25    -999.25    -999.25    -999.25    1.34400    -999.25    -999.25    -999.25    1.34400    1.36880    1.36880    -999.25    -999.25    -999.25    -999.25    1.51360   -0.84510  -13.62180    1.51360 2749.15940
