~Version ---------------------------------------------------
VERS. 2.0 : CWLS log ASCII Standard -VERSION 2.0
WRAP.  NO : ONE LINE PER DEPTH STEP
~Well ------------------------------------------------------
STRT.FT                 3800.0 : START DEPTH
STOP.FT                10100.0 : STOP DEPTH
STEP.FT               50.00000 : STEP LENGTH
NULL.                  -999.25 : NULL VALUE
COMP.   PATTERSON PETROLEUM LP : COMPANY
WELL.           WEIDER UNIT #1 : WELL
FLD .                 GIDDINGS : FIELD
LOC .                          : LOCATION
CNTY.                      LEE : COUNTY
STAT.                    TEXAS : STATE
CTRY. UNITED STATES OF AMERICA : COUNTRY
SRVC.             Baker Hughes : SERVICE COMPANY
DATE.              17-Nov-2000 : LOGDATE
API .           42287325060000 : API NUMBER
UWI .           42287325060000 : UNIQUE WELL ID
SLAT.WGS84        30.109798312 : SURFACE LATITUDE
SLON.WGS84      -96.8938886142 : SURFACE LONGITUDE
~Curve Information -----------------------------------------
DEPT  .FT    : DEPTH FEET
M1R6ED.OHMM  : 60 INCH DOI RESISTIVITY FROM HDI/CD/CN LOG
M1RXED.OHMM  : 120 INCH DOI RESISTIVITY FROM HDI/CD/CN LOG
TENRED.LBF   : TENSION FROM RESISTIVITY LOG
GRRED .GAPI  : GAMMA RAY FROM RESISTIVITY LOG
CALRED.IN    : CALIPER FROM RESISTIVITY LOG
SPRED .MV    : SPONTANEOUS POTENTIAL FROM RESISTIVITY LOG
M1R2ED.OHMM  : 20 INCH DOI RESISTIVITY FROM HDI/CD/CN LOG
M1R3ED.OHMM  : 30 INCH DOI RESISTIVITY FROM HDI/CD/CN LOG
M1R9ED.OHMM  : 90 INCH DOI RESISTIVITY FROM HDI/CD/CN LOG
ZCORED.G/C3  : DENSITY CORRECTION FROM HDI/CD/CN LOG
CNCFED.V/V   : NEUTRON POROSITY LIMESTONE
PEFED .B/E   : PHOTOELECTRIC FACTOR FROM DENSITY LOG
PORZED.V/V   : DENSITY POROSITY FROM HDI/CD/CN LOG
SPWS  .MV    : SPONTANEOUS POTENTIAL [BASELINE 0 MV] [SPRED]
GRWS  .GAPI  : GAMMA RAY [GRRED]
DCORWS.G/C3  : DENSITY CORRECTION [ZCORED]
CALWS .IN    : CALIPER [CALRED]
DRESWS.OHMM  : DEEP RESISTIVITY [M1R9ED]
MRESWS.OHMM  : MEDIUM RESISTIVITY [M1R3ED]
SRESWS.OHMM  : SHALLOW RESISTIVITY [M1R2ED]
CONDWS.MMHO  : CONDUCTIVITY [1000/DRESWS]
NPOWS .V/V   : NEUTRON POROSITY [CNCFED]
PEFWS .B/E   : PHOTOELECTRIC FACTOR [PEFED]
DENWS .G/C3  : BULK DENSITY [M=2.71 F=1.0] [CALCULATED FROM PORDED]
DPOWS .V/V   : DENSITY POROSITY [M=2.71 F=1] [CALCULATED FROM DENWS]
~Params ----------------------------------------------------
PD  .                     GL : PERMANENT DATUM
EPD .FT                  379 : ELEVATION PERMANENT DATUM
LMF .                     KB : LOG MEASURED FROM
DAPD.FT                   20 : FEET ABOVE PERMANENT DATUM
DMF .                     KB : DRILLING MEASURED FROM
EKB .FT                  399 : KELLY BUSHING
EDF .FT                  398 : DRILLING FLOOR
EGL .FT                  379 : GROUND LEVEL
DATE.               11/17/00 : RUN DATE
RUN .                      1 : RUN NUMBER
DD  .FT                10130 : DEPTH DRILLER
DL  .FT                10128 : DEPTH LOGGER
BLI .FT                10120 : BOTTOM LOG INTERVAL
TLI .FT                 3820 : TOP LOG INTERVAL
CS  .IN                8.625 : CASING SIZE
CBD .FT                 3820 : CASING BOTTOM DRILLER
CBL .FT                 3820 : CASING BOTTOM LOGGER
BS  .IN                7.875 : BIT SIZE
BSD .FT                10130 : BIT SIZE AT DEPTH
DFT .                  FRESH : DRILLING FLUID TYPE
DFD .                    9.8 : DRILLING FLUID DENSITY
DFV .                     37 : DRILLING FLUID VISCOSITY
DFPH.                    8.5 : DRILLING FLUID PH
DFL .                    6.8 : DRILLING FLUID LOSS
MSS .               MUD TANK : MUD SAMPLE SOURCE
RMS .OHMM                  3 : RESISTIVITY MUD SAMPLE
MST .FT                   70 : MUD SAMPLE TEMPERATURE
RMF .OHMM                2.7 : RESISTIVITY MUD FILTRATE SAMPLE
MFST.FT                   70 : MUD FILTRATE SAMPLE TEMPERATURE
RMC .OHMM                3.8 : RESISTIVITY MUD CAKE
MCST.FT                   70 : MUD CAKE SAMPLE TEMPERATURE
MFSS.               MEASURED : MUD FILTRATE SAMPLE SOURCE
MCSS.               MEASURED : MUD CAKE SAMPLE SOURCE
RMB .OHMM               0.84 : RESISTIVITY MUD AT BHT
TCS .HRS                   6 : TIME CURCULATED STOPPED
LUN .                HL 6554 : LOGGING UNIT NUMBER
LUL .               VICTORIA : LOGGING UNIT LOCATION
ENGI.                    MAY : RECORDING ENGINEER
WITN.                 NELSON : WITNESSED BY
CLNT.                A2DTECH : CLIENT CODE
ORIG.            1" 5" PRINT : ORIGIN OF DATA
UWI .         42287325060000 : UNIQUE WELL ID
DICO. A2D Technologies, Inc. : DIGITIZING COMPANY
~Other -----------------------------------------------------
ALL LOGS RUN IN COMBO.
LS_2.71 MTRX
~ASCII -----------------------------------------------------
# ...
 8000.00000    4.60800    4.16090  -87.42550   40.02600    7.77970  -10.15000    5.54830    4.89450    4.25620    0.01730    0.10980    4.84060    0.06780  -10.07610   40.02600    0.01730    7.77970    4.25620    4.89450    5.54830  234.95140    0.10980    4.84060    2.59410    0.06780
 8050.00000    3.60440    3.44460   45.85890   66.48670    7.79670   -5.48310    3.56970    3.83070    3.39410    0.00300    0.15160    4.08810    0.08580   -5.65190   66.48670    0.00300    7.79670    3.39410    3.83070    3.56970  294.62890    0.15160    4.08810    2.56330    0.08580
 8100.00000    1.85300    1.71700  -33.26950  105.81800    7.83870   -1.75920    1.89320    1.76470    1.71700    0.02330    0.21430    3.44440    0.11300   -2.17060  105.81800    0.02330    7.83870    1.71700    1.76470    1.89320  582.41120    0.21430    3.44440    2.51680    0.11300
 8150.00000    2.63980    2.36960  -78.13470   78.71750    8.00270   -3.13760    2.58730    2.72140    2.40540    0.02040    0.17500    3.86840    0.09110   -3.79170   78.71750    0.02040    8.00270    2.40540    2.72140    2.58730  415.73130    0.17500    3.86840    2.55420    0.09110
 8200.00000    2.37930    2.26680  -25.39960   90.75750    7.93900   -1.07280    2.37760    2.49600    2.25220    0.01370    0.17760    3.94160    0.10400   -1.96950   90.75750    0.01370    7.93900    2.25220    2.49600    2.37760  444.01030    0.17760    3.94160    2.53220    0.10400
 8250.00000    2.08490    2.03530  -21.46870   94.68320    8.04500   -0.66520    2.11070    2.16580    2.00320   -0.00260    0.19370    3.38320    0.10580   -1.80460   94.68320   -0.00260    8.04500    2.00320    2.16580    2.11070  499.20130    0.19370    3.38320    2.52910    0.10580
 8300.00000    3.92340    3.63060  -44.01400   68.25160    8.01940   -2.31580    3.89120    3.80200    3.69880    0.00610    0.16000    4.15940    0.07940   -3.69780   68.25160    0.00610    8.01940    3.69880    3.80200    3.89120  270.35790    0.16000    4.15940    2.57420    0.07940
 8350.00000    2.32460    2.07560 -136.66570   93.68780    8.07660   -0.52550    2.23870    2.14470    2.06900   -0.00390    0.19710    4.09330    0.10130   -2.15020   93.68780   -0.00390    8.07660    2.06900    2.14470    2.23870  483.32530    0.19710    4.09330    2.53680    0.10130
 8400.00000    6.05260    5.71520  -83.89140   34.26650    7.89160  -12.83060    6.62740    6.04740    5.78540   -0.01640    0.09070    5.54560    0.08410  -15.51880   34.26650   -0.01640    7.89160    5.78540    6.04740    6.62740  172.84890    0.09070    5.54560    2.56620    0.08410
 8450.00000   11.51510   11.06370  -23.81260   30.59790    7.93200  -18.90000   13.34380   11.52940   10.97550    0.00860    0.08420    4.98950    0.06460  -22.69490   30.59790    0.00860    7.93200   10.97550   11.52940   13.34380   91.11200    0.08420    4.98950    2.59950    0.06460
 8500.00000    9.79950    9.19130  -16.99400   25.51170    7.95930  -24.35530   10.17630    9.92530    9.63500   -0.00050    0.07370    4.79460    0.06790  -29.25690   25.51170   -0.00050    7.95930    9.63500    9.92530   10.17630  103.78830    0.07370    4.79460    2.59390    0.06790
 8550.00000    9.26630    7.91150    2.10910   33.67680    7.89510  -20.73620    9.17080    8.21910    7.69930   -0.00860    0.08120    5.14780    0.07080  -26.74450   33.67680   -0.00860    7.89510    7.69930    8.21910    9.17080  129.88190    0.08120    5.14780    2.58890    0.07080
 8600.00000   12.04230   11.15280   23.53630   43.17970    8.16820  -16.51900   13.62760   11.68670   11.11260    0.24680    0.11220    5.10280    0.09070  -23.63410   43.17970    0.24680    8.16820   11.11260   11.68670   13.62760   89.98790    0.11220    5.10280    2.55490    0.09070
 8650.00000    9.09650    7.40230  -15.16420   22.83560    7.83640  -36.27610   10.88700    9.58060    8.23500    0.00250    0.09850    4.58210    0.08030  -44.49790   22.83560    0.00250    7.83640    8.23500    9.58060   10.88700  121.43290    0.09850    4.58210    2.57270    0.08030
 8700.00000    5.90660    5.77260  -32.41470   41.43110    7.89330   -7.43270    6.60870    5.91180    5.74890    0.00400    0.09290    4.39330    0.06150  -16.76120   41.43110    0.00400    7.89330    5.74890    5.91180    6.60870  173.94630    0.09290    4.39330    2.60480    0.06150
 8750.00000    6.13350    5.63150  -33.54190   31.93810    7.90190   -3.59620    6.84170    6.04710    5.64480   -0.00790    0.08340    5.68750    0.06610  -14.03140   31.93810   -0.00790    7.90190    5.64480    6.04710    6.84170  177.15420    0.08340    5.68750    2.59700    0.06610
 8800.00000    4.62930    4.30090  -55.38830   33.18280    8.02290   -3.72120    4.93750    4.59560    4.41200    0.00390    0.09690    5.66950    0.08800  -15.26310   33.18280    0.00390    8.02290    4.41200    4.59560    4.93750  226.65460    0.09690    5.66950    2.55950    0.08800
 8850.00000    5.57980    5.28900  -55.48040   42.95930    7.93930    2.85980    6.37190    5.95110    5.62700   -0.00690    0.09150    4.99390    0.06940   -9.78880   42.95930   -0.00690    7.93930    5.62700    5.95110    6.37190  177.71460    0.09150    4.99390    2.59130    0.06940
 8900.00000    6.85770    6.23350  -34.97190   35.54570    7.92900   -7.40100    7.81700    6.94850    6.32100   -0.00580    0.08990    4.93690    0.07480  -21.15630   35.54570   -0.00580    7.92900    6.32100    6.94850    7.81700  158.20280    0.08990    4.93690    2.58210    0.07480
 8950.00000   10.61500    8.11680   -8.43360   37.59190    7.91920  -11.41050   12.17310   10.02820    8.62250    0.01140    0.08160    5.85850    0.07500  -26.27260   37.59190    0.01140    7.91920    8.62250   10.02820   12.17310  115.97560    0.08160    5.85850    2.58170    0.07500
 9000.00000   12.45180    9.11040    9.61910   47.08650    7.97610  -19.21420   42.57170   17.92620    9.86270   -0.01200    0.10410    5.23130    0.09880  -35.18300   47.08650   -0.01200    7.97610    9.86270   17.92620   42.57170  101.39210    0.10410    5.23130    2.54110    0.09880
 9050.00000   29.47740   23.37850  -27.93380   43.80140    8.04910  -13.41720   31.71910   25.52430   24.18010   -0.01190    0.09050    5.55200    0.09630  -30.49270   43.80140   -0.01190    8.04910   24.18010   25.52430   31.71910   41.35630    0.09050    5.55200    2.54530    0.09630
 9100.00000    3.44310    4.23410  -12.54310  115.79350    9.28820    5.67750    2.65770    2.88740    3.77540    0.12470    0.32510    3.46380    0.13670  -13.49680  115.79350    0.12470    9.28820    3.77540    2.88740    2.65770  264.87260    0.32510    3.46380    2.47620    0.13670
 9150.00000   13.38120   15.32090  -44.02720  115.51090    8.67960   23.36590   14.11330   11.82560    9.88690   -0.00640    0.27660    4.40250    0.16990   -6.27600  115.51090   -0.00640    8.67960    9.88690   11.82560   14.11330  101.14390    0.27660    4.40250    2.41950    0.16990
 9200.00000    1.92220    2.02810  -26.01880  137.85190    8.41440   27.89510    1.84490    1.93720    2.01170    0.01930    0.29750    3.94290    0.17410   -3.33060  137.85190    0.01930    8.41440    2.01170    1.93720    1.84490  497.09200    0.29750    3.94290    2.41230    0.17410
 9250.00000   40.79630   36.95180  -36.99020   22.18330    7.96450    6.23980   41.35930   37.71750   36.68850    0.00080    0.05670    6.43430    0.04040  -27.25220   22.18330    0.00080    7.96450   36.68850   37.71750   41.35930   27.25650    0.05670    6.43430    2.64090    0.04040
 9300.00000   22.04770   19.08430   14.24800   26.39580    7.86820   -9.96910   31.53190   24.43380   19.79110   -0.00610    0.04720    5.56820    0.04730  -43.66180   26.39580   -0.00610    7.86820   19.79110   24.43380   31.53190   50.52780    0.04720    5.56820    2.62910    0.04730
 9350.00000   28.94860   24.99880  -13.54680   23.25720    7.93670  -11.82860   34.29990   30.73770   28.55050    0.03470    0.03880    5.62220    0.03600  -42.46450   23.25720    0.03470    7.93670   28.55050   30.73770   34.29990   35.02570    0.03880    5.62220    2.64840    0.03600
