~Version ---------------------------------------------------
VERS. 2.0 : CWLS log ASCII Standard -VERSION 2.0
WRAP. YES : Multiple lines per depth step
~Well ------------------------------------------------------
STRT.ft                   3900.0 : START DEPTH
STOP.ft                   8100.0 : STOP DEPTH
STEP.ft                 50.00000 : STEP LENGTH
NULL.                    -999.25 : NULL VALUE
COMP. CHAMPLIN PETROLEUM COMPANY : COMPANY
WELL.   HENRY J. KUCHERA UNIT #1 : WELL
FLD .                   GIDDINGS : FIELD
LOC .                            : LOCATION
CNTY.                   BURLESON : COUNTY
STAT.                      TEXAS : STATE
CTRY.   UNITED STATES OF AMERICA : COUNTRY
SRVC.               Schlumberger : SERVICE COMPANY
DATE.                27-Aug-1980 : LOGDATE
API .             42051309040000 : API NUMBER
UWI .             42051309040000 : UNIQUE WELL ID
SLAT.WGS84         30.4711564964 : SURFACE LATITUDE
SLON.WGS84        -96.6819221784 : SURFACE LONGITUDE
~Curve Information -----------------------------------------
DEPT    .ft    : Depth Curve
CALWS   .IN    : CALIPER [DCALED + BITS]
CONDWS  .MMHO  : CONDUCIVITY [1000/DRESWS]
DCALED  .IN    : DIFFERENTIAL CALIPER FROM DIL-SFL-CNFD LOG
DCORWS  .G/C3  : DENSITY CORRECTION [DRHOED]
DENWS   .G/C3  : FORMATION BULK DENSITY [CALCULATED FROM DPOWS, M=2.71 F=1]
DPHILSED.V/V   : DENSITY POROSITY LIMESTONE [M=2.71 F=1.0] FROM DIL-SFL-CNFD LOG
DPHISSED.V/V   : DENSITY POROSITY SANDSTONE [M=2.65 F=1.0] FROM DIL-SFL-CNFD LOG
DPOWS   .V/V   : DENSITY POROSITY LIMESTONE  [DPHISSED  CONVERTED TO LIMESTONE MATRIX M=2.71 F=1.0 & SPL. TO DPHILSED @ 6290']
DRESWS  .OHMM  : DEEP RESISTIVITY [ILDED]
DRHOED  .G/C3  : BULK DENSITY CORRECTION FROM DIL-SFL-CNFD LOG
GRRED   .GAPI  : GAMMA RAY FROM DIL-SFL-CNFD LOG
GRWS    .GAPI  : GAMMA RAY [GRRED] CSG < 3904'
ILDED   .OHMM  : DEEP INDUCTION FROM DIL-SFL-CNFD LOG
ILMED   .OHMM  : MEDIUM INDUCTION FROM DIL-SFL-CNFD LOG
MRESWS  .OHMM  : MEDIUM RESISTIVITY [ILMED]
NPHILSED.V/V   : NEUTRON POROSITY LIMESTONE FROM DIL-SFL-CNFD LOG
NPHISSED.V/V   : NEUTRON POROSITY SANDSTONE FROM DIL-SFL-CNFD LOG
NPOWS   .V/V   : NEUTRON POROSITY LIMESTONE [NPHISSED MATRIX CONVERSION FOR LIMESTONE & SPL. TO NPHILSED @ 6290']
SFLUED  .OHMM  : SHALLOW FOCUSED RESISTIVITY FROM DIL-SFL-CNFD LOG
SPRED   .MV    : SPONTANEOUS POTENTIAL FROM DIL-SFL-CNFD LOG
SPWS    .MV    : SPONTANEOUS POTENTIAL [BASELINE 0MV, SPRED]
SRESWS  .OHMM  : SHALLOW RESISTIVITY [SFLUED]
~Params ----------------------------------------------------
PD  .                     GL : PERMANENT DATUM
EPD .FT                  316 : ELEVATION PERMANENT DATUM
LMF .                     KB : LOG MEASURED FROM
DAPD.FT                   14 : FEET ABOVE PERMANENT DATUM
DMF .                     KB : DRILLING MEASURED FROM
EKB .FT                  330 : KELLY BUSHING
EDF .FT                  329 : DRILLING FLOOR
EGL .FT                  316 : GROUND LEVEL
DATE.               08/27/80 : RUN DATE
RUN .                      1 : RUN NUMBER
DD  .FT                 8135 : DEPTH DRILLER
DL  .FT                 8132 : DEPTH LOGGER
BLI .FT                 8126 : BOTTOM LOG INTERVAL
TLI .FT                 3904 : TOP LOG INTERVAL
CS  .IN                9.625 : CASING SIZE
CBD .FT                 3910 : CASING BOTTOM DRILLER
CBL .FT                 3904 : CASING BOTTOM LOGGER
BS  .IN                 8.75 : BIT SIZE
BSD .FT                 8135 : BIT SIZE AT DEPTH
DFT .                 BEN EX : DRILLING FLUID TYPE
DFD .                    9.8 : DRILLING FLUID DENSITY
DFV .                     50 : DRILLING FLUID VISCOSITY
DFPH.                    9.5 : DRILLING FLUID PH
DFL .                      6 : DRILLING FLUID LOSS
MSS .                   TANK : MUD SAMPLE SOURCE
RMS .OHMM               1.72 : RESISTIVITY MUD SAMPLE
MST .DEGF                 98 : MUD SAMPLE TEMPERATURE
RMF .OHMM               1.31 : RESISTIVITY MUD FILTRATE SAMPLE
MFST.DEGF                 98 : MUD FILTRATE SAMPLE TEMPERATURE
RMC .OHMM               2.62 : RESISTIVITY MUD CAKE
MCST.DEGF                 98 : MUD CAKE SAMPLE TEMPERATURE
MFSS.                      M : MUD FILTRATE SAMPLE SOURCE
MCSS.                      C : MUD CAKE SAMPLE SOURCE
RMB .OHMM               0.86 : RESISTIVITY MUD AT BHT
TCS .HRS                1500 : TIME CIRCULATED STOPPED
TLAB.HRS                2130 : TIME LOGGER AT BOTTOM
LUL .                BRENHAM : LOGGING UNIT LOCATION
ENGI.               GILLLAND : RECORDING ENGINEER
WITN.                  DRAKE : WITNESSED BY
CLNT.                A2DTECH : CLIENT CODE
ORIG.            2" 5" PRINT : ORIGIN OF DATA
UWI .         42051309040000 : UNIQUE WELL ID
DICO. A2D Technologies, Inc. : DIGITIZING COMPANY
~Other -----------------------------------------------------
~ASCII -----------------------------------------------------
# ...
 7100.00000    9.83880  515.96920    1.08880    0.10070    2.55390    0.09130    -999.25    0.09130    1.93810    0.10070   95.15220   95.15220    1.93810    2.08450    2.08450    0.23430    -999.25    0.23430    2.44500  -13.33550   -5.09540    2.44500
 7150.00000   10.25650  562.36640    1.50650    0.08190    2.51490    0.11410    -999.25    0.11410    1.77820    0.08190   97.27890   97.27890    1.77820    1.91270    1.91270    0.24510    -999.25    0.24510    2.29450  -14.10170   -5.99400    2.29450
 7200.00000    9.98970  536.59580    1.23970    0.06060    2.51870    0.11190    -999.25    0.11190    1.86360    0.06060  104.97180  104.97180    1.86360    1.98660    1.98660    0.24740    -999.25    0.24740    2.46750  -12.94670   -4.97150    2.46750
 7250.00000   10.45080  587.13010    1.70080    0.06870    2.50790    0.11820    -999.25    0.11820    1.70320    0.06870  107.91150  107.91150    1.70320    1.83200    1.83200    0.24770    -999.25    0.24770    2.16130  -14.10510   -6.26230    2.16130
 7300.00000    9.63830  532.14130    0.88830    0.07100    2.55290    0.09190    -999.25    0.09190    1.87920    0.07100  102.16260  102.16260    1.87920    2.02320    2.02320    0.23800    -999.25    0.23800    2.46460  -13.16420   -5.45390    2.46460
 7350.00000    9.47890  198.78340    0.72890   -0.01770    2.61270    0.05690    -999.25    0.05690    5.03060   -0.01770   47.35120   47.35120    5.03060    5.72130    5.72130    0.07450    -999.25    0.07450    6.82320  -16.34420   -8.76630    6.82320
 7400.00000    9.70380  233.90170    0.95380   -0.00920    2.62660    0.04880    -999.25    0.04880    4.27530   -0.00920   58.41460   58.41460    4.27530    4.61450    4.61450    0.09610    -999.25    0.09610    5.19860  -15.04140   -7.59600    5.19860
 7450.00000    9.51960  171.08350    0.76960   -0.00370    2.62500    0.04970    -999.25    0.04970    5.84510   -0.00370   39.39140   39.39140    5.84510    6.91330    6.91330    0.06490    -999.25    0.06490    9.26480  -18.51120  -11.19820    9.26480
 7500.00000    9.42240  101.61470    0.67240    0.00600    2.63480    0.04400    -999.25    0.04400    9.84110    0.00600   54.53820   54.53820    9.84110   12.63980   12.63980    0.03850    -999.25    0.03850   26.27870  -23.67250  -16.49190   26.27870
 7550.00000    9.32540   92.73600    0.57540   -0.01640    2.59750    0.06580    -999.25    0.06580   10.78330   -0.01640   64.25330   64.25330   10.78330   12.05010   12.05010    0.07880    -999.25    0.07880   10.66850  -22.75290  -15.70480   10.66850
 7600.00000    9.28310   67.18990    0.53310   -0.01350    2.59270    0.06860    -999.25    0.06860   14.88320   -0.01350   36.36890   36.36890   14.88320   17.64440   17.64440    0.07510    -999.25    0.07510   17.11180  -31.58200  -24.66630   17.11180
 7650.00000    9.15220   65.00640    0.40220   -0.00870    2.58040    0.07580    -999.25    0.07580   15.38310   -0.00870   40.33900   40.33900   15.38310   19.53010   19.53010    0.06730    -999.25    0.06730   60.50930  -23.56610  -16.78290   60.50930
 7700.00000   11.70150  552.88330    2.95150    0.05180    2.24470    0.27210    -999.25    0.27210    1.80870    0.05180  110.73000  110.73000    1.80870    1.89850    1.89850    0.36140    -999.25    0.36140    2.17840  -10.65990   -4.11910    2.17840
 7750.00000   11.90760  347.13780    3.15760    0.07910    2.30110    0.23910    -999.25    0.23910    2.88070    0.07910  106.71680  106.71680    2.88070    2.44670    2.44670    0.32710    -999.25    0.32710    3.47650  -13.67720   -8.18520    3.47650
 7800.00000    9.44530  183.63790    0.69530    0.00060    2.54000    0.09940    -999.25    0.09940    5.44550    0.00060  106.05790  106.05790    5.44550    5.66710    5.66710    0.26430    -999.25    0.26430    7.18520   -7.65010   -3.20700    7.18520
 7850.00000    9.32640   72.16780    0.57640   -0.00260    2.45350    0.15000    -999.25    0.15000   13.85660   -0.00260  117.82290  117.82290   13.85660   15.91270   15.91270    0.24640    -999.25    0.24640   31.83050   -7.10390   -3.70960   31.83050
 7900.00000   14.48980  492.68360    5.73980    0.09600    2.37350    0.19680    -999.25    0.19680    2.02970    0.09600   91.74010   91.74010    2.02970    1.91220    1.91220    0.39370    -999.25    0.39370    2.74190  -13.18510  -10.83970    2.74190
 7950.00000   10.27830  310.01020    1.52830    0.09810    2.36100    0.20410    -999.25    0.20410    3.22570    0.09810  141.44870  141.44870    3.22570    3.53550    3.53550    0.32330    -999.25    0.32330    5.06710  -10.59170   -9.29520    5.06710
 8000.00000    9.21620   18.03800    0.46620    0.00600    2.66280    0.02760    -999.25    0.02760   55.43840    0.00600   21.70690   21.70690   55.43840   76.50530   76.50530    0.02640    -999.25    0.02640  100.88530  -17.33620  -17.08850  100.88530
 8050.00000    9.25770   78.98460    0.50770   -0.00560    2.72080   -0.00630    -999.25   -0.00630   12.66070   -0.00560   46.16560   46.16560   12.66070   15.79110   15.79110    0.05300    -999.25    0.05300   24.08120   -7.21540   -5.79940   24.08120
 8100.00000    8.56440    8.11760   -0.18560    0.06490    2.66590    0.02580    -999.25    0.02580  123.18840    0.06490    -999.25    -999.25  123.18840  153.58500  153.58500    0.00860    -999.25    0.00860  144.30170  -22.21270  -15.68660  144.30170
