~Version ---------------------------------------------------
VERS.      2.0 : CWLS log ASCII Standard -VERSION 2.0
WRAP.      YES : MULTIPLE LINES PER DEPTH STEP
CREA. 09/17/13 : LAS CREATION DATE
~Well ------------------------------------------------------
STRT.FT                   2000.0 : START DEPTH
STOP.FT                  11500.0 : STOP DEPTH
STEP.FT                 50.00000 : STEP LENGTH
NULL.                    -999.25 : NULL VALUE
COMP. LADD PETROLEUM CORPORATION : COMPANY
WELL.        LADD FITZSIMMONS #1 : WELL
FLD .                    WILDCAT : FIELD
LOC .                            : LOCATION
CNTY.                     DIMMIT : COUNTY
STAT.                      TEXAS : STATE
CTRY.   UNITED STATES OF AMERICA : COUNTRY
SRVC.               Schlumberger : SERVICE COMPANY
DATE.                19-Jan-1978 : LOGDATE
API .             42127315740000 : API NUMBER
UWI .             42127315740000 : UNIQUE WELL ID
SLAT.WGS84         28.2507010101 : SURFACE LATITUDE
SLON.WGS84       -100.0580378891 : SURFACE LONGITUDE
~Curve Information -----------------------------------------
DEPT    .FT    : DEPTH FEET
CALDED  .IN    : CALIPER FROM DENSITY LOG, DEPTH ADJUSTED WITH [SPRED]
CALWS   .IN    : CALIPER [CALDED]
CILDED  .MMHO  : CONDUCTIVITY FROM RESISTIVITY LOG
CONDWS  .MMHO  : CONDUCTIVITY [1000/DRESWS]
CORRED  .G/C3  : DENSITY CORRECTION FROM DENSITY LOG, DEPTH ADJUSTED WITH [SPRED]
DCORWS  .G/C3  : DENSITY CORRECTION [CORRED]
DENWS   .G/C3  : BULK DENSITY [M=2.71 F=1.0] [RHOBED]
DPHILSED.V/V   : DENSITY POROSITY [M=2.71 F=1.0] FROM DENSITY LOG, DEPTH ADJUSTED WITH [SPRED]
DPHISSED.V/V   : DENSITY POROSITY [M=2.65 F=1.0] FROM DENSITY LOG, DEPTH ADJUSTED WITH [SPRED]
DPOLSWS .V/V   : DEBSITY POROSITY LIMESTONE [CALCULATED FROM DENWS]
DRESWS  .OHMM  : DEEP RESISTIVITY [ILDED] IF DRESWS<1;1000/CONDWS
DTED    .US/F  : DELTA TIME FROM SONIC LOG
DTWS    .US/F  : DELTA TIME [DTED]
GRDED   .GAPI  : GAMMA RAY FROM DENSITY LOG, DEPTH ADJUSTED WITH [SPRED]
GRRED   .GAPI  : GAMMA RAY FROM RESISTIVITY LOG
GRWS    .GAPI  : GAMMA RAY [GRRED], SPLICED WITH [GRDED] FROM TOP TO 5160'
ILDED   .OHMM  : INDUCTION LOG DEEP RESISTIVITY
ILMED   .OHMM  : INDUCTION LOG MEDIUM RESISTIVITY
LL8ED   .OHMM  : 8 INCH LATEROLOG RESISTIVITY
MRESWS  .OHMM  : MEDIUM RESISTIVITY [ILMED]
NPHILSED.V/V   : NEUTRON POROSITY LIMESTONE FROM DENSITY LOG, DEPTH ADJUSTED WITH [SPRED]
NPHISSED.V/V   : NEUTRON POROSITY SANDSTONE FROM DENSITY LOG, DEPTH ADJUSTED WITH [SPRED]
NPOLSWS .V/V   : NEUTRON POROSITY LIMESTONE [NPHILSED], MATRIX CONVERTED [NPHISSED] TO LIMESTONE [TOP-5100]
RHOBED  .G/C3  : BULK DENSITY FROM DENSITY LOG, DEPTH ADJUSTED WITH [SPRED]
SPHIED  .V/V   : SONIC POROSITY FROM SONIC LOG
SPOWS   .V/V   : SONIC POROSITY [SPHIED]
SPRED   .MV    : SPONTANEOUS POTENTIAL FROM RESISTIVITY LOG
SPWS    .MV    : SPONTANEOUS POTENTIAL [BASELINE 0 MV] [SPRED]
SRESWS  .OHMM  : SHALLOW RESISTIVITY [LL8ED]
~Params ----------------------------------------------------
EKB .F                  728.0 : Kelly bushing
EGL .F                  710.0 : Ground level
EDF .F                  727.0 : Drilling floor
EPD .F                  710.0 : Permanent datum
TD  .F                11519.0 : Total depth
DATE.             19-JAN-1978 : DATE LOGGED
CLNT.                 A2DTECH : CLIENT CODE
SL  . 7000' FNEL & 7500' FSEL : SURFACE LOCATION
PD  .                      GL : PERMANENT DATUM
LMF .                      KB : LOG MEASURED FROM
DMF .                      KB : DRILLING MEASURED FROM
DAPD.F                     18 : FEET ABOVE PERMANENT DATUM
DD  .F                  11518 : DEPTH DRILLER
DL  .F                  11519 : DEPTH LOGGER
BLI .F                  11513 : BOTTOM LOG INTERVAL
TLI .F                   9875 : TOP LOG INTERVAL
CS1 .IN                 7.625 : CASING SIZE
CBD1.          7.625" @ 9920' : CASING DRILLER 1
CBL1.F                   9875 : CASING LOGGER 1
BS1 .IN                   6.5 : BIT SIZE
BSD1.F                  11518 : DEPTH DRILLED WITH BIT1
DFT .               SPER-TANN : TYPE FLUID IN HOLE
DFD .                    16.5 : DENSITY
DFV .                      50 : VISCOSITY
DFPH.                    11.8 : PH
MSS .              CIRC. TANK : SOURCE OF SAMPLE
RMS .OHMM                1.41 : RM
RMF .OHMM                0.51 : RMF
RMC .OHMM                 4.6 : RMC
MFSS.                    MEAS : SOURCE RMF.
MCSS.                    CALC : SOURCE RMC.
RMB .OHMM                0.38 : RM. AT BHT
BHT .F                    260 : BHT.
TCS .HRS                 1000 : TIME CIRC. STOPPED
TLAB.                    1500 : TIME LOGGER AT BOTTOM
LUN .                    7739 : LOGGING UNIT NUMBER
LUL .                  LAREDO : LOGGING UNIT LOCATION
ENGI.                   LOGAL : RECORDED BY
WITN.                 ELLISON : WITNESSED BY
ORIG.             1" 5" PRINT : ORIGIN OF DATA
UWI .          42127315740000 : UNIQUE WELL ID
DICO.  A2D TECHNOLOGIES, INC. : DIGITIZING COMPANY
~Other -----------------------------------------------------
~ASCII -----------------------------------------------------
# ...
 5750.00000   12.08220   12.08220   28.81650   28.81650    0.03540    0.03540    2.59950    0.07740    -999.25    0.06460   34.70230   62.87180   62.87180   38.87570   28.52650   28.52650   47.70280    -999.25   76.44610    -999.25    0.15190    -999.25    0.15190    2.59950    0.09940    0.09940  -91.11730  -35.60340   76.44610
 5800.00000   15.19500   15.19500   47.68340   47.68340    0.05340    0.05340    2.01030    0.42030    -999.25    0.40920   20.97170   58.45940   58.45940   50.70820   30.72030   30.72030   24.77280    -999.25   30.27990    -999.25    0.20350    -999.25    0.20350    2.01030    0.10980    0.10980  -99.20850  -44.86180   30.27990
 5850.00000   11.66930   11.66930   37.27930   37.27930    0.00060    0.00060    2.41880    0.17790    -999.25    0.17030   26.82450   84.25480   84.25480   86.59560   49.74680   49.74680   35.27030    -999.25   66.76940    -999.25    0.21090    -999.25    0.21090    2.41880    0.24530    0.24530  -78.55740  -25.37790   66.76940
 5900.00000   11.63420   11.63420   33.90060   33.90060   -0.00180   -0.00180    2.54450    0.08620    -999.25    0.09680   29.49800   68.84700   68.84700   45.20250   30.22700   30.22700   38.82450    -999.25   75.57830    -999.25    0.12910    -999.25    0.12910    2.54450    0.14670    0.14670  -85.29890  -33.28660   75.57830
 5950.00000   11.97170   11.97170   44.01750   44.01750    0.03420    0.03420    2.59000    0.07630    -999.25    0.07020   22.71820   75.19480   75.19480   44.79170   25.06190   25.06190   26.51120    -999.25   47.98610    -999.25    0.14430    -999.25    0.14430    2.59000    0.18210    0.18210  -73.14980  -22.30470   47.98610
 6000.00000   11.64330   11.64330   78.66510   78.66510   -0.00480   -0.00480    2.54960    0.10590    -999.25    0.09380   12.71210   78.50480   78.50480   50.43670   34.51010   34.51010   13.25190    -999.25   21.55580    -999.25    0.15760    -999.25    0.15760    2.54960    0.20880    0.20880  -59.69570  -10.01780   21.55580
 6050.00000   13.18680   13.18680  108.95160  108.95160    0.00710    0.00710    2.48960    0.13220    -999.25    0.12890    9.17840   86.77120   86.77120   71.76940   41.60680   41.60680    8.68640    -999.25   15.03950    -999.25    0.22170    -999.25    0.22170    2.48960    0.26620    0.26620  -55.47930   -6.90370   15.03950
 6100.00000   11.83030   11.83030   45.85150   45.85150   -0.00210   -0.00210    2.49080    0.11250    -999.25    0.12820   21.80950   85.52020   85.52020   62.62110   44.54190   44.54190   25.52640    -999.25   42.76560    -999.25    0.17970    -999.25    0.17970    2.49080    0.25630    0.25630  -61.01860  -13.22810   42.76560
 6150.00000   13.19280   13.19280   67.61060   67.61060    0.00560    0.00560    2.44900    0.15290    -999.25    0.15260   14.79060   83.47920   83.47920   65.97970   37.32210   37.32210   16.25210    -999.25   22.33730    -999.25    0.19260    -999.25    0.19260    2.44900    0.24260    0.24260  -80.60110  -33.59570   22.33730
 6200.00000   12.32830   12.32830   31.08720   31.08720    0.01550    0.01550    2.50220    0.10670    -999.25    0.12150   32.16760   73.47280   73.47280   92.78250   62.27980   62.27980   46.42940    -999.25   77.64100    -999.25    0.11710    -999.25    0.11710    2.50220    0.17830    0.17830  -84.92740  -38.70720   77.64100
 6250.00000   14.02490   14.02490   13.99730   13.99730    0.19690    0.19690    2.44370    0.16410    -999.25    0.15570   71.44230   55.60740   55.60740   14.67460   14.95190   14.95190  180.79330    -999.25   80.25210    -999.25    0.01060    -999.25    0.01060    2.44370    0.05180    0.05180 -112.59540  -67.16030   80.25210
 6300.00000   15.06430   15.06430   27.37670   27.37670    0.19720    0.19720    2.44170    0.16940    -999.25    0.15690   36.52740   52.78180   52.78180   17.59050   12.23600   12.23600  125.83400    -999.25  138.52700    -999.25    0.00730    -999.25    0.00730    2.44170    0.03650    0.03650 -125.83940  -81.18940  138.52700
 6350.00000   13.72500   13.72500   32.53260   32.53260    0.13000    0.13000    2.54730    0.07410    -999.25    0.09510   30.73840   58.64820   58.64820   51.92680   34.68570   34.68570   44.87720    -999.25   86.56820    -999.25    0.06360    -999.25    0.06360    2.54730    0.07400    0.07400  -78.31660  -34.45170   86.56820
 6400.00000   15.00770   15.00770  326.15300  326.15300    0.12930    0.12930    2.45750    0.14800    -999.25    0.14770    3.06600   86.76010   86.76010   69.71610   41.70850   41.70850    2.09510    -999.25    4.00080    -999.25    0.25700    -999.25    0.25700    2.45750    0.26050    0.26050  -53.73220  -10.65250    4.00080
 6450.00000   13.60590   13.60590  249.64730  249.64730    0.10110    0.10110    2.60620    0.06900    -999.25    0.06070    4.00570   76.21430   76.21430   64.61990   42.48850   42.48850    2.94220    -999.25    5.35980    -999.25    0.17980    -999.25    0.17980    2.60620    0.19040    0.19040  -56.75190  -14.45730    5.35980
 6500.00000   11.22270   11.22270   68.15190   68.15190    0.07830    0.07830    2.68770    0.00200    -999.25    0.01300   14.67310   59.70510   59.70510   29.03740   21.50790   21.50790   17.65320    -999.25   24.70950    -999.25    0.02650    -999.25    0.02650    2.68770    0.07930    0.07930  -68.38650  -26.87700   24.70950
 6550.00000   12.79660   12.79660   34.71030   34.71030    0.20030    0.20030    2.38010    0.22890    -999.25    0.19290   28.80990   54.64610   54.64610   17.85860   12.37710   12.37710   45.38570    -999.25   60.55980    -999.25    0.02420    -999.25    0.02420    2.38010    0.04700    0.04700 -110.36270  -69.63840   60.55980
 6600.00000   12.59100   12.59100   21.99320   21.99320    0.21010    0.21010    2.37100    0.22730    -999.25    0.19820   45.46860   54.66710   54.66710   22.84250   18.68030   18.68030   67.82140    -999.25  107.51250    -999.25    0.01180    -999.25    0.01180    2.37100    0.04730    0.04730 -103.88340  -63.94420  107.51250
 6650.00000   10.13220   10.13220   27.48110   27.48110    0.01730    0.01730    2.61390    0.10390    -999.25    0.05620   36.38860   51.12330   51.12330   14.26410   10.93120   10.93120   56.26720    -999.25   77.37000    -999.25    0.00890    -999.25    0.00890    2.61390    0.02560    0.02560  -95.56650  -56.41240   77.37000
 6700.00000   15.12510   15.12510   20.50180   20.50180    0.19050    0.19050    2.27120    0.25860    -999.25    0.25660   48.77620   55.91040   55.91040   19.30600   14.64430   14.64430  133.74910    -999.25   72.18360    -999.25    0.06120    -999.25    0.06120    2.27120    0.05310    0.05310  -93.77030  -55.40130   72.18360
 6750.00000   10.80020   10.80020    6.99770    6.99770    0.00290    0.00290    2.67540    0.00990    -999.25    0.02020  142.90410   51.73980   51.73980   21.25050   16.89690   16.89690  175.60070    -999.25  199.94320    -999.25    0.00340    -999.25    0.00340    2.67540    0.03060    0.03060  -93.59950  -56.01570  199.94320
 6800.00000   10.01980   10.01980   16.81540   16.81540    0.00110    0.00110    2.67560    0.02010    -999.25    0.02010   59.46930   52.73730   52.73730   26.42630   17.89070   17.89070  200.39380    -999.25  135.15580    -999.25    0.01570    -999.25    0.01570    2.67560    0.03530    0.03530 -130.65800  -93.85930  135.15580
 6850.00000   10.11980   10.11980   36.18970   36.18970    0.00410    0.00410    2.60590    0.05280    -999.25    0.06090   27.63220   55.93900   55.93900   17.03270   14.29180   14.29180   35.47680    -999.25   73.73360    -999.25    0.02940    -999.25    0.02940    2.60590    0.05730    0.05730 -135.57500  -99.56140   73.73360
 6900.00000   14.93880   14.93880   15.75530   15.75530    0.09610    0.09610    2.06800    0.33230    -999.25    0.37540   63.47070   52.72740   52.72740   27.45680   18.19540   18.19540  200.11410    -999.25  171.56230    -999.25    0.05860    -999.25    0.05860    2.06800    0.03940    0.03940 -119.18880  -83.96030  171.56230
 6950.00000   10.57690   10.57690   14.15410   14.15410    0.05380    0.05380    2.83460   -0.05800    -999.25   -0.07290   70.65090   51.39960   51.39960   26.58480   19.10110   19.10110  192.12080    -999.25  200.10520    -999.25    0.01790    -999.25    0.01790    2.83460    0.02640    0.02640  -89.65810  -55.21480  200.10520
