~Version ---------------------------------------------------
VERS. 2.0 : CWLS log ASCII Standard -VERSION 2.0
WRAP.  NO : ONE LINE PER DEPTH STEP
~Well ------------------------------------------------------
STRT.F                     3750.0 : START DEPTH
STOP.F                     9800.0 : STOP DEPTH
STEP.F                   50.00000 : STEP LENGTH
NULL.                     -999.25 : NULL VALUE
COMP. MITCHELL ENERGY CORPORATION : COMPANY
WELL.                    LACEY #5 : WELL
FLD .               ALABAMA FERRY : FIELD
LOC .                             : LOCATION
CNTY.                        LEON : COUNTY
STAT.                       TEXAS : STATE
CTRY.    UNITED STATES OF AMERICA : COUNTRY
SRVC.                Schlumberger : SERVICE COMPANY
DATE.                 19-Nov-1987 : LOGDATE
API .              42289309440000 : API NUMBER
UWI .              42289309440000 : UNIQUE WELL ID
SLAT.WGS84          31.2005525642 : SURFACE LATITUDE
SLON.WGS84         -95.8560420728 : SURFACE LONGITUDE
~Curve Information -----------------------------------------
DEPT   .F    0   1   0  0 : 1 MEASURED DEPTH
GRR    .GAPI 07 310 01 00 : GAMMA RAY FROM RESISTIVITY LOG
ILD    .OHMM 07 120 46 00 : INDUCTION DEEP RESISTIVITY
ILM    .OHMM 07 120 44 00 : INDUCTION MEDIUM RESISTIVITY
SFLU   .OHMM 07 220 01 00 : SHALLOW FOCUSED RESISTIVITY (UNAVERAGED)
SPR    .MV   07 010 01 00 : SPONTANEOUS POTENTIAL FROM RESISTIVITY LOG
DCAL   .IN   07 280 01 00 : DIFFERENTIAL CALIPER
DT     .US/F 60 500 00 00 : DELTA-T (INTERVAL TRANSIT TIME)
DPHI_LS.DEC  45 890 10 00 : DENSITY POROSITY LIMESTONE
DRHO   .G/C3 45 356 01 00 : BULK DENSITY CORRECTION
PEF    .B/E  45 358 01 00 : PHOTOELECTRIC FACTOR
RHOB   .G/C3 45 350 01 00 : BULK DENSITY
~Params ----------------------------------------------------
PD  .                     GL : PERMANENT DATUM
EPD .FT                  288 : ELEVATION PERMANENT DATUM
LMF .                    RKB : LOG MEASURED FROM
DAPD.FT                 14.7 : FEET ABOVE PERMANENT DATUM
DMF .                    RKB : DRILLING MEASURED FROM
EKB .FT                  303 : KELLY BUSHING
EDF .FT                  302 : DRILLING FLOOR
EGL .FT                  288 : GROUND LEVEL
DATE.               11/19/87 : RUN DATE
RUN .                      1 : RUN NUMBER
DD  .FT                 9802 : DEPTH DRILLER
DL  .FT                 9804 : DEPTH LOGGER
BLI .FT                 9801 : BOTTOM LOG INTERVAL
TLI .FT                 7050 : TOP LOG INTERVAL
CS  .IN                8.625 : CASING SIZE
CBD .FT                 3728 : CASING BOTTOM DRILLER
CBL .FT                 3729 : CASING BOTTOM LOGGER
BS  .IN                7.875 : BIT SIZE
BSD .FT                 9802 : BIT SIZE AT DEPTH
DFT .          NON DISPERSED : DRILLING FLUID TYPE
DFD .                    9.6 : DRILLING FLUID DENSITY
DFV .                     44 : DRILLING FLUID VISCOSITY
DFPH.                      9 : DRILLING FLUID PH
DFL .                    8.9 : DRILLING FLUID LOSS
MSS .                   TANK : MUD SAMPLE SOURCE
RMS .OHMM               3.63 : RESISTIVITY MUD SAMPLE
MST .DEGF                 88 : MUD SAMPLE TEMPERATURE
RMF .OHMM               3.81 : RESISTIVITY MUD FILTRATE SAMPLE
MFST.DEGF                 81 : MUD FILTRATE SAMPLE TEMPERATURE
RMC .OHMM               3.84 : RESISTIVITY MUD CAKE
MCST.DEGF                 81 : MUD CAKE SAMPLE TEMPERATURE
MFSS.                   MEAS : MUD FILTRATE SAMPLE SOURCE
MCSS.                   MEAS : MUD CAKE SAMPLE SOURCE
RMB .OHMM              1.519 : RESISTIVITY MUD AT BHT
TCS .HRS                1230 : TIME CIRCULATED STOPPED
TLAB.HRS                1730 : TIME LOGGER AT BOTTOM
LUN .                   8505 : LOGGING UNIT NUMBER
LUL .               TYLER OH : LOGGING UNIT LOCATION
ENGI.                  RICKS : RECORDING ENGINEER
WITN.        BULLARD EDWARDS : WITNESSED BY
CLNT.                A2DTECH : CLIENT CODE
ORIG.           5" 25" PRINT : ORIGIN OF DATA
UWI .         42289309440000 : UNIQUE WELL ID
DICO. A2D Technologies, Inc. : DIGITIZING COMPANY
~Other -----------------------------------------------------
~ASCII -----------------------------------------------------
# ...
 6800.00000   33.57910   18.14120   18.94990   26.43070  -22.14100    1.15850   69.33840    -999.25    -999.25    -999.25    -999.25
 6850.00000   36.60180   12.41150   12.93350   14.25900  -18.96130    1.32980   70.07400    -999.25    -999.25    -999.25    -999.25
 6900.00000   45.51840   17.60790   18.36950   23.07880  -20.39210    0.60050   69.16630    -999.25    -999.25    -999.25    -999.25
 6950.00000   57.92470   24.39490   27.16540   44.20610  -31.32150    0.07460   67.39400    -999.25    -999.25    -999.25    -999.25
 7000.00000   23.89960   20.27990   21.15930   22.86040  -31.67440    0.67130   63.67720    -999.25    -999.25    -999.25    -999.25
 7050.00000  112.90430   10.57800   11.12500   14.16310  -13.61470    1.03380   88.53630    -999.25    0.09980    3.27740    2.45860
 7100.00000   40.70450    4.55660    6.79610   10.00660  -57.70410    0.09850   78.63010    -999.25    0.01630    2.36240    2.34850
 7150.00000  108.88590    2.52280    2.63880    2.91240  -17.73660    2.45040  102.65670    -999.25    0.05830    2.78830    2.21760
 7200.00000   92.28820    1.82660    1.90650    2.70730  -18.62640    3.83240  100.91620    -999.25    0.06560    2.54020    2.13400
 7250.00000   85.94530    1.35930    1.42710    2.13600  -23.91420    4.32500  109.55290    -999.25    0.01910    2.59020    1.96040
 7300.00000   80.38180    4.93940    5.15740    6.62980  -20.07140    2.70600   88.77960    -999.25    0.17790    2.80390    2.36300
 7350.00000  100.13950    3.10130    3.27960    3.57060  -20.75560    3.56310  101.07540    -999.25    0.10270    2.51710    2.18120
 7400.00000   97.33150    3.51600    3.67790    4.60250  -20.26070    5.34460   96.37450    -999.25    0.14180    2.35980    2.09580
 7450.00000   94.00580    3.91840    4.08790    5.60150  -19.01580    4.35980  105.54650    -999.25    0.10970    2.67260    2.03280
 7500.00000   79.50830    4.70210    5.14400    8.62110  -23.73610    2.78330   89.53260    -999.25    0.07860    2.63480    2.00360
 7550.00000   72.36830    4.69380    4.97360    6.66070  -27.69720    3.58610   83.96340    -999.25    0.10690    2.20750    2.04250
 7600.00000   75.35020    2.59750    2.75140    3.36190  -20.54150    4.94560   95.62910    -999.25    0.06600    2.77810    2.18780
 7650.00000   66.69880    3.49280    3.65150    5.37010  -22.63010    4.51630   89.99180    -999.25    0.10430    2.46300    1.90670
 7700.00000   56.09010    8.20890    8.61770    8.80910  -31.14280    3.62290   77.57460    -999.25    0.05310    2.74030    2.36620
 7750.00000   65.79370    3.97020    4.22830    5.33190  -22.39760    4.76540   85.34300    -999.25    0.11590    2.76470    2.26780
 7800.00000   81.65730    3.29600    3.50790    3.72220  -30.51560    4.66470   99.90540    -999.25    0.06650    2.70530    1.86230
 7850.00000   66.33710    6.08110    4.77880    7.75030  -33.33120    6.35390   97.33630    -999.25    0.13910    2.43040    2.06550
 7900.00000   65.25280    3.98290    3.15570    6.24890  -31.56140    6.42140  101.32120    -999.25    0.07550    2.46710    2.06050
 7950.00000   57.54450    5.51560    4.85100    8.57110  -38.78880    5.19770   75.40500    -999.25    0.11740    2.62390    2.04440
 8000.00000   16.76860   55.19470   57.88470   58.94370  -49.20800    2.24200   57.08350    -999.25    0.00260    5.01110    2.64860
 8050.00000   40.95250    4.88830    6.58180   14.07640  -30.86140    3.92320   69.29820    -999.25    0.03960    3.82690    2.13620
 8100.00000   15.74330   94.86210  113.15830  195.17420  -35.61590    2.63380   53.70490    -999.25    0.02040    4.91030    2.64810
 8150.00000   12.46950  113.25190  118.14400  164.52250  -62.30200    2.99390   54.08300    -999.25    0.01260    5.15610    2.58050
 8200.00000   19.12820  100.35850  103.56920  109.05750  -40.66200    2.46990   56.04180    -999.25    0.01920    4.83150    2.62340
 8250.00000   15.26420  109.73400  118.52260  146.03830  -44.97910    2.45160   54.69920    -999.25    0.00230    4.71550    2.62580
 8300.00000   13.83520  163.25820  170.89820  298.05620  -58.08310    2.47630   52.35470    -999.25    0.12530    4.27900    2.68550
 8350.00000   11.21440  154.14940  160.94820  271.22680  -57.92890    2.39140   52.89840    -999.25    0.02490    4.53210    2.65670
 8400.00000   20.06350   64.86450   67.70760   89.54560  -33.80910    2.62160   56.32190    -999.25    0.04260    4.87230    2.63200
 8450.00000   16.06930  130.31230  142.37050  299.29320  -60.09390    2.26930   54.02670    -999.25    0.02610    4.40290    2.65510
 8500.00000   36.24430   51.29210   54.48700   69.19020  -24.93710    2.09370   59.11720    -999.25    0.00660    4.56140    2.69440
 8550.00000   58.33730   10.64580   12.98680   24.85190  -31.19620    3.33050   68.20960    -999.25    0.05180    3.18610    2.53930
 8600.00000   35.84450  148.66800  155.14740  233.40170  -26.55830    2.29120   53.71190    -999.25   -0.00180    4.90620    2.67460
 8650.00000   29.09170  186.79260  205.20850  650.26850  -46.14870    2.08570   52.47590    -999.25    0.00400    5.15450    2.68190
 8700.00000   43.15990   23.18140   29.22580  103.46870  -24.82920    3.02970   54.02080    -999.25    0.00070    5.15940    2.64940
 8750.00000   39.07470   42.98160   50.25540   77.57790  -23.66880    3.17920   58.02750    -999.25   -0.00130    5.05570    2.65000
 8800.00000   47.11640   24.29190   25.57430   35.02640  -22.67440    2.28330   61.57240    -999.25   -0.00450    4.53240    2.65000
 8850.00000   68.95060    5.75970    6.03540    8.73500  -30.31780    4.18740   84.95490    -999.25    0.13340    2.82630    2.08220
 8900.00000   52.69230   13.74100   16.50210   17.61130  -29.22820    2.54680   79.76250    -999.25   -0.04910    2.51570    1.79030
 8950.00000   26.49650  122.31280  155.05060  881.78080  -29.79130    1.83760   53.72140    -999.25    0.02440    4.92950    2.69330
 9000.00000   47.37050   12.94970   13.50880   15.80210  -26.82850    2.02590   69.74120    -999.25    0.06150    4.21920    2.64360
 9050.00000   47.31210    5.40300    5.76920    9.44260  -43.17430    3.49440   72.54900    -999.25    0.13870    2.97020    2.12310
 9100.00000   68.20230    2.32100    2.45140    3.35150  -39.64210    4.53810   97.11230    -999.25    0.06770    2.32960    1.79990
 9150.00000   41.46130   15.99730   17.68980   31.61870  -27.05530    2.00590   63.72960    -999.25    0.01690    4.51370    2.62680
 9200.00000   36.11850   35.66100   38.08830  109.07740  -21.52120    1.89120   57.54290    -999.25    0.01610    4.67550    2.68200
 9250.00000   50.87090    2.78960    3.21830    4.18640  -37.26090    3.08250   84.46720    -999.25    0.13150    2.71340    2.24510
 9300.00000   35.94110   63.05900   69.81690  120.59670  -25.59030    1.82890   56.84020    -999.25    0.00450    4.81340    2.68560
 9350.00000   24.89920   66.80100   78.38940  116.14300  -22.06370    1.93830   57.16630    -999.25    0.00060    4.85840    2.67270
 9400.00000   32.77560   60.39320   63.03070   90.98250  -18.51870    1.98760   57.02590    -999.25    0.00270    4.50870    2.68430
 9450.00000   30.42620   26.39650   27.63450   44.20950  -24.26530    2.25780   60.08420    -999.25    0.00220    4.61440    2.66530
 9500.00000   29.71480   60.63280   79.23370  606.41160  -18.42210    1.41800   52.82400    -999.25    0.00240    4.86180    2.68340
 9550.00000   32.07640   40.02140   53.58030  182.62850  -14.57330    1.43850   55.44780    -999.25    0.01560    4.42520    2.68890
 9600.00000   41.09550   35.58810   38.24260   82.90580  -16.51970    0.84170   58.67540    -999.25    0.00370    4.39850    2.70190
 9650.00000   43.46560   25.29170   26.39320   38.14150  -17.79670    0.71450   62.77860   -0.00700    0.01190    4.60970    2.69560
 9700.00000   49.50640   14.75040   15.57230   24.31520  -16.41880    0.74440   69.04210    0.05900   -0.01030    4.51270    2.61720
 9750.00000   52.39810   17.04620   17.82820   26.95450  -10.22860    0.47190   67.61920    0.02600   -0.00040    4.58280    2.66190
 9800.00000    -999.25    -999.25    -999.25    -999.25    -999.25    -999.25    -999.25   -0.01460    0.00560    5.06890    2.71810
