~Version ---------------------------------------------------
VERS. 2.0 : CWLS log ASCII Standard -VERSION 2.0
WRAP. YES : Multiple lines per depth step
~Well ------------------------------------------------------
STRT.FT                         300.0 : START DEPTH
STOP.FT                       13900.0 : STOP DEPTH
STEP.FT                      50.00000 : STEP LENGTH
NULL.                         -999.25 : NULL VALUE
COMP. MOBIL PRODUCING TX. & N.M. INC. : COMPANY
WELL.               J. V. FORD JR. #1 : WELL
FLD .                         WILDCAT : FIELD
LOC .                                 : LOCATION
CNTY.                             BEE : COUNTY
STAT.                           TEXAS : STATE
CTRY.        UNITED STATES OF AMERICA : COUNTRY
SRVC.                    Schlumberger : SERVICE COMPANY
DATE.                     24-Oct-1988 : LOGDATE
API .                  42025324790000 : API NUMBER
UWI .                  42025324790000 : UNIQUE WELL ID
SLAT.WGS84              28.6662336968 : SURFACE LATITUDE
SLON.WGS84             -98.0215217404 : SURFACE LONGITUDE
~Curve Information -----------------------------------------
DEPT    .FT    : DEPTH FEET
CALMED  .IN    : CALIPER FROM MSFL [DEP ADJ TO SFLUED]
CALWS   .IN    : CALIPER [DCALED+BITED]
CONDWS  .MMHO  : CONDUCTIVITY [1000/DRESWS]
DCALED  .IN    : DIFFERENTIAL CALIPER FROM DENSITY LOG [DEP ADJ TO GRRED]
DCORWS  .G/C3  : DENSITY CORRECTION [DRHOED]
DENWS   .G/C3  : BULK DENSITY [M=2.71, F= 1] [CAL FROM DPOLSWS]
DPHILSED.V/V   : DENSITY POROSITY [M=2.71 F=1.0] FROM DENSITY LOG [DEP ADJ TO GRRED]
DPHISSED.V/V   : DENSITY POROSITY [M=2.68 F=1.0] FROM DENSITY LOG [DEP ADJ TO GRRED]
DPOLSWS .V/V   : DENSITY POROSITY [M=2.71, F= 1] [76 DPOLSCAL 12989 DPHILSED]
DRESWS  .OHMM  : DEEP RESISTIVITY [ILDED]
DRHOED  .G/C3  : DENSITY CORRECTION FROM DENSITY LOG [DEP ADJ TO GRRED]
DTED    .US/F  : DELTA TIME FROM SONIC LOG
DTLED   .US/F  : DELTA TIME LONG SPACING FROM SONIC LOG
DTWS    .US/F  : DELTA TIME [76 DTED 543.5 DTLED 1373.5 DTED 2134 DTLED 3009.5 DTED 3022 DTLED 3172 DTED 8805 DTLED 8815 DTED 9717.5 DTLED 9901 DTED 12984.5 DTLED 13003.5 DTED]
GRDED   .GAPI  : GAMMA RAY FROM DENSITY LOG [DEP ADJ TO GRRED]
GRMED   .GAPI  : GAMMA RAY FROM MSFL LOG [DEP ADJ TO GRRED]
GRRED   .GAPI  : GAMMA RAY FROM RESISTIVITY LOG
GRWS    .GAPI  : GAMMA RAY [76 GRRED 3494.5 GRDEDNRM 3506 GRDED 9027 GRRED 13030.5 GRDED]
ILDED   .OHMM  : INDUCTION LOG DEEP RESISTIVITY
ILMED   .OHMM  : INDUCTION LOG MEDIUM RESISTIVITY
MRESWS  .OHMM  : MEDIUM RESISTIVITY [ILMED]
MSFLED  .OHMM  : MICROSPHERICALLY FOCUSED LOG RESISTIVITY [DEP ADJ TO SFLUED]
NPHILSED.V/V   : NEUTRON POROSITY LIMESTONE FROM DENSITY LOG [DEP ADJ TO GRRED]
NPHISSED.V/V   : NEUTRON POROSITY SANDSTONE FROM DENSITY LOG [DEP ADJ TO GRRED]
NPOLSWS .V/V   : NEUTRON POROSITY LIMESTONE [76 NPOLSCAL 12989 NPHILSED]
SFLUED  .OHMM  : SPHERICALLY FOCUSED LOG RESISTIVITY
SPRED   .MV    : SPONTANEOUS POTENTIAL FROM RESISTIVITY LOG
SPWS    .MV    : SPONTANEOUS POTENTIAL [BASELINE 0 MV] [SPRED]
SRESWS  .OHMM  : SHALLOW RESISTIVITY [SFLUED]
TENDED  .LBF   : TENSION FROM DENSITY LOG [DEP ADJ TO GRRED]
TENMED  .LBF   : TENSION FROM MSFL LOG [DEP ADJ TO SFLUED]
TENRED  .LBF   : TENSION FROM RESISTIVITY LOG
~Params ----------------------------------------------------
PD  .                     GL : PERMANENT DATUM
EPD .FT                  350 : ELEVATION PERMANENT DATUM
LMF .                     KB : LOG MEASURED FROM
DAPD.FT                 26.5 : FEET ABOVE PERMANENT DATUM
DMF .                     KB : DRILLING MEASURED FROM
EKB .FT                376.5 : KELLY BUSHING
EDF .FT                375.5 : DRILLING FLOOR
EGL .FT                  350 : GROUND LEVEL
DATE.               10/14/88 : RUN DATE
RUN .                      2 : RUN NUMBER
DD  .FT                13900 : DEPTH DRILLER
DL  .FT                13881 : DEPTH LOGGER
BLI .FT                13881 : BOTTOM LOG INTERVAL
TLI .FT                 3505 : TOP LOG INTERVAL
CS  .IN                9.625 : CASING SIZE
CBD .FT                 3510 : CASING BOTTOM DRILLER
CBL .FT                 3505 : CASING BOTTOM LOGGER
BS  .IN                  8.5 : BIT SIZE
BSD .FT                13900 : BIT SIZE AT DEPTH
DFT .            LIGNITE CLS : DRILLING FLUID TYPE
DFD .                   11.6 : DRILLING FLUID DENSITY
DFV .                     23 : DRILLING FLUID VISCOSITY
DFPH.                     10 : DRILLING FLUID PH
DFL .                    5.9 : DRILLING FLUID LOSS
MSS .               MUD TANK : MUD SAMPLE SOURCE
RMS .OHMM               1.08 : RESISTIVITY MUD SAMPLE
MST .DEGF                 75 : MUD SAMPLE TEMPERATURE
RMF .OHMM               0.72 : RESISTIVITY MUD FILTRATE SAMPLE
MFST.DEGF                 75 : MUD FILTRATE SAMPLE TEMPERATURE
RMC .OHMM               1.59 : RESISTIVITY MUD CAKE
MCST.DEGF                 75 : MUD CAKE SAMPLE TEMPERATURE
MFSS.                   MEAS : MUD FILTRATE SAMPLE SOURCE
MCSS.                   CALC : MUD CAKE SAMPLE SOURCE
RMB .OHMM              0.289 : RESISTIVITY MUD AT BHT
TCS .HRS                1500 : TIME CIRCULATED STOPPED
TLAB.HRS                1500 : TIME LOGGER AT BOTTOM
LUN .                   8248 : LOGGING UNIT NUMBER
LUL .             PLEASANTON : LOGGING UNIT LOCATION
ENGI.                 HOOPER : RECORDING ENGINEER
WITN.           WEIMER CARAM : WITNESSED BY
CLNT.                A2DTECH : CLIENT CODE
ORIG.               5" PRINT : ORIGIN OF DATA
UWI .         42025324790000 : UNIQUE WELL ID
DICO. A2D Technologies, Inc. : DIGITIZING COMPANY
~Other -----------------------------------------------------
~ASCII -----------------------------------------------------
# ...
 9100.00000    -999.25   11.06620  805.41240    2.56620   -0.02680    1.87520    -999.25    0.48820    0.48820    1.24160   -0.02680   96.97290   98.96600   96.97290   89.20040    -999.25   77.81970   77.81970    1.24160    1.21520    1.21520    -999.25    -999.25    0.40040    0.35750    1.34380    0.12880   -3.19510    1.34380 3131.60130    -999.25 3278.15990
 9150.00000    -999.25   11.11080  766.93000    2.61080   -0.03650    1.71100    -999.25    0.58420    0.58420    1.30390   -0.03650  100.42590  103.47480  100.42590   80.82830    -999.25   78.67540   78.67540    1.30390    1.28400    1.28400    -999.25    -999.25    0.40360    0.36080    1.41870   -1.61160   -4.80460    1.41870 3126.89450    -999.25 3362.22410
 9200.00000    -999.25   11.18220  901.87590    2.68220   -0.04780    1.75500    -999.25    0.55850    0.55850    1.10880   -0.04780  103.62180  104.61380  103.62180   80.98850    -999.25   74.48440   74.48440    1.10880    1.08480    1.08480    -999.25    -999.25    0.40980    0.36710    1.23350   -1.69680   -4.75900    1.23350 3101.26340    -999.25 3345.95680
 9250.00000    -999.25   10.87040  795.35510    2.37040   -0.03200    1.81040    -999.25    0.52610    0.52610    1.25730   -0.03200   96.98740   99.33620   96.98740   79.17890    -999.25   79.63670   79.63670    1.25730    1.22390    1.22390    -999.25    -999.25    0.40590    0.36310    1.29530   -1.60710   -4.53840    1.29530 3198.70120    -999.25 3302.08760
 9300.00000    -999.25   10.80140  728.59750    2.30140   -0.00170    2.00260    -999.25    0.41370    0.41370    1.37250   -0.00170   97.36350   99.05600   97.36350   75.89930    -999.25   72.79550   72.79550    1.37250    1.34120    1.34120    -999.25    -999.25    0.40030    0.35740    1.39740   -3.84450   -6.64490    1.39740 3163.06010    -999.25 3315.98660
 9350.00000    -999.25   10.55210  729.39460    2.05210   -0.00290    2.09300    -999.25    0.36080    0.36080    1.37100   -0.00290   96.87930  125.39970   96.87930   76.18800    -999.25   81.01290   81.01290    1.37100    1.33070    1.33070    -999.25    -999.25    0.38760    0.34450    1.35260   -2.20760   -4.87720    1.35260 3233.96580    -999.25 3335.82370
 9400.00000    -999.25   10.80150  675.81270    2.30150    0.02950    2.23870    -999.25    0.27560    0.27560    1.47970    0.02950   97.65930  100.26370   97.65930   80.75300    -999.25   75.28300   75.28300    1.47970    1.45590    1.45590    -999.25    -999.25    0.41360    0.37100    1.59640   -2.85360   -5.39230    1.59640 3597.43900    -999.25 3345.43480
 9450.00000    -999.25   10.05850  696.28190    1.55850    0.05270    2.40290    -999.25    0.17960    0.17960    1.43620    0.05270   98.40540   98.75100   98.40540   80.20930    -999.25   78.05920   78.05920    1.43620    1.41140    1.41140    -999.25    -999.25    0.33850    0.29470    1.56570   -1.97230   -4.38020    1.56570 3396.07420    -999.25 3380.89700
 9500.00000    -999.25   10.10050  586.13210    1.60050    0.08700    2.49330    -999.25    0.12670    0.12670    1.70610    0.08700   90.18960   90.73880   90.18960   77.90600    -999.25   76.53050   76.53050    1.70610    1.75460    1.75460    -999.25    -999.25    0.35130    0.30770    1.77930   -0.62310   -2.90010    1.77930 3571.32520    -999.25 3356.56030
 9550.00000    -999.25   10.27090  645.61940    1.77090    0.07610    2.42600    -999.25    0.16610    0.16610    1.54890    0.07610   94.59670   94.93490   94.59670   80.79630    -999.25   85.69870   85.69870    1.54890    1.57710    1.57710    -999.25    -999.25    0.30600    0.26200    1.75800   -1.32510   -3.47130    1.75800 3491.80860    -999.25 3407.05400
 9600.00000    -999.25   10.52240  693.04880    2.02240    0.03750    2.41520    -999.25    0.17240    0.17240    1.44290    0.03750   94.89970   97.46830   94.89970   78.64690    -999.25   72.10310   72.10310    1.44290    1.47460    1.47460    -999.25    -999.25    0.36320    0.31970    1.63140   -1.05820   -3.08130    1.63140 3296.74850    -999.25 3445.69580
 9650.00000    -999.25   10.73640  576.23600    2.23640    0.06040    2.33430    -999.25    0.21970    0.21970    1.73540    0.06040   92.62560   94.87460   92.62560   68.93450    -999.25   69.79420   69.79420    1.73540    1.77260    1.77260    -999.25    -999.25    0.34510    0.30140    1.93220   -3.31660   -5.36370    1.93220 3339.74880    -999.25 3424.16700
 9700.00000    -999.25   10.09890  603.79180    1.59890   -0.01310    2.51520    -999.25    0.11390    0.11390    1.65620   -0.01310   92.68620   93.70340   92.68620   81.75140    -999.25   74.82890   74.82890    1.65620    1.69750    1.69750    -999.25    -999.25    0.31410    0.27020    1.88560   -2.16520   -4.23630    1.88560 2981.59420    -999.25 3455.67310
 9750.00000    -999.25   10.28410  603.79180    1.78410    0.04520    2.45850    -999.25    0.14710    0.14710    1.65620    0.04520   93.05860   94.85770   94.85770   79.85020    -999.25   75.71630   75.71630    1.65620    1.70410    1.70410    -999.25    -999.25    0.35240    0.30880    1.96620   -1.68870   -3.78390    1.96620 3328.58500    -999.25 3430.38010
 9800.00000    -999.25   10.24440  658.06790    1.74440    0.03470    2.39070    -999.25    0.18670    0.18670    1.51960    0.03470   95.12420   96.64380   96.64380   73.29650    -999.25   72.16000   72.16000    1.51960    1.53570    1.53570    -999.25    -999.25    0.36710    0.32370    1.74340   -2.06680   -4.18600    1.74340 3344.58670    -999.25 3485.19900
 9850.00000    -999.25   10.41780  680.82790    1.91780    0.05910    2.44320    -999.25    0.15600    0.15600    1.46880    0.05910   97.15960   98.50000   98.50000   75.06240    -999.25   74.64950   74.64950    1.46880    1.51020    1.51020    -999.25    -999.25    0.34680    0.30310    1.66770   -2.56250   -4.70580    1.66770 3376.50560    -999.25 3502.30300
 9900.00000    -999.25   10.57280  566.21940    2.07280    0.06030    2.37280    -999.25    0.19720    0.19720    1.76610    0.06030   28.31750   53.35560   53.35560   78.83680    -999.25   74.31770   74.31770    1.76610    1.79600    1.79600    -999.25    -999.25    0.40990    0.36720    1.82040   -2.36200   -4.52930    1.82040 3386.33860    -999.25 3522.95260
 9950.00000    -999.25   10.20980  589.30990    1.70980    0.06580    2.48800    -999.25    0.12980    0.12980    1.69690    0.06580   99.23870  126.74900   99.23870   79.60650    -999.25   69.09490   69.09490    1.69690    1.75100    1.75100    -999.25    -999.25    0.35510    0.31150    1.89200   -2.81640   -5.00770    1.89200 3429.63890    -999.25 3554.66020
 10000.00000    -999.25   11.33350  642.92140    2.83350    0.07070    2.38820    -999.25    0.18820    0.18820    1.55540    0.07070  104.76000   96.49580  104.76000   70.47420    -999.25   68.28110   68.28110    1.55540    1.59870    1.59870    -999.25    -999.25    0.40310    0.36030    1.76320   -3.23100   -5.44640    1.76320 3409.02830    -999.25 3506.91040
 10050.00000    -999.25   10.64210  694.73390    2.14210    0.05180    2.42100    -999.25    0.16900    0.16900    1.43940    0.05180   97.02380   97.76410   97.02380   79.89060    -999.25   78.41050   78.41050    1.43940    1.41240    1.41240    -999.25    -999.25    0.34530    0.30160    1.62270   -1.26980   -3.50920    1.62270 3419.46850    -999.25 3544.95920
 10100.00000    -999.25   10.09740  653.50930    1.59740   -0.00090    2.31620    -999.25    0.23030    0.23030    1.53020   -0.00090   96.21810   96.79230   96.21810   78.76910    -999.25   83.66450   83.66450    1.53020    1.58340    1.58340    -999.25    -999.25    0.33700    0.29320    1.67960   -0.58370   -2.84720    1.67960 3465.57790    -999.25 3552.96260
 10150.00000    -999.25    9.18460  577.53390    0.68460    0.02130    2.49320    -999.25    0.12680    0.12680    1.73150    0.02130   91.79460   92.31650   91.79460   91.13290    -999.25   85.13600   85.13600    1.73150    1.77260    1.77260    -999.25    -999.25    0.30090    0.25690    1.89780   -0.45550   -2.74300    1.89780 3546.38280    -999.25 3598.09080
