~Version ---------------------------------------------------
VERS. 2.0 : CWLS log ASCII Standard -VERSION 2.0
WRAP. YES : MULTIPLE LINES PER DEPTH STEP
~Well ------------------------------------------------------
STRT.FT                  300.0 : START DEPTH
STOP.FT                14400.0 : STOP DEPTH
STEP.FT               50.00000 : STEP LENGTH
NULL.                  -999.25 : NULL VALUE
COMP.              CONOCO INC. : COMPANY
WELL.       JACQUELYN WOODS #1 : WELL
FLD .                  WILDCAT : FIELD
LOC .                          : LOCATION
CNTY.                ROBERTSON : COUNTY
STAT.                    TEXAS : STATE
CTRY. UNITED STATES OF AMERICA : COUNTRY
SRVC.                          : SERVICE COMPANY
DATE.                          : LOGDATE
API .           42395302880000 : API NUMBER
UWI .           42395302880000 : UNIQUE WELL ID
SLAT.WGS84       31.0997639251 : SURFACE LATITUDE
SLON.WGS84      -96.4923364329 : SURFACE LONGITUDE
~Curve Information -----------------------------------------
DEPT  .FT    : DEPTH
ACED  .US/F  : DELTA TIME
CALRED.IN    : CALIPER FROM RESISTIVITY LOG
RILMED.OHMM  : MEDIUM INDUCTION RESISTIVITY
RFOCED.OHMM  : SHALLOW FOCUSED RESISTIVITY
RILDED.OHMM  : DEEP INDUCTION RESISTIVITY
GRRED .GAPI  : GAMMA RAY FROM RESISTIVITY LOG
TENRED.LBS   : TENSION FROM RESISTIVITY LOG
SFLUED.OHMM  : SPHERICALLY FOCUSED RESISTIVITY
GRDED .GAPI  : GAMMA RAY FROM DENSITY LOG
CALDED.IN    : CALIPER FROM DENSITY LOG
DRHOED.G/C3  : DENSITY CORRECTION
NPHIED.V/V   : NEUTRON POROSITY
RHOBED.G/C3  : BULK DENSITY
TENDED.LBS   : TENSION FROM DENSITY LOG
SRESWS.OHMM  : SHALLOW RESISTIVITY (RFOC+SFLU)
CALWS .IN    : CALIPER
SPED  .MV    : SPONTANEOUS POTENTIAL (BASELINE -10 MV)
SPWS  .MV    : SPONTANEOUS POTENTIAL (BASELINE -10 MV)
DCORWS.G/C3  : DENSITY CORRECTION
GRWS  .GAPI  : GAMMA RAY
DRESWS.OHMM  : DEEP RESISTIVITY (RILD)
MRESWS.OHMM  : MEDIUM RESISTIVITY (RILM)
CONDWS.MMHO  : CONDUCTIVITY FROM DEEP RESISTIVITY
DENWS .G/C3  : BULK DENSITY
DPOWS .V/V   : DENSITY POROSITY (M=2.71 F=1)
NPOWS .V/V   : NEUTRON POROSITY
DTWS  .V/V   : DELTA TIME
~Params ----------------------------------------------------
EKB .F                 513.38 : KELLY BUSHING
EGL .F                 483.38 : ELEVATION GROUND LEVEL
EDF .F                 512.38 : ELEVATION DERRICK FLOOR
EPD .F                 483.38 : ELEVATION PERMANENT DATUM
TD  .F                12197.0 : TOTAL DEPTH
DATE.             17-MAR-1984 : DATE LOGGED
CLNT.                 A2DTECH : CLIENT CODE
SL  . 3400' FNEL & 3500' FNWL : SURFACE LOCATION
PD  .                      GL : PERMANENT DATUM
LMF .                      KB : LOG MEASURED FROM
DMF .                      KB : DRILLING MEASURED FROM
DAPD.F                     30 : FEET ABOVE PERMANENT DATUM
DD  .F                  12195 : DEPTH DRILLER
DL  .F                  12197 : DEPTH LOGGER
BLI .F                  12195 : BOTTOM LOG INTERVAL
TLI .F                  11950 : TOP LOG INTERVAL
CS1 .IN                13.375 : CASING SIZE
CBD1.         13.375" @ 5096' : CASING DRILLER 1
BS1 .IN                 12.25 : BIT SIZE
BSD1.F                  12195 : DEPTH DRILLED WITH BIT1
DFT .             GEL/CAUSTIC : TYPE FLUID IN HOLE
DFD .                     9.8 : DENSITY
DFV .                      44 : VISCOSITY
DFPH.                      11 : PH
DFL .                    11.2 : FLUID LOSS
MSS .                    TANK : SOURCE OF SAMPLE
RMS .OHMM                1.95 : RM
RMF .OHMM                1.35 : RMF
RMC .OHMM                2.53 : RMC
MFSS.                    MEAS : SOURCE RMF.
MCSS.                    MEAS : SOURCE RMC.
RMB .OHMM                0.59 : RM. AT BHT
BHT .F                    246 : BHT.
TCS .HRS                    6 : TIME CIRC. STOPPED
TLAB.HRS                    - : TIME LOGGER AT BOTTOM
LUN .                 HL 6304 : LOGGING UNIT NUMBER
LUL .                   BRYAN : LOGGING UNIT LOCATION
ENGI.               R.R. KIRK : RECORDED BY
WITN.            GALE CLAYTOR : WITNESSED BY
ORIG.                5" PRINT : ORIGIN OF DATA
UWI .          42395302880000 : UNIQUE WELL ID
DICO.  A2D TECHNOLOGIES, INC. : DIGITIZING COMPANY
~Other -----------------------------------------------------
# NPHI 890 01 (LIMESTONE)
~ASCII -----------------------------------------------------
# ...
 10700.00000   59.99000   14.43400   19.17800   18.24100   21.50000   32.45500    0.00000    -999.25   37.34100   15.19300   -0.01900    0.03500    2.54700    7.30570   18.24100   15.19300  -54.77050  -54.77050   -0.01900   32.45500   21.50000   19.17800   46.51160    2.54700    0.09530    0.03500   59.99000
 10750.00000   58.21100   14.39500   21.38400   21.32200   22.30800   46.64500    0.00000    -999.25   58.18800   15.06900   -0.05300    0.05800    2.60700    7.38590   21.32200   15.06900  -39.03570  -39.03570   -0.05300   46.64500   22.30800   21.38400   44.82700    2.60700    0.06020    0.05800   58.21100
 10800.00000   57.80600   13.98300   21.98400   28.59800   21.09000   51.17800    0.00000    -999.25   66.86570   14.87640   -0.00640    0.09100    2.60680    7.46600   28.59800   14.87640  -40.82880  -40.82880   -0.00640   51.17800   21.09000   21.98400   47.41580    2.60680    0.06040    0.09100   57.80600
 10850.00000   61.35400   14.33700   12.52800   14.88700   13.85600   25.74800    0.00000    -999.25   33.66050   14.84530    0.05820    0.04600    2.47560    7.54620   14.88700   14.84530  -77.17100  -77.17100    0.05820   25.74800   13.85600   12.52800   72.17090    2.47560    0.13710    0.04600   61.35400
 10900.00000   58.56700   13.99400   11.95600   15.32700   11.95600   36.98600    0.00000    -999.25   43.26100   15.22000    0.06270    0.06000    2.54740    7.62630   15.32700   15.22000  -58.56210  -58.56210    0.06270   36.98600   11.95600   11.95600   83.64000    2.54740    0.09510    0.06000   58.56700
 10950.00000   61.67500   14.13800   11.95600   19.50200   11.62900   23.27000    0.00000    -999.25   24.02400   14.71200    0.08530    0.06900    2.43230    7.70650   19.50200   14.71200  -86.06130  -86.06130    0.08530   23.27000   11.62900   11.95600   85.99190    2.43230    0.16240    0.06900   61.67500
 11000.00000   71.75100   14.03700   14.28500   19.58500   12.73500   24.41300    0.00000    -999.25   40.50000   14.37100   -0.04700    0.04200    2.47290    7.78660   19.58500   14.37100  -90.73740  -90.73740   -0.04700   24.41300   12.73500   14.28500   78.52380    2.47290    0.13870    0.04200   71.75100
 11050.00000   57.45700   13.99700   16.28400   19.95400   18.65000   24.51100    0.00000    -999.25   30.09700   14.64300   -0.04400    0.02600    2.50700    7.86680   19.95400   14.64300  -65.46260  -65.46260   -0.04400   24.51100   18.65000   16.28400   53.61930    2.50700    0.11870    0.02600   57.45700
 11100.00000   64.76300   14.49900   16.63000   22.61200   20.48300   19.84200    0.00000    -999.25   25.59900   15.23900   -0.06600    0.04100    2.41800    7.94690   22.61200   15.23900  -87.76170  -87.76170   -0.06600   19.84200   20.48300   16.63000   48.82100    2.41800    0.17080    0.04100   64.76300
 11150.00000   66.80200   14.46900   18.87900   17.37400   19.68000   26.57000    0.00000    -999.25   44.32220   14.51800   -0.02400    0.10300    2.47200    8.02710   17.37400   14.51800  -81.38480  -81.38480   -0.02400   26.57000   19.68000   18.87900   50.81300    2.47200    0.13920    0.10300   66.80200
 11200.00000   63.14500   14.30100   12.05900   14.92000   14.11800   59.63000    0.00000    -999.25   91.59290   14.34900    0.00200    0.11300    2.51100    8.10730   14.92000   14.34900  -49.69900  -49.69900    0.00200   59.63000   14.11800   12.05900   70.83160    2.51100    0.11640    0.11300   63.14500
 11250.00000   64.97100   13.81800   15.72600   19.51600   18.75500   17.08700    0.00000    -999.25   26.13490   14.05100   -0.04100    0.04400    2.45000    8.18740   19.51600   14.05100  -68.55010  -68.55010   -0.04100   17.08700   18.75500   15.72600   53.31910    2.45000    0.15200    0.04400   64.97100
 11300.00000   61.70700   14.12800   23.88800   28.59800   25.95700   18.49900    0.00000    -999.25   23.40100   14.41400   -0.00600    0.03400    2.45400    8.26760   28.59800   14.41400  -66.78330  -66.78330   -0.00600   18.49900   25.95700   23.88800   38.52530    2.45400    0.14970    0.03400   61.70700
 11350.00000   55.19300   14.35800   17.56100   26.13800   35.36800   18.15400    0.00000    -999.25   31.54600   16.41700   -0.07800    0.03200    2.59400    8.34770   26.13800   16.41700  -53.12640  -53.12640   -0.07800   18.15400   35.36800   17.56100   28.27410    2.59400    0.06780    0.03200   55.19300
 11400.00000   48.99000   15.15600   35.82800   34.71000   34.37900   10.38200   25.10000    -999.25   16.21000   18.88400   -0.10700    0.01600    2.58800    8.42790   34.71000   18.88400  -67.30660  -67.30660   -0.10700   10.38200   34.37900   35.82800   29.08750    2.58800    0.07130    0.01600   48.99000
 11450.00000   53.97400   15.19600   16.90000   22.43100   22.34100   27.97500    0.00000    -999.25   41.17100   16.65300   -0.10000    0.06900    2.61900    8.50800   22.43100   16.65300  -39.14970  -39.14970   -0.10000   27.97500   22.34100   16.90000   44.76080    2.61900    0.05320    0.06900   53.97400
 11500.00000   56.18600   14.47300   18.11100   27.13800   27.18400   21.55000    0.00000    -999.25   31.26850   15.94430    0.01470    0.03600    2.52180    8.58820   27.13800   15.94430  -58.34990  -58.34990    0.01470   21.55000   27.18400   18.11100   36.78630    2.52180    0.11010    0.03600   56.18600
 11550.00000   76.97400   15.11800    5.06800    7.17200    5.04000   61.21400    0.00000    -999.25   82.47770   17.12070    0.08530    0.25300    2.18140    8.66830    7.17200   17.12070  -16.31100  -16.31100    0.08530   61.21400    5.04000    5.06800  198.41270    2.18140    0.30910    0.25300   76.97400
 11600.00000   76.76800   15.09100    7.58000    7.83500    6.62600   58.99800    0.00000    -999.25   87.00940   16.71830    0.02220    0.24400    1.88090    8.74850    7.83500   16.71830  -20.85820  -20.85820    0.02220   58.99800    6.62600    7.58000  150.92060    1.88090    0.48490    0.24400   76.76800
 11650.00000   58.70600   14.15000   20.26900   22.91600   22.20900   32.36200    0.00000    -999.25   53.97400   16.09300   -0.09050    0.03200    2.55800    8.82860   22.91600   16.09300  -50.67930  -50.67930   -0.09050   32.36200   22.20900   20.26900   45.02680    2.55800    0.08890    0.03200   58.70600
 11700.00000   64.86600   14.34800   18.51000   21.81400   21.09000   20.38100    0.00000    -999.25   28.91500   15.75600   -0.01100    0.06400    2.35000    8.90880   21.81400   15.75600  -46.34540  -46.34540   -0.01100   20.38100   21.09000   18.51000   47.41580    2.35000    0.21050    0.06400   64.86600
 11750.00000   81.02700   15.18000    3.61000    5.21000    3.63500   67.58500    0.00000    -999.25   91.11000   18.38800    0.09200    0.37700    2.01400    8.98890    5.21000   18.38800  -19.65560  -19.65560    0.09200   67.58500    3.63500    3.61000  275.10310    2.01400    0.40700    0.37700   81.02700
 11800.00000   63.07900   14.29200    7.77700   10.17300    8.88500   38.76800    0.00000    -999.25   49.30600   15.20600   -0.07100    0.09700    2.44600    9.06910   10.17300   15.20600  -44.36470  -44.36470   -0.07100   38.76800    8.88500    7.77700  112.54920    2.44600    0.15440    0.09700   63.07900
 11850.00000   61.84400   13.99400   10.55800   12.27700   10.27100   35.20200    0.00000    -999.25   58.31400   15.67800   -0.04200    0.45500    2.53100    9.14930   12.27700   15.67800  -21.86890  -21.86890   -0.04200   35.20200   10.27100   10.55800   97.36150    2.53100    0.10470    0.45500   61.84400
 11900.00000   51.55700   14.23500    7.03200   15.39700    5.90500   36.09600    0.00000    -999.25   62.50200   16.00700    0.01500    0.43500    2.42600    9.22860   15.39700   16.00700  -14.85800  -14.85800    0.01500   36.09600    5.90500    7.03200  169.34800    2.42600    0.16610    0.43500   51.55700
 11950.00000   78.68400   15.17700    4.35400    4.84400    4.43300   67.32400    0.00000    -999.25   91.48900   18.31300    0.21200    0.33600    2.12200    9.30800    4.84400   18.31300  -16.86520  -16.86520    0.21200   67.32400    4.43300    4.35400  225.58090    2.12200    0.34390    0.33600   78.68400
