~Version ---------------------------------------------------
VERS. 2.0 : CWLS log ASCII Standard -VERSION 2.0
WRAP.  NO : ONE LINE PER DEPTH STEP
~Well ------------------------------------------------------
STRT.F                   300.0 : START DEPTH
STOP.F                 14500.0 : STOP DEPTH
STEP.F                50.00000 : STEP LENGTH
NULL.                  -999.25 : NULL VALUE
COMP.     SUNDANCE OIL COMPANY : COMPANY
WELL.           N E SHORTER #1 : WELL
FLD .               FARRER, SE : FIELD
LOC .                          : LOCATION
CNTY.                LIMESTONE : COUNTY
STAT.                    TEXAS : STATE
CTRY. UNITED STATES OF AMERICA : COUNTRY
SRVC.            Dresser Atlas : SERVICE COMPANY
DATE.              01-Jul-1979 : LOGDATE
API .           42293304520000 : API NUMBER
UWI .           42293304520000 : UNIQUE WELL ID
SLAT.WGS84       31.4107756472 : SURFACE LATITUDE
SLON.WGS84      -96.2915378088 : SURFACE LONGITUDE
~Curve Information -----------------------------------------
DEPT   .F                 : 
ILD    .OHMM 07 120 46 00 : INDUCTION DEEP RESISTIVITY
ILM    .OHMM 07 120 44 00 : INDUCTION MEDIUM RESISTIVITY
SPR    .MV   07 010 01 00 : SPONTANEOUS POTENTIAL FROM RESISTIVITY LOG
SFL    .OHMM 07 220 06 00 : SPHERICALLY FOCUSED LOG
DPHI_SS.DEC  45 890 12 00 : DENSITY POROSITY SANDSTONE
NPHI_SS.DEC  42 890 03 00 : NEUTRON POROSITY SANDSTONE
CORR   .G/C3 45 356 01 00 : DENSITY CORRECTION
RHOB   .G/C3 45 350 01 00 : BULK DENSITY
DPHI_LS.DEC  45 890 10 00 : DENSITY POROSITY LIMESTONE
NPHI_LS.DEC  42 890 01 00 : NEUTRON POROSITY LIMESTONE
GRD    .GAPI 45 310 01 00 : GAMMA RAY FROM DENSITY LOG
CALD   .IN   45 280 60 00 : CALIPER FROM DENSITY LOG
~Params ----------------------------------------------------
PD  .                     GL : PERMANENT DATUM
EPD .FT                424.5 : ELEVATION PERMANENT DATUM
LMF .                     KB : LOG MEASURED FROM
DAPD.FT                 22.5 : FEET ABOVE PERMANENT DATUM
DMF .                     KB : DRILLING MEASURED FROM
EKB .FT                  447 : KELLY BUSHING
EDF .FT                  446 : DRILLING FLOOR
EGL .FT                424.5 : GROUND LEVEL
DATE.               07/01/79 : RUN DATE
RUN .                      2 : RUN NUMBER
DD  .FT                14500 : DEPTH DRILLER
DL  .FT                14503 : DEPTH LOGGER
BLI .FT                14501 : BOTTOM LOG INTERVAL
TLI .FT                 5360 : TOP LOG INTERVAL
CS  .IN                9.625 : CASING SIZE
CBD .FT                 5360 : CASING BOTTOM DRILLER
CBL .FT                 5360 : CASING BOTTOM LOGGER
BS  .IN                 8.75 : BIT SIZE
BSD .FT                14500 : BIT SIZE AT DEPTH
DFT .               GEE CHEM : DRILLING FLUID TYPE
DFD .                   12.1 : DRILLING FLUID DENSITY
DFV .                     45 : DRILLING FLUID VISCOSITY
DFPH.                     11 : DRILLING FLUID PH
DFL .                    8.8 : DRILLING FLUID LOSS
MSS .                    PIT : MUD SAMPLE SOURCE
RMS .OHMM               0.85 : RESISTIVITY MUD SAMPLE
MST .DEGF                 80 : MUD SAMPLE TEMPERATURE
RMF .OHMM               0.63 : RESISTIVITY MUD FILTRATE SAMPLE
MFST.DEGF                 80 : MUD FILTRATE SAMPLE TEMPERATURE
RMC .OHMM               1.01 : RESISTIVITY MUD CAKE
MCST.DEGF                 80 : MUD CAKE SAMPLE TEMPERATURE
MFSS.                    CAL : MUD FILTRATE SAMPLE SOURCE
MCSS.                    CAL : MUD CAKE SAMPLE SOURCE
RMB .OHMM               0.22 : RESISTIVITY MUD AT BHT
TCS .HRS                   6 : TIME CIRCULATED STOPPED
LUN .                   6104 : LOGGING UNIT NUMBER
LUL .                  TYLER : LOGGING UNIT LOCATION
ENGI.                 DELLVA : RECORDING ENGINEER
WITN.                 WALKER : WITNESSED BY
CLNT.                A2DTECH : CLIENT CODE
ORIG.          1" 2.5" PRINT : ORIGIN OF DATA
UWI .         42293304520000 : UNIQUE WELL ID
DICO. A2D Technologies, Inc. : DIGITIZING COMPANY
~Other -----------------------------------------------------
~ASCII -----------------------------------------------------
# ...
 8700.00000   33.71520   24.54800  -97.19190  105.47430    -999.25    -999.25   -0.00640    2.72560    0.00630    0.09110   47.96180    9.59970
 8750.00000    4.19600    3.90620  -54.15660    4.49000    -999.25    -999.25    0.01920    2.27780    0.08240    0.17540   58.95270   10.03810
 8800.00000   11.49670   10.58400  -79.95920   18.30690    -999.25    -999.25   -0.00980    2.68390    0.03270    0.12070   58.99990    9.87260
 8850.00000    3.40990    2.82200  -61.17480    3.49960    0.04760    0.26990    0.01920    2.51860    -999.25    -999.25   76.22470   10.42900
 8900.00000    6.48470    6.13940  -74.45140   14.48820    0.04730    0.13460    0.00350    2.53870    -999.25    -999.25   64.62430    9.93560
 8950.00000    3.32750    2.83080  -75.90950    4.44700    0.01710    0.21450    0.00390    2.56080    -999.25    -999.25   72.46550   10.37760
 9000.00000    4.20070    4.02150  -66.04630    5.64600    0.03100    0.20130    0.01170    1.99780    -999.25    -999.25   64.95830   10.64510
 9050.00000    4.20300    2.43180  -53.71730    3.98140    0.21480    0.25800    0.07160    1.90700    -999.25    -999.25   87.82700   11.86660
 9100.00000    7.78650    6.57440  -80.19400   10.26990    0.04930    0.13340    0.03420    2.56490    -999.25    -999.25   63.79280    9.68470
 9150.00000    6.04410    5.66310  -93.03120    7.75660    0.05990    0.16840    0.03350    2.54370    -999.25    -999.25   49.75780   10.13490
 9200.00000    8.70660    5.85280  -90.31620   13.65970    0.03920    0.18250    0.02220    2.58380    -999.25    -999.25   70.48230    9.98400
 9250.00000   13.13420    8.83040  -93.83640   16.84750    0.02420    0.11750    0.01160    2.59060    -999.25    -999.25   57.60690    9.40190
 9300.00000    6.03500    4.25980  -74.89870    4.66720   -0.00160    0.21120    0.01740    2.63100    -999.25    -999.25   80.93340    9.87930
 9350.00000    9.49600    7.35590 -108.28880   11.81580    0.04250    0.13690    0.00320    2.57860    -999.25    -999.25   54.13950    9.20050
 9400.00000   12.74030   10.00920 -115.35660   22.06060    0.03100    0.10430    0.01280    2.59480    -999.25    -999.25   44.40870    9.28970
 9450.00000   13.39500    8.57300 -151.08280   24.91860    0.07440    0.11760    0.04570    2.52930    -999.25    -999.25   37.87970    9.07970
 9500.00000    8.38470    7.79760  -94.93810   10.12060    0.03720    0.11730    0.02030    2.58840    -999.25    -999.25   49.61790    9.45670
 9550.00000    5.51950    4.97940  -72.24180    6.49130    0.01910    0.19830    0.02570    2.61770    -999.25    -999.25   73.94790   11.03440
 9600.00000    7.48040    5.49910  -86.49210    8.60910    0.01990    0.16160    0.01990    2.62070    -999.25    -999.25   67.29850   10.15060
 9650.00000   14.04390   11.03930 -122.51940   21.01420    0.06120    0.08630    0.00700    2.55340    -999.25    -999.25   40.34740    9.34840
 9700.00000   15.39290   11.38460 -156.40650   31.04430    0.04750    0.07740    0.02790    2.55750    -999.25    -999.25   40.13090    9.22370
 9750.00000   13.88570   10.48000 -140.98790   14.31980    0.03000    0.10780    0.01130    2.60270    -999.25    -999.25   42.65960    9.09160
 9800.00000   16.31500   11.35640 -161.51680   35.77000    0.05150    0.08250    0.03670    2.55850    -999.25    -999.25   37.37000    8.91100
 9850.00000   16.52650   14.87920 -135.97020   19.03110    0.03070    0.08670    0.03030    2.60460    -999.25    -999.25   53.42450    9.22040
 9900.00000   15.48020   10.60290 -138.42650   21.11190    0.06350    0.09260    0.02300    2.56230    -999.25    -999.25   37.17410    9.15720
 9950.00000   10.25460    8.03050 -122.54670   14.12930    0.05520    0.08130    0.02300    2.56450    -999.25    -999.25   35.21640    9.29060
 10000.00000   15.04600   12.64820 -146.79570   22.78350    0.05030    0.08020    0.02360    2.57110    -999.25    -999.25   31.97920    9.16010
 10050.00000    6.83660    4.52700 -119.83670   26.84020    0.07610    0.11700    0.01690    2.53640    -999.25    -999.25   32.30600    9.11480
 10100.00000    9.89230    9.40190 -134.09880   13.12990    0.06780    0.09630    0.00310    2.55110    -999.25    -999.25   39.69990    9.66990
 10150.00000   20.92940   13.98740 -140.52070   27.03620    0.03820    0.09120    0.03020    2.58960    -999.25    -999.25   41.04220    9.13410
 10200.00000   16.52960   15.68790 -137.32910   21.31020    0.03270    0.12620    0.01180    2.58220    -999.25    -999.25   51.05030    9.29910
 10250.00000   15.99860   12.80720 -130.58430   19.81330    0.01880    0.10550    0.04300    2.62600    -999.25    -999.25   49.53720    9.52760
 10300.00000   19.12210   15.75350 -147.36800   22.24030    0.04750    0.12440    0.04920    2.57290    -999.25    -999.25   64.30760    9.37200
 10350.00000   15.20600   11.21060 -138.80620   16.18840    0.04870    0.10440    0.05230    2.57310    -999.25    -999.25   45.26470    9.33280
 10400.00000   25.26480   16.72930 -128.24310   18.03600    0.04580    0.09590   -0.00100    2.56770    -999.25    -999.25   38.49040    9.27150
 10450.00000   16.08380   12.74000 -113.70960   16.91480   -0.02020    0.09890   -0.00570    2.68070    -999.25    -999.25   45.26060    9.34480
 10500.00000   32.74120   15.46580 -148.91270   26.00610    0.05070    0.06700    0.07230    2.55710    -999.25    -999.25   39.60610    9.10170
 10550.00000   21.08460    7.34210 -102.94640   11.06260    0.04910    0.09760   -0.00990    2.55870    -999.25    -999.25   39.19130    9.24280
 10600.00000   27.24800   16.77530 -156.78560   27.95700    0.05960    0.09160    0.02340    2.59360    -999.25    -999.25   38.40780    9.61610
 10650.00000   16.21660   21.01890 -109.78940   24.97880   -0.00600    0.16350    0.03780    2.65730    -999.25    -999.25   74.48740   10.26100
 10700.00000   10.50270    9.02950 -100.75490   11.81960    0.03130    0.08550    0.05130    2.60710    -999.25    -999.25   40.13620    9.72210
 10750.00000   18.90650   16.63110 -138.54630   24.99210    0.02850    0.07900    0.02760    2.59940    -999.25    -999.25   39.26460    9.36480
 10800.00000   27.83610   18.27270 -154.77900   42.68130    0.04620    0.09980    0.01110    2.56490    -999.25    -999.25   47.75630    9.41600
 10850.00000   13.23650   12.25060 -116.86790   18.62620    0.00600    0.11750    0.01470    2.64500    -999.25    -999.25   46.49420    9.56710
 10900.00000    9.91190    7.06590 -103.01380   10.34910    0.10850    0.14950    0.01600    2.46980    -999.25    -999.25   33.17020    9.37790
 10950.00000   15.40020   11.42660 -129.15780   14.91410    0.04220    0.08610    0.02510    2.56790    -999.25    -999.25   34.31860    9.20750
 11000.00000   13.17230   10.29910 -136.22520   25.19670   -0.01770    0.23730    0.02650    2.66560    -999.25    -999.25   81.92230    9.90090
 11050.00000   12.76250   13.87860 -142.96950   21.52750    0.00590    0.10250    0.05250    2.63100    -999.25    -999.25   69.39490    9.35910
 11100.00000   18.71090   12.02830 -110.28280   22.34640    0.11880    0.10940    0.11600    2.48440    -999.25    -999.25   48.91280   10.12040
 11150.00000   16.41860   14.37400  -93.92950   10.59930    0.02410    0.20750    0.02530    2.62240    -999.25    -999.25   79.93270    9.71890
 11200.00000   12.90860   10.65270 -105.80720   14.34040    0.00360    0.09820    0.05350    2.63530    -999.25    -999.25   57.46480    9.78360
 11250.00000   14.66480    8.89060 -107.25660   13.44380    0.06730    0.09750    0.02050    2.51870    -999.25    -999.25   34.19940    9.21550
 11300.00000   17.78350   12.86250 -103.21170   25.07840    0.00460    0.12270    0.09800    2.62370    -999.25    -999.25   66.90730    9.61120
 11350.00000   12.60600    8.09070 -103.03940   17.34600    0.12550    0.31930    0.09510    2.53710    -999.25    -999.25   92.52880   11.25840
 11400.00000   27.42460    6.90470  -73.56000   15.75880    0.29850    0.31870    0.03770    2.40010    -999.25    -999.25   79.35910   11.88620
 11450.00000   11.61990    7.26160 -128.93330   16.04960    0.05900    0.07560    0.02430    2.54710    -999.25    -999.25   30.75480    9.27920
