~Version ---------------------------------------------------
VERS. 2.0 : CWLS log ASCII Standard -VERSION 2.0
WRAP.  NO : ONE LINE PER DEPTH STEP
~Well ------------------------------------------------------
STRT.F                   300.0 : START DEPTH
STOP.F                 14000.0 : STOP DEPTH
STEP.F                50.00000 : STEP LENGTH
NULL.                  -999.25 : NULL VALUE
COMP.        GETTY OIL COMPANY : COMPANY
WELL.           R. B. LEWIS #1 : WELL
FLD .                  WILDCAT : FIELD
LOC .                          : LOCATION
CNTY.                 BURLESON : COUNTY
STAT.                    TEXAS : STATE
CTRY. UNITED STATES OF AMERICA : COUNTRY
SRVC.             Schlumberger : SERVICE COMPANY
DATE.              12-May-1980 : LOGDATE
API .           42051306100000 : API NUMBER
UWI .           42051306100000 : UNIQUE WELL ID
SLAT.WGS84           30.417676 : SURFACE LATITUDE
SLON.WGS84          -96.504349 : SURFACE LONGITUDE
~Curve Information -----------------------------------------
DEPT.F                 : 
SPR .MV   07 010 01 00 : SPONTANEOUS POTENTIAL
DT  .US/F 60 520 00 00 : DELTA TIME
ILD .OHMM 07 120 46 00 : DEEP INDUCTION RESISTIVITY
ILM .OHMM 07 120 44 00 : INDUCTION LOG MEDIUM RESISTIVITY
SFLU.OHMM 07 220 01 00 : SPHERICALLY FOCUSED LOG UNAVERAGED RESISTIVITY
GRD .GAPI 45 310 01 00 : GAMMA RAY FROM DENSITY LOG
CALD.IN   45 280 60 00 : CALIPER FROM DENSITY
DRHO.G/C3 45 356 01 00 : DENSITY CORRECTION
RHOB.G/C3 45 350 01 00 : BULK DENSITY
NPHI.DEC  42 890 03 00 : NEUTRON POROSITY SANDSTONE
GR  .GAPI 30 310 01 00 : GAMMA RAY
~Params ----------------------------------------------------
EKB .F                 283.0 : KELLY BUSHING
EGL .F                   266 : ELEVATION GROUND LEVEL
EDF .F                   282 : ELEVATION DERRICK FLOOR
EPD .F                   266 : ELEVATION PERMANENT DATUM
TD  .F               14006.0 : TOTAL DEPTH
DATE.            14-MAY-1980 : DATE LOGGED
CLNT.                A2DTECH : CLIENT CODE
SL  . 3459' FNEL & 2038' FSL : SURFACE LOCATION
PD  .                     GL : PERMANENT DATUM
LMF .                     KB : LOG MEASURED FROM
DMF .                     KB : DRILLING MEASURED FROM
DAPD.F                    17 : FEET ABOVE PERMANENT DATUM
DD  .F                 14001 : DEPTH DRILLER
DL  .F                 14006 : DEPTH LOGGER
BLI .F                 14003 : BOTTOM LOG INTERVAL
TLI .F                  9717 : TOP LOG INTERVAL
CS1 .IN                7.875 : CASING SIZE
CBD1.         7.875" @ 9729' : CASING DRILLER 1
CBL1.F                  9717 : CASING LOGGER 1
BS1 .IN                  6.5 : BIT SIZE
BSD1.F                 14001 : DEPTH DRILLED WITH BIT1
DFT .         SPERSENE/XF-20 : TYPE FLUID IN HOLE
DFD .                   10.2 : DENSITY
DFV .                     43 : VISCOSITY
DFPH.                     10 : PH
DFL .                   10.4 : FLUID LOSS
MSS .              CIRC TANK : SOURCE OF SAMPLE
RMS .OHMM              0.616 : RM
RMF .OHMM               0.46 : RMF
RMC .OHMM               0.92 : RMC
MFSS.                   CALC : SOURCE RMF.
MCSS.                   CALC : SOURCE RMC.
RMB .OHMM              0.143 : RM. AT BHT
BHT .F                   322 : BHT.
TCS .HRS                2200 : TIME CIRC. STOPPED
TLAB.HRS                 500 : TIME LOGGER AT BOTTOM
LUN .                   8176 : LOGGING UNIT NUMBER
LUL .                BRENHAM : LOGGING UNIT LOCATION
ENGI.                 HARVEY : RECORDED BY
WITN.           ADDINGTON JR : WITNESSED BY
ORIG.               5" PRINT : ORIGIN OF DATA
UWI .         42051306100000 : UNIQUE WELL ID
DICO. A2D TECHNOLOGIES, INC. : DIGITIZING COMPANY
~Other -----------------------------------------------------
# NPHI SANDSTONE/LIMESTONE
~ASCII -----------------------------------------------------
# ...
 9450.00000  -18.68000   60.77300   33.21000   33.78800   37.99000   40.97600   10.58700    0.03200    2.62000    0.03800    -999.25
 9500.00000  -34.16300   57.40300   40.97700   84.79600   44.08400   30.49000   10.70800    0.19500    2.18900    0.07600    -999.25
 9550.00000  -29.84500   58.24600   39.14700    8.28100   30.31000   32.17900   10.22500    0.02900    2.58900    0.03600    -999.25
 9600.00000   -8.14100   80.23300    4.51200    3.84400    6.71200   89.99300   10.33500    0.03000    2.60200    0.19100    -999.25
 9650.00000    0.67800   95.98200    1.60800    1.70400    2.44700  114.58600   10.53200    0.22700    2.55400    0.29300    -999.25
 9700.00000    0.53400   94.90600    1.97500    2.12200    2.97600  110.01300   10.51100    0.25000    2.63500    0.30600    -999.25
 9750.00000   -3.65000   94.83500    2.67400    2.73900    3.56700  149.10200   12.44000    0.05500    1.94800    0.33600    -999.25
 9800.00000   -8.24300   81.36700    7.07300   16.65700   16.53200  129.53900   10.01600    0.06100    2.46700    0.23400    -999.25
 9850.00000    0.40900   80.02000    6.67400    6.22200   11.53700  137.72600   11.24500    0.04200    2.31300    0.21100    -999.25
 9900.00000  -18.21200   56.05800   19.25000   20.00000   25.22400   85.35900    7.85500    0.01300    2.70600    0.05800    -999.25
 9950.00000  -33.90900   50.87100  146.24300 1226.07700   88.46300   65.85200   10.12900    0.07500    2.75800   -0.00400    -999.25
 10000.00000  -25.44100   53.02000   84.40100  112.66100   76.82600   74.16600    8.69000    0.04200    2.70500    0.01300    -999.25
 10050.00000  -33.88500   51.40500  251.59600   80.86300  140.31600   62.99700    8.35500    0.14700    2.78300    0.00800    -999.25
 10100.00000  -19.51800   51.88900   59.39100  100.65000  135.27500   61.27400    8.64900    0.07900    2.70800    0.01900    -999.25
 10150.00000  -33.65800   56.73700   26.29900   29.20100   29.90900  111.63000    8.26800    0.01000    2.69500    0.03200    -999.25
 10200.00000  -80.33500   50.89600   15.44000   21.48900   26.55600   59.34300   10.33000    0.08600    2.74200    0.00000    -999.25
 10250.00000  -94.30900   52.64100   11.66600   20.45000   47.13800   61.58900    8.04000    0.01300    2.66600    0.01700    -999.25
 10300.00000  -91.79200   54.37900    3.87500    5.38500   16.38100   63.25000    7.93000    0.07400    2.72300    0.03400    -999.25
 10350.00000  -37.32800   51.77200  137.37100   75.17600   71.96800   58.84200    7.55200    0.02100    2.70400    0.00900    -999.25
 10400.00000   -5.27700   55.33000   26.04800   20.03800   29.63700   64.42000    7.79700    0.05500    2.74600    0.03500    -999.25
 10450.00000    5.67800   69.93100    6.38100    7.12100    7.72600   95.38300    8.75200    0.14900    2.75900    0.03900    -999.25
 10500.00000    1.28700   67.27800    6.03500    4.71400    7.40900   84.93300    9.81400    0.02300    2.64900    0.09800    -999.25
 10550.00000  -15.78300   51.09900  169.53700  281.04700  181.27100   57.25500    8.02600    0.05400    2.75600    0.00700    -999.25
 10600.00000  -12.08200   52.61200   93.52800  143.21000   93.82800   56.91500    7.96600    0.06200    2.76200    0.00800    -999.25
 10650.00000    5.39500   68.42100    7.55600    7.24600    9.27600   86.81900    8.87200    0.06700    2.72300    0.09200    -999.25
 10700.00000    8.80700   72.73900    4.06700    3.14100    6.85900   74.55400   10.76200    0.12300    2.21000    0.24100    -999.25
 10750.00000    1.43300   56.88000   22.32000   16.75200   25.13800   59.95700    8.31000    0.05000    2.72100    0.03700    -999.25
 10800.00000   -0.44500   62.89100    9.80500   11.19700   16.20600   67.84900    7.95200    0.03500    2.70800    0.07900    -999.25
 10850.00000  -12.48500   52.01600   66.89000   88.70000   60.97400   35.05600    8.02200    0.07300    2.71400    0.02400    -999.25
 10900.00000  -11.61700   53.58600   38.99400   58.71900  114.62200   37.84400    7.96000    0.03900    2.75200    0.02500    -999.25
 10950.00000   -3.96900   62.54200   18.15600   22.50600   16.96400   59.63000    7.94600    0.01700    2.70400    0.08300    -999.25
 11000.00000  -13.06900   53.47000   52.25300  204.15800  103.19600   34.77000    8.28100    0.05700    2.70600    0.01500    -999.25
 11050.00000   -4.40300   55.00300   30.97400   49.23700   71.21100   47.88200    7.73600    0.04100    2.74300    0.05200    -999.25
 11100.00000   -6.82500   58.96600   19.81800   27.70000   68.04400   61.91600    8.20800    0.03300    2.72700    0.01500    -999.25
 11150.00000   -3.72600   54.26400   47.06000   41.57200   66.57600   41.77900    8.19800    0.01400    2.68400    0.02400    -999.25
 11200.00000  -13.84300   52.07400  138.94800 1806.14200  146.33400   45.34500    7.78200    0.01000    2.69600    0.01500    -999.25
 11250.00000   -9.62800   59.59600   14.00000   15.44500   28.57200   57.22400    7.62300    0.02100    2.71200    0.07400    -999.25
 11300.00000  -14.79200   53.40600   52.56000   60.48700   97.70100   49.81200    7.57100    0.03200    2.73400    0.03300    -999.25
 11350.00000  -17.01700   52.71100   43.91800   43.09200   98.21800   43.65300    8.01900    0.02600    2.75100    0.02300    -999.25
 11400.00000  -45.67600   51.10000  277.96400  405.39800  114.62800   24.44500    9.07400    0.10200    2.71600    0.00300    -999.25
 11450.00000  -26.14500   50.93700   59.74600   65.50100   68.26600   39.54500    8.97500    0.22100    2.65200    0.01700    -999.25
 11500.00000  -59.51300   50.05200  251.95800   45.97300   72.68400   29.80500    9.24800    0.07100    2.67700    0.00700    -999.25
 11550.00000  -78.31900   49.66500  100.95000 1884.56300  135.27500   41.01900    7.83900    0.06600    2.72400    0.01500    -999.25
 11600.00000  -75.55300   50.97300   29.90900   31.02400   46.24900   23.95000    8.13700    0.04900    2.74200    0.01000    -999.25
 11650.00000  -25.96300   50.28500  152.45700   44.72800  113.16000   20.52200    8.16600    0.01900    2.71700    0.00300    -999.25
 11700.00000  -40.29300   49.63300 1990.95800  105.83700  322.75100   16.14000    8.02100    0.01900    2.72400    0.00000    -999.25
 11750.00000  -26.32600   50.49200  561.27800  135.47300  379.18900   21.92500    7.97800    0.04100    2.76300    0.00700    -999.25
 11800.00000  -89.75200   49.13000    -999.25  342.19600 1613.18200   17.94100    8.39000    0.01700    2.70800    0.00200    -999.25
 11850.00000  -82.32800   51.17500   80.94500  181.81600   90.45700   16.20500    8.49600    0.06000    2.72200    0.00900    -999.25
 11900.00000 -102.16900   57.51900    6.03300    7.08900   11.84100   12.17700    7.00200    0.06400    2.56900    0.05200    -999.25
 11950.00000  -42.68400   49.36600 1884.56300 1727.21000 1711.78890   29.77700    7.66300    0.01300    2.72900    0.00500    -999.25
 12000.00000  -37.78500   48.64000  786.57700 1972.74800  715.05100   22.73700    7.50600    0.02300    2.71900    0.00700    -999.25
 12050.00000  -43.43800   53.61000   93.82800   97.00600   54.69800   39.33800    7.64600    0.00000    2.70300    0.01100    -999.25
 12100.00000  -74.29000   51.86000  343.86100  299.77800  225.76800   24.50800    7.68600    0.08400    2.73200    0.00900    -999.25
 12150.00000  -40.37800   48.89500  991.43000  110.91500  507.54000   23.00800    8.16400    0.01900    2.70500    0.00400    -999.25
 12200.00000  -59.11800   50.65100   36.57600   36.24300   71.18900   26.27400    7.88500    0.02100    2.72000    0.00700    -999.25
 12250.00000  -57.97300   50.36600  100.84000   45.99800  140.31200   17.96800    8.17700    0.01500    2.69600    0.00400    -999.25
 12300.00000  -48.27500   49.57500   88.67900  153.22700  145.08300   19.28300    8.67000    0.03200    2.77400    0.00000    -999.25
 12350.00000  -25.60300   50.44300   45.87500   35.26200  469.62000   24.74400    8.87800    0.02900    2.75500    0.00300    -999.25
 12400.00000  -69.52300   49.03700  316.68900   69.38200  363.25800   20.92500    8.97400    0.01400    2.71100    0.00000    -999.25
