~Version ---------------------------------------------------
VERS. 2.0 : CWLS log ASCII Standard -VERSION 2.0
WRAP. YES : MULTIPLE LINES PER DEPTH STEP
~Well ------------------------------------------------------
STRT.FT                  1600.0 : START DEPTH
STOP.FT                 11000.0 : STOP DEPTH
STEP.FT                50.00000 : STEP LENGTH
NULL.                   -999.25 : NULL VALUE
COMP.      EP OPERATING COMPANY : COMPANY
WELL. KELLNER ET AL GAS UNIT #3 : WELL
FLD .                   FASHING : FIELD
LOC .                           : LOCATION
CNTY.                  ATASCOSA : COUNTY
STAT.                     TEXAS : STATE
CTRY.  UNITED STATES OF AMERICA : COUNTRY
SRVC.                   Unknown : SERVICE COMPANY
DATE.               22-Oct-1992 : LOGDATE
API .            42013339790000 : API NUMBER
UWI .            42013339790000 : UNIQUE WELL ID
SLAT.WGS84        28.8263667008 : SURFACE LATITUDE
SLON.WGS84       -98.1422347983 : SURFACE LONGITUDE
~Curve Information -----------------------------------------
DEPT    .FT    : DEPTH FEET
CALSED  .IN    : CALIPER FROM SONIC LOG
CALWS   .IN    : CALIPER [DCALRED+BITED]
CONDWS  .MMHO  : CONDUCTIVITY [1000/DRESWS]
DCALRED .IN    : DIFFERENTIAL CALIPER FROM RESISTIVITY LOG
DCORED  .G/C3  : DENSITY CORRECTION FROM DENSITY LOG
DCORWS  .G/C3  : DENSITY CORRECTION [DCORED]
DENWS   .G/C3  : BULK DENSITY [CALCULATED FROM DPOWS]
DPHISSED.V/V   : DENSITY POROSITY [M=2.65 F=1.0] FROM DENSITY LOG
DPHILSED.V/V   : DENSITY POROSITY [M=2.71 F=1.0] FROM DENSITY LOG
DPOWS   .V/V   : DENSITY POROSITY [SPL DPHISSED <9789F> DPHILSED]
DRESWS  .OHMM  : DEEP RESISTIVITY [ILDED]
DTED    .US/F  : DELTA TIME FROM SONIC LOG
DTWS    .US/F  : DELTA TIME [DTED]
GRED    .GAPI  : GAMMA RAY FROM CBL LOG [ADJ TO GRRED]
GRRED   .GAPI  : GAMMA RAY FROM RESISTIVITY LOG
GRSED   .GAPI  : GAMMA RAY FROM SONIC LOG
GRWS    .GAPI  : GAMMA RAY [SPL GRED <2002F> GRRED, CSG ABOVE 2012F & BULK SHIFTED +20GAPI]
ILDED   .OHMM  : INDUCTION LOG DEEP RESISTIVITY
ILMED   .OHMM  : INDUCTION LOG MEDIUM RESISTIVITY
MRESWS  .OHMM  : MEDIUM RESISTIVITY [ILMED]
NPHISSED.V/V   : NEUTRON POROSITY SANDSTONE FROM DENSITY LOG
NPHILSED.V/V   : NEUTRON POROSITY LIMESTONE FROM DENSITY LOG
NPOWS   .V/V   : NEUTRON POROSITY [SPL NPHISSED <9789F> NPHILSED]
PEED    .B/E   : PHOTOELECTRIC FACTOR FROM DENSITY LOG
PEFWS   .B/E   : PHOTOELECTRIC FACTOR [PEED]
RHOBED  .G/C3  : BULK DENSITY FROM DENSITY LOG
SGUARDED.OHMM  : SHORT GUARD RESISTIVITY
SPRED   .MV    : SPONTANEOUS POTENTIAL FROM RESISTIVITY LOG
SPWS    .MV    : SPONTANEOUS POTENTIAL [BASELINE 0 MV] [SPRED]
SRESWS  .OHMM  : SHALLOW RESISTIVITY [SGUARDED]
TENRED  .LBF   : TENSION FROM RESISTIVITY LOG
TENSED  .LBF   : TENSION FROM SONIC LOG
~Params ----------------------------------------------------
PD  .                     GL : PERMANENT DATUM
EPD .F                   486 : ELEVATION PERMANENT DATUM
LMF .                    TKB : LOG MEASURED FROM
DAPD.F                    22 : FEET ABOVE PERMANENT DATUM
DMF .                    TKB : DRILLING MEASURED FROM
EKB .F                   508 : KELLING BUSHING
EDF .F                   507 : DRILLING FLOOR
EGL .F                   486 : GROUND LEVEL
DATE.               10/22/92 : RUN DATE
RUN .                      1 : RUN NUMBER
DD  .F                 11042 : DEPTH DRILLER
DL  .F                 11046 : DEPTH LOGGER
BLI .F                 11044 : BOTTOM LOG INTERVAL
TLI .F                  2012 : TOP LOG INTERVAL
CS  .IN                9.625 : CASING SIZE
CBD .F                  2013 : CASING BOTTOM DRILLER
CBL .F                  2012 : CASING BOTTOM LOGGER
BS  .IN                  8.5 : BIT SIZE
BSD .F                 11042 : BIT SIZE AT DEPTH
DFT .             WATER BASE : DRILLING FLUID TYPE
DFD .                   10.4 : DRILLING FLUID DENSITY
DFV .                     37 : DRILLING FLUID VISCOSITY
DFPH.                   11.5 : DRILLING FLUID PH
DFL .                      7 : DRILLING FLUID LOSS
MSS .             CIRCULATED : MUD SAMPLE SOURCE
RMS .OHMM               1.01 : RESISTIVITY MUD SAMPLE
MST .F                    75 : MUD SAMPLE TEMPERATURE
RMF .OHMM               0.81 : RESISTIVITY MUD FILTRATE SAMPLE
MFST.F                    75 : MUD FILTRATE SAMPLE TEMPERATURE
RMC .OHMM                1.3 : RESISTIVITY MUD CAKE
MCST.F                    75 : MUD CAKE SAMPLE TEMPERATURE
MFSS.                   MEAS : MUD FILTRATE SAMPLE SOURCE
MCSS.                   MEAS : MUD CAKE SAMPLE SOURCE
RMB .OHMM               0.33 : RESISTIVITY MUD AT BHT
TCS .HRS                   8 : TIME CURCULATED STOPPED
TLAB.HRS                1100 : TIME LOGGER AT BOTTOM
LUN .                  51561 : LOGGING UNIT NUMBER
LUL .                  ALICE : LOGGING UNIT LOCATION
ENGI.                MERRELL : RECORDING ENGINEER
CLNT.                A2DTECH : CLIENT CODE
ORIG.            1" 5" PRINT : ORIGIN OF DATA
UWI .         42013339790000 : UNIQUE WELL ID
DICO. A2D Technologies, Inc. : DIGITIZING COMPANY
~Other -----------------------------------------------------
~ASCII -----------------------------------------------------
# ...
 10400.00000   10.97900   10.99710   24.39960    2.49710    0.01280    0.01280    2.42570    -999.25    0.16630    0.16630   40.98420   78.56370   78.56370   41.38530   90.23270   87.54900   90.23270   40.98420   27.98530   27.98530    -999.25    0.29080    0.29080    3.85470    3.85470    2.42570   46.54940  -44.93270  -11.43930   46.54940 4010.23050 3461.38840
 10450.00000   11.47570   11.43390   19.56220    2.93390    0.03550    0.03550    2.49970    -999.25    0.12300    0.12300   51.11900   70.79670   70.79670   43.63350   78.06460   78.38260   78.06460   51.11900   27.00140   27.00140    -999.25    0.29970    0.29970    4.10380    4.10380    2.50420   48.88190  -45.63950  -12.19160   48.88190 4012.79250 3478.65110
 10500.00000   10.37820   10.34360    5.21660    1.84360    0.00590    0.00590    2.63650    -999.25    0.04300    0.04300  191.69620   55.20150   55.20150   14.23950   22.00520   21.77660   22.00520  191.69620   52.09030   52.09030    -999.25    0.11170    0.11170    4.42340    4.42340    2.63520   77.84620  -51.10670  -17.70430   77.84620 4014.40380 3487.34770
 10550.00000   10.87640   10.84930   29.56120    2.34930   -0.00560   -0.00560    2.63380    -999.25    0.04460    0.04460   33.82810   52.34180   52.34180   22.12820   38.04170   38.29410   38.04170   33.82810   24.06990   24.06990    -999.25    0.11240    0.11240    4.34420    4.34420    2.63460  137.76640  -42.30850   -8.95170  137.76640 4091.53150 3497.25900
 10600.00000   10.30630   10.29310    5.76780    1.79310    0.00490    0.00490    2.66700    -999.25    0.02510    0.02510  173.37610   50.77280   50.77280   17.11420   31.91920   31.81520   31.91920  173.37610   41.23710   41.23710    -999.25    0.04850    0.04850    4.62330    4.62330    2.66600   66.71540  -53.83200  -20.52070   66.71540 4094.72310 3511.61910
 10650.00000   10.41090   10.41780   18.28550    1.91780    0.01460    0.01460    2.65180    -999.25    0.03410    0.03410   54.68820   55.34160   55.34160   21.42020   22.97260   22.55590   22.97260   54.68820   33.58310   33.58310    -999.25    0.03100    0.03100    4.45960    4.45960    2.64700   67.64050  -46.92800  -13.66220   67.64050 4127.71880 3514.67020
 10700.00000    9.93120    9.87270    0.05030    1.37270   -0.00160   -0.00160    2.64000    -999.25    0.04100    0.04100 19891.99800   50.18990   50.18990   21.37700   32.20500   32.06060   32.20500 19891.99800  102.72540  102.72540    -999.25    0.02420    0.02420    4.65270    4.65270    2.63780  405.97370  -77.79410  -44.57390  405.97370 4130.10250 3502.19380
 10750.00000    8.13890    8.10740    0.04980   -0.39260    0.03480    0.03480    2.46650    -999.25    0.14240    0.14240 20097.89840   65.05300   65.05300   18.03650   30.58770   30.04790   30.58770 20097.89840  197.72600  197.72600    -999.25    0.10250    0.10250    4.66680    4.66680    2.46410  392.66720 -120.61030  -87.43560  392.66720 4112.32960 3605.64840
 10800.00000    8.23710    8.27740    0.04970   -0.22260    0.02000    0.02000    2.51040    -999.25    0.11670    0.11670 20131.82230   59.28590   59.28590   20.56870   37.14960   37.84840   37.14960 20131.82230  119.86520  119.86520    -999.25    0.08160    0.08160    4.40890    4.40890    2.51160  326.87950 -125.39610  -92.26690  326.87950 4077.29910 3677.04250
 10850.00000    8.13890    8.16470    0.79090   -0.33530    0.03440    0.03440    2.47020    -999.25    0.14020    0.14020 1264.34550   63.94810   63.94810   13.58080   26.12940   25.97940   26.12940 1264.34550  100.13020  100.13020    -999.25    0.11440    0.11440    4.69110    4.69110    2.46900  139.95940 -130.08410  -97.00040  139.95940 4101.32370 3668.03640
 10900.00000    8.68560    8.44250   13.17240   -0.05750    0.03900    0.03900    2.58030    -999.25    0.07580    0.07580   75.91620   53.82340   53.82340   23.25930   37.66730   37.20180   37.66730   75.91620   65.75340   65.75340    -999.25    0.09550    0.09550    3.80390    3.80390    2.57850   84.45090 -142.79410 -109.75600   84.45090 4134.21530 3645.80760
 10950.00000    8.85710    8.86430    4.33100    0.36430   -0.00340   -0.00340    2.68990    -999.25    0.01180    0.01180  230.89200   51.09770   51.09770   20.67890   52.19870   51.82590   52.19870  230.89200   58.82880   58.82880    -999.25    0.03550    0.03550    4.10070    4.10070    2.68720  130.70730 -101.67320  -68.68060  130.70730 4166.80270 3679.90500
 11000.00000    8.30650    8.32490    6.84790   -0.17510   -0.00730   -0.00730    2.66190    -999.25    0.02810    0.02810  146.03120   50.83660   50.83660    -999.25   32.20230   31.97460   32.20230  146.03120   46.56130   46.56130    -999.25    0.02590    0.02590    4.67300    4.67300    2.65930   91.83960 -130.43500  -97.48790   91.83960 4245.15580 3661.85690
