~Version ---------------------------------------------------
VERS.      2.0 : CWLS log ASCII Standard -VERSION 2.0
WRAP.      YES : Multiple lines per depth step
CREA. 08/18/12 : LAS Creation Date
~Well ------------------------------------------------------
STRT.FT                 2900.0 : START DEPTH
STOP.FT                17850.0 : STOP DEPTH
STEP.FT               50.00000 : STEP LENGTH
NULL.                  -999.25 : NULL VALUE
COMP. AMOCO PRODUCTION COMPANY : COMPANY
WELL.   JIMMY HILL GAS UNIT #1 : WELL
FLD .                  WILDCAT : FIELD
LOC .                          : LOCATION
CNTY.                     LEON : COUNTY
STAT.                    TEXAS : STATE
CTRY. UNITED STATES OF AMERICA : COUNTRY
SRVC.             Schlumberger : SERVICE COMPANY
DATE.              04-Jun-1996 : LOGDATE
API .           42289312310000 : API NUMBER
UWI .           42289312310000 : UNIQUE WELL ID
SLAT.WGS84       31.2538599246 : SURFACE LATITUDE
SLON.WGS84      -96.2196025838 : SURFACE LONGITUDE
~Curve Information -----------------------------------------
DEPT    .FT                                                                                                : DEPTH FEET
AO10ED  .OHMM                                                                                              : ARRAY INDUCTION ONE FOOT RESISTIVITY A10 FROM AIT-PI-DITE-LDT-CNT LOG
AO20ED  .OHMM                                                                                              : ARRAY INDUCTION ONE FOOT RESISTIVITY A20 FROM AIT-PI-DITE-LDT-CNT LOG
AO30ED  .OHMM                                                                                              : ARRAY INDUCTION ONE FOOT RESISTIVITY A30 FROM AIT-PI-DITE-LDT-CNT LOG
AO60ED  .OHMM                                                                                              : ARRAY INDUCTION ONE FOOT RESISTIVITY A60 FROM AIT-PI-DITE-LDT-CNT LOG
AO90ED  .OHMM                                                                                              : ARRAY INDUCTION ONE FOOT RESISTIVITY A90 FROM AIT-PI-DITE-LDT-CNT LOG
CALSED  .IN                                                                                                : CALIPER FROM BCS-CALIPER-GR LOG [ADJ. TO GRRED]
CALWS   .IN                                                                                                : CALIPER [DCALED+BITS]
CONDWS  .MMHO                                                                                              : CONDUCTIVITY [1000/DRESWS]
DCALED  .IN                                                                                                : DIFFERENTIAL CALIPER FROM AIT-PI-DITE-LDT-CNT LOG
DCORWS  .G/C3                                                                                              : DENSITY CORRECTION [DRHED SPL. TO DRHOED @ 10860']
DENWS   .G/C3 :   FORMATION BULK DENSITY [RHOMED, DENWS CALCULATED FROM DPOWS FROM 7004'-10889'] [M:2.71,F : 1.0]
DPHILSED.V/V                                                      :   DENSITY POROSITY LIMESTONE [M:2.71,F : 1.0] FROM AIT-PI-DITE-LDT-CNT LOG
DPOLSED .V/V                                                                                               : DENSITY POROSITY LIMESTONE FROM HOSTILE LDL-CN-GR LOG
DPOWS   .V/V                                                                                               : DENSITY POROSITY [DPHILSED SPL. TO DPOLSED @ 10852']
DRESWS  .OHMM                                                                                              : DEEP RESISTIVITY [AO30ED SPL. TO IDPHED]
DRHED   .G/C3                                                                                              : BULK DENSITY CORRECTION FROM HOSTILE LDL-CN-GR LOG
DRHOED  .G/C3                                                                                              : BULK DENSITY CORRECTION FROM AIT-PI-DITE-LDT-CNT LOG
DTED    .US/F                                                                                              : DELTA T FROM BCS-CALIPER-GR LOG [ADJ. TO GRRED/NPHILSED]
DTLFED  .US/F                                                                                              : DELTA-T LONG SPACING FAR FROM AIT-PI-DITE-LDT-CNT-PI-LSS-GR LOG
DTLNED  .US/F                                                                                              : DELTA-T LONG SPACING NEAR FROM AIT-PI-DITE-LDT-CNT-PI-LSS-GR LOG
DTWS    .US/F                                                                                              : COMPRESSIONAL SONIC [DTED SPL. TO DTLNED @ 10865.5'-15946.5']
GRRED   .GAPI                                                                                              : GAMMA RAY FROM AIT-PI-DITE-LDT-CNT LOG
GRSED   .GAPI                                                                                              : GAMMA RAY FROM BCS-CALIPER-GR-PI-LSS LOG [ADJ. TO GRRED]
GRWS    .GAPI                                                                                              : GAMMA RAY [GRRED]
IDPHED  .OHMM                                                                                              : DEEP INDUCTION PHASOR FROM AIT-PI-DITE-LDT-CNT- PI-LSS-GR LOG
LCALED  .IN                                                                                                : LOWER CALIPER FROM HOSTILE LDL-CN-GR LOG
MRESWS  .OHMM                                                                                              : MEDIUM RESISTIVITY [AO30ED]
NPHILSED.V/V                                                                                               : NEUTRON POROSITY LIMESTONE FROM AIT-PI-DITE-LDT-CNT LOG
NPOWS   .V/V                                                                                               : NEUTRON POROSITY [NPHILSED]
PEFED   .B/E                                                                                               : PHOTOELECTRIC FACTOR FROM AIT-PI-DITE-LDT-CNT LOG
PEFLED  .B/E                                                                                               : HLDT PEF LONG SPACING FROM HOSTILE LDL-CN-GR LOG
PEFSED  .B/E                                                                                               : SHORT SPACED CORRECTED PHOTOELECTRIC FACTOR FROM HOSTILE LDL-CN-GR LOG
PEFWS   .B/E                                                                                               : PHOTOELECTRIC FACTOR [PEFED SPL. TO PEFSED @ 10847.5']
RHOMED  .G/C3                                                                                              : CORRECTED BULK DENSITY FROM HOSTILE LDL-CN-GR LOG
SPRED   .MV                                                                                                : SPONTANEOUS POTENTIAL  FROM AIT-PI-DITE-LDT-CNT LOG
SPWS    .MV                                                                                                : SPONTANEOUS POTENTIAL [BASELINE 0, MV SPRED]
SRESWS  .OHMM                                                                                              : SHALLOW RESISTIVITY [AO10ED]
TENDED  .LBF                                                                                               : DIFFERENTIAL TENSION FROM HOSTILE LDL-CN-GR LOG
TENRED  .LBF                                                                                               : TENSION FROM AIT-PI-DITE-LDT-CNT LOG
TENSED  .LBF                                                                                               : TOTAL TENSION FROM BCS-CALIPER-GR LOG [ADJ. TO GRRED]
~Params ----------------------------------------------------
PD  .                     GL : PERMANENT DATUM
EPD .FT                 3759 : ELEVATION PERMANENT DATUM
LMF .                     KB : LOG MEASURED FROM
DAPD.FT                 37.2 : FEET ABOVE PERMANENT DATUM
DMF .                     KB : DRILLING MEASURED FROM
EKB .FT                 4131 : KELLY BUSHING
EDF .FT                 4121 : DRILLING FLOOR
EGL .FT                 3759 : GROUND LEVEL
DATE.               06/04/96 : RUN DATE
RUN .                      4 : RUN NUMBER
DD  .FT                17800 : DEPTH DRILLER
DL  .FT                17800 : DEPTH LOGGER
BLI .FT                17797 : BOTTOM LOG INTERVAL
TLI .FT                15944 : TOP LOG INTERVAL
CS  .IN                    7 : CASING SIZE
CBD .FT                15950 : CASING BOTTOM DRILLER
CBL .FT                15944 : CASING BOTTOM LOGGER
BS  .IN                5.875 : BIT SIZE
BSD .FT                17800 : BIT SIZE AT DEPTH
DFT .              OIL BASED : DRILLING FLUID TYPE
DFD .                     18 : DRILLING FLUID DENSITY
DFV .                     88 : DRILLING FLUID VISCOSITY
RMC .OHMM      OIL BASED MUD : RESISTIVITY MUD CAKE
MCST.DEGF      OIL BASED MUD : MUD CAKE SAMPLE TEMPERATURE
TCS .HRS                2100 : TIME CIRCULATED STOPPED
TLAB.HRS                1500 : TIME LOGGER AT BOTTOM
LUN .                   2019 : LOGGING UNIT NUMBER
LUL .                  TYLER : LOGGING UNIT LOCATION
ENGI.                 FERRIS : RECORDING ENGINEER
WITN.              MCGINNUSS : WITNESSED BY
CLNT.                A2DTECH : CLIENT CODE
ORIG.               5' PRINT : ORIGIN OF DATA
UWI .         42289312310000 : UNIQUE WELL ID
DICO. A2D Technologies, Inc. : DIGITIZING COMPANY
~Other -----------------------------------------------------
~ASCII -----------------------------------------------------
# ...
 10100.00000    4.66090    6.52820    5.15310    5.29140    5.90010   14.28650   14.25460  169.48870    2.00460    0.03520    2.49900    0.12340    -999.25    0.12340    5.90010    -999.25    0.03520   70.15590    -999.25    -999.25   70.15590   72.54760   74.06050   72.54760    -999.25    -999.25    5.15310    0.10140    0.10140    2.79130    -999.25    -999.25    2.79130    -999.25  -35.27260  -37.04030    4.66090    -999.25 3378.66160 3384.05690
 10150.00000    2.65280    3.08330    2.98270    2.98770    3.19410   13.92830   14.01070  313.07720    1.76070    0.03690    2.58890    0.07080    -999.25    0.07080    3.19410    -999.25    0.03690   76.15280    -999.25    -999.25   76.15280  106.50460  106.81780  106.50460    -999.25    -999.25    2.98270    0.20390    0.20390    2.90990    -999.25    -999.25    2.90990    -999.25   -3.71520   -5.73660    2.65280    -999.25 3373.86520 3361.29610
 10200.00000    8.21620   18.86410   22.46000   30.41660   28.23870   13.41720   13.44450   35.41240    1.19450    0.01450    2.59050    0.06990    -999.25    0.06990   28.23870    -999.25    0.01450   57.69170    -999.25    -999.25   57.69170   59.16310   58.52740   59.16310    -999.25    -999.25   22.46000    0.00510    0.00510    2.44750    -999.25    -999.25    2.44750    -999.25  -24.31160  -30.53730    8.21620    -999.25 3367.23580 3372.79570
 10250.00000    4.17150    5.16020    5.22960    6.00830    6.21650   16.21690   16.21390  160.86220    3.96390    0.03820    2.64670    0.03700    -999.25    0.03700    6.21650    -999.25    0.03820   62.61120    -999.25    -999.25   62.61120   79.81160   79.27840   79.81160    -999.25    -999.25    5.22960    0.12310    0.12310    3.04700    -999.25    -999.25    3.04700    -999.25   -1.25820  -11.81040    4.17150    -999.25 3442.32590 3418.03740
 10300.00000    7.71220   18.73830   15.44370   15.30280   19.17950   13.94750   14.03960   52.13900    1.78960    0.03770    2.59750    0.06580    -999.25    0.06580   19.17950    -999.25    0.03770   61.49120    -999.25    -999.25   61.49120   55.45970   55.65410   55.45970    -999.25    -999.25   15.44370    0.02670    0.02670    2.76250    -999.25    -999.25    2.76250    -999.25  -23.06320  -37.94190    7.71220    -999.25 3399.53440 3404.26290
 10350.00000    7.49220   10.65950   12.57530   14.17070   15.23630   13.36690   13.37960   65.63270    1.12960    0.04560    2.61590    0.05500    -999.25    0.05500   15.23630    -999.25    0.04560   64.47070    -999.25    -999.25   64.47070   90.96190   93.33340   90.96190    -999.25    -999.25   12.57530    0.06590    0.06590    2.53560    -999.25    -999.25    2.53560    -999.25  -23.86800  -43.07320    7.49220    -999.25 3449.61500 3408.30930
 10400.00000    6.68090    9.48700    7.79430    8.62420    9.36100   13.29100   13.35690  106.82620    1.10690    0.01120    2.62010    0.05260    -999.25    0.05260    9.36100    -999.25    0.01120   63.38510    -999.25    -999.25   63.38510   76.84010   76.97600   76.84010    -999.25    -999.25    7.79430    0.08650    0.08650    2.74060    -999.25    -999.25    2.74060    -999.25   -7.00140  -30.53310    6.68090    -999.25 3495.84200 3497.80620
 10450.00000    8.03310   12.51330   10.80740   10.53610   12.22890   13.70630   13.75860   81.77350    1.50860    0.01020    2.65190    0.03400    -999.25    0.03400   12.22890    -999.25    0.01020   61.28600    -999.25    -999.25   61.28600   81.30360   82.84080   81.30360    -999.25    -999.25   10.80740    0.08520    0.08520    3.19950    -999.25    -999.25    3.19950    -999.25    5.52940  -20.71820    8.03310    -999.25 3506.74510 3518.63890
 10500.00000    9.90670   21.76640   15.96720   18.57070   19.16690   13.12880   13.19820   52.17330    0.94820    0.01280    2.58770    0.07150    -999.25    0.07150   19.16690    -999.25    0.01280   58.55350    -999.25    -999.25   58.55350   50.25930   52.06130   50.25930    -999.25    -999.25   15.96720    0.00380    0.00380    2.66070    -999.25    -999.25    2.66070    -999.25  -29.07350  -55.90220    9.90670    -999.25 3470.35910 3476.70970
 10550.00000    7.57590   11.16460   10.02730   10.26420   10.82320   13.34290   13.39830   92.39410    1.14830    0.01440    2.64140    0.04010    -999.25    0.04010   10.82320    -999.25    0.01440   58.68320    -999.25    -999.25   58.68320   63.13660   63.54510   63.13660    -999.25    -999.25   10.02730    0.04720    0.04720    2.78230    -999.25    -999.25    2.78230    -999.25    5.31030  -18.64660    7.57590    -999.25 3527.99730 3534.34300
 10600.00000    3.56230    7.06030   15.42290  109.36910   34.72890   13.22210   13.27330   28.79450    1.02330    0.01350    2.58280    0.07440    -999.25    0.07440   34.72890    -999.25    0.01350   61.44180    -999.25    -999.25   61.44180   66.93840   68.35560   66.93840    -999.25    -999.25   15.42290    0.02310    0.02310    2.42500    -999.25    -999.25    2.42500    -999.25  -47.82750  -67.93880    3.56230    -999.25 3546.25590 3553.07590
 10650.00000    3.61970   26.19750   21.81540   21.85010   23.44330   13.13310   13.23550   42.65610    0.98550    0.07820    2.61950    0.05290    -999.25    0.05290   23.44330    -999.25    0.07820   62.14880    -999.25    -999.25   62.14880   87.54800   89.52310   87.54800    -999.25    -999.25   21.81540    0.06050    0.06050    2.71120    -999.25    -999.25    2.71120    -999.25 -110.70270 -126.96840    3.61970    -999.25 3594.85300 3554.86230
 10700.00000   10.80840   31.17580   13.27660   14.58030   17.02760   13.35800   13.38170   58.72820    1.13170    0.04390    2.59730    0.06590    -999.25    0.06590   17.02760    -999.25    0.04390   59.29990    -999.25    -999.25   59.29990   44.95580   45.18580   44.95580    -999.25    -999.25   13.27660    0.01820    0.01820    2.66400    -999.25    -999.25    2.66400    -999.25 -107.23750 -119.65760   10.80840    -999.25 3564.79660 3583.05860
 10750.00000   16.48370   40.56430   24.01060   25.08740   31.40730   12.92280   12.84390   31.83970    0.59390    0.01280    2.55110    0.09290    -999.25    0.09290   31.40730    -999.25    0.01280   60.26870    -999.25    -999.25   60.26870   37.21880   38.18560   37.21880    -999.25    -999.25   24.01060    0.00580    0.00580    2.48340    -999.25    -999.25    2.48340    -999.25  -99.43570 -108.01020   16.48370    -999.25 3537.47660 3584.14620
 10800.00000   11.45920   14.67070   12.29470   12.10270   13.59070   13.14690   13.32920   73.57970    1.07920    0.01700    2.63390    0.04450    -999.25    0.04450   13.59070    -999.25    0.01700   61.91360    -999.25    -999.25   61.91360   92.00100   93.94590   92.00100    -999.25    -999.25   12.29470    0.07380    0.07380    2.89970    -999.25    -999.25    2.89970    -999.25  -65.30550  -70.03430   11.45920    -999.25 3602.47780 3616.58030
 10850.00000    6.54160    5.47460    5.26420    4.81150    4.77730   12.74890   12.81440  209.32330    0.56440    -999.25    -999.25    -999.25    -999.25    -999.25    4.77730    -999.25    -999.25   84.63010    -999.25    -999.25   84.63010   37.66380    -999.25   37.66380    -999.25    -999.25    5.26420    0.23050    0.23050    -999.25    -999.25    -999.25    -999.25    -999.25  -66.88380  -67.76700    6.54160    -999.25 3530.58760 3552.83810
 10900.00000    -999.25    -999.25    -999.25    -999.25    -999.25    -999.25    8.90700   53.97910    0.40700   -0.00400    2.65210    -999.25    0.03130    0.03130   18.52570   -0.00400    -999.25    -999.25   58.96840   59.10140   59.10140   75.63820    -999.25   75.63820   18.52570    8.88490    -999.25    0.05500    0.05500    -999.25    4.05210    3.09530    3.09530    2.65210    -999.25    -999.25    -999.25 3974.89480 3982.77730    -999.25
 10950.00000    -999.25    -999.25    -999.25    -999.25    -999.25    -999.25    8.90910  142.16060    0.40910   -0.00110    2.68720    -999.25    0.01050    0.01050    7.03430   -0.00110    -999.25    -999.25   60.27650   60.42370   60.42370   81.67820    -999.25   81.67820    7.03430    8.85510    -999.25    0.03770    0.03770    -999.25    3.79030    3.22970    3.22970    2.68720    -999.25    -999.25    -999.25 3994.18260 3975.19090    -999.25
