~Version ---------------------------------------------------
VERS.      2.0 : CWLS log ASCII Standard -VERSION 2.0
WRAP.      YES : Multiple lines per depth step
CREA. 05/20/13 : LAS Creation Date
~Well ------------------------------------------------------
STRT.FT                    1750.0 : START DEPTH
STOP.FT                   15250.0 : STOP DEPTH
STEP.FT                  50.00000 : STEP LENGTH
NULL.                     -999.25 : NULL VALUE
COMP. TEXAS OIL & GAS CORPORATION : COMPANY
WELL.                   REED E #1 : WELL
FLD .                  BEAR GRASS : FIELD
LOC .                             : LOCATION
CNTY.                   FREESTONE : COUNTY
STAT.                       TEXAS : STATE
CTRY.    UNITED STATES OF AMERICA : COUNTRY
SRVC.               Dresser Atlas : SERVICE COMPANY
DATE.                 20-Dec-1978 : LOGDATE
API .              42161304400000 : API NUMBER
UWI .              42161304400000 : UNIQUE WELL ID
SLAT.WGS84           31.421505692 : SURFACE LATITUDE
SLON.WGS84         -96.2242059669 : SURFACE LONGITUDE
~Curve Information -----------------------------------------
DEPT    .FT    : DEPTH FEET
CALDED  .IN    : CALIPER FROM DENSITY LOG
CALWS   .IN    : CALIPER [CALDED]
CONDWS  .MMHO  : CONDUCTIVITY [1000/DRESWS]
CORRED  .G/C3  : DENSITY CORRECTION FROM DENSITY LOG
DCORWS  .G/C3  : DENSITY CORRECTION [CORRED]
DENWS   .G/C3  : FORMATION BULK DENSITY [RHOBED]
DPHILSED.V/V   : DENSITY POROSITY LIMESTONE [M=2.71, F=1.0] FROM DENSITY LOG [ADJ. TO RHOBED]
DPOWS   .V/V   : DENSITY POROSITY LIMESTONE [DPHILSED]
DRESWS  .OHMM  : DEEP RESISTIVITY [ILDED]
GRDED   .GAPI  : GAMMA RAY FROM DENSITY LOG
GRWS    .GAPI  : GAMMA RAY [GRDED]
ILDED   .OHMM  : DEEP INDUCTION RESISTIVITY FROM RESISTIVITY LOG
ILMED   .OHMM  : MEDIUM INDUCTION RESISTIVITY FROM RESISTIVITY LOG
MRESWS  .OHMM  : MEDIUM RESISTIVITY [ILMED]
NPHILSED.V/V   : NEUTRON POROSITY LIMESTONE FROM DENSITY LOG
NPOWS   .V/V   : NEUTRON POROSITY LIMESTONE [NPHILSED]
RHOBED  .G/C3  : BULK DENSITY FROM DENSITY LOG
SFLED   .OHMM  : SPHERICALLY FOCUSED FROM RESISTIVITY LOG
SPRED   .MV    : SPONTANEOUS POTENTIAL FROM RESISTIVITY LOG
SPWS    .MV    : SPONTANEOUS POTENTIAL [BASELINE 0 MV, SPRED]
SRESWS  .OHMM  : SHALLOW RESISTIVITY [SFLED]
TENDED  .LBF   : TENSION FROM DENSITY LOG
~Params ----------------------------------------------------
PD  .                     GL : PERMANENT DATUM
EPD .FT                  452 : ELEVATION PERMANENT DATUM
LMF .                     KB : LOG MEASURED FROM
DAPD.FT                   21 : FEET ABOVE PERMANENT DATUM
DMF .                     KB : DRILLING MEASURED FROM
EKB .FT                  473 : KELLY BUSHING
EDF .FT                  472 : DRILLING FLOOR
EGL .FT                  452 : GROUND LEVEL
DATE.               12/20/78 : RUN DATE
RUN .                      4 : RUN NUMBER
DD  .FT                15297 : DEPTH DRILLER
DL  .FT                15240 : DEPTH LOGGER
BLI .FT                15238 : BOTTOM LOG INTERVAL
TLI .FT                14903 : TOP LOG INTERVAL
CS  .IN                    7 : CASING SIZE
CBD .FT                12937 : CASING BOTTOM DRILLER
CBL .FT                12936 : CASING BOTTOM LOGGER
BS  .IN                    6 : BIT SIZE
BSD .FT                15297 : BIT SIZE AT DEPTH
DFT .               CHEM GEL : DRILLING FLUID TYPE
DFD .                   16.5 : DRILLING FLUID DENSITY
DFV .                     60 : DRILLING FLUID VISCOSITY
DFPH.                   10.8 : DRILLING FLUID PH
DFL .                      8 : DRILLING FLUID LOSS
TCS .HRS                   8 : TIME CIRCULATED STOPPED
LUN .                   6104 : LOGGING UNIT NUMBER
LUL .                  TYLER : LOGGING UNIT LOCATION
ENGI.                 DELLVA : RECORDING ENGINEER
WITN.                  GRACE : WITNESSED BY
CLNT.                A2DTECH : CLIENT CODE
ORIG.               5" PRINT : ORIGIN OF DATA
UWI .         42161304400000 : UNIQUE WELL ID
DICO. A2D Technologies, Inc. : DIGITIZING COMPANY
~Other -----------------------------------------------------
CDL-CNL-DIL LOG RAN
RUN 2: CDL & CNL VALUES FROM 12935'TO 13250'NOT VALID DUE TO INTERMITTANT,
TOOL FAILURE CAUSED BY CONSTANT STICKING OF TOOL.
RUN 3:TOOL RUN WITHOUT 1.5" S.O. BECAUSE OF SMALL BOREHOLE SET DOWN AT 15033' & LOGGED UP.
~ASCII -----------------------------------------------------
# ...
 9750.00000    8.68050    8.68050   71.82570    0.02770    0.02770    2.52200    0.10390    0.10990   13.92260   84.62320   84.62320   13.92260   21.09690   21.09690    0.06020    0.06020    2.52200   36.24560  -96.68090  -67.51750   36.24560   69.32840
 9800.00000    8.71310    8.71310   61.09480   -0.01300   -0.01300    2.50840    0.10870    0.11790   16.36800   70.77770   70.77770   16.36800   21.00460   21.00460    0.06280    0.06280    2.50840   30.69680  -75.31620  -46.30100   30.69680   75.56100
 9850.00000    8.60970    8.60970   73.86180    0.01670    0.01670    2.57330    0.08180    0.07990   13.53880  106.90010  106.90010   13.53880   15.43990   15.43990    0.07820    0.07820    2.57330   18.63870  -65.29370  -36.42660   18.63870  131.97560
 9900.00000    8.68310    8.68310   47.30210    0.01270    0.01270    2.52500    0.10420    0.10820   21.14070   53.88310   53.88310   21.14070   24.68050   24.68050    0.03080    0.03080    2.52500   31.46350  -78.94980  -50.23090   31.46350   93.47610
 9950.00000    8.83720    8.83720   51.12740    0.00760    0.00760    2.53210    0.10140    0.10400   19.55900   59.72450   59.72450   19.55900   22.75400   22.75400    0.04770    0.04770    2.53210   42.78710  -66.52870  -37.95800   42.78710   93.47820
 10000.00000    8.58660    8.58660   46.29160    0.02130    0.02130    2.55860    0.08770    0.08850   21.60220   77.58050   77.58050   21.60220   26.34610   26.34610    0.05580    0.05580    2.55860   55.88850  -83.59960  -55.17710   55.88850   53.96520
 10050.00000    8.58930    8.58930   51.62920    0.03450    0.03450    2.52180    0.11060    0.11010   19.36890   56.57950   56.57950   19.36890   21.07810   21.07810    0.04580    0.04580    2.52180   36.04200  -84.62290  -56.34860   36.04200   83.24640
 10100.00000    8.56740    8.56740   46.09930    0.01830    0.01830    2.54780    0.09660    0.09490   21.69230   71.64850   71.64850   21.69230   22.18350   22.18350    0.02850    0.02850    2.54780   49.78550  -79.41190  -51.28580   49.78550  113.19760
 10150.00000    8.62540    8.62540   50.56690    0.02850    0.02850    2.48680    0.13000    0.13050   19.77580   64.22990   64.22990   19.77580   34.75370   34.75370    0.04190    0.04190    2.48680   54.43340  -90.66340  -62.68540   54.43340   82.67350
 10200.00000    8.69180    8.69180   45.37310    0.00990    0.00990    2.54960    0.09870    0.09380   22.03950   83.99360   83.99360   22.03950   28.48210   28.48210    0.04510    0.04510    2.54960   58.34900  -85.66470  -57.83490   58.34900   90.15630
 10250.00000    8.69920    8.69920   44.47730    0.01790    0.01790    2.56820    0.08600    0.08290   22.48340   68.66090   68.66090   22.48340   35.62590   35.62590    0.04400    0.04400    2.56820   41.96840  -84.52520  -56.84360   41.96840   87.48900
 10300.00000    9.82110    9.82110  100.32400   -0.01890   -0.01890    2.59900    0.05740    0.06490    9.96770  125.61590  125.61590    9.96770   12.03580   12.03580    0.12610    0.12610    2.59900   17.97650  -36.03630   -8.50290   17.97650  114.51890
 10350.00000    8.83470    8.83470   65.78770    0.03780    0.03780    2.55940    0.09030    0.08810   15.20040   60.92350   60.92350   15.20040   17.89920   17.89920    0.07020    0.07020    2.55940   19.04150  -64.58500  -37.19980   19.04150  123.24170
 10400.00000    8.94590    8.94590   51.35610    0.03160    0.03160    2.53320    0.10690    0.10340   19.47190   57.26650   57.26650   19.47190   26.52550   26.52550    0.03530    0.03530    2.53320   50.56840  -86.50220  -59.26520   50.56840   78.78030
 10450.00000    8.97130    8.97130   52.22910   -0.01050   -0.01050    2.52340    0.11020    0.10910   19.14640   61.65830   61.65830   19.14640   26.88120   26.88120    0.04630    0.04630    2.52340   41.57680  -74.90140  -47.81250   41.57680   65.33670
 10500.00000    8.66930    8.66930   54.81460    0.00310    0.00310    2.49870    0.13130    0.12360   18.24330   63.47490   63.47490   18.24330   29.46460   29.46460    0.04200    0.04200    2.49870   70.85070  -73.01740  -46.07670   70.85070   74.81500
 10550.00000    8.80040    8.80040   52.31600    0.03270    0.03270    2.51720    0.11350    0.11270   19.11460   74.15770   74.15770   19.11460   25.66760   25.66760    0.04730    0.04730    2.51720   26.88030  -75.61430  -48.82180   26.88030  115.33650
 10600.00000    8.73420    8.73420  134.66200    0.03560    0.03560    2.52830    0.11360    0.10630    7.42600   78.45620   78.45620    7.42600    9.93040    9.93040    0.04560    0.04560    2.52830   28.02080  -86.40630  -59.76200   28.02080   48.30810
 10650.00000    9.24260    9.24260   66.71830   -0.00430   -0.00430    2.60690    0.05680    0.06030   14.98840  113.29540  113.29540   14.98840   17.98170   17.98170    0.10050    0.10050    2.60690   24.64030  -33.15420   -6.65810   24.64030  103.47180
 10700.00000    8.93630    8.93630   44.20220   -0.00340   -0.00340    2.49520    0.13050    0.12560   22.62330   95.21020   95.21020   22.62330   37.61480   37.61480    0.03280    0.03280    2.49520   55.27510  -61.92480  -35.57690   55.27510   59.55380
 10750.00000    9.22460    9.22460   54.68190   -0.02280   -0.02280    2.32600    0.23120    0.22460   18.28760  111.34150  111.34150   18.28760   17.51200   17.51200    0.04950    0.04950    2.32600   28.31060  -48.82270  -22.62290   28.31060  120.47470
 10800.00000    8.86870    8.86870   41.24190    0.00210    0.00210    2.54540    0.09470    0.09630   24.24720   65.47190   65.47190   24.24720   29.83740   29.83740    0.01510    0.01510    2.54540   37.69700  -76.96510  -50.91350   37.69700   90.50790
 10850.00000    8.98370    8.98370   30.42100    0.01400    0.01400    2.54430    0.09940    0.09690   32.87200   54.74400   54.74400   32.87200   51.74990   51.74990    0.01170    0.01170    2.54430   74.93080  -80.41850  -54.51510   74.93080   64.71520
 10900.00000    8.70790    8.70790   29.25610   -0.01930   -0.01930    2.52670    0.11110    0.10720   34.18090   51.52160   51.52160   34.18090   55.44720   55.44720    0.00440    0.00440    2.52670   62.22370  -77.64810  -51.89290   62.22370   88.38360
 10950.00000    8.83070    8.83070   51.54880    0.01170    0.01170    2.49440    0.12700    0.12610   19.39910   72.94880   72.94880   19.39910   26.46820   26.46820    0.03470    0.03470    2.49440   48.75700  -82.03840  -56.43140   48.75700   75.17540
 11000.00000    8.19670    8.19670   41.87600    0.02070    0.02070    2.59840    0.06880    0.06530   23.88000   82.58550   82.58550   23.88000   32.04680   32.04680    0.01430    0.01430    2.59840   49.54130  -65.17600  -39.71710   49.54130  106.71680
 11050.00000    7.59280    7.59280   44.06650    0.00200    0.00200    2.57080    0.08430    0.08140   22.69300   60.86900   60.86900   22.69300   27.30800   27.30800    0.01560    0.01560    2.57080   38.18910  -63.87290  -38.56220   38.18910   99.68970
 11100.00000    7.85840    7.85840   74.84530   -0.02990   -0.02990    2.57050    0.08280    0.08160   13.36090  116.84330  116.84330   13.36090   16.40030   16.40030    0.06750    0.06750    2.57050   18.05190  -40.61150  -15.44900   18.05190   67.41860
 11150.00000    8.17470    8.17470   87.70310    0.04770    0.04770    2.48600    0.15710    0.13100   11.40210  101.73560  101.73560   11.40210   16.89930   16.89930    0.06670    0.06670    2.48600   15.14160  -36.95140  -11.93710   15.14160   53.17610
 11200.00000    7.66140    7.66140   31.52500   -0.01160   -0.01160    2.48750    0.12770    0.13010   31.72090   55.19920   55.19920   31.72090   41.25390   41.25390    0.01260    0.01260    2.48750   75.12080  -59.13500  -34.26890   75.12080   87.33720
 11250.00000    7.99610    7.99610   37.59380    0.02110    0.02110    2.63290    0.04780    0.04510   26.60010  119.99960  119.99960   26.60010   22.88790   22.88790    0.08160    0.08160    2.63290   48.25260  -54.04600  -29.32810   48.25260    -999.25
 11300.00000    7.57710    7.57710   67.88270    0.03080    0.03080    2.49940    0.11710    0.12320   14.73130   50.50540   50.50540   14.73130   27.01310   27.01310    0.04340    0.04340    2.49940   47.41760 -103.02850  -78.45870   47.41760   72.15600
