~Version ---------------------------------------------------
VERS. 2.0 : CWLS log ASCII Standard -VERSION 2.0
WRAP.  NO : ONE LINE PER DEPTH STEP
~Well ------------------------------------------------------
STRT.F                     300.0 : START DEPTH
STOP.F                   14450.0 : STOP DEPTH
STEP.F                  50.00000 : STEP LENGTH
NULL.                    -999.25 : NULL VALUE
COMP. CHAMPLIN PETROLEUM COMPANY : COMPANY
WELL.          LEDWIG CAROLYN #1 : WELL
FLD .      YORKTOWN-N.E. EDWARDS : FIELD
LOC .                            : LOCATION
CNTY.                    DE WITT : COUNTY
STAT.                      TEXAS : STATE
CTRY.   UNITED STATES OF AMERICA : COUNTRY
SRVC.               Schlumberger : SERVICE COMPANY
DATE.                01-Jan-1979 : LOGDATE
API .             42123309360000 : API NUMBER
UWI .             42123309360000 : UNIQUE WELL ID
SLAT.WGS84         29.0138346697 : SURFACE LATITUDE
SLON.WGS84        -97.4746712486 : SURFACE LONGITUDE
~Curve Information -----------------------------------------
DEPT .F                 : 
CILD .MMHO 07 110 46 00 : CONDUCTIVITY INDUCTION LOG DEEP
LL8  .OHMM 07 220 08 00 : LATEROLOG-8 RES.
GRR  .GAPI 07 310 01 00 : GAMMA RAY FROM RES. LOG
ILM  .OHMM 07 120 44 00 : INDUCTION LOG MEDIUM
SFLU .OHMM 07 220 01 00 : SPHERICALLY FOCUSED LOG UNAVERAGED RESISTIVITY
ILD  .OHMM 07 120 46 00 : INDUCTION LOG DEEP
DT   .US/F 60 520 00 00 : INTERVAL TRANSIT TIME
SPR  .MV   07 010 01 00 : SPONTANEOUS POTENTIAL FROM RES. LOG
CALD .IN   45 280 60 00 : CALIPER FROM DENSITY LOG
CORR .G/C3 45 356 01 00 : DENSITY CORRECTION
GRD  .GAPI 45 310 01 00 : GAMMA RAY FROM DENSITY LOG
DPHI .DEC  45 890 12 00 : DENSITY POROSITY SANDSTONE MATRIX CHANGE TO AT 13170 LIMESTONE
NPHI .DEC  42 890 03 00 : NEUTRON POROSITY SANDSTONE MATRIX CHANGE AT 13170 TO LIMESTONE
RHOB .G/C3 45 350 01 00 : BULK DENSITY
ASFL .OHMM 07 221 06 00 : AMPLIFIED SHALLOW FOCUSED LOG RESISTIVITY
RILD .OHMM 07 120 46 00 : INDUCTION LOG DEEP RESISTIVITY
NEUT .NAPI 35 330 01 00 : NEUTRON
GRN  .GAPI 35 310 01 00 : GAMMA RAY
NEUT1.NAPI 35 330 01 00 : NEUTRON DEFAULT SCALE & UNIT 0/1000
GRN1 .GAPI 35 310 01 00 : GAMMA RAY DEFAULT SCALE & UNIT 0/100
~Params ----------------------------------------------------
PD  .                     GL : PERMANENT DATUM
EPD .FT                355.1 : ELEVATION PERMANENT DATUM
LMF .                     KB : LOG MEASURED FROM
DAPD.FT                   20 : FEET ABOVE PERMANENT DATUM
DMF .                     KB : DRILLING MEASURED FROM
EKB .FT                375.1 : KELLY BUSHING
EDF .FT                374.1 : DRILLING FLOOR
EGL .FT                355.1 : GROUND LEVEL
DATE.               01/01/79 : RUN DATE
RUN .                      3 : RUN NUMBER
DD  .FT                14460 : DEPTH DRILLER
DL  .FT                14470 : DEPTH LOGGER
BLI .FT                14460 : BOTTOM LOG INTERVAL
TLI .FT                 9970 : TOP LOG INTERVAL
CS  .IN                10.75 : CASING SIZE
CBD .FT                 2500 : CASING BOTTOM DRILLER
BS  .IN                 8.75 : BIT SIZE
BSD .FT                14460 : BIT SIZE AT DEPTH
DFT .        IMCO SALT WATER : DRILLING FLUID TYPE
DFD .                   11.3 : DRILLING FLUID DENSITY
DFV .                     60 : DRILLING FLUID VISCOSITY
DFPH.                  11.35 : DRILLING FLUID PH
DFL .                    7.6 : DRILLING FLUID LOSS
MSS .               CIRC PIT : MUD SAMPLE SOURCE
RMS .OHMM              0.104 : RESISTIVITY MUD SAMPLE
MST .DEGF                 48 : MUD SAMPLE TEMPERATURE
RMF .OHMM              0.079 : RESISTIVITY MUD FILTRATE SAMPLE
MFST.DEGF                 48 : MUD FILTRATE SAMPLE TEMPERATURE
RMC .OHMM              0.156 : RESISTIVITY MUD CAKE
MCST.DEGF                 48 : MUD CAKE SAMPLE TEMPERATURE
MFSS.                      M : MUD FILTRATE SAMPLE SOURCE
MCSS.                      C : MUD CAKE SAMPLE SOURCE
RMB .OHMM              0.016 : RESISTIVITY MUD AT BHT
MRT .DEGF                304 : MAXIMUM RECORDED TEMPERATURE
LUN .                   8015 : LOGGING UNIT NUMBER
LUL .               VICTORIA : LOGGING UNIT LOCATION
ENGI.               BUCHANAN : RECORDING ENGINEER
WITN.              PRITCHARD : WITNESSED BY
CLNT.                A2DTECH : CLIENT CODE
ORIG.            2" 5" PRINT : ORIGIN OF DATA
UWI .         42123309360000 : UNIQUE WELL ID
DICO. A2D Technologies, Inc. : DIGITIZING COMPANY
~Other -----------------------------------------------------
~ASCII -----------------------------------------------------
# ...
 9050.00000    -999.25    0.73530  101.86950    2.11840    -999.25    2.17600   95.48620   -0.92630   10.23210    0.01250  125.60780    0.09070    0.33590    2.53090    -999.25    -999.25  201.75490  106.56380  206.65580   79.65060
 9100.00000    -999.25    0.99040   43.66200    3.81660    -999.25    3.54940   69.73160   14.14910   10.12790    0.02220   50.05940    0.10100    0.18350    2.50970    -999.25    -999.25  283.72520   75.98290  359.63350   48.39050
 9150.00000    -999.25    0.95630   89.78290    2.26270    -999.25    3.99690   82.79440   -5.11310   10.25190    0.02750  101.60410    0.06680    0.23780    2.57670    -999.25    -999.25  255.00920   89.31000  252.40180   61.65800
 9200.00000    -999.25    0.88390   49.32650    5.59860    -999.25    6.81410   66.66670   10.33740    9.70850    0.05410   45.98570    0.10500    0.18170    2.50520    -999.25    -999.25  459.25710   89.79720  347.71020   34.80610
 9250.00000    -999.25    0.95890   69.81490    3.38690    -999.25    5.17150   77.63810   13.15870   10.36010    0.00780   94.47550    0.11100    0.23640    2.50770    -999.25    -999.25  382.59240   89.01420  345.74720   58.55910
 9300.00000    -999.25    0.94860   35.19460    1.62110    -999.25    2.97750   75.04990   31.59680    9.23680    0.09280   44.04690    0.13930    0.18330    2.44600    -999.25    -999.25  528.63600   89.02880  478.59320   29.70660
 9350.00000    -999.25    0.66850   30.75520    1.32200    -999.25    2.34350   74.53130   27.08580    9.45830    0.03930   33.04130    0.16330    0.18160    2.40570    -999.25    -999.25  525.81040   76.26140  417.83940    0.49140
 9400.00000    -999.25    0.84660   42.60300    2.67590    -999.25    3.78500   70.69190   31.26600    9.45250    0.06910   45.95700    0.14930    0.16410    2.43430    -999.25    -999.25  702.61440  104.79180  439.78040   25.86330
 9450.00000    -999.25    0.81690   31.58680    1.45270    -999.25    2.76620   73.34080   30.77330    9.43850    0.03550   32.44750    0.17730    0.18550    2.38240    -999.25    -999.25  716.11320   76.30640  470.80780    1.68040
 9500.00000    -999.25    0.95500   56.13770    2.22260    -999.25    4.58850   76.37320   16.46420    9.69970    0.05410   57.91200    0.12310    0.21570    2.47360    -999.25    -999.25  557.56980   92.73130  363.61600   37.79440
 9550.00000    -999.25    0.82420   54.47060    2.23930    -999.25    4.15320   74.05130   31.91000    9.47070    0.11000   67.41170    0.13580    0.17780    2.45590    -999.25    -999.25  506.74470   97.84820  325.34340   21.13640
 9600.00000    -999.25    0.93730   44.39800    2.32550    -999.25    4.19160   70.57550   33.39880    9.46590    0.06060   61.05940    0.12640    0.17070    2.47390    -999.25    -999.25  525.00690   85.09750  458.14000    3.97830
 9650.00000    -999.25    0.87880   92.63170    4.63120    -999.25    4.89370   80.36560    1.46070    9.90590    0.02490   82.38860    0.08540    0.21620    2.53740    -999.25    -999.25  339.38280  111.85260  344.51780   55.98660
 9700.00000    -999.25    0.93410   91.75100    3.66200    -999.25    3.49270   91.81640    1.02330    9.95620    0.03200   89.89720    0.08230    0.23330    2.54600    -999.25    -999.25  352.99390   93.30280  387.77390   36.06410
 9750.00000    -999.25    0.77380   99.58300    2.03180    -999.25    2.16180   92.56490    3.46970   10.12160    0.04040  124.00000    0.10540    0.21100    2.49450    -999.25    -999.25  244.38460  107.87620  248.18660   61.58330
 9800.00000    -999.25    0.83930   91.09210    2.05410    -999.25    2.34280   90.24450    0.48930   10.06420    0.04120  106.99350    0.09490    0.28150    2.51980    -999.25    -999.25  281.25890  110.98210  291.25600   45.35960
 9850.00000    -999.25    0.78780   82.73950    1.95470    -999.25    2.21730   92.20560    1.55260   10.05220    0.07710  109.09690    0.09620    0.36100    2.52640    -999.25    -999.25  229.53270  103.31060  249.05010   50.70510
 9900.00000    -999.25    0.81540   97.75450    1.71620    -999.25    2.02510   95.38290    2.26860   10.04880    0.04560  107.73760    0.08960    0.35860    2.53410    -999.25    -999.25  200.72860   99.21590  232.01120   51.31650
 9950.00000    -999.25    1.08920   58.04230    3.97030    -999.25    9.49190   72.73650   14.81220    9.95440    0.00850   72.42300    0.12080    0.18690    2.48410    -999.25    -999.25  377.36850   92.39340  454.28820   16.31300
 10000.00000    -999.25    0.80300  103.82670    1.53720    -999.25    2.02460   94.35630   -0.57310   10.01400    0.06890  122.32030    0.08410    0.32030    2.55090    -999.25    -999.25  217.07870  111.92990  255.75050   66.01230
 10050.00000    -999.25    0.95670   88.47160    2.13610    -999.25    4.82830   76.00230    3.78570    9.88030    0.03710   89.82090    0.06140    0.20260    2.57670    -999.25    -999.25  261.83460  115.52540  425.09230   56.77310
 10100.00000    -999.25    1.36210    -999.25    2.56990    3.07850    2.54640   87.61680    1.45710    8.34830    0.06250  114.50160    0.06560    0.35950    2.57460    -999.25    -999.25  226.96870  103.73470  301.63960   67.60690
 10150.00000    -999.25    -999.25    -999.25    -999.25    2.14590    1.58760   93.35370   36.99010    -999.25    -999.25    -999.25    -999.25    -999.25    -999.25    -999.25    -999.25  209.62060  101.13700  276.16920   61.70230
 10200.00000    -999.25    -999.25    -999.25    -999.25    1.98640    1.57440   93.89510   38.40570    -999.25    -999.25    -999.25    -999.25    -999.25    -999.25    -999.25    -999.25  252.15860  109.98240    -999.25    -999.25
 10250.00000    -999.25    -999.25    -999.25    -999.25    2.00460    1.47340   93.94250   36.54420    -999.25    -999.25    -999.25    -999.25    -999.25    -999.25    -999.25    -999.25  236.87510  106.64730    -999.25    -999.25
 10300.00000    -999.25    -999.25    -999.25    -999.25    2.96820    2.53110   83.11040   37.97620    -999.25    -999.25    -999.25    -999.25    -999.25    -999.25    -999.25    -999.25  258.43480    -999.25    -999.25    -999.25
 10350.00000    -999.25    -999.25    -999.25    -999.25    2.82880    2.28150   86.61810   37.57940    -999.25    -999.25    -999.25    -999.25    -999.25    -999.25    -999.25    -999.25    -999.25    -999.25    -999.25    -999.25
 10400.00000    -999.25    -999.25    -999.25    -999.25    2.34120    1.84070   89.37700   37.37330    -999.25    -999.25    -999.25    -999.25    -999.25    -999.25    -999.25    -999.25    -999.25    -999.25    -999.25    -999.25
 10450.00000    -999.25    -999.25    -999.25    -999.25    2.81000    1.65700   88.27970   36.71700    -999.25    -999.25    -999.25    -999.25    -999.25    -999.25    -999.25    -999.25    -999.25    -999.25    -999.25    -999.25
 10500.00000    -999.25    -999.25    -999.25    -999.25    2.25040    1.72380   88.79070   36.49310    -999.25    -999.25    -999.25    -999.25    -999.25    -999.25    -999.25    -999.25    -999.25    -999.25    -999.25    -999.25
 10550.00000    -999.25    -999.25    -999.25    -999.25    2.28090    1.68770   87.67980   38.53250    -999.25    -999.25    -999.25    -999.25    -999.25    -999.25    -999.25    -999.25    -999.25    -999.25    -999.25    -999.25
 10600.00000    -999.25    -999.25    -999.25    -999.25    2.50400    1.92370   90.49190   37.60950    -999.25    -999.25    -999.25    -999.25    -999.25    -999.25    -999.25    -999.25    -999.25    -999.25    -999.25    -999.25
 10650.00000    -999.25    -999.25    -999.25    -999.25    2.42210    1.73880   90.66920   37.63720    -999.25    -999.25    -999.25    -999.25    -999.25    -999.25    -999.25    -999.25    -999.25    -999.25    -999.25    -999.25
 10700.00000    -999.25    -999.25    -999.25    -999.25    2.41900    1.85460   94.14980   37.34550    -999.25    -999.25    -999.25    -999.25    -999.25    -999.25    -999.25    -999.25    -999.25    -999.25    -999.25    -999.25
 10750.00000    -999.25    -999.25    -999.25    -999.25    2.33840    1.71000   92.97430   37.03960    -999.25    -999.25    -999.25    -999.25    -999.25    -999.25    -999.25    -999.25    -999.25    -999.25    -999.25    -999.25
