~Version ---------------------------------------------------
VERS. 2.0 : CWLS log ASCII Standard -VERSION 2.0
WRAP. YES : MULTIPLE LINES PER DEPTH STEP
~Well ------------------------------------------------------
STRT.FT                  300.0 : START DEPTH
STOP.FT                18600.0 : STOP DEPTH
STEP.FT               50.00000 : STEP LENGTH
NULL.                  -999.25 : NULL VALUE
COMP.        SHELL OIL COMPANY : COMPANY
WELL. PAWELEK BEN A ET AL A #1 : WELL
FLD .    PERSON AREA (WILDCAT) : FIELD
LOC .                          : LOCATION
CNTY.                   KARNES : COUNTY
STAT.                    TEXAS : STATE
CTRY. UNITED STATES OF AMERICA : COUNTRY
SRVC.             Schlumberger : SERVICE COMPANY
DATE.              22-May-1978 : LOGDATE
API .           42255305980000 : API NUMBER
UWI .           42255305980000 : UNIQUE WELL ID
SLAT.WGS84       29.0241796548 : SURFACE LATITUDE
SLON.WGS84      -97.8796797249 : SURFACE LONGITUDE
~Curve Information -----------------------------------------
DEPT    .FT    : DEPTH FEET
CALDED  .IN    : CALIPER FROM DENSITY LOG [DEP ADJ TO GRSED]
CALMED  .IN    : CALIPER FROM MICROLOG [DEP ADJ TO SFLED]
CALSED  .IN    : CALIPER FROM SONIC LOG
CALWS   .IN    : CALIPER [10 CALDED 4845.5 CALMED 4849 CALDED 17451 CALSED 17577 CALDED]
CONDWS  .MMHO  : CONDUCTIVITY [1000/DRESWS]
DCORWS  .G/C3  : DENSITY CORRECTION [DRHOED]
DENWS   .G/C3  : BULK DENSITY [M=2.71 F=1.0] [RHOBED]
DPHILSED.V/V   : DENSITY POROSITY [M=2.71 F=1.0] FROM DENSITY LOG [DEP ADJ TO GRSED/RHOBED]
DPHISSED.V/V   : DENSITY POROSITY [M=2.65 F=1.0] FROM DENSITY LOG [DEP ADJ TO GRSED/RHOBED]
DPOLSWS .V/V   : DENSITY POROSITY [M=2.71 F=1.0] [CAL FR DENWS]
DRESWS  .OHMM  : DEEP RESISTIVITY [ILDED]
DRHOED  .G/C3  : DENSITY CORRECTION FROM DENSITY LOG [DEP ADJ TO GRSED]
DTED    .US/F  : DELTA TIME FROM SONIC LOG
DTWS    .US/F  : DELTA TIME [DTED]
GRDED   .GAPI  : GAMMA RAY FROM DENSITY LOG
GRRED   .GAPI  : GAMMA RAY FROM RESISTIVITY LOG [DEP ADJ TO GRSED]
GRSED   .GAPI  : GAMMA RAY FROM SONIC LOG
GRWS    .GAPI  : GAMMA RAY [70 GRDED 4800.5 GRDEDNRM [0-100 TO 0-140]4844.5 GRSED 4853.5 GRDED 12903.5 GRSED 12939.5 GRDED 12962 GRSED 17526 GRDED 17550 GRRED 18607 GRDED]
ILDED   .OHMM  : INDUCTION LOG DEEP RESISTIVITY
ILMED   .OHMM  : INDUCTION LOG MEDIUM RESISTIVITY
MRESWS  .OHMM  : MEDIUM RESISTIVITY [ILMED]
NPHILSED.V/V   : NEUTRON POROSITY LISTONE FROM DENSITY LOG [DEP ADJ TO GRSED/RHOBED]
NPHISSED.V/V   : NEUTRON POROSITY SANDSTONE FROM DENSITY LOG [DEP ADJ TO GRSED/RHOBED]
NPOLSWS .V/V   : NEUTRON POROSITY LIMESTONE [10 NPOLSCAL 9446 NPHILSED] [NPHISSED IS CONVERTED TO NPOLSCAL USING POWERLOG MODULE]
PROXED  .OHMM  : PROXIMITY RESISTIVITY FROM MICROLOG [DEP ADJ TO SFLED]
RHOBED  .G/C3  : BULK DENSITY FROM DENSITY LOG [DEP ADJ TO GRSED]
SFLED   .OHMM  : SPHERICALLY FOCUSED LOG RESISTIVITY
SPRED   .MV    : SPONTANEOUS POTENTIAL FROM RESISTIVITY LOG [SHIFTS ARE REMOVED]
SPWS    .MV    : SPONTANEOUS POTENTIAL [BASELINE 0 MV] [SPRED][PL. USE W/ RESERVATIONS]
SRESWS  .OHMM  : SHALLOW RESISTIVITY [SFLED]
TENDED  .LBF   : TENSION FROM DENSITY LOG [DEP ADJ TO GRSED]
~Params ----------------------------------------------------
PD  .                     GL : PERMANENT DATUM
EPD .FT                  335 : ELEVATION PERMANENT DATUM
LMF .                     KB : LOG MEASURED FROM
DAPD.FT                   28 : FEET ABOVE PERMANENT DATUM
DMF .                     KB : DRILLING MEASURED FROM
EKB .FT                  363 : KELLY BUSHING
EDF .FT                  362 : DRILLING FLOOR
EGL .FT                  335 : GROUND LEVEL
DATE.               05/22/78 : RUN DATE
RUN .                      4 : RUN NUMBER
DD  .FT                18626 : DEPTH DRILLER
DL  .FT                18642 : DEPTH LOGGER
BLI .FT                18637 : BOTTOM LOG INTERVAL
TLI .FT                17550 : TOP LOG INTERVAL
CS  .IN                    7 : CASING SIZE
CBD .FT                17544 : CASING BOTTOM DRILLER
CBL .FT                17550 : CASING BOTTOM LOGGER
BS  .IN                    6 : BIT SIZE
BSD .FT                18626 : BIT SIZE AT DEPTH
DFT .               INVERMUL : DRILLING FLUID TYPE
DFD .                   17.6 : DRILLING FLUID DENSITY
DFV .                     70 : DRILLING FLUID VISCOSITY
DFL .                      2 : DRILLING FLUID LOSS
LUN .                   7799 : LOGGING UNIT NUMBER
LUL .                  PLEAS : LOGGING UNIT LOCATION
ENGI.             TURBEVILLE : RECORDING ENGINEER
WITN.                JARRELL : WITNESSED BY
CLNT.                A2DTECH : CLIENT CODE
ORIG.            2" 5" PRINT : ORIGIN OF DATA
UWI .         42255305980000 : UNIQUE WELL ID
DICO. A2D Technologies, Inc. : DIGITIZING COMPANY
~Other -----------------------------------------------------
~ASCII -----------------------------------------------------
# ...
 4900.00000   14.06390   13.23010   13.08980   14.06390  578.10150    0.04600    2.45920    -999.25    0.11290    0.14670    1.72980    0.04600  117.19770  117.19770   84.33070    -999.25   84.54610   84.33070    1.72980    1.80800    1.80800    -999.25    0.43150    0.38930    2.94030    2.45920    2.77210  -62.32080   -6.04920    2.77210 9348.82910
 4950.00000   12.64400   12.04500   11.83430   12.64400  440.54800    0.06780    2.21300    -999.25    0.26470    0.29060    2.26990    0.06780   99.90200   99.90200   58.79430    -999.25   69.29350   58.79430    2.26990    2.53480    2.53480    -999.25    0.41590    0.37340    1.81790    2.21300    2.59620  -77.03770  -21.00720    2.59620 9852.25680
 5000.00000   15.24440   14.11630   13.54660   15.24440  661.59440    0.05580    2.38290    -999.25    0.17040    0.19130    1.51150    0.05580  103.57460  103.57460   85.12440    -999.25   89.18270   85.12440    1.51150    1.54260    1.54260    -999.25    0.43770    0.39570    1.59560    2.38290    1.94970  -62.79710   -7.00770    1.94970 9718.35840
 5050.00000   15.90760   14.42920   12.82870   15.90760  495.00050    0.07870    2.34610    -999.25    0.18000    0.21280    2.02020    0.07870   99.00570   99.00570   74.40510    -999.25   84.23210   74.40510    2.02020    2.29320    2.29320    -999.25    0.38370    0.34050    2.35370    2.34610    2.63730  -72.05750  -16.50920    2.63730 9736.55470
 5100.00000   15.47890   14.40390   13.69100   15.47890  767.22420    0.05250    2.32890    -999.25    0.20250    0.22290    1.30340    0.05250  112.88920  112.88920   80.90060    -999.25   86.68980   80.90060    1.30340    1.33030    1.33030    -999.25    0.42100    0.37860    1.32200    2.32890    1.69760  -58.92010   -3.61290    1.69760 9654.32130
 5150.00000   14.78860   13.83380   12.57210   14.78860  416.37170    0.07610    2.40300    -999.25    0.14140    0.17950    2.40170    0.07610   88.71100   88.71100   77.75290    -999.25   79.20040   77.75290    2.40170    2.59250    2.59250    -999.25    0.34940    0.30580    3.01300    2.40300    2.97600  -67.81040  -12.74430    2.97600 9550.15040
 5200.00000   13.34500   12.21930   12.18470   13.34500  429.99660    0.08010    2.25480    -999.25    0.25200    0.26620    2.32560    0.08010   90.06090   90.06090   69.74220    -999.25   69.84920   69.74220    2.32560    3.02360    3.02360    -999.25    0.33300    0.28920    3.76810    2.25480    3.41400  -75.99130  -21.16630    3.41400 9534.01760
 5250.00000   12.29720   11.30570   11.41750   12.29720  548.78720    0.02750    2.16720    -999.25    0.29710    0.31740    1.82220    0.02750   92.60940   92.60940   57.35570    -999.25   58.18770   57.35570    1.82220    2.36430    2.36430    -999.25    0.37660    0.33330    2.67360    2.16720    2.86020  -87.10490  -32.66440    2.86020 9742.47950
 5300.00000   12.05810   11.52640   11.40850   12.05810  521.02330    0.03780    2.18360    -999.25    0.27560    0.30780    1.91930    0.03780   95.98910   95.98910   53.77130    -999.25   56.24310   53.77130    1.91930    2.47620    2.47620    -999.25    0.42390    0.38150    2.15330    2.18360    2.96690  -83.76340  -29.71820    2.96690 9675.96970
 5350.00000   12.30160   11.75290   11.75160   12.30160  527.56530    0.02290    2.02580    -999.25    0.37270    0.40010    1.89550    0.02290  105.54860  105.54860   66.74830    -999.25   76.17500   66.74830    1.89550    2.07380    2.07380    -999.25    0.45960    0.41790    1.24920    2.02580    2.29770  -66.59480  -12.94490    2.29770 9617.16020
 5400.00000   12.07060   11.38890   11.41070   12.07060  475.76000    0.03600    2.23920    -999.25    0.24760    0.27530    2.10190    0.03600   91.57090   91.57090   55.51490    -999.25   60.44780   55.51490    2.10190    2.70550    2.70550    -999.25    0.34720    0.30350    3.33840    2.23920    3.39610  -80.46190  -27.20730    3.39610 9517.02730
 5450.00000   12.41560   11.90920   11.66100   12.41560  559.62840    0.03860    2.23900    -999.25    0.24000    0.27540    1.78690    0.03860   87.27360   87.27360   54.35160    -999.25   60.36080   54.35160    1.78690    1.97780    1.97780    -999.25    0.31720    0.27330    1.20220    2.23900    2.85550  -71.94810  -19.08880    2.85550 9597.62500
 5500.00000   12.28810   11.17400   11.43240   12.28810  625.89970    0.03020    2.23340    -999.25    0.26130    0.27870    1.59770    0.03020   95.58900   95.58900   60.50320    -999.25   65.11630   60.50320    1.59770    2.26790    2.26790    -999.25    0.40000    0.35710    2.65930    2.23340    2.84750  -90.49000  -38.02600    2.84750 9530.38480
 5550.00000   12.64520   11.82950   11.73530   12.64520  540.19010    0.08170    2.35780    -999.25    0.18250    0.20600    1.85120    0.08170   97.23110   97.23110   78.43010    -999.25   73.58480   78.43010    1.85120    2.17710    2.17710    -999.25    0.39940    0.35650    2.65820    2.35780    2.59820  -65.52430  -13.45550    2.59820 9679.51560
 5600.00000   12.80180   12.94590   12.68630   12.80180  852.15170    0.04350    1.89860    -999.25    0.43880    0.47450    1.17350    0.04350  120.46130  120.46130   69.28680    -999.25   82.77740   69.28680    1.17350    1.25290    1.25290    -999.25    0.52810    0.48640    0.94580    1.89860    1.69930  -58.52330   -6.84980    1.69930 9633.03610
 5650.00000   12.04020   11.09300   11.53530   12.04020  630.27860    0.02590    2.17430    -999.25    0.29240    0.31330    1.58660    0.02590   94.55180   94.55180   46.79350    -999.25   56.02740   46.79350    1.58660    2.19020    2.19020    -999.25    0.36360    0.32010    2.90400    2.17430    2.95780  -86.74850  -35.47030    2.95780 9607.56640
 5700.00000   12.70620   12.73630   12.05710   12.70620  648.29820    0.07840    2.37460    -999.25    0.16400    0.19610    1.54250    0.07840   98.22210   98.22210   82.68730    -999.25   88.72700   82.68730    1.54250    1.66830    1.66830    -999.25    0.41680    0.37430    1.43190    2.37460    1.98260  -60.86830   -9.98540    1.98260 9456.46290
 5750.00000   12.00950   11.29870   11.51480   12.00950  576.66800    0.05930    2.24680    -999.25    0.24490    0.27090    1.73410    0.05930   88.67920   88.67920   61.03690    -999.25   62.73890   61.03690    1.73410    2.24860    2.24860    -999.25    0.34170    0.29800    2.35070    2.24680    2.85550  -84.15960  -33.67200    2.85550 9431.84570
 5800.00000   12.02350   10.99310   11.63030   12.02350  596.80110    0.04850    2.26830    -999.25    0.23730    0.25830    1.67560    0.04850   91.48800   91.48800   59.12790    -999.25   59.00080   59.12790    1.67560    2.32910    2.32910    -999.25    0.36370    0.32020    2.82210    2.26830    3.15430  -90.43260  -40.34030    3.15430 9661.25590
 5850.00000   12.27270   11.12580   11.47010   12.27270  624.84380    0.03370    2.25370    -999.25    0.24760    0.26680    1.60040    0.03370   97.17290   97.17290   49.77350    -999.25   56.98420   49.77350    1.60040    2.21890    2.21890    -999.25    0.38340    0.34020    3.29550    2.25370    3.31900  -92.70160  -43.00460    3.31900 9606.34770
 5900.00000   13.77650   12.98360   13.28990   13.77650  826.51460    0.03870    2.19640    -999.25    0.27200    0.30040    1.20990    0.03870  106.13780  106.13780   82.35340    -999.25   78.25980   82.35340    1.20990    1.28180    1.28180    -999.25    0.49560    0.45390    0.78170    2.19640    1.55110  -51.30180   -2.02940    1.55110 9493.74800
 5950.00000   13.31400   12.27530   12.43970   13.31400  747.44000    0.08020    2.04890    -999.25    0.36630    0.38660    1.33790    0.08020  123.43500  123.43500   81.06810    -999.25   79.31670   81.06810    1.33790    1.48720    1.48720    -999.25    0.54780    0.50610    0.94670    2.04890    1.58760  -57.28880   -8.77780    1.58760 9384.29390
 6000.00000   12.12010   11.30770   11.78370   12.12010  563.18990    0.05950    2.31720    -999.25    0.20630    0.22970    1.77560    0.05950   85.10110   85.10110   53.26090    -999.25   59.42610   53.26090    1.77560    2.43880    2.43880    -999.25    0.31530    0.27140    2.51740    2.31720    3.29440  -89.36620  -41.61670    3.29440 9663.41990
