~Version ---------------------------------------------------
VERS. 2.0 : CWLS log ASCII Standard -VERSION 2.0
WRAP.  NO : ONE LINE PER DEPTH STEP
~Well ------------------------------------------------------
STRT.F                    3450.0 : START DEPTH
STOP.F                    7900.0 : STOP DEPTH
STEP.F                  50.00000 : STEP LENGTH
NULL.                    -999.25 : NULL VALUE
COMP. CHAMPLIN PETROLEUM COMPANY : COMPANY
WELL.        MELVIN SKRABANEK #1 : WELL
FLD .                   GIDDINGS : FIELD
LOC .                            : LOCATION
CNTY.                   BURLESON : COUNTY
STAT.                      TEXAS : STATE
CTRY.   UNITED STATES OF AMERICA : COUNTRY
SRVC.                      Welex : SERVICE COMPANY
DATE.                11-Apr-1981 : LOGDATE
API .             42051314350000 : API NUMBER
UWI .             42051314350000 : UNIQUE WELL ID
SLAT.WGS84         30.5547029196 : SURFACE LATITUDE
SLON.WGS84        -96.6598610448 : SURFACE LONGITUDE
~Curve Information -----------------------------------------
DEPT.F                 : 
GRR .GAPI 07 310 01 00 : GAMMA RAY FROM RESISTIVITY LOG
CALR.IN   07 280 01 00 : CALIPER FROM RESISTIVITY LOG
AC  .MS/F 60 500 42 00 : ACOUSTIC
GURD.OHMM 07 220 05 00 : GUARD RESISTIVITY
ILD .OHMM 07 120 46 00 : INDUCTION DEEP RESISTIVITY
ILM .OHMM 07 120 44 00 : INDUCTION MEDIUM RESISTIVITY
SPR .MV   07 010 01 00 : SPONTANEOUS POTENTIAL FROM RESISTIVITY LOG
~Params ----------------------------------------------------
PD  .                     GL : PERMANENT DATUM
EPD .FT                  372 : ELEVATION PERMANENT DATUM
LMF .                    TKB : LOG MEASURED FROM
DAPD.FT                   18 : FEET ABOVE PERMANENT DATUM
DMF .                    TKB : DRILLING MEASURED FROM
EKB .FT                  390 : KELLY BUSHING
EDF .FT                  389 : DRILLING FLOOR
EGL .FT                  372 : GROUND LEVEL
DATE.               04/11/81 : RUN DATE
RUN .                      1 : RUN NUMBER
DD  .FT                 7949 : DEPTH DRILLER
DL  .FT                 7945 : DEPTH LOGGER
BLI .FT                 7943 : BOTTOM LOG INTERVAL
TLI .FT                 3487 : TOP LOG INTERVAL
CS  .IN                9.625 : CASING SIZE
CBD .FT                 3489 : CASING BOTTOM DRILLER
CBL .FT                 3487 : CASING BOTTOM LOGGER
BS  .IN                 8.75 : BIT SIZE
BSD .FT                 7949 : BIT SIZE AT DEPTH
DFT .          WATERBASE MUD : DRILLING FLUID TYPE
DFD .                    9.2 : DRILLING FLUID DENSITY
DFV .                     35 : DRILLING FLUID VISCOSITY
DFPH.                      9 : DRILLING FLUID PH
DFL .                      7 : DRILLING FLUID LOSS
MSS .             CIRCULATED : MUD SAMPLE SOURCE
RMS .OHMM               3.94 : RESISTIVITY MUD SAMPLE
MST .DEGF                 75 : MUD SAMPLE TEMPERATURE
RMF .OHMM               4.26 : RESISTIVITY MUD FILTRATE SAMPLE
MFST.DEGF                 75 : MUD FILTRATE SAMPLE TEMPERATURE
RMC .OHMM               3.56 : RESISTIVITY MUD CAKE
MCST.DEGF                 75 : MUD CAKE SAMPLE TEMPERATURE
MFSS.                   MEAS : MUD FILTRATE SAMPLE SOURCE
MCSS.                   MEAS : MUD CAKE SAMPLE SOURCE
RMB .OHMM               1.68 : RESISTIVITY MUD AT BHT
TCS .HRS                   4 : TIME CIRCULATED STOPPED
ENGI.                  SMITH : RECORDING ENGINEER
WITN.                  VODAK : WITNESSED BY
CLNT.                A2DTECH : CLIENT CODE
ORIG.          1" 2.5" PRINT : ORIGIN OF DATA
UWI .         42051314350000 : UNIQUE WELL ID
DICO. A2D Technologies, Inc. : DIGITIZING COMPANY
~Other -----------------------------------------------------
~ASCII -----------------------------------------------------
 3450.00000   49.29060    -999.25    -999.25    -999.25    -999.25    -999.25    -999.25
 3500.00000   91.08390    8.27140  114.82470    3.77570    3.22780    3.54230  -38.93580
 3550.00000   83.28480    8.30300  107.57550    7.06170    5.22870    6.51420  -57.42240
 3600.00000   63.71200    8.40830  107.89980    8.95740    4.86230    7.45300  -71.81500
 3650.00000   99.47980    8.17550  107.76960    4.44570    3.35440    4.19410  -46.24890
 3700.00000   96.79060    8.30970  112.95010    3.49940    3.31920    3.71320  -38.78790
 3750.00000   93.54120    8.29320  109.19920    2.77100    2.48680    2.66220  -34.81620
 3800.00000   89.59200    8.23920  105.63870    3.08230    2.73580    3.08040  -36.90120
 3850.00000  100.71580    8.21140  104.63360    2.41450    2.14820    2.25270  -32.93180
 3900.00000   93.08590    8.29440  103.63600    3.15710    2.77250    3.11290  -36.08070
 3950.00000   95.81530    8.32710  104.67030    2.92720    2.54810    2.78280  -32.76390
 4000.00000   87.62040    8.37820   99.86980    2.92260    2.46360    2.54950  -33.39920
 4050.00000  103.53260    8.46310  111.71400    1.95130    1.69730    1.74150  -30.94520
 4100.00000   98.40320    8.32900   99.06200    2.73530    2.54770    2.63400  -32.40980
 4150.00000  101.73030    8.32610  110.10050    2.05770    1.82560    1.88670  -29.57960
 4200.00000  104.27920    8.32520  112.79550    1.78280    1.58220    1.55220  -32.45270
 4250.00000  101.66780    8.29340  112.99590    1.68690    1.53770    1.45470  -30.13520
 4300.00000  102.10010    8.40860  112.13110    1.62310    1.47800    1.43870  -30.52720
 4350.00000  107.89400    8.35760  108.55960    2.03430    1.84660    1.87910  -30.11420
 4400.00000  101.44360    8.31350  104.73840    1.90490    1.68650    1.74490  -29.76410
 4450.00000   99.57590    8.24190  104.33350    1.47700    1.36720    1.40870  -32.72850
 4500.00000   96.61720    8.19380  111.69980    1.21110    1.04570    1.10140  -25.00300
 4550.00000   96.06160    8.05310  103.29200    1.94630    1.78230    1.84130  -33.03440
 4600.00000   88.84790    8.05350  109.59620    1.81250    1.58520    1.60710  -34.03230
 4650.00000   94.61190    8.10960  108.27220    1.85390    1.60920    1.64410  -30.40680
 4700.00000   95.35920    8.25370  107.81160    1.70050    1.50850    1.55010  -31.33660
 4750.00000   86.27490    8.04420  113.26070    1.60550    1.50250    1.55130  -39.03280
 4800.00000   88.69470    8.02890  114.88250    1.31710    1.19560    1.12770  -29.90000
 4850.00000   99.15980    8.14160  105.31710    1.89470    1.65710    1.60650  -31.86950
 4900.00000   82.42120    8.28450  107.07110    1.47650    1.28290    1.22450  -33.80450
 4950.00000   87.21400    8.19190  112.08680    1.36050    1.16280    1.10450  -29.97810
 5000.00000   90.82780    8.31930  114.76650    1.39640    1.19260    1.14540  -34.28610
 5050.00000   78.41310    8.09820   86.03550    3.18540    3.11010    3.44840  -27.86070
 5100.00000  118.43600    8.27560   98.88080    1.89520    1.53850    1.59720  -27.10400
 5150.00000   77.57850    8.34670   94.25270    2.05240    1.92910    1.98760  -33.28820
 5200.00000   71.64210    8.12280   89.19510    3.76770    1.83250    1.86300  -27.45320
 5250.00000  104.33130    8.07030  100.30770    1.61650    1.40850    1.45710  -29.70450
 5300.00000  103.89960    8.15400  105.82030    1.22410    1.20860    1.15000  -26.39170
 5350.00000  110.25320    8.15020  104.76730    1.30710    1.16470    1.21400  -26.20620
 5400.00000  102.54950    8.22330  106.68140    1.32060    1.23070    1.27460  -27.29740
 5450.00000  114.67280    8.05180  110.56460    1.23720    1.15520    1.18220  -25.81040
 5500.00000   99.58390    8.05050   96.57440    1.81360    1.70630    1.76420  -27.33840
 5550.00000  147.27310    8.44660  109.91290    1.41170    1.20250    1.25950  -23.22250
 5600.00000  100.74060    8.43920   94.88860    2.10090    1.86240    1.93820  -28.56470
 5650.00000   94.48850    8.34180   97.49730    1.89900    1.66730    1.72290  -25.59740
 5700.00000   96.69930    8.37920   95.18010    1.89670    1.69090    1.74760  -30.10670
 5750.00000  126.08140    8.44610   99.83270    1.57640    1.33560    1.38710  -28.31300
 5800.00000   82.19460    8.29350   96.83690    1.95170    1.73980    1.79770  -27.24730
 5850.00000   97.83570    8.47780  103.48150    1.47000    1.04990    1.09970  -28.93600
 5900.00000   95.38390    8.52810  103.88520    1.48050    1.27110    1.31350  -29.24820
 5950.00000   84.57720    8.49630   99.68010    1.66270    1.41930    1.46670  -27.93380
 6000.00000   48.70320    8.35040   79.14890    3.72210    3.12940    3.43290  -36.66840
 6050.00000   50.38350    8.51680   85.00040    3.61230    2.73020    2.94460  -30.64860
 6100.00000   47.42700    8.95230   80.54170    3.97550    3.11900    3.61770  -32.77540
 6150.00000   39.00480    7.87270   77.46130    4.70720    3.63170    4.07790  -35.70050
 6200.00000   84.39330    8.26130   85.45560    3.67390    2.77040    3.10410  -23.22260
 6250.00000   90.87840    8.36510   87.19660    2.91940    2.45750    2.60630  -22.75520
 6300.00000   93.48110    8.31030   89.37380    2.77030    2.29070    2.37550  -25.20460
 6350.00000   76.17200    8.40930   88.64530    3.33340    2.51170    2.63630  -23.37460
 6400.00000   90.91000    8.49750   94.87380    1.98400    1.69490    1.76440  -24.68120
 6450.00000  102.50440    8.57450   96.31460    2.06040    1.59810    1.64530  -24.54840
 6500.00000   98.81290    8.56690   96.40060    2.06790    1.72180    1.79650  -26.75180
 6550.00000   90.94010    8.71220   97.27700    2.00540    1.64050    1.71740  -25.95300
 6600.00000   95.57800    8.69100   98.33860    2.02770    1.64120    1.69540  -27.79870
 6650.00000  101.23390    8.88300   97.16980    2.11560    1.67740    1.72420  -28.90160
 6700.00000   97.24650    9.30430   99.16370    2.00100    1.52820    1.57570  -27.84690
 6750.00000   97.73230    9.46800   95.17930    2.53650    1.85960    1.92360  -25.55510
 6800.00000   96.91700    8.61110   95.66190    2.44390    1.75330    1.83280  -25.49470
 6850.00000   80.70080    7.67550   96.52830    2.38750    1.72640    1.79100  -27.81320
 6900.00000   92.16190    8.37970   96.59470    2.50710    1.78720    1.83260  -35.96770
 6950.00000   99.53040    9.29100   95.18180    2.63380    1.89770    1.93780  -28.70140
 7000.00000   93.36860    7.90780   95.39330    2.49560    1.72710    1.82150  -35.53420
 7050.00000   92.17380    8.57560   92.79770    2.82080    1.94290    2.03300  -30.38500
 7100.00000   54.29420    8.64690   75.35770    8.82570    7.35580    9.06730  -54.95720
 7150.00000   66.90960    8.61270   72.81420    7.71100    6.61000    7.62540  -48.21030
 7200.00000   33.30360    8.68600   67.48250   12.92000    8.45990   10.39900  -61.09180
 7250.00000   54.57380    9.00970   70.98460    9.20300    6.60500    8.30170  -44.87240
 7300.00000   64.97120    6.66940  105.09540    2.68330    1.61810    1.32220  -27.27960
 7350.00000   95.45490    8.78800  100.08740    4.44330    3.16490    2.30480  -34.38930
 7400.00000   92.36550    8.74530   96.32030    7.69710    5.68660    5.79030  -38.87700
 7450.00000  110.66110    8.86870   91.96530   23.97780    9.61970   12.00570  -34.76510
 7500.00000   68.32440    8.65620  108.18090    4.50940    2.74780    2.12140  -38.41580
 7550.00000   87.43280    8.96700  102.03370    4.85440    3.13820    2.98770  -40.21000
 7600.00000   53.25150    8.68880   63.63190    6.99470    5.77300    6.78110  -38.49460
 7650.00000   39.87230    8.74690   60.75050   21.62670   11.94620   14.53300  -37.23560
 7700.00000   17.79760    8.68890   54.89310   33.95030   19.18370   27.82100  -73.66060
 7750.00000   24.60020    8.19590   55.47840   57.26430   19.42660   28.14600  -67.44410
 7800.00000   13.27090    8.80710   55.14680   30.39730   16.89170   24.89620  -78.83260
 7850.00000   25.35490    8.39710   59.78600   11.61220    7.03500    8.87300  -47.61710
 7900.00000   27.98510    8.49430   59.66070   18.84020   11.68930   17.24490  -75.98910
