~Version ---------------------------------------------------
VERS. 2.0 : CWLS log ASCII Standard -VERSION 2.0
WRAP.  NO : ONE LINE PER DEPTH STEP
~Well ------------------------------------------------------
STRT.F                  1750.0 : START DEPTH
STOP.F                  7050.0 : STOP DEPTH
STEP.F                50.00000 : STEP LENGTH
NULL.                  -999.25 : NULL VALUE
COMP.       INEXCO OIL COMPANY : COMPANY
WELL. GRAY GEORGIA M. ET AL #1 : WELL
FLD .                  WILDCAT : FIELD
LOC .                          : LOCATION
CNTY.                ROBERTSON : COUNTY
STAT.                    TEXAS : STATE
CTRY. UNITED STATES OF AMERICA : COUNTRY
SRVC.                          : SERVICE COMPANY
DATE.                          : LOGDATE
API .           42395302780000 : API NUMBER
UWI .           42395302780000 : UNIQUE WELL ID
SLAT.WGS84       30.9906071097 : SURFACE LATITUDE
SLON.WGS84      -96.5732273516 : SURFACE LONGITUDE
~Curve Information -----------------------------------------
DEPT.F                 : 
SP  .MV   07 010 01 00 : SPONTANEOUS POTENTIAL
GR  .GAPI 07 310 01 00 : GAMMA RAY
CALI.IN   07 280 01 00 : CALIPER
RILD.OHMM 07 120 46 00 : ILD
RILM.OHMM 07 120 44 00 : RAW MEDIUM INDUCTION
RFOC.OHMM 07 220 01 00 : RAW FOCUSED RES.
AC  .US/F 60 520 00 00 : 
~Params ----------------------------------------------------
EKB .F                  414.0 : KELLY BUSHING
EGL .F                    398 : ELEVATION GROUND LEVEL
EDF .F                    413 : ELEVATION DERRICK FLOOR
EPD .F                    398 : ELEVATION PERMANENT DATUM
TD  .F                 7066.0 : TOTAL DEPTH
DATE.             30-JUL-1982 : DATE LOGGED
CLNT.                 A2DTECH : CLIENT CODE
SL  . 3075' FSEL & 5750' FSWL : SURFACE LOCATION
PD  .                      GL : PERMANENT DATUM
DMF .                      KB : DRILLING MEASURED FROM
DAPD.F                     16 : FEET ABOVE PERMANENT DATUM
DD  .F                   7066 : DEPTH DRILLER
DL  .F                   7050 : DEPTH LOGGER
BLI .F                   2048 : BOTTOM LOG INTERVAL
CS1 .IN                 8.625 : CASING SIZE
CBD1.          8.625" @ 1252' : CASING DRILLER 1
BS1 .IN                 7.875 : BIT SIZE
BSD1.F                   7066 : DEPTH DRILLED WITH BIT1
DFT .                     GEL : TYPE FLUID IN HOLE
DFD .                     9.5 : DENSITY
TCS .HRS                   18 : TIME CIRC. STOPPED
LUN .                    6300 : LOGGING UNIT NUMBER
LUL .                   BRYAN : LOGGING UNIT LOCATION
ENGI.                  THOMAS : RECORDED BY
WITN.          MORRIS, COWARD : WITNESSED BY
ORIG.              2.5" PRINT : ORIGIN OF DATA
UWI .          42395302780000 : UNIQUE WELL ID
DICO.  A2D TECHNOLOGIES, INC. : DIGITIZING COMPANY
COUN.               ROBERTSON : COUNTY
LMF .                      KB : LOG MEASURED FROM
TLI .F                   1256 : TOP LOG INTERVAL
CBL1.F                   1256 : CASING LOGGER 1
DFV .                      36 : VISCOSITY
DFPH.                     9.5 : PH
DFL .                     6.0 : FLUID LOSS
MSS .                MUD TANK : SOURCE OF SAMPLE
RMS .OHMM                 2.2 : RM
RMF .OHMM                 1.7 : RMF
MFSS.                    CALC : SOURCE RMF.
RMC .OHMM                 2.8 : RMC
MCSS.                    CALC : SOURCE RMC.
RMB .OHMM                0.96 : RM. AT BHT
BHT .F                    192 : BHT.
~Other -----------------------------------------------------
~ASCII -----------------------------------------------------
 1750.00000  -20.70990   47.51540    -999.25    -999.25    -999.25    -999.25   57.90890
 1800.00000  -10.48350   84.47370    -999.25    2.99350    2.99500    2.87720  119.19400
 1850.00000   -6.41460   76.11460    -999.25    2.39670    2.45610    2.37190  121.05590
 1900.00000   -2.77980   81.37770    -999.25    2.05030    2.16210    2.23560  126.49080
 1950.00000   -4.07410   76.81100    -999.25    2.28060    2.20850    2.31640  118.57290
 2000.00000   -2.34470   82.77090    -999.25    1.76640    1.74800    2.01910  131.30440
 2050.00000   -1.48150   83.54420    -999.25    1.61080    1.56260    1.95780  129.28570
 2100.00000   -2.34570   91.90430    -999.25    1.59940    1.58300    1.98590  130.99380
 2150.00000   -2.13130  101.07590    -999.25    1.64940    1.60560    1.93020  128.19880
 2200.00000   -1.04560  100.49540    -999.25    1.29930    1.29820    1.81060  135.49600
 2250.00000   -1.26540   72.16610    -999.25    1.83020    1.86320    1.97180  113.91400
 2300.00000   -4.24860   65.20120    -999.25    1.89630    2.01420    2.31720  117.63980
 2350.00000   -0.17140   87.49130    -999.25    1.54360    1.46440    1.72270  120.74530
 2400.00000    0.24750   87.02790    -999.25    0.95960    0.97780    1.47160  134.25470
 2450.00000   -1.48150   99.33440    -999.25    1.80450    1.84350    2.13210  116.19040
 2500.00000   -0.61800   75.34060    -999.25    1.63780    1.67540    1.75980  121.15970
 2550.00000   -3.64200   85.78950    -999.25    1.63970    1.67540    2.02860  116.47530
 2600.00000   -0.61660   87.10530    -999.25    1.51110    1.44050    1.71050  123.53990
 2650.00000   -1.04940   77.50760    -999.25    1.63010    1.66350    1.83650  119.50310
 2700.00000   -0.47700   82.61610    -999.25    1.59930    1.61710    1.86270  117.12220
 2750.00000   -0.18520   85.05420    -999.25    1.07120    1.04220    1.50690  127.42510
 2800.00000   -1.66280   80.99070    -999.25    1.89630    1.86760    1.88950  117.12210
 2850.00000   -0.18520   75.18560    -999.25    1.96480    1.93040    2.17800  113.68010
 2900.00000   -4.50820   74.72210    -999.25    3.59130    3.26080    2.93560   93.72650
 2950.00000   -1.55350   54.51880    -999.25    2.86180    2.77060    2.63730  100.09330
 3000.00000    1.97500   79.83000    -999.25    1.45160    1.43360    1.57070  110.49710
 3050.00000    1.32720  100.72760    -999.25    1.16220    1.18400    1.35350  117.17390
 3100.00000    1.48180   91.28480    -999.25    1.31430    1.28010    1.59310  113.18840
 3150.00000    2.40770   95.15410    -999.25    1.02280    1.05960    1.39540  124.47200
 3200.00000    2.53340  106.60990    -999.25    0.81510    0.86070    1.16810  129.13040
 3250.00000    0.24830   96.54800    -999.25    1.08550    1.14330    1.51050  116.21640
 3300.00000    2.40860   91.43960    -999.25    1.60700    1.65180    1.76000  106.77020
 3350.00000    1.75910   96.89630    -999.25    1.54370    1.54970    1.61030  109.90160
 3400.00000    2.11850   89.89180    -999.25    1.38780    1.35450    1.63910  113.29170
 3450.00000    1.11110  101.03710    -999.25    1.41940    1.36580    1.67440  113.39550
 3500.00000    2.83780   91.74920    -999.25    1.02770    1.00360    1.44230  121.67700
 3550.00000   -0.40120   84.24150    -999.25    1.34440    1.42340    1.61600  110.72970
 3600.00000    2.24660   88.18960    -999.25    1.18720    1.20370    1.54750  117.01860
 3650.00000    1.32720   86.87310    -999.25    1.05110    1.10040    1.39360  117.48470
 3700.00000    0.68050   84.47300    -999.25    1.06740    1.06460    1.46290  116.55280
 3750.00000    2.19140   85.63470    -999.25    1.02280    1.06710    1.38210  118.10570
 3800.00000   -1.48150   42.98760    -999.25    2.86190    2.91140    2.62010   90.15530
 3850.00000   -2.99380   41.13000    -999.25    2.64700    2.67100    2.63900   89.06840
 3900.00000   -4.50620   41.59440    -999.25    3.39320    3.27640    2.93570   83.47830
 3950.00000   -6.45080   68.21980    -999.25    2.60970    2.59940    2.56480   89.53390
 4000.00000   -4.81460   80.75850    8.88160    1.97880    1.93040    1.91650   97.60870
 4050.00000   -0.40120   84.00780    9.86290    1.59940    1.60950    1.79780  102.81060
 4100.00000   -1.04940   93.14210   10.56390    1.29290    1.49580    1.46990  106.09720
 4150.00000    0.46300   90.12420   10.88580    1.37800    1.47480    1.53750  106.14910
 4200.00000   -0.90540   88.18890   10.46010    1.53270    1.56080    1.66260  100.86960
 4250.00000   -0.83330   95.73540   10.39260    1.57690    1.56080    1.74740  102.16380
 4300.00000   -0.62040   88.49880   10.62620    1.40960    1.40680    1.64690  104.28570
 4350.00000    0.21130   84.70640   11.48290    1.22140    1.27090    1.48390  107.85710
 4400.00000    0.24690   86.02180   11.18690    1.40760    1.41340    1.57070  103.35400
 4450.00000   -2.77780   88.42110   10.09660    1.45850    1.46260    1.69850  103.19880
 4500.00000   -1.05070   88.34330   10.22120    1.42770    1.43360    1.61580  104.33750
 4550.00000   -0.83330   81.84210   11.10640    1.29270    1.28900    1.49450  106.77020
 4600.00000    1.11110   87.87930   11.56070    1.27450    1.27990    1.50500  105.21740
 4650.00000   -1.26540   89.81410   11.39460    1.31120    1.31670    1.49450  104.28570
 4700.00000   -2.77780   89.11670   11.49840    1.32990    1.39020    1.49810  103.66560
 4750.00000  -10.12350   87.10540   10.56390    1.46890    1.52790    1.72270  100.40370
 4800.00000  -10.55560   78.59160   10.79750    1.42770    1.47480    1.83650  101.12820
 4850.00000  -12.64340   75.88110   10.00310    2.01780    1.99300    2.01210   92.95030
 4900.00000  -17.96820   43.60390    9.00620    3.69480    3.45110    2.93260   74.16270
 4950.00000  -38.42540   18.14520    8.82710    6.11630    5.97740    5.60620   68.96020
 5000.00000  -36.26520   38.96290    9.19290    5.44610    5.20450    4.11100   74.78260
 5050.00000  -31.62040   22.24460    9.39560    5.42010    5.31060    4.11960   69.81370
 5100.00000  -14.44440   74.56660   10.87540    1.87900    1.68570    2.18160   89.37890
 5150.00000  -15.74070   87.64580   13.08460    1.06730    1.08360    1.66250  107.85790
 5200.00000  -14.87650   79.36530   14.14620    1.22140    1.24420    1.94390  103.19880
 5250.00000  -15.74110   77.04410   14.42670    1.45160    1.44370    2.06500  101.95620
 5300.00000  -17.90120   88.65400   12.86920    1.48630    1.61330    2.13720  100.14600
 5350.00000  -19.19750   94.76750    9.58260    3.16110    3.37850    4.12410  101.80120
 5400.00000  -19.62960  103.28010   10.13810    4.38160    4.26810    4.12900   97.66060
 5450.00000  -20.49420   61.71750   15.75080    0.97340    0.94380    1.80630  105.76090
 5500.00000  -24.38270   55.67970   13.08720    3.02910    2.52670    3.43250   91.29380
 5550.00000  -30.64710    9.82170   11.10900   26.31450   19.31610   22.56870   58.58180
 5600.00000  -21.79010   39.19480   12.66660    7.09810    5.66680    5.26640   65.46660
 5650.00000  -22.22220   31.02980   12.61990    6.51810    7.36610    6.25070   61.89450
 5700.00000  -44.83540   13.18890   10.68850   20.32310   21.79420   22.40850   55.29460
 5750.00000  -38.85800   18.99310   10.42370   24.22340   17.35810   11.73680   58.24650
 5800.00000  -29.56790   24.56510    9.97170   13.34830   11.50790    8.33240   60.08270
 5850.00000  -43.10670   18.99340    9.72270   25.52400   20.97010   18.86490   58.01050
 5900.00000  -30.00000  184.78520   10.09660   13.06560   14.43750   13.62720   76.07660
 5950.00000  -37.12960   33.77790   10.37690   11.74890    8.98130    8.73920   59.88940
 6000.00000 -101.29630   13.42110    7.63530    3.70050    6.38600    8.13600   65.00000
 6050.00000  -49.87650   24.87600    9.59820   32.94490   21.98320   19.34880   54.59630
 6100.00000  -33.88890   38.18810    9.94080   16.41110   14.23500   14.65310   56.92550
 6150.00000  -33.13250   38.15020    9.60330   17.07230   15.27800   15.48840   56.96430
 6200.00000  -28.70370   67.29100   12.86900    1.98840    2.14950    2.97760   88.75780
