~Version ---------------------------------------------------
VERS.      2.0 : CWLS log ASCII Standard -VERSION 2.0
WRAP.      YES : Multiple lines per depth step
CREA. 07/21/20 : LAS Creation Date
~Well ------------------------------------------------------
STRT.FT                  2100.0 : START DEPTH
STOP.FT                  6200.0 : STOP DEPTH
STEP.FT                50.00000 : STEP LENGTH
NULL.                   -999.25 : NULL VALUE
COMP. EVERGREEN OIL CORPORATION : COMPANY
WELL.         VICKERS OLYN P #1 : WELL
FLD .                      COST : FIELD
LOC .                           : LOCATION
CNTY.                  GONZALES : COUNTY
STAT.                     TEXAS : STATE
CTRY.  UNITED STATES OF AMERICA : COUNTRY
SRVC.              Schlumberger : SERVICE COMPANY
DATE.               11-Mar-1981 : LOGDATE
API .            42177308050000 : API NUMBER
UWI .            42177308050000 : UNIQUE WELL ID
SLAT.WGS84         29.460506946 : SURFACE LATITUDE
SLON.WGS84       -97.5902132456 : SURFACE LONGITUDE
~Curve Information -----------------------------------------
DEPT    .FT    : DEPTH FEET
BITSED  .IN    : BITS SIZE
CALRED  .IN    : CALIPER FROM DIL-SFL-FDC-CNL LOG
CALWS   .IN    : CALIPER [TOP DCALRED+BITS 5580', CALRDED TD]
CONDWS  .MMHO  : CONDUCTIVITY [1000/DRESWS]
DCALRED .IN    : DIFFERENTIAL CALIPER FROM DIL-SFL-FDC-CNL LOG
DCORWS  .G/C3  : DENSITY CORRECTION [DRHOED]
DENWS   .G/C3  : FORMATION BULK DENSITY [CALC. FROM DPOLSWS M=2.71, F=1.0]
DPHILSED.V/V   : DENSITY POROSITY LIMESTONE [M=2.71, F=1.0] FROM DIL-SFL-FDC-CNL LOG
DPHISSED.V/V   : DENSITY POROSITY SANDSTONE [M=2.68, F=1.0] FROM DIL-SFL-FDC-CNL LOG
DPOLSWS .V/V   : DENSITY POROSITY LIMESTONE [TOP DPHISSED MATRIX CONVERSION TO LIMESTONE (M=2.71,F=1.0) 5580', DPHILSED TD]
DRESWS  .OHMM  : DEEP RESISTIVITY [ILDED]
DRHOED  .G/C3  : DENSITY CORRECTION FROM DIL-SFL-FDC-CNL LOG
GRRED   .GAPI  : GAMMA RAY FROM DIL-SFL-FDC-CNL LOG
GRWS    .GAPI  : GAMMA RAY [GRRED]
ILDED   .OHMM  : DEEP INDUCTION RESISTIVITY FROM DIL-SFL-FDC-CNL LOG
ILMED   .OHMM  : MEDIUM INDUCTION RESISTIVITY FROM DIL-SFL-FDC-CNL LOG
MRESWS  .OHMM  : MEDIUM RESISTIVITY [ILMED]
NPHILSED.V/V   : NEUTRON POROSITY LIMESTONE FROM DIL-SFL-FDC-CNL LOG
NPHISSED.V/V   : NEUTRON POROSITY SANDSTONE FROM DIL-SFL-FDC-CNL LOG
NPOLSWS .V/V   : NEUTRON POROSITY LIMESTONE [TOP NPHISSED MATRIX CONVERSION TO LIMESTONE (SBL) 5580', NPHILSED TD]
RHOBED  .G/C3  : BULK DENSITY FROM DIL-SFL-FDC-CNL LOG
SFLUED  .OHMM  : SHALLOW FOCUSED RESISTIVITY FROM DIL-SFL-FDC-CNL LOG
SPRED   .MV    : SPONTANEOUS POTENTIAL FROM DIL-SFL-FDC-CNL LOG
SPWS    .MV    : SPONTANEOUS POTENTIAL [BASELINE 0MV, SPRED]
SRESWS  .OHMM  : SHALLOW RESISTIVITY [SFLUED]
~Params ----------------------------------------------------
PD  .                     GL : PERMANENT DATUM
EPD .FT                  404 : ELEVATION PERMANENT DATUM
LMF .                     KB : LOG MEASURED FROM
DAPD.FT                   12 : FEET ABOVE PERMANENT DATUM
DMF .                     KB : DRILLING MEASURED FROM
EKB .FT                  416 : KELLY BUSHING
EDF .FT                  415 : DRILLING FLOOR
EGL .FT                  404 : GROUND LEVEL
DATE.               03/11/81 : RUN DATE
RUN .                      1 : RUN NUMBER
DD  .FT                 6215 : DEPTH DRILLER
DL  .FT                 6215 : DEPTH LOGGER
BLI .FT                 6138 : BOTTOM LOG INTERVAL
TLI .FT                 2068 : TOP LOG INTERVAL
CS  .IN                8.625 : CASING SIZE
CBD .FT                 2054 : CASING BOTTOM DRILLER
CBL .FT                 2068 : CASING BOTTOM LOGGER
BS  .IN                7.875 : BIT SIZE
BSD .FT                 6215 : BIT SIZE AT DEPTH
MST .DEGF                 75 : MUD SAMPLE TEMPERATURE
MFST.DEGF                 75 : MUD FILTRATE SAMPLE TEMPERATURE
MCST.DEGF                 75 : MUD CAKE SAMPLE TEMPERATURE
WITN.                  EVANS : WITNESSED BY
CLNT.                A2DTECH : CLIENT CODE
ORIG.            1" 5" PRINT : ORIGIN OF DATA
UWI .         42177308050000 : UNIQUE WELL ID
DICO. A2D Technologies, Inc. : DIGITIZING COMPANY
~Other -----------------------------------------------------
DIL-SFL-FDC-CNL TOOL RUN
~ASCII -----------------------------------------------------
# ...
 3500.00000    7.87500    -999.25    8.08200  351.74110    0.20700    0.08800    2.34060    -999.25    0.20200    0.21600    2.84300    0.08800  100.07700  100.07700    2.84300    2.90200    2.90200    -999.25    0.39000    0.34690    -999.25    3.03100   -5.78100   -2.55890    3.03100
 3550.00000    7.87500    -999.25    7.42000  303.49010   -0.45500   -0.00600    2.25160    -999.25    0.25500    0.26810    3.29500   -0.00600   93.55200   93.55200    3.29500    3.88500    3.88500    -999.25    0.39100    0.34800    -999.25    6.14600  -26.18800  -22.83700    6.14600
 3600.00000    7.87500    -999.25    8.11200  550.05500    0.23700    0.09300    2.20460    -999.25    0.28300    0.29560    1.81800    0.09300  100.70000  100.70000    1.81800    1.87200    1.87200    -999.25    0.43600    0.39390    -999.25    1.89000   -5.79000   -2.57220    1.89000
 3650.00000    7.87500    -999.25    7.53700  437.25400   -0.33800    0.07500    2.32050    -999.25    0.21400    0.22780    2.28700    0.07500  101.20200  101.20200    2.28700    2.35400    2.35400    -999.25    0.43200    0.38980    -999.25    2.27500   -5.53700   -2.45240    2.27500
 3700.00000    7.87500    -999.25    9.71900  426.98550    1.84400    0.09900    2.30030    -999.25    0.22600    0.23960    2.34200    0.09900   91.94000   91.94000    2.34200    2.38700    2.38700    -999.25    0.41600    0.37350    -999.25    2.27500   -4.09300   -1.14160    2.27500
 3750.00000    7.87500    -999.25   10.08500  349.40600    2.21000    0.02300    2.43810    -999.25    0.14400    0.15900    2.86200    0.02300   99.84200   99.84200    2.86200    2.75900    2.75900    -999.25    0.30700    0.26300    -999.25    2.60400   -4.51500   -1.69680    2.60400
 3800.00000    7.87500    -999.25    9.83500  531.91490    1.96000    0.03000    2.39940    -999.25    0.16700    0.18160    1.88000    0.03000  102.51800  102.51800    1.88000    1.91800    1.91800    -999.25    0.37600    0.33270    -999.25    1.91600   -4.51500   -1.83000    1.91600
 3850.00000    7.87500    -999.25   10.75200  656.59880    2.87700    0.02400    2.37930    -999.25    0.17900    0.19340    1.52300    0.02400   99.65600   99.65600    1.52300    1.55700    1.55700    -999.25    0.41400    0.37140    -999.25    1.65000   -4.32100   -1.76910    1.65000
 3900.00000    7.87500    -999.25   11.42900  688.70520    3.55400    0.01300    2.36080    -999.25    0.19000    0.20420    1.45200    0.01300  101.28300  101.28300    1.45200    1.49600    1.49600    -999.25    0.44700    0.40520    -999.25    1.51800   -7.46800   -5.04930    1.51800
 3950.00000    7.87500    -999.25   10.31300  748.50300    2.43800    0.02400    2.32550    -999.25    0.21100    0.22480    1.33600    0.02400  102.46300  102.46300    1.33600    1.37600    1.37600    -999.25    0.43000    0.38780    -999.25    1.46600   -7.33400   -5.04850    1.46600
 4000.00000    7.87500    -999.25   10.19100  686.81320    2.31600    0.09200    2.25160    -999.25    0.25500    0.26810    1.45600    0.09200   95.97500   95.97500    1.45600    1.49800    1.49800    -999.25    0.47600    0.43520    -999.25    1.53800   -6.18000   -4.02770    1.53800
 4050.00000    7.87500    -999.25    9.47300  865.80090    1.59800    0.04100    2.30870    -999.25    0.22100    0.23470    1.15500    0.04100  102.91300  102.91300    1.15500    1.19000    1.19000    -999.25    0.45100    0.40930    -999.25    1.25200   -4.99600   -2.97690    1.25200
 4100.00000    7.87500    -999.25    9.98100  662.25170    2.10600    0.09500    2.28860    -999.25    0.23300    0.24650    1.51000    0.09500   83.52800   83.52800    1.51000    1.55400    1.55400    -999.25    0.37100    0.32760    -999.25    1.62900   -5.63600   -3.75340    1.62900
 4150.00000    7.87500    -999.25   10.06500  939.84960    2.19000    0.09500    2.31380    -999.25    0.21800    0.23170    1.06400    0.09500   78.19600   78.19600    1.06400    1.13700    1.13700    -999.25    0.40000    0.35710    -999.25    1.21900   -2.91300   -1.16750    1.21900
 4200.00000    7.87500    -999.25    7.50800  342.81800   -0.36700   -0.00000    2.43810    -999.25    0.14400    0.15900    2.91700   -0.00000   76.20500   76.20500    2.91700    3.09800    3.09800    -999.25    0.29100    0.24700    -999.25    3.85100   -4.90500   -3.29660    3.85100
 4250.00000    7.87500    -999.25    8.14600  449.84260    0.27100    0.06100    2.35740    -999.25    0.19200    0.20620    2.22300    0.06100   94.03800   94.03800    2.22300    2.28700    2.28700    -999.25    0.35500    0.31140    -999.25    2.25400   -3.53700   -2.06570    2.25400
 4300.00000    7.87500    -999.25    9.85500  816.32650    1.98000    0.07100    2.29190    -999.25    0.23100    0.24450    1.22500    0.07100   77.11700   77.11700    1.22500    1.30400    1.30400    -999.25    0.46000    0.41860    -999.25    1.29500   -4.93700   -3.60280    1.29500
 4350.00000    7.87500    -999.25    7.75100  453.30920   -0.12400    0.07400    2.19620    -999.25    0.28800    0.30050    2.20600    0.07400   68.95100   68.95100    2.20600    2.28200    2.28200    -999.25    0.41800    0.37550    -999.25    2.21700   -9.22700   -8.02990    2.21700
 4400.00000    7.87500    -999.25    7.96700  476.64440    0.09200    0.09700    2.38260    -999.25    0.17700    0.19140    2.09800    0.09700   66.93000   66.93000    2.09800    2.32800    2.32800    -999.25    0.33700    0.29320    -999.25    3.21900  -13.40200  -12.34200    3.21900
 4450.00000    7.87500    -999.25    9.73500  591.01650    1.86000    0.09700    2.40950    -999.25    0.16100    0.17570    1.69200    0.09700   75.15800   75.15800    1.69200    1.86200    1.86200    -999.25    0.35800    0.31450    -999.25    2.01500   -5.24900   -4.32610    2.01500
 4500.00000    7.87500    -999.25   10.80900  604.59490    2.93400    0.09900    2.35070    -999.25    0.19600    0.21010    1.65400    0.09900   76.74100   76.74100    1.65400    1.70200    1.70200    -999.25    0.38500    0.34180    -999.25    1.85800   -4.25800   -3.47220    1.85800
 4550.00000    7.87500    -999.25   10.51900  825.76380    2.64400    0.08800    2.21970    -999.25    0.27400    0.28670    1.21100    0.08800   88.97600   88.97600    1.21100    1.27200    1.27200    -999.25    0.49200    0.45180    -999.25    1.42500   -4.86200   -4.21330    1.42500
 4600.00000    7.87500    -999.25   10.70900  717.87510    2.83400    0.10100    2.21970    -999.25    0.27400    0.28670    1.39300    0.10100   73.37600   73.37600    1.39300    1.47500    1.47500    -999.25    0.41300    0.37040    -999.25    1.64200   -5.78100   -5.24170    1.64200
 4650.00000    7.87500    -999.25   10.83800  588.23530    2.96300    0.10400    2.43470    -999.25    0.14600    0.16100    1.70000    0.10400   75.35400   75.35400    1.70000    1.77500    1.77500    -999.25    0.36700    0.32360    -999.25    2.03100   -3.98600   -3.54050    2.03100
 4700.00000    7.87500    -999.25    9.45000  677.96610    1.57500    0.10000    2.30870    -999.25    0.22100    0.23470    1.47500    0.10000   81.99700   81.99700    1.47500    1.56000    1.56000    -999.25    0.39000    0.34690    -999.25    1.65100   -4.93700   -4.58520    1.65100
 4750.00000    7.87500    -999.25    9.83500  590.31880    1.96000    0.10200    2.39940    -999.25    0.16700    0.18160    1.69400    0.10200   78.94800   78.94800    1.69400    1.76400    1.76400    -999.25    0.38300    0.33980    -999.25    1.89400   -7.46800   -7.21000    1.89400
 4800.00000    7.87500    -999.25    9.07300  613.87350    1.19800    0.09900    2.32890    -999.25    0.20900    0.22290    1.62900    0.09900   72.49900   72.49900    1.62900    1.70800    1.70800    -999.25    0.45600    0.41450    -999.25    1.80700   -6.84900   -6.68480    1.80700
 4850.00000    7.87500    -999.25    7.99000  391.84950    0.11500    0.01300    2.49690    -999.25    0.10900    0.12460    2.55200    0.01300   65.68900   65.68900    2.55200    2.67700    2.67700    -999.25    0.32300    0.27910    -999.25    2.62600   -3.94800   -3.87760    2.62600
