~Version ---------------------------------------------------
VERS.      2.0 : CWLS log ASCII Standard -VERSION 2.0
WRAP.      YES : Multiple lines per depth step
CREA. 08/18/12 : LAS Creation Date
~Well ------------------------------------------------------
STRT.FT                 2900.0 : START DEPTH
STOP.FT                17850.0 : STOP DEPTH
STEP.FT               50.00000 : STEP LENGTH
NULL.                  -999.25 : NULL VALUE
COMP. AMOCO PRODUCTION COMPANY : COMPANY
WELL.   JIMMY HILL GAS UNIT #1 : WELL
FLD .                  WILDCAT : FIELD
LOC .                          : LOCATION
CNTY.                     LEON : COUNTY
STAT.                    TEXAS : STATE
CTRY. UNITED STATES OF AMERICA : COUNTRY
SRVC.             Schlumberger : SERVICE COMPANY
DATE.              04-Jun-1996 : LOGDATE
API .           42289312310000 : API NUMBER
UWI .           42289312310000 : UNIQUE WELL ID
SLAT.WGS84       31.2538599246 : SURFACE LATITUDE
SLON.WGS84      -96.2196025838 : SURFACE LONGITUDE
~Curve Information -----------------------------------------
DEPT    .FT                                                                                                : DEPTH FEET
AO10ED  .OHMM                                                                                              : ARRAY INDUCTION ONE FOOT RESISTIVITY A10 FROM AIT-PI-DITE-LDT-CNT LOG
AO20ED  .OHMM                                                                                              : ARRAY INDUCTION ONE FOOT RESISTIVITY A20 FROM AIT-PI-DITE-LDT-CNT LOG
AO30ED  .OHMM                                                                                              : ARRAY INDUCTION ONE FOOT RESISTIVITY A30 FROM AIT-PI-DITE-LDT-CNT LOG
AO60ED  .OHMM                                                                                              : ARRAY INDUCTION ONE FOOT RESISTIVITY A60 FROM AIT-PI-DITE-LDT-CNT LOG
AO90ED  .OHMM                                                                                              : ARRAY INDUCTION ONE FOOT RESISTIVITY A90 FROM AIT-PI-DITE-LDT-CNT LOG
CALSED  .IN                                                                                                : CALIPER FROM BCS-CALIPER-GR LOG [ADJ. TO GRRED]
CALWS   .IN                                                                                                : CALIPER [DCALED+BITS]
CONDWS  .MMHO                                                                                              : CONDUCTIVITY [1000/DRESWS]
DCALED  .IN                                                                                                : DIFFERENTIAL CALIPER FROM AIT-PI-DITE-LDT-CNT LOG
DCORWS  .G/C3                                                                                              : DENSITY CORRECTION [DRHED SPL. TO DRHOED @ 10860']
DENWS   .G/C3 :   FORMATION BULK DENSITY [RHOMED, DENWS CALCULATED FROM DPOWS FROM 7004'-10889'] [M:2.71,F : 1.0]
DPHILSED.V/V                                                      :   DENSITY POROSITY LIMESTONE [M:2.71,F : 1.0] FROM AIT-PI-DITE-LDT-CNT LOG
DPOLSED .V/V                                                                                               : DENSITY POROSITY LIMESTONE FROM HOSTILE LDL-CN-GR LOG
DPOWS   .V/V                                                                                               : DENSITY POROSITY [DPHILSED SPL. TO DPOLSED @ 10852']
DRESWS  .OHMM                                                                                              : DEEP RESISTIVITY [AO30ED SPL. TO IDPHED]
DRHED   .G/C3                                                                                              : BULK DENSITY CORRECTION FROM HOSTILE LDL-CN-GR LOG
DRHOED  .G/C3                                                                                              : BULK DENSITY CORRECTION FROM AIT-PI-DITE-LDT-CNT LOG
DTED    .US/F                                                                                              : DELTA T FROM BCS-CALIPER-GR LOG [ADJ. TO GRRED/NPHILSED]
DTLFED  .US/F                                                                                              : DELTA-T LONG SPACING FAR FROM AIT-PI-DITE-LDT-CNT-PI-LSS-GR LOG
DTLNED  .US/F                                                                                              : DELTA-T LONG SPACING NEAR FROM AIT-PI-DITE-LDT-CNT-PI-LSS-GR LOG
DTWS    .US/F                                                                                              : COMPRESSIONAL SONIC [DTED SPL. TO DTLNED @ 10865.5'-15946.5']
GRRED   .GAPI                                                                                              : GAMMA RAY FROM AIT-PI-DITE-LDT-CNT LOG
GRSED   .GAPI                                                                                              : GAMMA RAY FROM BCS-CALIPER-GR-PI-LSS LOG [ADJ. TO GRRED]
GRWS    .GAPI                                                                                              : GAMMA RAY [GRRED]
IDPHED  .OHMM                                                                                              : DEEP INDUCTION PHASOR FROM AIT-PI-DITE-LDT-CNT- PI-LSS-GR LOG
LCALED  .IN                                                                                                : LOWER CALIPER FROM HOSTILE LDL-CN-GR LOG
MRESWS  .OHMM                                                                                              : MEDIUM RESISTIVITY [AO30ED]
NPHILSED.V/V                                                                                               : NEUTRON POROSITY LIMESTONE FROM AIT-PI-DITE-LDT-CNT LOG
NPOWS   .V/V                                                                                               : NEUTRON POROSITY [NPHILSED]
PEFED   .B/E                                                                                               : PHOTOELECTRIC FACTOR FROM AIT-PI-DITE-LDT-CNT LOG
PEFLED  .B/E                                                                                               : HLDT PEF LONG SPACING FROM HOSTILE LDL-CN-GR LOG
PEFSED  .B/E                                                                                               : SHORT SPACED CORRECTED PHOTOELECTRIC FACTOR FROM HOSTILE LDL-CN-GR LOG
PEFWS   .B/E                                                                                               : PHOTOELECTRIC FACTOR [PEFED SPL. TO PEFSED @ 10847.5']
RHOMED  .G/C3                                                                                              : CORRECTED BULK DENSITY FROM HOSTILE LDL-CN-GR LOG
SPRED   .MV                                                                                                : SPONTANEOUS POTENTIAL  FROM AIT-PI-DITE-LDT-CNT LOG
SPWS    .MV                                                                                                : SPONTANEOUS POTENTIAL [BASELINE 0, MV SPRED]
SRESWS  .OHMM                                                                                              : SHALLOW RESISTIVITY [AO10ED]
TENDED  .LBF                                                                                               : DIFFERENTIAL TENSION FROM HOSTILE LDL-CN-GR LOG
TENRED  .LBF                                                                                               : TENSION FROM AIT-PI-DITE-LDT-CNT LOG
TENSED  .LBF                                                                                               : TOTAL TENSION FROM BCS-CALIPER-GR LOG [ADJ. TO GRRED]
~Params ----------------------------------------------------
PD  .                     GL : PERMANENT DATUM
EPD .FT                 3759 : ELEVATION PERMANENT DATUM
LMF .                     KB : LOG MEASURED FROM
DAPD.FT                 37.2 : FEET ABOVE PERMANENT DATUM
DMF .                     KB : DRILLING MEASURED FROM
EKB .FT                 4131 : KELLY BUSHING
EDF .FT                 4121 : DRILLING FLOOR
EGL .FT                 3759 : GROUND LEVEL
DATE.               06/04/96 : RUN DATE
RUN .                      4 : RUN NUMBER
DD  .FT                17800 : DEPTH DRILLER
DL  .FT                17800 : DEPTH LOGGER
BLI .FT                17797 : BOTTOM LOG INTERVAL
TLI .FT                15944 : TOP LOG INTERVAL
CS  .IN                    7 : CASING SIZE
CBD .FT                15950 : CASING BOTTOM DRILLER
CBL .FT                15944 : CASING BOTTOM LOGGER
BS  .IN                5.875 : BIT SIZE
BSD .FT                17800 : BIT SIZE AT DEPTH
DFT .              OIL BASED : DRILLING FLUID TYPE
DFD .                     18 : DRILLING FLUID DENSITY
DFV .                     88 : DRILLING FLUID VISCOSITY
RMC .OHMM      OIL BASED MUD : RESISTIVITY MUD CAKE
MCST.DEGF      OIL BASED MUD : MUD CAKE SAMPLE TEMPERATURE
TCS .HRS                2100 : TIME CIRCULATED STOPPED
TLAB.HRS                1500 : TIME LOGGER AT BOTTOM
LUN .                   2019 : LOGGING UNIT NUMBER
LUL .                  TYLER : LOGGING UNIT LOCATION
ENGI.                 FERRIS : RECORDING ENGINEER
WITN.              MCGINNUSS : WITNESSED BY
CLNT.                A2DTECH : CLIENT CODE
ORIG.               5' PRINT : ORIGIN OF DATA
UWI .         42289312310000 : UNIQUE WELL ID
DICO. A2D Technologies, Inc. : DIGITIZING COMPANY
~Other -----------------------------------------------------
~ASCII -----------------------------------------------------
# ...
 5600.00000    1.16800    1.16950    1.23010    1.26600    1.26540   17.77600   18.77850  790.26390    6.52850    -999.25    -999.25    -999.25    -999.25    -999.25    1.26540    -999.25    -999.25  109.96380    -999.25    -999.25  109.96380   86.32540   85.00320   86.32540    -999.25    -999.25    1.23010    -999.25    -999.25    -999.25    -999.25    -999.25    -999.25    -999.25  -49.06540   -9.65270    1.16800    -999.25 2224.60520 2311.90500
 5650.00000    0.90740    0.93200    0.96520    0.99300    0.99240   19.84630   20.15170 1007.65820    7.90170    -999.25    -999.25    -999.25    -999.25    -999.25    0.99240    -999.25    -999.25  127.78110    -999.25    -999.25  127.78110   92.49790   76.97580   92.49790    -999.25    -999.25    0.96520    -999.25    -999.25    -999.25    -999.25    -999.25    -999.25    -999.25  -45.78180   -6.26800    0.90740    -999.25 2282.14040 2301.51610
 5700.00000    2.92390    2.82900    2.63140    2.31550    2.37080   17.68360   16.66840  421.79850    4.41840    -999.25    -999.25    -999.25    -999.25    -999.25    2.37080    -999.25    -999.25   88.31260    -999.25    -999.25   88.31260   67.81970   72.91370   67.81970    -999.25    -999.25    2.63140    -999.25    -999.25    -999.25    -999.25    -999.25    -999.25    -999.25  -46.74920   -7.13420    2.92390    -999.25 2234.26200 2355.04980
 5750.00000    1.33990    1.32790    1.29520    1.25790    1.24110   19.66920   20.37360  805.73680    8.12360    -999.25    -999.25    -999.25    -999.25    -999.25    1.24110    -999.25    -999.25  103.66230    -999.25    -999.25  103.66230   82.15170   88.88690   82.15170    -999.25    -999.25    1.29520    -999.25    -999.25    -999.25    -999.25    -999.25    -999.25    -999.25  -46.04660   -6.33050    1.33990    -999.25 2214.72900 2358.46530
 5800.00000    1.30350    1.31440    1.26630    1.24280    1.23520   19.90980   20.25350  809.58550    8.00350    -999.25    -999.25    -999.25    -999.25    -999.25    1.23520    -999.25    -999.25  112.15450    -999.25    -999.25  112.15450   85.33790   82.81850   85.33790    -999.25    -999.25    1.26630    -999.25    -999.25    -999.25    -999.25    -999.25    -999.25    -999.25  -44.45270   -4.63540    1.30350    -999.25 2289.24850 2282.80200
 5850.00000    2.83360    2.79750    2.37200    2.24910    2.09610   16.46310   15.79980  477.07650    3.54980    -999.25    -999.25    -999.25    -999.25    -999.25    2.09610    -999.25    -999.25   88.18600    -999.25    -999.25   88.18600   76.93060   81.50440   76.93060    -999.25    -999.25    2.37200    -999.25    -999.25    -999.25    -999.25    -999.25    -999.25    -999.25  -43.85990   -3.94150    2.83360    -999.25 2278.31470 2383.69630
 5900.00000    2.61440    2.58460    2.40140    2.29580    2.30690   17.24860   16.53960  433.48220    4.28960    -999.25    -999.25    -999.25    -999.25    -999.25    2.30690    -999.25    -999.25  103.69430    -999.25    -999.25  103.69430   83.93480   91.02640   83.93480    -999.25    -999.25    2.40140    -999.25    -999.25    -999.25    -999.25    -999.25    -999.25    -999.25  -43.13430   -3.11480    2.61440    -999.25 2311.20970 2392.74660
 5950.00000    3.07040    2.95020    3.01470    2.77730    2.75070   16.55930   15.93040  363.54380    3.68040    -999.25    -999.25    -999.25    -999.25    -999.25    2.75070    -999.25    -999.25   96.82330    -999.25    -999.25   96.82330   92.59560   81.23010   92.59560    -999.25    -999.25    3.01470    -999.25    -999.25    -999.25    -999.25    -999.25    -999.25    -999.25  -43.11160   -2.99090    3.07040    -999.25 2315.02640 2414.15700
 6000.00000    4.61880    5.13340    4.15740    3.65020    3.52690   17.89590   17.24460  283.53510    4.99460    -999.25    -999.25    -999.25    -999.25    -999.25    3.52690    -999.25    -999.25   75.10880    -999.25    -999.25   75.10880   52.59550   59.32940   52.59550    -999.25    -999.25    4.15740    -999.25    -999.25    -999.25    -999.25    -999.25    -999.25    -999.25  -48.66560   -8.44380    4.61880    -999.25 2347.42360 2428.86940
 6050.00000    2.14760    1.75900    1.97770    2.09600    1.82580   20.64560   21.36570  547.70510    9.11570    -999.25    -999.25    -999.25    -999.25    -999.25    1.82580    -999.25    -999.25  100.36820    -999.25    -999.25  100.36820   57.20880   62.29090   57.20880    -999.25    -999.25    1.97770    -999.25    -999.25    -999.25    -999.25    -999.25    -999.25    -999.25  -50.30950   -9.98660    2.14760    -999.25 2395.23970 2428.75100
 6100.00000    1.37080    1.48570    1.43410    1.37880    1.51870   22.31950   22.84950  658.45790   10.59950    -999.25    -999.25    -999.25    -999.25    -999.25    1.51870    -999.25    -999.25  110.44880    -999.25    -999.25  110.44880   60.98860   64.79200   60.98860    -999.25    -999.25    1.43410    -999.25    -999.25    -999.25    -999.25    -999.25    -999.25    -999.25  -46.06580   -5.64170    1.37080    -999.25 2360.03660 2458.65990
 6150.00000    1.88040    2.07080    1.66210    1.72220    1.57190   21.63280   21.76890  636.17280    9.51890    -999.25    -999.25    -999.25    -999.25    -999.25    1.57190    -999.25    -999.25   92.53860    -999.25    -999.25   92.53860   54.83700   67.74980   54.83700    -999.25    -999.25    1.66210    -999.25    -999.25    -999.25    -999.25    -999.25    -999.25    -999.25  -47.27920   -6.75400    1.88040    -999.25 2352.45950 2487.81400
 6200.00000    1.07200    1.07470    1.04510    1.02200    1.01430   19.77810   21.09270  985.90160    8.84270    -999.25    -999.25    -999.25    -999.25    -999.25    1.01430    -999.25    -999.25  142.25850    -999.25    -999.25  142.25850   61.21810   67.37680   61.21810    -999.25    -999.25    1.04510    -999.25    -999.25    -999.25    -999.25    -999.25    -999.25    -999.25  -45.75770   -5.13140    1.07200    -999.25 2402.17430 2446.42210
 6250.00000    2.73970    2.60410    2.42930    2.40830    2.35170   17.23800   17.40600  425.22430    5.15600    -999.25    -999.25    -999.25    -999.25    -999.25    2.35170    -999.25    -999.25   81.02090    -999.25    -999.25   81.02090   53.94310   58.94140   53.94310    -999.25    -999.25    2.42930    -999.25    -999.25    -999.25    -999.25    -999.25    -999.25    -999.25  -44.60170   -3.87420    2.73970    -999.25 2386.94260 2449.11080
 6300.00000   16.37560   14.87870   14.23210   11.48810   11.81260   16.61850   16.48140   84.65540    4.23140    -999.25    -999.25    -999.25    -999.25    -999.25   11.81260    -999.25    -999.25   58.93290    -999.25    -999.25   58.93290   13.06040   15.55580   13.06040    -999.25    -999.25   14.23210    -999.25    -999.25    -999.25    -999.25    -999.25    -999.25    -999.25  -62.32230  -21.49370   16.37560    -999.25 2397.05320 2491.49660
 6350.00000    3.48790    3.30520    2.85750    2.86780    2.68070   20.70700   20.50920  373.03690    8.25920    -999.25    -999.25    -999.25    -999.25    -999.25    2.68070    -999.25    -999.25   76.40850    -999.25    -999.25   76.40850   39.04380   44.97530   39.04380    -999.25    -999.25    2.85750    -999.25    -999.25    -999.25    -999.25    -999.25    -999.25    -999.25  -45.08560   -4.15590    3.48790    -999.25 2398.91360 2517.55370
 6400.00000    4.70040    4.76520    4.34390    4.32430    4.19540   17.22260   17.51410  238.35630    5.26410    -999.25    -999.25    -999.25    -999.25    -999.25    4.19540    -999.25    -999.25   71.11360    -999.25    -999.25   71.11360   31.93800   34.35980   31.93800    -999.25    -999.25    4.34390    -999.25    -999.25    -999.25    -999.25    -999.25    -999.25    -999.25  -46.11540   -5.08450    4.70040    -999.25 2397.00830 2527.73540
 6450.00000   12.35340   13.60480   11.25130   10.35590   10.87180   17.00610   16.67270   91.98110    4.42270    -999.25    -999.25    -999.25    -999.25    -999.25   10.87180    -999.25    -999.25   59.26960    -999.25    -999.25   59.26960   13.19870   21.18150   13.19870    -999.25    -999.25   11.25130    -999.25    -999.25    -999.25    -999.25    -999.25    -999.25    -999.25  -51.94280  -10.93590   12.35340    -999.25 2439.68700 2529.71390
