~Version ---------------------------------------------------
VERS. 2.0 : CWLS log ASCII Standard -VERSION 2.0
WRAP.  NO : ONE LINE PER DEPTH STEP
~Well ------------------------------------------------------
STRT.F                  1050.0 : START DEPTH
STOP.F                 11950.0 : STOP DEPTH
STEP.F                50.00000 : STEP LENGTH
NULL.                  -999.25 : NULL VALUE
COMP.               ZINK & HIS : COMPANY
WELL.        MARTIN M WALSH #1 : WELL
FLD .                  WILDCAT : FIELD
LOC .                          : LOCATION
CNTY.                   KARNES : COUNTY
STAT.                    TEXAS : STATE
CTRY. UNITED STATES OF AMERICA : COUNTRY
SRVC.             Schlumberger : SERVICE COMPANY
DATE.              11-Nov-1969 : LOGDATE
API .           42255300590000 : API NUMBER
UWI .           42255300590000 : UNIQUE WELL ID
SLAT.WGS84       29.1132485053 : SURFACE LATITUDE
SLON.WGS84      -97.6540741738 : SURFACE LONGITUDE
~Curve Information -----------------------------------------
DEPT.F                 : 
DT  .US/F 60 520 00 00 : 
GR  .GAPI 60 310 01 00 : 
ILD .OHMM 05 120 46 00 : DEEP INDUCTION
SN  .OHMM 05 040 16 00 : SHORT NORMAL  16"
SP  .MV   05 010 01 00 : SPONTANEOUS POTENTIAL
~Params ----------------------------------------------------
EKB .F                 508.0 : KELLY BUSHING
EGL .F                   490 : ELEVATION GROUND LEVEL
EDF .F                   0.0 : DRILLING FLOOR
EPD .F                   490 : ELEVATION PERMANENT DATUM
TD  .F               11950.0 : TOTAL DEPTH
CLNT.                A2DTECH : CLIENT CODE
SL  . 467' FSEL & 3000' FSWL : SURFACE LOCATION
COUN.                 KARNES : COUNTY
PD  .                     GL : PERMANENT DATUM
LMF .                     KB : LOG MEASURED FROM
DMF .                     KB : DRILLING MEASURED FROM
DAPD.F                    18 : FEET ABOVE PERMANENT DATUM
DATE.            11-NOV-1969 : DATE LOGGED
DD  .F                 11950 : DEPTH DRILLER
DL  .F                 11944 : DEPTH LOGGER
BLI .F                 11937 : BOTTOM LOG INTERVAL
TLI .F                  1700 : TOP LOG INTERVAL
CS1 .IN                10.75 : CASING SIZE
CBD1.         10.75" @ 1018' : CASING DRILLER 1
CBL1.F                  1020 : CASING LOGGER 1
BS1 .IN                 8.75 : BIT SIZE
BSD1.F                 11950 : DEPTH DRILLED WITH BIT1
DFT .         UNICAL/CAUSTIC : TYPE FLUID IN HOLE
DFD .                   10.6 : DENSITY
DFV .                     41 : VISCOSITY
DFPH.                    9.5 : PH
DFL .                    6.6 : FLUID LOSS
MSS .                    PIT : SOURCE OF SAMPLE
RMS .OHMM               1.26 : RM
RMF .OHMM                  1 : RMF
MFSS.                   MEAS : SOURCE RMF.
RMC .OHMM                  1 : RMC
MCSS.                   CALC : SOURCE RMC.
RMB .OHMM                0.5 : RM. AT BHT
BHT .F                   240 : BHT.
TCS .HRS                   4 : TIME CIRC. STOPPED
LUN .                   7019 : LOGGING UNIT NUMBER
LUL .                  PLEAS : LOGGING UNIT LOCATION
ORIG.               5" PRINT : ORIGIN OF DATA
UWI .         42255300590000 : UNIQUE WELL ID
DICO.  A2D TECHNOLOGIES INC. : DIGITIZING COMPANY
~Other -----------------------------------------------------
~ASCII -----------------------------------------------------
 1050.00000    -999.25    -999.25    2.76700    3.76800  -31.02600
 1100.00000    -999.25    -999.25    2.36500    2.80200  -25.88800
 1150.00000    -999.25    -999.25    2.55200    3.65800  -34.87000
 1200.00000    -999.25    -999.25    3.55100    3.55200  -35.55300
 1250.00000    -999.25    -999.25    2.96100    3.16500  -27.43000
 1300.00000    -999.25    -999.25    3.36600    3.75000  -38.84200
 1350.00000    -999.25    -999.25    2.14600    2.52100  -29.04700
 1400.00000    -999.25    -999.25    1.08800    1.31100  -17.39700
 1450.00000    -999.25    -999.25    1.30100    1.60000  -19.07400
 1500.00000    -999.25    -999.25    2.30000    2.58300  -26.78200
 1550.00000    -999.25    -999.25    1.40500    1.81700  -23.70600
 1600.00000    -999.25    -999.25    2.83600    2.96200  -28.71400
 1650.00000    -999.25    -999.25    4.00800    5.05800  -31.27700
 1700.00000    -999.25   95.17400    3.09900    3.90600  -32.22800
 1750.00000  138.63300  115.82600    1.85800    2.43700  -27.45900
 1800.00000  148.52500  128.00500    1.14000    1.45800  -25.88000
 1850.00000  139.45700  133.01300    1.38900    1.58500  -25.47400
 1900.00000  144.51600  129.54100    0.92000    1.19300  -17.49400
 1950.00000  151.91600  106.89400    1.73800    1.80400  -30.58600
 2000.00000  131.67000  106.95200    1.98000    2.40500  -29.14100
 2050.00000  144.81200  115.04300    1.26500    1.48800  -33.66500
 2100.00000  133.15200   74.84800    2.17700    3.20600  -39.21600
 2150.00000  144.81200   98.22800    2.04100    2.53200  -42.05700
 2200.00000  139.63800   81.81600    1.94400    2.47400  -38.04200
 2250.00000  128.72600  123.47100    3.24500    4.50200  -47.41100
 2300.00000  139.58300  115.38600    1.25000    1.54600  -32.06600
 2350.00000  140.27700  107.89800    1.35700    1.69400  -30.85800
 2400.00000  128.39100   89.01100    2.36900    3.47700  -54.56400
 2450.00000  154.79200  125.20300    1.02200    1.25200  -24.39300
 2500.00000  171.32600  177.56100    0.79000    0.84800  -23.45400
 2550.00000  142.34200  109.65400    1.14100    1.25800  -25.30000
 2600.00000    -999.25    -999.25    0.94400    1.08800  -24.13400
 2650.00000    -999.25    -999.25    0.53400    0.81200  -22.43300
 2700.00000    -999.25    -999.25    0.75300    0.97300  -25.24500
 2750.00000    -999.25    -999.25    1.24200    1.61500  -36.17200
 2800.00000    -999.25    -999.25    0.95900    1.09000  -25.52800
 2850.00000    -999.25    -999.25    0.97800    1.19600  -26.60600
 2900.00000    -999.25    -999.25    0.95900    1.23200  -27.22000
 2950.00000    -999.25    -999.25    1.06300    1.24900  -25.30500
 3000.00000    -999.25    -999.25    1.04900    1.39000  -27.27200
 3050.00000    -999.25    -999.25    1.41700    2.53200  -58.87500
 3100.00000    -999.25    -999.25    1.19900    1.45200  -24.21100
 3150.00000    -999.25    -999.25    1.25300    1.48600  -26.80100
 3200.00000    -999.25    -999.25    0.89500    1.05000  -23.92200
 3250.00000    -999.25    -999.25    0.81300    0.99700  -23.22900
 3300.00000  150.00000   84.21100    1.18300    1.70300  -38.43800
 3350.00000  150.00000   93.51200    1.13300    1.47400  -25.39800
 3400.00000  150.00000   88.49900    1.45000    2.30300  -42.68200
 3450.00000  150.00000   79.81200    1.48800    1.86300  -29.10200
 3500.00000  192.48000  105.66400    0.93700    1.19400  -23.83600
 3550.00000  150.00000  115.76000    1.11600    1.28100  -24.34300
 3600.00000  150.00000  118.83800    1.43900    1.94200  -30.17000
 3650.00000  149.85400  117.54100    0.96100    1.23400  -26.13800
 3700.00000  150.00000  102.81800    1.56300    2.01200  -26.40700
 3750.00000  150.00000   97.91000    1.46900    2.03200  -37.32600
 3800.00000  150.00000  116.17300    1.23800    1.54100  -27.51700
 3850.00000  150.00000  103.69000    1.29900    1.52500  -27.10200
 3900.00000  150.00000  119.92300    1.34400    1.62500  -25.14100
 3950.00000    -999.25    -999.25    1.28400    1.70900  -28.43400
 4000.00000    -999.25    -999.25    1.41200    2.15200  -40.73000
 4050.00000    -999.25    -999.25    1.32000    1.59700  -26.21000
 4100.00000    -999.25    -999.25    0.94200    1.10100  -23.92800
 4150.00000    -999.25    -999.25    0.94600    1.15400  -24.81800
 4200.00000    -999.25    -999.25    1.60900    1.56300  -25.29700
 4250.00000  187.09900  106.67500    1.31300    1.63600  -23.47900
 4300.00000  168.65100   99.35400    1.85600    2.15600  -29.37100
 4350.00000  151.37000   86.04700    2.10000    2.74600  -29.32200
 4400.00000  144.18800   78.95000    2.48500    4.05100  -40.83600
 4450.00000  156.89300   88.31500    2.11000    3.76100  -49.61400
 4500.00000  145.40100  106.10600    2.61200    4.27200  -42.70300
 4550.00000  142.92100   43.94900    2.78800    6.99800  -82.64700
 4600.00000  147.36600    -999.25    2.42700    5.38800  -82.70800
 4650.00000    -999.25    -999.25    2.09100    3.27000  -51.06900
 4700.00000    -999.25    -999.25    4.21500   11.39400    -999.25
 4750.00000    -999.25    -999.25    1.98400    5.50700    -999.25
 4800.00000    -999.25    -999.25    1.91500    6.00900    -999.25
 4850.00000    -999.25    -999.25    3.69500    9.50000  -78.21900
 4900.00000    -999.25    -999.25    2.69700    7.32000  -78.29600
 4950.00000    -999.25    -999.25    1.35000    3.34000    -999.25
 5000.00000    -999.25    -999.25    2.06800    5.52300  -90.81300
 5050.00000    -999.25    -999.25    2.65300    9.25200    -999.25
 5100.00000    -999.25    -999.25    1.16500    2.46800 -103.21500
 5150.00000    -999.25    -999.25    1.91700    5.92700  -81.70500
 5200.00000    -999.25    -999.25    1.67300    5.41000  -87.06700
 5250.00000    -999.25    -999.25    1.65200    7.30500  -90.77000
 5300.00000    -999.25    -999.25    2.49400    3.12300  -29.19000
 5350.00000    -999.25    -999.25    1.54600    2.17500  -47.14700
 5400.00000    -999.25    -999.25    1.92000    5.58600  -76.73900
 5450.00000    -999.25    -999.25    1.63900    5.47300  -69.71000
 5500.00000    -999.25    -999.25    2.74400   12.68400  -85.91400
 5550.00000    -999.25    -999.25    1.69200    5.25400  -64.16200
 5600.00000    -999.25    -999.25    2.10300    4.07700  -45.62600
 5650.00000    -999.25    -999.25    1.63600    2.83400  -43.79700
 5700.00000    -999.25    -999.25    1.57800    4.46500  -70.49000
 5750.00000    -999.25    -999.25    1.94600    5.64100  -77.68800
 5800.00000    -999.25    -999.25    1.67300    2.29300  -29.34700
 5850.00000    -999.25    -999.25    1.79300    2.54400  -41.84500
 5900.00000    -999.25    -999.25    1.69800    2.31400  -36.85500
 5950.00000    -999.25    -999.25    1.82700    3.42000  -52.29700
 6000.00000    -999.25    -999.25    1.54000    2.05600  -33.46000
 6050.00000    -999.25    -999.25    1.13600    5.78800 -112.47100
 6100.00000    -999.25    -999.25    1.82100    4.03000  -58.86800
 6150.00000    -999.25    -999.25    1.36300    3.30300  -55.30800
 6200.00000   99.36100  147.29200    1.49800    2.85700  -38.67100
 6250.00000   91.72200  136.08800    1.71600    2.54700  -44.12800
 6300.00000   91.63900  162.66500    1.81000    2.49800  -36.23200
 6350.00000   94.98300  112.63900    1.25400    2.72100  -70.51900
 6400.00000   86.19800   83.87700    0.89300    8.67200 -136.12300
 6450.00000   87.74600   97.23300    0.86800    5.71500 -104.33100
 6500.00000   95.25600  134.15100    1.19500    2.98900  -52.97600
 6550.00000   92.45400  161.39800    1.54600    2.34200  -43.85000
 6600.00000   86.75500   74.63700    0.80900    3.60300 -139.74900
 6650.00000   88.80100  142.83800    1.34900    3.53100  -97.47500
 6700.00000   88.30400   84.72500    1.06700    6.95000 -121.98900
 6750.00000   86.40900   79.25900    1.19400    6.33200  -88.17200
 6800.00000   95.82500  146.88700    1.62900    2.50800  -48.90400
 6850.00000   91.64800  126.60400    1.33700    2.23200  -40.85900
 6900.00000   81.61800   63.75000    1.01900    8.94600 -129.34100
 6950.00000   89.53800  122.23600    1.48600    2.43100  -50.02800
 7000.00000   82.72300   62.20000    1.21700    8.28900 -122.36100
