~Version ---------------------------------------------------
VERS. 2.0 : CWLS log ASCII Standard -VERSION 2.0
WRAP.  NO : ONE LINE PER DEPTH STEP
~Well ------------------------------------------------------
STRT.F                          550.0 : START DEPTH
STOP.F                         6700.0 : STOP DEPTH
STEP.F                       50.00000 : STEP LENGTH
NULL.                         -999.25 : NULL VALUE
COMP. TIPPERARY OIL & GAS CORPORATION : COMPANY
WELL.                        REESE #1 : WELL
FLD .                         WILDCAT : FIELD
LOC .                                 : LOCATION
CNTY.                        GONZALES : COUNTY
STAT.                           TEXAS : STATE
CTRY.        UNITED STATES OF AMERICA : COUNTRY
SRVC.                        Gearhart : SERVICE COMPANY
DATE.                     06-Mar-1981 : LOGDATE
API .                  42177308340000 : API NUMBER
UWI .                  42177308340000 : UNIQUE WELL ID
SLAT.WGS84              29.5724543994 : SURFACE LATITUDE
SLON.WGS84             -97.4453806133 : SURFACE LONGITUDE
~Curve Information -----------------------------------------
DEPT.F                 : 
GRR .GAPI 05 310 01 00 : GAMMA RAY FROM RESISTIVITY LOG
ILD .OHMM 05 120 46 00 : INDUCTION LOG DEEP
ASN .OHMM 05 041 00 00 : AMPLIFIED SHORT NORMAL RESISTIVITY
SPR .MV   05 010 01 00 : SPONTANEOUS POTENTIAL FROM RESISTIVITY LOG
GRN .GAPI 35 310 01 00 : GAMMA RAY FROM GRN LOG
NEUT.NAPI 35 330 01 00 : NEUTRON
DT  .US/F 81 500 00 00 : DELTA-T (INTERVAL TRANSIT TIME)
CILD.MMHO 05 110 46 00 : INDUCTION DEEP CONDUCTIVITY
~Params ----------------------------------------------------
PD  .                     GL : PERMANENT DATUM
EPD .FT                  405 : ELEVATION PERMANENT DATUM
LMF .                    TKB : LOG MEASURED FROM
DAPD.FT                   12 : FEET ABOVE PERMANENT DATUM
DMF .                    TKB : DRILLING MEASURED FROM
EKB .FT                  417 : KELLY BUSHING
EDF .FT                  416 : DRILLING FLOOR
EGL .FT                  405 : GROUND LEVEL
DATE.               03/06/81 : RUN DATE
RUN .                      1 : RUN NUMBER
DD  .FT                 6725 : DEPTH DRILLER
DL  .FT                 6711 : DEPTH LOGGER
BLI .FT                 6710 : BOTTOM LOG INTERVAL
TLI .FT                  578 : TOP LOG INTERVAL
CS  .IN                8.625 : CASING SIZE
CBD .FT                  577 : CASING BOTTOM DRILLER
CBL .FT                  578 : CASING BOTTOM LOGGER
BS  .IN                7.875 : BIT SIZE
BSD .FT                 6725 : BIT SIZE AT DEPTH
DFT .                GEL LIG : DRILLING FLUID TYPE
DFD .                    9.6 : DRILLING FLUID DENSITY
DFV .                     58 : DRILLING FLUID VISCOSITY
DFPH.                     10 : DRILLING FLUID PH
DFL .                    6.8 : DRILLING FLUID LOSS
MSS .               FLOWLINE : MUD SAMPLE SOURCE
RMS .OHMM               2.54 : RESISTIVITY MUD SAMPLE
MST .DEGF                 75 : MUD SAMPLE TEMPERATURE
RMF .OHMM               2.51 : RESISTIVITY MUD FILTRATE SAMPLE
MFST.DEGF                 75 : MUD FILTRATE SAMPLE TEMPERATURE
RMC .OHMM                2.8 : RESISTIVITY MUD CAKE
MCST.DEGF                 75 : MUD CAKE SAMPLE TEMPERATURE
MFSS.                      M : MUD FILTRATE SAMPLE SOURCE
MCSS.                      M : MUD CAKE SAMPLE SOURCE
RMB .OHMM               1.13 : RESISTIVITY MUD AT BHT
TCS .HRS                2000 : TIME CIRCULATED STOPPED
TLAB.HRS                  30 : TIME LOGGER AT BOTTOM
LUN .                   7561 : LOGGING UNIT NUMBER
LUL .                   VICT : LOGGING UNIT LOCATION
WITN.          CLUTTER MOORE : WITNESSED BY
CLNT.                A2DTECH : CLIENT CODE
ORIG.               1" PRINT : ORIGIN OF DATA
UWI .         42177308340000 : UNIQUE WELL ID
DICO. A2D Technologies, Inc. : DIGITIZING COMPANY
~Other -----------------------------------------------------
~ASCII -----------------------------------------------------
  550.00000   51.70720    -999.25    -999.25    -999.25    -999.25    -999.25    -999.25    -999.25
  600.00000   68.08910   21.75540   14.86050   -9.77990    -999.25    -999.25    -999.25   42.73890
  650.00000   40.47980   25.94430   17.81080   -8.95450    -999.25    -999.25    -999.25   33.45980
  700.00000   67.36230    4.23780    5.46300  -24.64160    -999.25    -999.25    -999.25  235.97740
  750.00000   69.97880    2.65550    3.09870  -27.34680    -999.25    -999.25    -999.25  376.30400
  800.00000   70.83650    2.78210    3.01030  -27.36500    -999.25    -999.25    -999.25  359.44650
  850.00000   68.68630    4.93190    5.44970  -25.77550    -999.25    -999.25    -999.25  202.76870
  900.00000   65.10940    4.94910    4.82180  -28.29420    -999.25    -999.25    -999.25  202.06180
  950.00000   65.39170    2.56870    2.61560  -26.30850    -999.25    -999.25    -999.25  389.31810
 1000.00000   54.03220    5.66050    6.82320  -25.93080    -999.25    -999.25    -999.25  160.95800
 1050.00000   75.19960    2.40800    2.80470  -25.65770    -999.25    -999.25    -999.25  415.44110
 1100.00000   58.75690   13.47140   12.44170  -33.51390    -999.25    -999.25    -999.25   69.79380
 1150.00000   68.11360    4.18330    4.51040  -31.29550    -999.25    -999.25    -999.25  239.04910
 1200.00000   78.33990    8.63040   10.33610  -33.34850    -999.25    -999.25    -999.25  113.21930
 1250.00000   43.57780   14.18880   13.86820  -35.84500    -999.25    -999.25    -999.25   63.95670
 1300.00000   44.54960   21.05100   18.52190  -26.99560    -999.25    -999.25    -999.25   47.51000
 1350.00000   43.44060   45.97460   32.71060  -22.30480    -999.25    -999.25    -999.25   16.41670
 1400.00000   41.40660   47.77450   30.38220  -25.14500    -999.25    -999.25    -999.25   18.39960
 1450.00000   30.57000   61.12130   38.39700  -20.66970    -999.25    -999.25    -999.25    6.27180
 1500.00000   53.17780   51.88130   43.02330  -23.47350    -999.25    -999.25    -999.25   19.74140
 1550.00000   48.64380   44.95280   33.47150  -21.68180    -999.25    -999.25    -999.25   17.12240
 1600.00000   59.70240   38.32130   29.00940  -23.25500    -999.25    -999.25    -999.25   24.01740
 1650.00000   52.21800   32.73890   29.36430  -20.64520    -999.25    -999.25    -999.25   23.33700
 1700.00000   84.97430    4.95440    6.98220  -24.81730    -999.25    -999.25    -999.25  201.84100
 1750.00000   64.18930   19.95810   17.92850  -11.47260    -999.25    -999.25    -999.25   39.78130
 1800.00000   52.19690    5.59030    7.72650  -45.43060    -999.25    -999.25    -999.25  178.88240
 1850.00000   82.94690    4.08570    4.46580  -28.94000    -999.25    -999.25    -999.25  244.75620
 1900.00000   82.95580    2.80950    3.63420  -27.78520    -999.25    -999.25    -999.25  355.94060
 1950.00000   81.21370    3.08160    4.36370  -41.72330    -999.25    -999.25    -999.25  324.50700
 2000.00000   81.88310    2.48130    2.90400  -31.46530    -999.25    -999.25    -999.25  403.01610
 2050.00000   71.51540    2.43990    3.35110  -37.23360    -999.25    -999.25    -999.25  409.86150
 2100.00000   85.72220    1.65510    1.91470  -21.81030    -999.25    -999.25    -999.25  604.19710
 2150.00000   66.24710    1.95200    2.17080  -44.69200    -999.25    -999.25    -999.25  512.29210
 2200.00000   88.18670    2.16180    2.71380  -32.93150    -999.25    -999.25    -999.25  462.58300
 2250.00000   90.21530    2.38520    2.72770  -30.73350    -999.25    -999.25    -999.25  419.20250
 2300.00000   87.73100    1.80370    2.70680  -22.12140    -999.25    -999.25    -999.25  554.43320
 2350.00000   62.39520    1.98760    2.83610  -49.83330    -999.25    -999.25    -999.25  503.11190
 2400.00000   91.13360    2.09200    2.24050  -23.87880    -999.25    -999.25    -999.25  478.00520
 2450.00000   86.29930    2.18700    3.08190  -39.82460    -999.25    -999.25    -999.25  457.30970
 2500.00000   93.00520    2.33520    3.14470  -35.48600    -999.25    -999.25    -999.25  428.23160
 2550.00000   83.32710    2.50270    3.05460  -30.90780    -999.25    -999.25    -999.25  399.56720
 2600.00000   59.19310    2.29140    4.98720  -69.05860    -999.25    -999.25    -999.25  436.40730
 2650.00000   99.90780    3.71720    5.04350  -39.76210    -999.25    -999.25    -999.25  269.05940
 2700.00000   70.81880    5.02570    6.50910  -47.12970    -999.25    -999.25    -999.25  191.23720
 2750.00000   77.50040    4.38970    5.49370  -33.27430    -999.25    -999.25    -999.25  227.80900
 2800.00000   54.51060    3.79190    4.43040  -45.61070    -999.25    -999.25    -999.25  263.72120
 2850.00000   54.59180    3.82020    5.54920  -59.20640    -999.25    -999.25    -999.25  261.77290
 2900.00000   37.11670    6.00360   16.46410  -56.57220    -999.25    -999.25    -999.25  165.88500
 2950.00000   39.22900    3.77890    6.56850  -65.86080    -999.25    -999.25    -999.25  264.62810
 3000.00000   41.21320    2.84410    4.72220  -63.59970    -999.25    -999.25    -999.25  351.60040
 3050.00000   67.02710    2.45780    3.55540  -45.65450    -999.25    -999.25    -999.25  406.87720
 3100.00000   70.02670    1.65120    1.81120  -22.14510    -999.25    -999.25    -999.25  605.60710
 3150.00000   42.49530    2.60560    4.73300  -70.77200    -999.25    -999.25    -999.25  383.79000
 3200.00000   82.59170    1.43750    1.66580  -20.48280    -999.25    -999.25    -999.25  695.66550
 3250.00000   43.21370    2.23360    5.00000  -76.12910    -999.25    -999.25    -999.25  447.70980
 3300.00000   57.08780    2.46660    3.86120  -49.94350    -999.25    -999.25    -999.25  405.41610
 3350.00000   40.46680    1.76460    4.53910  -68.83230    -999.25    -999.25    -999.25  566.70790
 3400.00000   65.04490    1.74310    2.85160  -36.79420    -999.25    -999.25    -999.25  573.68170
 3450.00000   49.39000    1.71330    3.82590  -65.07920    -999.25    -999.25    -999.25  583.65900
 3500.00000   57.03700    1.96200    4.35770  -64.77360    -999.25    -999.25    -999.25  509.68030
 3550.00000   55.65390    1.77350    4.26720  -66.77650    -999.25    -999.25    -999.25  563.85800
 3600.00000   81.78000    1.82070    2.40540  -25.91920    -999.25    -999.25    -999.25  549.29160
 3650.00000   65.40150    1.86960    3.96360  -64.07210    -999.25    -999.25    -999.25  534.88570
 3700.00000   95.22390    2.11400    2.61570  -25.80350    -999.25    -999.25    -999.25  473.02920
 3750.00000   93.64140    1.88880    2.29060  -25.51700    -999.25    -999.25    -999.25  529.42800
 3800.00000  100.92530    1.82100    1.99830  -22.72840    -999.25    -999.25    -999.25  549.15880
 3850.00000   95.30050    2.45200    2.76810  -25.59300    -999.25    -999.25    -999.25  407.83100
 3900.00000   85.23270    2.60270    3.26310  -38.14060    -999.25    -999.25    -999.25  384.22600
 3950.00000   80.65180    2.49700    2.70200  -24.73490    -999.25    -999.25    -999.25  400.48010
 4000.00000   90.10830    2.36920    2.55520  -25.14490    -999.25    -999.25    -999.25  422.08260
 4050.00000   97.91070    1.88940    2.04420  -21.69310    -999.25    -999.25    -999.25  529.26280
 4100.00000   90.72000    1.89840    2.03090  -24.45880    -999.25    -999.25    -999.25  526.75810
 4150.00000   94.14440    1.67440    1.87320  -25.47880    -999.25    -999.25    -999.25  597.21410
 4200.00000   99.95860    1.34720    1.54750  -24.91010    -999.25    -999.25    -999.25  742.27460
 4250.00000  104.56730    1.23600    1.40940  -24.73330    -999.25    -999.25    -999.25  809.04730
 4300.00000  101.66890    1.25400    1.39930  -22.92640    -999.25    -999.25    -999.25  797.45070
 4350.00000  101.91850    1.42340    1.55190  -26.64680    -999.25    -999.25    -999.25  702.52150
 4400.00000   94.20970    1.19860    1.17930  -23.76450    -999.25    -999.25    -999.25  834.28260
 4450.00000   95.60260    0.86160    0.94350  -23.06080    -999.25    -999.25    -999.25 1160.61430
 4500.00000   82.38320    0.98520    0.98190  -21.57730    -999.25    -999.25    -999.25 1015.06550
