~Version ---------------------------------------------------
VERS.      2.0 : CWLS log ASCII Standard -VERSION 2.0
WRAP.      YES : Multiple lines per depth step
CREA. 01/19/13 : LAS Creation Date
~Well ------------------------------------------------------
STRT.FT                 1500.0 : START DEPTH
STOP.FT                10050.0 : STOP DEPTH
STEP.FT               50.00000 : STEP LENGTH
NULL.                  -999.25 : NULL VALUE
COMP.     MARATHON OIL COMPANY : COMPANY
WELL.              HOLMES S #1 : WELL
FLD .               BEAR GRASS : FIELD
LOC .                          : LOCATION
CNTY.                     LEON : COUNTY
STAT.                    TEXAS : STATE
CTRY. UNITED STATES OF AMERICA : COUNTRY
SRVC.             Schlumberger : SERVICE COMPANY
DATE.              05-Jul-1991 : LOGDATE
API .           42289311110000 : API NUMBER
UWI .           42289311110000 : UNIQUE WELL ID
SLAT.WGS84       31.3704869151 : SURFACE LATITUDE
SLON.WGS84      -96.2382553647 : SURFACE LONGITUDE
~Curve Information -----------------------------------------
DEPT    .FT    : DEPTH FEET
CALDED  .IN    : CALIPER FROM CN-LDT LOG
CALWS   .IN    : CALIPER [CALDED]
CONDWS  .MMHO  : CONDUCTIVITY [1000/DRESWS]
DCORWS  .G/C3  : DENSITY CORRECTION [DRHOED]
DENWS   .G/C3  : FORMATION BULK DENSITY [CALCULATED FROM DPOWS M=2.71, F=1.0]
DPHILSED.V/V   : DENSITY POROSITY LIMESTONE [M=2.71, F=1.0] FROM CN-LDT LOG
DPOWS   .V/V   : DENSITY POROSITY LIMESTONE [DPHILSED]
DRESWS  .OHMM  : DEEP RESISTIVITY [ILDED]
DRHOED  .G/C3  : BULK DENSITY CORRECTION FROM CN-LDT LOG
GRRED   .GAPI  : GAMMA RAY FROM DIL-SFL LOG
GRWS    .GAPI  : GAMMA RAY [GRRED]
ILDED   .OHMM  : DEEP INDUCTION FROM DIL-SFL LOG
ILMED   .OHMM  : MEDIUM INDUCTION FROM DIL-SFL LOG
MRESWS  .OHMM  : MEDIUM RESISTIVITY [ILMED]
NPHILSED.V/V   : NEUTRON POROSITY LIMESTONE FROM CN-LDT LOG
NPOWS   .V/V   : NEUTRON POROSITY LIMESTONE [NPHILSED]
RHOBED  .G/C3  : BULK DENSITY FROM CN-LDT LOG
SFLUED  .OHMM  : SHALLOW FOCUSED RESISTIVITY (UNAVERAGED) FROM DIL-SFL LOG
SPRED   .MV    : SPONTANEOUS POTENTIAL FROM DIL-SFL LOG
SPWS    .MV    : SPONTANEOUS POTENTIAL [BASELINE 0 MV, SPRED]
SRESWS  .OHMM  : SHALLOW RESISTIVITY [SFLUED]
TENRED  .LBF   : TENSION FROM DIL-SFL LOG
~Params ----------------------------------------------------
PD  .                     GL : PERMANENT DATUM
EPD .FT                  515 : ELEVATION PERMANENT DATUM
LMF .                     KB : LOG MEASURED FROM
DAPD.FT                   23 : FEET ABOVE PERMANENT DATUM
DMF .                     KB : DRILLING MEASURED FROM
EKB .FT                  538 : KELLY BUSHING
EDF .FT                  537 : DRILLING FLOOR
EGL .FT                  515 : GROUND LEVEL
DATE.               06/07/91 : RUN DATE
RUN .                      1 : RUN NUMBER
DD  .FT                10100 : DEPTH DRILLER
DL  .FT                10084 : DEPTH LOGGER
BLI .FT                10080 : BOTTOM LOG INTERVAL
TLI .FT                 4215 : TOP LOG INTERVAL
CS  .IN                8.625 : CASING SIZE
CBD .FT                 1528 : CASING BOTTOM DRILLER
CBL .FT                 1514 : CASING BOTTOM LOGGER
BS  .IN                7.875 : BIT SIZE
BSD .FT                10100 : BIT SIZE AT DEPTH
DFT .                    LIG : DRILLING FLUID TYPE
DFD .                   10.2 : DRILLING FLUID DENSITY
DFV .                     45 : DRILLING FLUID VISCOSITY
DFPH.                    9.8 : DRILLING FLUID PH
DFL .                     10 : DRILLING FLUID LOSS
MSS .                   TANK : MUD SAMPLE SOURCE
RMS .OHMM               3.28 : RESISTIVITY MUD SAMPLE
MST .DEGF                 75 : MUD SAMPLE TEMPERATURE
RMF .OHMM               3.02 : RESISTIVITY MUD FILTRATE SAMPLE
MFST.DEGF                 75 : MUD FILTRATE SAMPLE TEMPERATURE
RMC .OHMM               2.59 : RESISTIVITY MUD CAKE
MCST.DEGF                 75 : MUD CAKE SAMPLE TEMPERATURE
MFSS.                  PRESS : MUD FILTRATE SAMPLE SOURCE
MCSS.                   MEAS : MUD CAKE SAMPLE SOURCE
RMB .OHMM              1.159 : RESISTIVITY MUD AT BHT
TCS .HRS                 400 : TIME CIRCULATED STOPPED
TLAB.HRS                1100 : TIME LOGGER AT BOTTOM
LUN .                   8605 : LOGGING UNIT NUMBER
LUL .                  TYLER : LOGGING UNIT LOCATION
ENGI.                 HIBURN : RECORDING ENGINEER
CLNT.                A2DTECH : CLIENT CODE
ORIG.          1" 2.5" PRINT : ORIGIN OF DATA
UWI .         42289311110000 : UNIQUE WELL ID
DICO. A2D Technologies, Inc. : DIGITIZING COMPANY
~Other -----------------------------------------------------
~ASCII -----------------------------------------------------
# ...
 4700.00000    -999.25    -999.25  315.41760    -999.25    -999.25    -999.25    -999.25    3.17040    -999.25   30.30840   30.30840    3.17040    3.40190    3.40190    -999.25    -999.25    -999.25    3.27570  -25.83470   -8.83490    3.27570 2466.36060
 4750.00000    -999.25    -999.25  333.57800    -999.25    -999.25    -999.25    -999.25    2.99780    -999.25   33.48580   33.48580    2.99780    3.24000    3.24000    -999.25    -999.25    -999.25    6.10600  -22.14070   -4.36270    6.10600 2458.89480
 4800.00000    -999.25    -999.25  183.08980    -999.25    -999.25    -999.25    -999.25    5.46180    -999.25   49.63860   49.63860    5.46180    5.87170    5.87170    -999.25    -999.25    -999.25    7.39280  -20.32830   -2.27680    7.39280 2462.29030
 4850.00000    -999.25    -999.25  318.91820    -999.25    -999.25    -999.25    -999.25    3.13560    -999.25   19.89360   19.89360    3.13560    3.35880    3.35880    -999.25    -999.25    -999.25    6.61660  -46.27140  -28.31180    6.61660 2462.54830
 4900.00000    -999.25    -999.25  334.58240    -999.25    -999.25    -999.25    -999.25    2.98880    -999.25   15.87780   15.87780    2.98880    3.41160    3.41160    -999.25    -999.25    -999.25   15.89320  -49.99150  -32.12380   15.89320 2517.81250
 4950.00000    -999.25    -999.25 1147.71030    -999.25    -999.25    -999.25    -999.25    0.87130    -999.25   85.88090   85.88090    0.87130    0.91290    0.91290    -999.25    -999.25    -999.25    1.09800  -24.34860   -6.57280    1.09800 2609.02910
 5000.00000    -999.25    -999.25  576.36890    -999.25    -999.25    -999.25    -999.25    1.73500    -999.25   86.16650   86.16650    1.73500    1.76440    1.76440    -999.25    -999.25    -999.25    2.06870  -28.61640  -10.93250    2.06870 2505.54200
 5050.00000    -999.25    -999.25  608.42050    -999.25    -999.25    -999.25    -999.25    1.64360    -999.25   84.91420   84.91420    1.64360    1.67290    1.67290    -999.25    -999.25    -999.25    1.98510  -30.53710  -12.94510    1.98510 2536.63330
 5100.00000    -999.25    -999.25 1000.90080    -999.25    -999.25    -999.25    -999.25    0.99910    -999.25   73.84030   73.84030    0.99910    1.02310    1.02310    -999.25    -999.25    -999.25    1.40170  -23.54040   -6.04030    1.40170 2543.45630
 5150.00000    -999.25    -999.25  923.61690    -999.25    -999.25    -999.25    -999.25    1.08270    -999.25   85.49650   85.49650    1.08270    1.11160    1.11160    -999.25    -999.25    -999.25    1.48260  -21.91990   -4.51170    1.48260 2549.60110
 5200.00000    -999.25    -999.25  908.18270    -999.25    -999.25    -999.25    -999.25    1.10110    -999.25   78.40970   78.40970    1.10110    1.13570    1.13570    -999.25    -999.25    -999.25    1.66970  -24.71220   -7.39590    1.66970 2579.59810
 5250.00000    -999.25    -999.25  642.13700    -999.25    -999.25    -999.25    -999.25    1.55730    -999.25   92.32420   92.32420    1.55730    1.61900    1.61900    -999.25    -999.25    -999.25    2.20250  -23.20560   -5.98110    2.20250 2596.92330
 5300.00000    -999.25    -999.25  537.72110    -999.25    -999.25    -999.25    -999.25    1.85970    -999.25   98.38780   98.38780    1.85970    1.99300    1.99300    -999.25    -999.25    -999.25    2.83540  -22.08180   -4.94920    2.83540 2620.96090
 5350.00000    -999.25    -999.25  488.49590    -999.25    -999.25    -999.25    -999.25    2.04710    -999.25   98.28070   98.28070    2.04710    2.09880    2.09880    -999.25    -999.25    -999.25    2.85960  -21.36870   -4.32800    2.85960 2560.74020
 5400.00000    -999.25    -999.25  707.26360    -999.25    -999.25    -999.25    -999.25    1.41390    -999.25   73.55070   73.55070    1.41390    1.44810    1.44810    -999.25    -999.25    -999.25    1.90960  -24.93160   -7.98280    1.90960 2666.29490
 5450.00000    -999.25    -999.25  605.69350    -999.25    -999.25    -999.25    -999.25    1.65100    -999.25   70.34280   70.34280    1.65100    1.69120    1.69120    -999.25    -999.25    -999.25    2.06440  -26.06470   -9.20780    2.06440 2623.49340
 5500.00000    -999.25    -999.25  752.27560    -999.25    -999.25    -999.25    -999.25    1.32930    -999.25   73.56330   73.56330    1.32930    1.38490    1.38490    -999.25    -999.25    -999.25    1.59640  -22.13930   -5.37430    1.59640 2594.75120
 5550.00000    -999.25    -999.25  602.51850    -999.25    -999.25    -999.25    -999.25    1.65970    -999.25   56.64490   56.64490    1.65970    1.58010    1.58010    -999.25    -999.25    -999.25    2.92020  -24.74870   -8.07560    2.92020 2619.32590
 5600.00000    -999.25    -999.25  576.00370    -999.25    -999.25    -999.25    -999.25    1.73610    -999.25   68.86420   68.86420    1.73610    1.86360    1.86360    -999.25    -999.25    -999.25    2.49750  -23.85000   -7.26880    2.49750 2697.74220
 5650.00000    -999.25    -999.25  903.01610    -999.25    -999.25    -999.25    -999.25    1.10740    -999.25   63.76540   63.76540    1.10740    1.17240    1.17240    -999.25    -999.25    -999.25    1.64660  -20.77580   -4.28650    1.64660 2713.60640
 5700.00000    -999.25    -999.25  561.19870    -999.25    -999.25    -999.25    -999.25    1.78190    -999.25   54.41740   54.41740    1.78190    2.00770    2.00770    -999.25    -999.25    -999.25    2.43090  -22.03110   -5.63370    2.43090 2688.90190
 5750.00000    -999.25    -999.25  118.07490    -999.25    -999.25    -999.25    -999.25    8.46920    -999.25   24.26840   24.26840    8.46920    8.67210    8.67210    -999.25    -999.25    -999.25    8.71760  -28.12090  -11.81540    8.71760 2713.03980
 5800.00000    -999.25    -999.25  187.97700    -999.25    -999.25    -999.25    -999.25    5.31980    -999.25   28.56750   28.56750    5.31980    5.49700    5.49700    -999.25    -999.25    -999.25    6.17800  -20.59840   -4.38480    6.17800 2735.76810
 5850.00000    -999.25    -999.25  220.97980    -999.25    -999.25    -999.25    -999.25    4.52530    -999.25   38.06150   38.06150    4.52530    4.87570    4.87570    -999.25    -999.25    -999.25    7.03730  -21.89720   -5.77550    7.03730 2802.27980
 5900.00000    -999.25    -999.25  100.23560    -999.25    -999.25    -999.25    -999.25    9.97650    -999.25   20.98850   20.98850    9.97650   10.15930   10.15930    -999.25    -999.25    -999.25   11.09870  -27.29100  -11.26120   11.09870 2792.77560
 5950.00000    -999.25    -999.25   73.73160    -999.25    -999.25    -999.25    -999.25   13.56270    -999.25   10.99780   10.99780   13.56270   13.76680   13.76680    -999.25    -999.25    -999.25   21.85670  -36.36410  -20.42620   21.85670 2853.17210
 6000.00000    -999.25    -999.25   66.56110    -999.25    -999.25    -999.25    -999.25   15.02380    -999.25   14.93370   14.93370   15.02380   17.06550   17.06550    -999.25    -999.25    -999.25   30.83940  -37.77170  -21.92570   30.83940 2774.14160
 6050.00000    -999.25    -999.25   82.47690    -999.25    -999.25    -999.25    -999.25   12.12460    -999.25   17.99970   17.99970   12.12460   12.65800   12.65800    -999.25    -999.25    -999.25   12.22610  -26.94200  -11.18790   12.22610 2855.07740
 6100.00000    -999.25    -999.25   54.09320    -999.25    -999.25    -999.25    -999.25   18.48660    -999.25   13.40690   13.40690   18.48660   20.60630   20.60630    -999.25    -999.25    -999.25   18.21160  -30.14140  -14.47920   18.21160 2863.75510
 6150.00000    -999.25    -999.25   60.09180    -999.25    -999.25    -999.25    -999.25   16.64120    -999.25   16.23550   16.23550   16.64120   18.62220   18.62220    -999.25    -999.25    -999.25   25.22960  -32.56410  -16.99380   25.22960 2855.43430
 6200.00000    -999.25    -999.25  174.31620    -999.25    -999.25    -999.25    -999.25    5.73670    -999.25   30.42500   30.42500    5.73670    6.19240    6.19240    -999.25    -999.25    -999.25    7.39920  -19.84060   -4.36210    7.39920 2870.34500
 6250.00000    -999.25    -999.25  133.76670    -999.25    -999.25    -999.25    -999.25    7.47570    -999.25   27.70460   27.70460    7.47570    7.96070    7.96070    -999.25    -999.25    -999.25    7.85490  -21.67940   -6.29280    7.85490 2880.48120
