~Version ---------------------------------------------------
VERS. 2.0 : CWLS log ASCII Standard -VERSION 2.0
WRAP. YES : MULTIPLE LINES PER DEPTH STEP
~Well ------------------------------------------------------
STRT.FT                    550.0 : START DEPTH
STOP.FT                   7500.0 : STOP DEPTH
STEP.FT                 50.00000 : STEP LENGTH
NULL.                    -999.25 : NULL VALUE
COMP. CONVEST ENERGY CORPORATION : COMPANY
WELL.             MATTIE GISE #1 : WELL
FLD .                    WILDCAT : FIELD
LOC .                            : LOCATION
CNTY.                     DIMMIT : COUNTY
STAT.                      TEXAS : STATE
CTRY.   UNITED STATES OF AMERICA : COUNTRY
SRVC.               Schlumberger : SERVICE COMPANY
DATE.                16-Aug-1977 : LOGDATE
API .             42127315410000 : API NUMBER
UWI .             42127315410000 : UNIQUE WELL ID
SLAT.WGS84         28.5693608094 : SURFACE LATITUDE
SLON.WGS84        -99.4381683951 : SURFACE LONGITUDE
~Curve Information -----------------------------------------
DEPT    .FT    : DEPTH FEET
CALDED  .IN    : CALIPER FROM DENSITY LOG [SPL TO SPRED]
CALWS   .IN    : CALIPER [CALDED]
CONDWS  .MMHO  : CONDUCTIVITY [1000/DRESWS]
CORRED  .G/C3  : DENSITY CORRECTION FROM DENSITY LOG [SPL TO SPRED]
DCORWS  .G/C3  : DENSITY CORRECTION [CORRED]
DENWS   .G/C3  : BULK DENSITY [RHOBED]
DPHILSED.V/V   : DENSITY POROSITY [M=2.71 F=1.0] FROM DENSITY LOG [SPL TO SPRED]
DPHISSED.V/V   : DENSITY POROSITY [M=2.68 F=1.0] FROM DENSITY LOG [SPL TO SPRED]
DPOWS   .V/V   : DENSITY POROSITY [M=2.71 F=1.0] [CALCULATED FROM DENWS]
DRESWS  .OHMM  : DEEP RESISTIVITY [ILDED]
DTED    .US/F  : DELTA TIME FROM SONIC LOG
DTWS    .US/F  : DELTA TIME [DTED]
GRDED   .GAPI  : GAMMA RAY FROM DENSITY LOG [SPL TO SPRED]
GRNED   .GAPI  : GAMMA RAY FROM NEUTRON LOG [SPL TO GRDED]
GRWS    .GAPI  : GAMMA RAY [SPL GRDED <5995F> GRNED <3000F> GRDED, CASED HOLE DATA FROM 5995F-6333F]
ILDED   .OHMM  : INDUCTION LOG DEEP RESISTIVITY
ILMED   .OHMM  : INDUCTION LOG MEDIUM RESISTIVITY
LL8ED   .OHMM  : 8 INCH LATEROLOG RESISTIVITY
MRESWS  .OHMM  : MEDIUM RESISTIVITY [ILMED]
NEUTED  .NAPI  : NEUTRON FROM NEUTRON LOG [SPL TO GRDED]
NEUTWS  .NAPI  : NEUTRON [NEUTED]
NPHILSED.V/V   : NEUTRON POROSITY LIMESTONE FROM DENSITY LOG [SPL TO SPRED]
NPHISSED.V/V   : NEUTRON POROSITY SANDSTONE FROM DENSITY LOG [SPL TO SPRED]
NPOWS   .V/V   : NEUTRON POROSITY LIMESTONE [CONVERTED NPHISSED TO LIMESTONE AND SPL WITH NPHILSED @6300F]
RHOBED  .G/C3  : BULK DENSITY FROM DENSITY LOG [SPL TO SPRED]
SPRED   .MV    : SPONTANEOUS POTENTIAL FROM RESISTIVITY LOG
SPWS    .MV    : SPONTANEOUS POTENTIAL [BASELINE 0 MV] [SPRED]
SRESWS  .OHMM  : SHALLOW RESISTIVITY [LL8ED]
~Params ----------------------------------------------------
PD  .                     GL : PERMANENT DATUM
EPD .F                 513.9 : ELEVATION PERMANENT DATUM
LMF .                     KB : LOG MEASURED FROM
DAPD.F                    11 : FEET ABOVE PERMANENT DATUM
DMF .                     KB : DRILLING MEASURED FROM
EKB .F                 524.9 : KELLING BUSHING
EDF .F                 523.9 : DRILLING FLOOR
EGL .F                 513.9 : GROUND LEVEL
DATE.               08/16/77 : RUN DATE
RUN .                      1 : RUN NUMBER
DD  .F                  7522 : DEPTH DRILLER
DL  .F                  7532 : DEPTH LOGGER
BLI .F                  7531 : BOTTOM LOG INTERVAL
CS  .IN                8.625 : CASING SIZE
CBD .F                   518 : CASING BOTTOM DRILLER
CBL .F                   520 : CASING BOTTOM LOGGER
BS  .IN                7.875 : BIT SIZE
BSD .F                  7522 : BIT SIZE AT DEPTH
DFT .              DISPERSED : DRILLING FLUID TYPE
DFD .                    9.4 : DRILLING FLUID DENSITY
DFV .                     58 : DRILLING FLUID VISCOSITY
DFPH.                     10 : DRILLING FLUID PH
DFL .                    5.8 : DRILLING FLUID LOSS
MSS .             CIRC. TANK : MUD SAMPLE SOURCE
RMS .OHMM               1.43 : RESISTIVITY MUD SAMPLE
MST .F                    81 : MUD SAMPLE TEMPERATURE
RMF .OHMM               1.34 : RESISTIVITY MUD FILTRATE SAMPLE
MFST.F                    81 : MUD FILTRATE SAMPLE TEMPERATURE
RMC .OHMM               1.15 : RESISTIVITY MUD CAKE
MCST.F                    81 : MUD CAKE SAMPLE TEMPERATURE
MFSS.                      M : MUD FILTRATE SAMPLE SOURCE
MCSS.                      C : MUD CAKE SAMPLE SOURCE
RMB .OHMM               0.65 : RESISTIVITY MUD AT BHT
TCS .HRS                2000 : TIME CURCULATED STOPPED
TLAB.HRS                1100 : TIME LOGGER AT BOTTOM
LUN .                   7769 : LOGGING UNIT NUMBER
LUL .                 LARDEO : LOGGING UNIT LOCATION
ENGI.                 SPAETH : RECORDING ENGINEER
WITN.     MR CLARK / MR HEAD : WITNESSED BY
CLNT.                A2DTECH : CLIENT CODE
ORIG.               5" PRINT : ORIGIN OF DATA
UWI .         42127315410000 : UNIQUE WELL ID
DICO. A2D Technologies, Inc. : DIGITIZING COMPANY
~Other -----------------------------------------------------
~ASCII -----------------------------------------------------
# ...
 5550.00000    -999.25    -999.25  432.39500    -999.25    -999.25    -999.25    -999.25    -999.25    -999.25    2.31270   99.15850   99.15850    -999.25    -999.25    -999.25    2.31270    2.39170    2.34330    2.39170    -999.25    -999.25    -999.25    -999.25    -999.25    -999.25  -46.30610   -1.90200    2.34330
 5600.00000   11.90840   11.90840  339.31660    0.10860    0.10860    2.39670    -999.25    0.16340    0.18320    2.94710   86.94810   86.94810   82.30770    -999.25   82.30770    2.94710    3.06030    3.34640    3.06030    -999.25    -999.25    -999.25    0.26130    0.21730    2.39670  -47.66180   -3.35230    3.34640
 5650.00000   10.97700   10.97700  327.11810    0.01200    0.01200    2.43020    -999.25    0.15060    0.16360    3.05700   82.96460   82.96460   64.71340    -999.25   64.71340    3.05700    3.16340    3.38180    3.16340    -999.25    -999.25    -999.25    0.23890    0.19510    2.43020  -56.99940  -12.78710    3.38180
 5700.00000   12.80450   12.80450  342.88850    0.22130    0.22130    2.32880    -999.25    0.20900    0.22290    2.91640   84.72790   84.72790   90.86680    -999.25   90.86680    2.91640    3.04000    3.56490    3.04000    -999.25    -999.25    -999.25    0.31920    0.27530    2.32880  -46.16490   -2.05310    3.56490
 5750.00000   12.20220   12.20220  322.57020    0.19560    0.19560    2.41330    -999.25    0.14750    0.17350    3.10010   85.13900   85.13900   89.94090    -999.25   89.94090    3.10010    3.21060    3.80260    3.21060    -999.25    -999.25    -999.25    0.24250    0.19860    2.41330  -47.47700   -3.46570    3.80260
 5800.00000   11.09160   11.09160  279.72030    0.01310    0.01310    2.51410    -999.25    0.10010    0.11460    3.57500   81.99140   81.99140   98.02620    -999.25   98.02620    3.57500    3.69760    4.12100    3.69760    -999.25    -999.25    -999.25    0.22720    0.18350    2.51410  -47.79490   -3.88420    4.12100
 5850.00000   12.59020   12.59020  371.67810    0.03070    0.03070    2.40740    -999.25    0.16450    0.17700    2.69050   81.33840   81.33840   51.18590    -999.25   51.18590    2.69050    2.79770    3.10670    2.79770    -999.25    -999.25    -999.25    0.22820    0.18450    2.40740  -69.64850  -25.83830    3.10670
 5900.00000   12.59090   12.59090  279.11910    0.00130    0.00130    2.49870    -999.25    0.11200    0.12360    3.58270   80.74240   80.74240   84.76970    -999.25   84.76970    3.58270    3.70540    3.94640    3.70540    -999.25    -999.25    -999.25    0.24350    0.19960    2.49870  -50.14220   -6.43250    3.94640
 5950.00000   13.67190   13.67190  286.23770    0.04750    0.04750    2.48860    -999.25    0.11810    0.12950    3.49360   83.17590   83.17590   96.37790    -999.25   96.37790    3.49360    3.61480    3.99630    3.61480    -999.25    -999.25    -999.25    0.31480    0.27090    2.48860  -47.06660   -3.45750    3.99630
 6000.00000    -999.25    -999.25  260.39630    -999.25    -999.25    -999.25    -999.25    -999.25    -999.25    3.84030   81.10360   81.10360    -999.25   59.54080   59.54080    3.84030    3.97170    4.03420    3.97170  595.98970  595.98970    -999.25    -999.25    -999.25    -999.25  -48.63670   -5.12810    4.03420
 6050.00000    -999.25    -999.25  256.09510    -999.25    -999.25    -999.25    -999.25    -999.25    -999.25    3.90480   78.91650   78.91650    -999.25   52.39480   52.39480    3.90480    4.05240    4.15770    4.05240  622.33610  622.33610    -999.25    -999.25    -999.25    -999.25  -52.45180   -9.04370    4.15770
 6100.00000    -999.25    -999.25  241.90820    -999.25    -999.25    -999.25    -999.25    -999.25    -999.25    4.13380   77.88390   77.88390    -999.25   80.13710   80.13710    4.13380    4.28380    4.69240    4.28380  583.21480  583.21480    -999.25    -999.25    -999.25    -999.25  -47.01950   -3.71200    4.69240
 6150.00000    -999.25    -999.25  344.15120    -999.25    -999.25    -999.25    -999.25    -999.25    -999.25    2.90570   87.75460   87.75460    -999.25   92.51870   92.51870    2.90570    3.00500    3.41700    3.00500  346.45260  346.45260    -999.25    -999.25    -999.25    -999.25  -44.21560   -1.00860    3.41700
 6200.00000    -999.25    -999.25  373.45480    -999.25    -999.25    -999.25    -999.25    -999.25    -999.25    2.67770   89.11180   89.11180    -999.25   76.09300   76.09300    2.67770    2.76950    3.18630    2.76950  303.45360  303.45360    -999.25    -999.25    -999.25    -999.25  -43.97170   -0.86520    3.18630
 6250.00000    -999.25    -999.25  342.17280    -999.25    -999.25    -999.25    -999.25    -999.25    -999.25    2.92250   88.98290   88.98290    -999.25   74.98700   74.98700    2.92250    3.04690    3.60120    3.04690  343.74200  343.74200    -999.25    -999.25    -999.25    -999.25  -43.70870   -0.70280    3.60120
 6300.00000    9.58010    9.58010  241.27780   -0.00440   -0.00440    2.57220    0.08150    -999.25    0.08060    4.14460   79.85760   79.85760   56.87570   55.90890   55.90890    4.14460    4.29420    4.88270    4.29420  470.79770  470.79770    0.18760    -999.25    0.18760    2.57220  -45.29650   -2.39110    4.88270
 6350.00000    9.61590    9.61590  190.92720   -0.01250   -0.01250    2.60790    0.05890    -999.25    0.05970    5.23760   72.22320   72.22320   48.38400   45.59780   48.38400    5.23760    5.73200    6.69150    5.73200 1071.45190 1071.45190    0.13120    -999.25    0.13120    2.60790  -46.91170   -4.10680    6.69150
 6400.00000    9.36850    9.36850  135.64840   -0.00440   -0.00440    2.60680    0.05830    -999.25    0.06040    7.37200   68.10440   68.10440   41.78150   31.77070   41.78150    7.37200    7.65440    9.08350    7.65440  701.66610  701.66610    0.10300    -999.25    0.10300    2.60680  -45.82040   -3.49160    9.08350
 6450.00000    8.80290    8.80290   85.03760    0.00560    0.00560    2.61580    0.05050    -999.25    0.05510   11.75950   62.75580   62.75580   44.14570   38.92580   44.14570   11.75950   13.50200   17.39920   13.50200  805.89900  805.89900    0.09600    -999.25    0.09600    2.61580  -46.71320   -4.88430   17.39920
 6500.00000    8.64190    8.64190   66.53980    0.00640    0.00640    2.59310    0.06490    -999.25    0.06840   15.02860   63.33130   63.33130   32.51590   34.43630   32.51590   15.02860   15.82040   16.48010   15.82040  955.71730  955.71730    0.10170    -999.25    0.10170    2.59310  -49.71680   -8.38790   16.48010
 6550.00000    8.97060    8.97060   82.99030    0.00380    0.00380    2.60110    0.06410    -999.25    0.06370   12.04960   64.68810   64.68810   39.92310   35.08590   39.92310   12.04960   12.68310   13.28360   12.68310  715.32780  715.32780    0.13250    -999.25    0.13250    2.60110  -45.96390   -5.13500   13.28360
 6600.00000   10.28820   10.28820  197.80440    0.00740    0.00740    2.55180    0.08840    -999.25    0.09250    5.05550   75.46540   75.46540   55.28080   46.00390   55.28080    5.05550    5.28350    5.95980    5.28350  358.13780  358.13780    0.16280    -999.25    0.16280    2.55180  -41.28760   -0.95870    5.95980
 6650.00000    9.57870    9.57870  225.85600    0.05270    0.05270    2.55350    0.09610    -999.25    0.09150    4.42760   81.45260   81.45260   71.65450   60.22520   71.65450    4.42760    4.78970    4.95070    4.78970  368.40910  368.40910    0.20800    -999.25    0.20800    2.55350  -41.62750   -1.79860    4.95070
 6700.00000    8.61310    8.61310  107.39980    0.03880    0.03880    2.58590    0.07530    -999.25    0.07260    9.31100   65.05020   65.05020   50.50480   44.00490   50.50480    9.31100   10.23440   10.26500   10.23440  785.51740  785.51740    0.11590    -999.25    0.11590    2.58590  -47.65400   -8.32510   10.26500
 6750.00000    8.43790    8.43790  137.93100    0.00650    0.00650    2.55030    0.09570    -999.25    0.09340    7.25000   62.30020   62.30020   44.95100   45.29120   44.95100    7.25000    9.44650   29.21650    9.44650  727.42500  727.42500    0.13180    -999.25    0.13180    2.55030  -48.69870   -9.86980   29.21650
