~Version ---------------------------------------------------
VERS. 2.0 : CWLS log ASCII Standard -VERSION 2.0
WRAP. YES : Multiple lines per depth step
~Well ------------------------------------------------------
STRT.FT                     300.0 : START DEPTH
STOP.FT                   15250.0 : STOP DEPTH
STEP.FT                  50.00000 : STEP LENGTH
NULL.                     -999.25 : NULL VALUE
COMP. GRACE PETROLEUM CORPORATION : COMPANY
WELL.      WELDON COX GAS UNIT #1 : WELL
FLD .                  BEAR GRASS : FIELD
LOC .                             : LOCATION
CNTY.                        LEON : COUNTY
STAT.                       TEXAS : STATE
CTRY.    UNITED STATES OF AMERICA : COUNTRY
SRVC.                Schlumberger : SERVICE COMPANY
DATE.                 27-Jan-1980 : LOGDATE
API .              42289303540000 : API NUMBER
UWI .              42289303540000 : UNIQUE WELL ID
SLAT.WGS84           31.398216302 : SURFACE LATITUDE
SLON.WGS84         -96.2188853622 : SURFACE LONGITUDE
~Curve Information -----------------------------------------
DEPT    .FT    : DEPTH FEET
CALDED  .IN    : CALIPER FROM SIMULTANEOUS COMPENSATED NEUTRON-FORMATION DENSITY LOG [ADJ. TO CALRED]
CALRED  .IN    : CALIPER FROM DUAL INDUCTION-SFL-BOREHOLE COMPENSATED SONIC LOG
CALWS   .IN    : CALIPER [CALDED SPLICED FOR DEPTH 7900' TO 15268.5' WITH CALRED]
CONDWS  .MMHO  : CONDUCTIVITY [1000/DRESWS]
DCORWS  .G/C3  : DENSITY CORRECTION [DRHOED]
DENWS   .G/C3  : FORMATION BULK DENSITY [RHOBED]
DPHILSED.V/V   : DENSITY POROSITY LIMESTONE [M=2.71, F=1.0, CALCULATED FROM DENWS]]
DPOWS   .V/V   : DENSITY POROSITY LIMESTONE [DPHILSED]
DRESWS  .OHMM  : DEEP RESISTIVITY [ILDED]
DRHOED  .G/C3  : BULK DENSITY CORRECTION SIMULTANEOUS COMPENSATED NEUTRON-FORMATION DENSITY LOG [ADJ. TO ILDED]
DTED    .US/F  : DELTA-T (INTERVAL TRANSIT TIME) FROM DUAL INDUCTION-SFL-BOREHOLE COMPENSATED SONIC LOG
DTWS    .US/F  : COMPRESSIONAL SONIC [DTED]
GRDED   .GAPI  : GAMMA RAY SIMULTANEOUS COMPENSATED NEUTRON-FORMATION DENSITY LOG [ADJ. TO ILDED]
GRWS    .GAPI  : GAMMA RAY [GRDED]
ILDED   .OHMM  : DEEP INDUCTION FROM DUAL INDUCTION-SFL-BOREHOLE COMPENSATED SONIC LOG
ILMED   .OHMM  : MEDIUM INDUCTION FROM DUAL INDUCTION-SFL-BOREHOLE COMPENSATED SONIC LOG
MRESWS  .OHMM  : MEDIUM RESISTIVITY [ILMED]
NPHILSED.V/V   : NEUTRON POROSITY LIMESTONE SIMULTANEOUS COMPENSATED NEUTRON-FORMATION DENSITY LOG [ADJ. TO ILDED]
NPOWS   .V/V   : NEUTRON POROSITY LIMESTONE [NPHILSED]
RHOBED  .G/C3  : BULK DENSITY SIMULTANEOUS COMPENSATED NEUTRON-FORMATION DENSITY LOG [ADJ. TO ILDED]
SFLUED  .OHMM  : SHALLOW FOCUSED INDUCTION (UNAVERAGED) FROM DUAL INDUCTION-SFL-BOREHOLE COMPENSATED SONIC LOG
SPRED   .MV    : SPONTANEOUS POTENTIAL FROM DUAL INDUCTION-SFL-BOREHOLE COMPENSATED SONIC LOG
SPWS    .MV    : SPONTANEOUS POTENTIAL [BASELINE 0 MV, SPRED]
SRESWS  .OHMM  : SHALLOW RESISTIVITY [SFLUED]
~Params ----------------------------------------------------
PD  .                     GL : PERMANENT DATUM
EPD .F                   492 : ELEVATION PERMANENT DATUM
LMF .                     KB : LOG MEASURED FROM
DAPD.F                  22.4 : FEET ABOVE PERMANENT DATUM
DMF .                     KB : DRILLING MEASURED FROM
EKB .F                 514.4 : KELLING BUSHING
EDF .F                 513.4 : DRILLING FLOOR
EGL .F                   492 : GROUND LEVEL
DATE.              1-27-1980 : RUN DATE
RUN .                      4 : RUN NUMBER
DD  .F                 15300 : DEPTH DRILLER
DL  .F                 15299 : DEPTH LOGGER
BLI .F                 15293 : BOTTOM LOG INTERVAL
TLI .F                 13183 : TOP LOG INTERVAL
CS  .IN                 7.62 : CASING SIZE
CBD .F                  1320 : CASING BOTTOM DRILLER
CBL .F                  1318 : CASING BOTTOM LOGGER
BS  .IN                  6.2 : BIT SIZE
BSD .F                 15300 : BIT SIZE AT DEPTH
DFT .              LIME/CHEM : DRILLING FLUID TYPE
DFD .                   16.2 : DRILLING FLUID DENSITY
DFV .                     55 : DRILLING FLUID VISCOSITY
DFPH.                   11.5 : DRILLING FLUID PH
DFL .                      7 : DRILLING FLUID LOSS
MSS .                   TANK : MUD SAMPLE SOURCE
RMS .OHMM               1.18 : RESISTIVITY MUD SAMPLE
MST .F                    52 : MUD SAMPLE TEMPERATURE
RMF .OHMM               0.66 : RESISTIVITY MUD FILTRATE SAMPLE
MFST.F                    58 : MUD FILTRATE SAMPLE TEMPERATURE
RMC .OHMM                3.7 : RESISTIVITY MUD CAKE
MCST.F                    52 : MUD CAKE SAMPLE TEMPERATURE
MFSS.                      P : MUD FILTRATE SAMPLE SOURCE
MCSS.                      C : MUD CAKE SAMPLE SOURCE
RMB .OHMM               0.18 : RESISTIVITY MUD AT BHT
TCS .HRS                 900 : TIME CURCULATED STOPPED
TLAB.HRS                1730 : TIME LOGGER AT BOTTOM
LUN .                   8083 : LOGGING UNIT NUMBER
LUL .                  TYLER : LOGGING UNIT LOCATION
ENGI.                  HARSH : RECORDING ENGINEER
CLNT.                A2DTECH : CLIENT CODE
ORIG.            2",5" PRINT : ORIGIN OF DATA
UWI .         42289303540000 : UNIQUE WELL ID
DICO. A2D Technologies, Inc. : DIGITIZING COMPANY
~Other -----------------------------------------------------
CALIPER IS INVALID ABOVE 13192' AND IT WAS NULLED
~ASCII -----------------------------------------------------
# ...
 11900.00000    9.97270    7.15090    -999.25    8.49970    0.09220    2.64710    0.03490    0.03680  117.65120    0.09220   77.49090   77.49090   15.37240   15.37240  117.65120   46.58700   46.58700    0.00640    0.00640    2.64710   73.34880  -16.71680  -24.32000   73.34880
 11950.00000   10.25940    7.67680    -999.25  104.64300   -0.01040    1.92780    0.45640    0.45740    9.55630   -0.01040   95.98050   95.98050   61.85800   61.85800    9.55630   14.76530   14.76530    0.24370    0.24370    1.92780   17.61130  -14.98200  -22.90880   17.61130
 12000.00000   11.67170   10.11100    -999.25   51.39540    0.00700    2.75440   -0.03100   -0.02600   19.45700    0.00700   76.30270   76.30270   60.50040   60.50040   19.45700   19.15910   19.15910    0.14690    0.14690    2.75440   25.28180   -2.05810  -10.30840   25.28180
 12050.00000   14.21660   12.51550    -999.25  103.09700    0.00890    1.97770    0.44430    0.42820    9.69960    0.00890   54.13720   54.13720   71.84130   71.84130    9.69960    5.57650    5.57650    0.37070    0.37070    1.97770    8.08670   -8.72920  -17.30310    8.08670
 12100.00000   10.59270    7.88520    -999.25   13.43850    0.07640    2.53800    0.10280    0.10060   74.41320    0.07640   91.26480   91.26480   16.72320   16.72320   74.41320   46.88940   46.88940    0.00280    0.00280    2.53800   74.43810  -37.91850  -46.81590   74.43810
 12150.00000   10.40680    8.00370    -999.25   31.97170    0.00790    2.56790    0.08190    0.08310   31.27770    0.00790   78.10710   78.10710   26.27790   26.27790   31.27770   29.92050   29.92050    0.01570    0.01570    2.56790   52.41870  -25.21180  -34.43280   52.41870
 12200.00000   10.20700    7.33580    -999.25    9.24920    0.03110    2.54560    0.09450    0.09610  108.11800    0.03110   81.75750   81.75750   54.23340   54.23340  108.11800   28.85160   28.85160    0.00320    0.00320    2.54560   33.43930  -25.35350  -34.89800   33.43930
 12250.00000   12.48110    7.87080    -999.25   19.68400    0.06600    2.37980    0.18960    0.19310   50.80260    0.06600   88.65880   88.65880   19.96190   19.96190   50.80260   36.22110   36.22110    0.02820    0.02820    2.37980   47.04350  -43.81430  -53.68240   47.04350
 12300.00000   13.43100   10.13360    -999.25  109.39360   -0.00210    1.84870    0.50510    0.50370    9.14130   -0.00210  116.24130  116.24130   80.93460   80.93460    9.14130    4.34830    4.34830    0.29020    0.29020    1.84870    6.09180  -10.80690  -20.99850    6.09180
 12350.00000   10.69370    8.01040    -999.25   16.80740    0.14460    2.57480    0.07470    0.07910   59.49770    0.14460   87.27880   87.27880   16.51120   16.51120   59.49770   37.37700   37.37700    0.01710    0.01710    2.57480   59.33260  -45.94810  -56.46320   59.33260
 12400.00000   11.23070    7.77190    -999.25    7.32350    0.05360    2.54750    0.09240    0.09500  136.54720    0.05360   75.80330   75.80330   25.37940   25.37940  136.54720   46.82000   46.82000    0.00500    0.00500    2.54750   51.39410  -55.49240  -66.33110   51.39410
 12450.00000   10.42290    7.62240    -999.25   92.72400    0.06440    2.53160    0.10080    0.10430   10.78470    0.06440   85.29980   85.29980   49.85020   49.85020   10.78470    9.93970    9.93970    0.07330    0.07330    2.53160   14.26050  -26.40540  -37.56760   14.26050
 12500.00000   10.39050    7.64980    -999.25  166.56120    0.02860    2.52810    0.10660    0.10640    6.00380    0.02860   96.28300   96.28300   28.84820   28.84820    6.00380    5.21090    5.21090    0.04570    0.04570    2.52810    7.29360  -50.21890  -61.70470    7.29360
 12550.00000   12.59160    8.25180    -999.25   36.03500    0.13340    2.33370    0.21910    0.22010   27.75080    0.13340   86.47740   86.47740   28.97740   28.97740   27.75080   30.50440   30.50440    0.02040    0.02040    2.33370   17.66300  -54.08950  -65.89880   17.66300
 12600.00000   10.49260    7.74110    -999.25   14.62170    0.08170    2.58930    0.06980    0.07060   68.39140    0.08170   79.53420   79.53420   20.66620   20.66620   68.39140   32.99040   32.99040    0.00870    0.00870    2.58930   51.08020  -45.12410  -57.25700   51.08020
 12650.00000   10.33790    7.23660    -999.25   11.54590    0.00090    2.67320    0.02770    0.02150   86.61060    0.00090   68.36530   68.36530   19.51380   19.51380   86.61060   64.44300   64.44300    0.03790    0.03790    2.67320  118.65600  -43.28590  -55.74230  118.65600
 12700.00000   10.79210    7.67250    -999.25   83.84760    0.04490    2.49010    0.12770    0.12860   11.92640    0.04490   92.20390   92.20390   32.81560   32.81560   11.92640    9.32780    9.32780    0.07010    0.07010    2.49010   10.09740  -40.84860  -53.62860   10.09740
 12750.00000   10.49940    7.64860    -999.25   96.07900    0.06490    2.59970    0.06770    0.06450   10.40810    0.06490   99.38730   99.38730   88.17490   88.17490   10.40810    7.14450    7.14450    0.14930    0.14930    2.59970   10.16580   -8.95040  -22.05390   10.16580
 12800.00000   14.09370   12.20110    -999.25  167.89790   -0.03140    1.82100    0.52800    0.51990    5.95600   -0.03140  113.99760  113.99760   69.74720   69.74720    5.95600    4.58430    4.58430    0.35710    0.35710    1.82100    6.09000  -22.06070  -35.48780    6.09000
 12850.00000   10.29750    7.60290    -999.25   23.89050    0.02270    2.55120    0.08890    0.09290   41.85760    0.02270   83.25380   83.25380   17.87490   17.87490   41.85760   35.39290   35.39290    0.01540    0.01540    2.55120   43.02270  -33.84890  -47.59950   43.02270
 12900.00000   10.41710    7.54200    -999.25   69.69710    0.02980    2.58830    0.07060    0.07120   14.34780    0.02980   90.86230   90.86230   88.50920   88.50920   14.34780   17.65310   17.65310    0.20520    0.20520    2.58830   16.43100   -4.36060  -18.43470   16.43100
 12950.00000   10.34480    7.56490    -999.25   65.83190    0.16790    2.55810    0.09290    0.08880   15.19020    0.16790   89.58960   89.58960   65.04850   65.04850   15.19020   16.05280   16.05280    0.05730    0.05730    2.55810   16.06050   -7.55880  -21.95650   16.06050
 13000.00000   10.67200    7.99870    -999.25  146.76310    0.04710    2.63490    0.04300    0.04390    6.81370    0.04710  100.86070  100.86070   78.17240   78.17240    6.81370    6.59850    6.59850    0.20410    0.20410    2.63490    7.90580    1.00160  -13.71960    7.90580
 13050.00000   10.10040    7.18800    -999.25   46.70690    0.01810    2.52730    0.10680    0.10680   21.41010    0.01810   87.10810   87.10810   51.06770   51.06770   21.41010   20.02700   20.02700    0.07260    0.07260    2.52730   23.49420  -20.69820  -35.74300   23.49420
 13100.00000   10.02590    6.97360    -999.25   79.22740   -0.01450    2.57410    0.08040    0.07950   12.62190   -0.01450   88.23670   88.23670   67.74480   67.74480   12.62190   13.42330   13.42330    0.12420    0.12420    2.57410   13.39340   -2.52480  -17.89310   13.39340
 13150.00000   10.00390    7.21200    -999.25  146.72440    0.03020    2.62020    0.04820    0.05250    6.81550    0.03020  103.57070  103.57070  107.40760  107.40760    6.81550    6.47740    6.47740    0.19490    0.19490    2.62020    8.83230    3.66100  -12.03090    8.83230
 13200.00000    9.94390    8.88140    9.94390  229.46310    0.11230    2.59740    0.06530    0.06580    4.35800    0.11230   77.07820   77.07820   38.62230   38.62230    4.35800    4.55540    4.55540    0.31690    0.31690    2.59740    5.62470    6.42220   -9.59320    5.62470
 13250.00000   10.44830    7.93480   10.44830  211.13970   -0.02070    2.67290    0.02060    0.02170    4.73620   -0.02070   77.14030   77.14030   64.49470   64.49470    4.73620    4.93790    4.93790    0.21410    0.21410    2.67290    5.82630   10.63070   -5.75940    5.82630
 13300.00000    7.29590    6.32150    7.29590  202.27760   -0.10940    2.61580    0.05350    0.05510    4.94370   -0.10940   77.73030   77.73030   85.87130   85.87130    4.94370    5.15540    5.15540    0.21050    0.21050    2.61580    5.89750    3.94420  -12.85760    5.89750
