~Version ---------------------------------------------------
VERS. 2.0 : CWLS log ASCII Standard -VERSION 2.0
WRAP. YES : MULTIPLE LINES PER DEPTH STEP
~Well ------------------------------------------------------
STRT.FT                 3400.0 : START DEPTH
STOP.FT                 8300.0 : STOP DEPTH
STEP.FT               50.00000 : STEP LENGTH
NULL.                  -999.25 : NULL VALUE
COMP.      SAGE ENERGY COMPANY : COMPANY
WELL.       VAN DRESAR UNIT #1 : WELL
FLD .                 GIDDINGS : FIELD
LOC .                          : LOCATION
CNTY.                 BURLESON : COUNTY
STAT.                    TEXAS : STATE
CTRY. UNITED STATES OF AMERICA : COUNTRY
SRVC.            Dresser Atlas : SERVICE COMPANY
DATE.              05-Jan-1984 : LOGDATE
API .           42051326100000 : API NUMBER
UWI .           42051326100000 : UNIQUE WELL ID
SLAT.WGS84       30.5520329185 : SURFACE LATITUDE
SLON.WGS84      -96.5959283516 : SURFACE LONGITUDE
~Curve Information -----------------------------------------
DEPT    .FT    : DEPTH FEET
CALRED  .IN    : CALIPER FROM RESISTIVITY LOG
CALWS   .IN    : CALIPER [CALRED]
CNLSED  .V/V   : NEUTRON POROSITY LIMESTONE FROM COMPOSITE LOG
CNSSED  .V/V   : NEUTRON POROSITY SANDTONE FROM COMPOSITE LOG
CONDWS  .MMHO  : CONDUCTIVITY [1000/DRESWS]
DENWS   .G/C3  : BULK DENSITY [CALCULATED FROM DPOWS][M=2.65 F=1.0]<5850>[M=2.71 F=1.0]
DPOWS   .V/V   : DENSITY POROSITY [M=2.65 F=1.0] [PORDSSED]<5850>[M=2.71 F=1.0] [PORDLSED]
DRESWS  .OHMM  : DEEP RESISTIVITY [RILDED]
GRNED   .CPS   : GAMMA RAY FROM NEUTRON LOG, DEPTH ADJUSTED WITH [GRRED]
GRRED   .GAPI  : GAMMA RAY FROM RESISTIVITY LOG
GRWS    .GAPI  : GAMMA RAY [GRRED]
MRESWS  .OHMM  : MEDIUM RESISTIVITY [RILMED]
NEUTED  .NAPI  : NEUTRON FROM NEUTRON LOG, DEPTH ADJUSTED WITH [GRRED]
NEUTWS  .NAPI  : NEUTRON [NEUTED]
NPOWS   .V/V   : NEUTRON POROSITY SANDSTONE [CNSSED]<5850>[CNLSED]
PORDLSED.V/V   : DENSITY POROSITY LIMESTONE FROM COMPOSITE LOG
PORDSSED.V/V   : DENSITY POROSITY SANDSTONE FROM COMPOSITE LOG
RFOCED  .OHMM  : FOCUSED RESISTIVITY
RILDED  .OHMM  : INDUCTION LOG DEEP RESISTIVITY
RILMED  .OHMM  : INDUCTION LOG MEDIUM RESISTIVITY
SPRED   .MV    : SPONTANEOUS POTENTIAL FROM RESISTIVITY LOG
SPWS    .MV    : SPONTANEOUS POTENTIAL [BASELINE 0 MV] [SPRED]
SRESWS  .OHMM  : SHALLOW RESISTIVITY [RFOCED]
TENRED  .LBF   : TENSION FROM RESISTIVITY LOG
~Params ----------------------------------------------------
PD  .                     GL : PERMANENT DATUM
EPD .FT                  375 : ELEVATION PERMANENT DATUM
LMF .                     KB : LOG MEASURED FROM
DAPD.FT                   16 : FEET ABOVE PERMANENT DATUM
DMF .                     KB : DRILLING MEASURED FROM
EKB .FT                  391 : KELLY BUSHING
EDF .FT                  390 : DRILLING FLOOR
EGL .FT                  375 : GROUND LEVEL
DATE.               01/05/84 : RUN DATE
RUN .                      1 : RUN NUMBER
DD  .FT                 8320 : DEPTH DRILLER
DL  .FT                 8317 : DEPTH LOGGER
BLI .FT                 8314 : BOTTOM LOG INTERVAL
TLI .FT                 3403 : TOP LOG INTERVAL
CS  .IN                8.625 : CASING SIZE
CBD .FT                 3415 : CASING BOTTOM DRILLER
CBL .FT                 3403 : CASING BOTTOM LOGGER
BS  .IN                7.875 : BIT SIZE
BSD .FT                 8320 : BIT SIZE AT DEPTH
DFT .        LINGOSULPHONATE : DRILLING FLUID TYPE
DFD .                    9.5 : DRILLING FLUID DENSITY
DFV .                     44 : DRILLING FLUID VISCOSITY
DFPH.                    9.5 : DRILLING FLUID PH
DFL .                    7.4 : DRILLING FLUID LOSS
MSS .               FLOWLINE : MUD SAMPLE SOURCE
RMS .OHMM               2.79 : RESISTIVITY MUD SAMPLE
MST .DEGF                 75 : MUD SAMPLE TEMPERATURE
RMF .OHMM               4.44 : RESISTIVITY MUD FILTRATE SAMPLE
MFST.DEGF                 75 : MUD FILTRATE SAMPLE TEMPERATURE
RMC .OHMM               3.63 : RESISTIVITY MUD CAKE
MCST.DEGF                 75 : MUD CAKE SAMPLE TEMPERATURE
MFSS.               MEASURED : MUD FILTRATE SAMPLE SOURCE
MCSS.               MEASURED : MUD CAKE SAMPLE SOURCE
RMB .OHMM              1.125 : RESISTIVITY MUD AT BHT
TCS .HRS                   6 : TIME CIRCULATED STOPPED
LUN .                HL 6304 : LOGGING UNIT NUMBER
LUL .                  BRYAN : LOGGING UNIT LOCATION
ENGI.            KIRK WRIGHT : RECORDING ENGINEER
WITN.                  BAKER : WITNESSED BY
CLNT.                A2DTECH : CLIENT CODE
ORIG.            2" 5" PRINT : ORIGIN OF DATA
UWI .         42051326100000 : UNIQUE WELL ID
DICO. A2D Technologies, Inc. : DIGITIZING COMPANY
~Other -----------------------------------------------------
~ASCII -----------------------------------------------------
# ...
 6300.00000   10.70650   10.70650    -999.25    -999.25  884.17330    -999.25    -999.25    1.13100    -999.25   82.51320   82.51320    1.18100    -999.25    -999.25    -999.25    -999.25    -999.25    1.80150    1.13100    1.18100  -11.85440  -12.22640    1.80150    0.00000
 6350.00000   10.72110   10.72110    -999.25    -999.25  828.08870    -999.25    -999.25    1.20760    -999.25   78.27270   78.27270    1.32110    -999.25    -999.25    -999.25    -999.25    -999.25    1.90130    1.20760    1.32110  -10.82770  -11.23480    1.90130    0.00000
 6400.00000    8.90670    8.90670    -999.25    -999.25  390.42670    -999.25    -999.25    2.56130    -999.25   57.65720   57.65720    2.82140    -999.25    -999.25    -999.25    -999.25    -999.25    3.31800    2.56130    2.82140   -2.44850   -2.89070    3.31800    6.52560
 6450.00000    8.99950    8.99950    -999.25    -999.25  346.16450    -999.25    -999.25    2.88880    -999.25   45.21980   45.21980    3.05560    -999.25    -999.25    -999.25    -999.25    -999.25    3.62310    2.88880    3.05560   -4.19120   -4.66850    3.62310    3.22670
 6500.00000    8.91910    8.91910    -999.25    -999.25  323.93910    -999.25    -999.25    3.08700    -999.25   41.15800   41.15800    3.28630    -999.25    -999.25    -999.25    -999.25    -999.25    4.09740    3.08700    3.28630   -4.39630   -4.90870    4.09740    9.95150
 6550.00000    9.00230    9.00230    -999.25    -999.25  227.97740    -999.25    -999.25    4.38640    -999.25   41.87070   41.87070    4.57500    -999.25    -999.25    -999.25    -999.25    -999.25    4.97370    4.38640    4.57500   -6.50310   -7.05060    4.97370    7.71660
 6600.00000    8.99650    8.99650    -999.25    -999.25  334.15760    -999.25    -999.25    2.99260    -999.25   68.73070   68.73070    3.15580    -999.25    -999.25    -999.25    -999.25    -999.25    3.48130    2.99260    3.15580   -2.79090   -3.72160    3.48130   48.39490
 6650.00000    8.55000    8.55000    -999.25    -999.25  397.17210    -999.25    -999.25    2.51780    -999.25   77.71390   77.71390    2.66320    -999.25    -999.25    -999.25    -999.25    -999.25    3.08980    2.51780    2.66320   -0.81180   -2.30510    3.08980    0.00000
 6700.00000    8.54580    8.54580    -999.25    -999.25  507.56270    -999.25    -999.25    1.97020    -999.25   83.42430   83.42430    2.13250    -999.25    -999.25    -999.25    -999.25    -999.25    2.70190    1.97020    2.13250   -0.99450   -3.05040    2.70190    0.00000
 6750.00000    8.69300    8.69300    -999.25    -999.25  465.93980    -999.25    -999.25    2.14620    -999.25   85.95860   85.95860    2.28680    -999.25    -999.25    -999.25    -999.25    -999.25    2.79310    2.14620    2.28680   -0.82680   -3.44530    2.79310    2.85940
 6800.00000    8.57320    8.57320    -999.25    -999.25  478.01150    -999.25    -999.25    2.09200   32.82400   81.23890   81.23890    2.24270  420.41390  420.41390    -999.25    -999.25    -999.25    2.85780    2.09200    2.24270    3.76890    0.58780    2.85780    6.41370
 6850.00000    9.19610    9.19610    -999.25    -999.25  677.36910    -999.25    -999.25    1.47630   66.72270   86.56840   86.56840    1.64430  182.86250  182.86250    -999.25    -999.25    -999.25    2.30980    1.47630    1.64430   -2.58670   -6.33040    2.30980   10.99560
 6900.00000    9.87770    9.87770    -999.25    -999.25  790.32640    -999.25    -999.25    1.26530   59.47770   93.85290   93.85290    1.37300  155.42400  155.42400    -999.25    -999.25    -999.25    2.03400    1.26530    1.37300   -7.06010  -11.36630    2.03400    8.46580
 6950.00000    8.99200    8.99200    -999.25    -999.25  621.77450    -999.25    -999.25    1.60830   53.32610   91.79970   91.79970    1.76270  261.15230  261.15230    -999.25    -999.25    -999.25    2.37940    1.60830    1.76270   -1.17040   -6.03920    2.37940    2.33130
 7000.00000    9.29590    9.29590    -999.25    -999.25  665.82330    -999.25    -999.25    1.50190   63.81730   92.88340   92.88340    1.61320  241.89710  241.89710    -999.25    -999.25    -999.25    2.26900    1.50190    1.61320   -1.66840   -7.09980    2.26900   10.17320
 7050.00000    9.43440    9.43440    -999.25    -999.25  655.00750    -999.25    -999.25    1.52670   48.05940   91.08980   91.08980    1.61850  231.95600  231.95600    -999.25    -999.25    -999.25    2.32270    1.52670    1.61850   -0.40620   -6.40020    2.32270   13.15540
 7100.00000    9.53190    9.53190    -999.25    -999.25  695.02360    -999.25    -999.25    1.43880   49.29140   94.46420   94.46420    1.54010  144.12270  144.12270    -999.25    -999.25    -999.25    2.23170    1.43880    1.54010    1.04010   -5.51650    2.23170    7.62350
 7150.00000    9.67810    9.67810    -999.25    -999.25  718.02970    -999.25    -999.25    1.39270   53.23100   91.61050   91.61050    1.52400  126.53790  126.53790    -999.25    -999.25    -999.25    2.22520    1.39270    1.52400   -1.05500   -8.17420    2.22520    4.50150
 7200.00000    9.65410    9.65410    -999.25    -999.25  713.82680    -999.25    -999.25    1.40090   54.65020   92.99990   92.99990    1.54420  129.83370  129.83370    -999.25    -999.25    -999.25    2.21300    1.40090    1.54420   -1.53210   -9.21380    2.21300    6.88210
 7250.00000    9.81090    9.81090    -999.25    -999.25  698.71440    -999.25    -999.25    1.43120   68.07860   90.91250   90.91250    1.53260  130.89750  130.89750    -999.25    -999.25    -999.25    2.22350    1.43120    1.53260   -0.23680   -8.48110    2.22350    6.18600
 7300.00000    9.85330    9.85330    -999.25    -999.25  724.53270    -999.25    -999.25    1.38020   65.08950   92.58050   92.58050    1.50920  140.81220  140.81220    -999.25    -999.25    -999.25    2.20450    1.38020    1.50920   -1.97940  -10.78630    2.20450   13.44880
 7350.00000    9.54840    9.54840    -999.25    -999.25  648.67670    -999.25    -999.25    1.54160   59.55560   88.07680   88.07680    1.69450  169.64150  169.64150    -999.25    -999.25    -999.25    2.37610    1.54160    1.69450   -0.25150   -9.62100    2.37610   11.31990
 7400.00000    8.59600    8.59600    -999.25    -999.25  598.65900    -999.25    -999.25    1.67040   61.74100   91.39950   91.39950    1.78360  279.39270  279.39270    -999.25    -999.25    -999.25    2.48680    1.67040    1.78360    0.63360   -9.29850    2.48680    2.33710
 7450.00000    8.57360    8.57360    -999.25    -999.25  621.19520    -999.25    -999.25    1.60980   53.52940   93.67630   93.67630    1.72890  204.19930  204.19930    -999.25    -999.25    -999.25    2.46470    1.60980    1.72890    0.88460   -9.61010    2.46470    8.62000
 7500.00000    8.34720    8.34720    0.19640    -999.25  438.50030    2.55170    0.09260    2.28050   50.91360   79.89950   79.89950    2.47260  293.84100  293.84100    0.19640    0.09260    -999.25    3.27480    2.28050    2.47260    8.69760   -2.35960    3.27480   16.06430
 7550.00000    8.37970    8.37970    0.18760    -999.25  406.68590    2.62980    0.04690    2.45890   52.49890   76.99690   76.99690    2.56890  270.21280  270.21280    0.18760    0.04690    -999.25    3.65760    2.45890    2.56890    8.65410   -2.96570    3.65760   14.27060
 7600.00000    7.88730    7.88730    0.08960    -999.25   91.51310    2.58070    0.07560   10.92740   21.23200   30.78730   30.78730   12.31760  593.08920  593.08920    0.08960    0.07560    -999.25   13.27950   10.92740   12.31760  -19.64950  -31.83190   13.27950    9.38550
 7650.00000    7.93760    7.93760    0.10960    -999.25  120.36450    2.56450    0.08510    8.30810   26.20250   63.34040   63.34040    8.45190  546.66910  546.66910    0.10960    0.08510    -999.25    9.82460    8.30810    8.45190   -9.34370  -22.08870    9.82460   14.55010
 7700.00000    8.44500    8.44500    0.26380    -999.25  533.13430    2.48630    0.13080    1.87570   71.00660  109.65060  109.65060    2.00370  134.25910  134.25910    0.26380    0.13080    -999.25    3.68990    1.87570    2.00370    5.95490   -7.35270    3.68990    3.66600
