~Version ---------------------------------------------------
VERS. 2.0 : CWLS log ASCII Standard -VERSION 2.0
WRAP.  NO : ONE LINE PER DEPTH STEP
~Well ------------------------------------------------------
STRT.F                    2500.0 : START DEPTH
STOP.F                   10100.0 : STOP DEPTH
STEP.F                  50.00000 : STEP LENGTH
NULL.                    -999.25 : NULL VALUE
COMP. CHAMPLIN PETROLEUM COMPANY : COMPANY
WELL.          HERMAN SCHULTZ #1 : WELL
FLD .                   GIDDINGS : FIELD
LOC .                            : LOCATION
CNTY.                   BURLESON : COUNTY
STAT.                      TEXAS : STATE
CTRY.   UNITED STATES OF AMERICA : COUNTRY
SRVC.                            : SERVICE COMPANY
DATE.                            : LOGDATE
API .             42051316590000 : API NUMBER
UWI .             42051316590000 : UNIQUE WELL ID
SLAT.WGS84         30.3586797556 : SURFACE LATITUDE
SLON.WGS84        -96.6025693505 : SURFACE LONGITUDE
~Curve Information -----------------------------------------
DEPT.F                 : 
DT  .US/F 60 520 00 00 : INTERVAL TRANSIT TIME
DTL .US/F 60 523 00 00 : ACOUSTIC TRANSIT TIME SLOWNESS, LONG SPACING
CALD.IN   45 280 60 00 : CALIPER FROM DENSITY LOG
RHOB.G/C3 45 350 01 00 : BULK DENSITY
DRHO.G/C3 45 356 01 00 : DENSITY CORRECTION
DCAL.IN   07 280 30 00 : DIFFERENTIAL CALIPER
NPHI.DEC  42 890 03 00 : NEUTRON POROSITY SANDSTONE
SPR .MV   07 010 01 00 : SPONTANEOUS POTENTIAL FROM RES. LOG
GRR .GAPI 07 310 01 00 : GAMMA RAY
RILM.OHMM 07 120 44 00 : RED. INDUCTION LOG MEDIUM
RILD.OHMM 07 120 46 00 : RES. INDUCTION LOG DEEP
RFOC.OHMM 07 220 01 00 : RES. FOCUSED LOG
~Params ----------------------------------------------------
EKB .F                  294.0 : Kelly bushing
EGL .F                  276.0 : Ground level
EDF .F                  293.0 : Drilling floor
EPD .F                  276.0 : Permanent datum
TD  .F                10080.0 : Total depth
DATE.             14-OCT-1981 : Date logged
CLNT.                 A2DTECH : Client Code
SL  . 1695' FSEL & 4700' FSWL : Surface Location
PD  .                      GL : Permanent Datum
LMF .                      KB : Log Measured From
DMF .                      KB : Drilling Measured From
DAPD.F                     18 : Feet Above Permanent Datum
DD  .F                  10080 : Depth driller
DL  .F                  10079 : Depth logger
BLI .F                  10073 : Bottom log interval
TLI .F                   9159 : Top log interval
CS1 .IN                     7 : Casing size
CBD1.              7" @ 9170' : Casing driller 1
CBL1.F                   9159 : Casing logger 1
BS1 .IN                 6.125 : Bit size
BSD1.F                  10080 : Depth drilled with bit1
DFT .                   BENEX : Type fluid in hole
DFD .                     9.3 : Density
DFV .                      40 : Viscosity
DFPH.                     9.0 : pH
DFL .                     9.0 : Fluid loss
MSS .                    TANK : Source of sample
RMS .OHMM                0.67 : Rm
RMF .OHMM                0.47 : Rmf
RMC .OHMM                 1.0 : Rmc
MFSS.                    CALC : Source Rmf.
MCSS.                    CALC : Source Rmc.
RMB .OHMM               0.305 : Rm. at BHT
BHT .F                    223 : BHT.
TCS .HRS                 1900 : Time Circ. stopped
TLAB.HRS                   15 : Time logger at bottom
LUN .                    8262 : Logging unit number
LUL .                 BRENHAM : Logging unit location
ENGI.     GILLILAND/PRIESTLEY : Recorded By
WITN.              DALE VODAK : Witnessed by
ORIG.                5" PRINT : Origin of data
UWI .          42051316590000 : Unique Well ID
DICO.  A2D TECHNOLOGIES, INC. : Digitizing Company
~Other -----------------------------------------------------
~ASCII -----------------------------------------------------
 2500.00000    -999.25    -999.25    -999.25    2.11700    -999.25    -999.25    0.56700    -999.25    -999.25    -999.25    -999.25    -999.25
 2550.00000    -999.25    -999.25    -999.25    2.22300    0.01800    1.19300    0.43100  -61.86400   37.85400    5.50800    6.09700    5.39300
 2600.00000    -999.25    -999.25    -999.25    2.16400    0.01700    2.52500    0.33300  -64.97000   42.37700    4.43900    4.67700    4.51900
 2650.00000    -999.25    -999.25    -999.25    2.31700    0.04000    2.74100    0.33100  -62.90200   61.02800    3.86000    4.03400    3.73300
 2700.00000    -999.25    -999.25    -999.25    2.13300    0.04500    1.97000    0.41100  -79.19600   49.96100    4.09800    4.20800    4.03400
 2750.00000    -999.25    -999.25    -999.25    2.34000    0.06300    1.64400    0.34800  -64.89600   55.78200    4.37000    4.54800    4.10900
 2800.00000    -999.25    -999.25    -999.25    2.31000    0.06200    0.24200    0.39600  -64.55100   49.28400    3.96600    4.08400    3.49300
 2850.00000    -999.25    -999.25    -999.25    2.24600    0.04800    0.16900    0.36900  -66.95100   50.46200    3.78700    3.87300    3.71300
 2900.00000    -999.25    -999.25    -999.25    2.12400    0.05800    1.19600    0.52000  -45.31200   57.78000    1.04100    1.16100    1.59300
 2950.00000    -999.25    -999.25    -999.25    2.13700    0.02800    0.02500    0.39500  -76.85500   47.15900    4.17100    3.79900    3.85300
 3000.00000    -999.25    -999.25    -999.25    2.18200    0.02300    0.19600    0.35000  -77.88500   48.01200    4.54600    4.15800    4.57900
 3050.00000    -999.25    -999.25    -999.25    2.26200    0.05300    1.01200    0.36900  -67.37300   61.82600    4.07100    3.96000    4.22400
 3100.00000    -999.25    -999.25    -999.25    2.20800    0.02400    0.44000    0.36400  -69.57600   50.04100    3.98500    3.91400    4.06800
 3150.00000    -999.25    -999.25    -999.25    2.34600    0.06700    1.20200    0.40300  -57.38500   73.49300    3.31800    3.22200    3.29500
 3200.00000    -999.25    -999.25    -999.25    2.35900    0.07500    1.14400    0.35100  -57.60000   73.53200    3.57600    3.51600    3.71300
 3250.00000    -999.25    -999.25    -999.25    2.12000    0.01800    0.78000    0.36200  -87.54500   41.06200    2.89700    2.52100    3.75300
 3300.00000    -999.25    -999.25    -999.25    2.10600    0.03100    0.50200    0.33200  -79.08100   47.86400    2.07400    1.94400    3.45000
 3350.00000    -999.25    -999.25    -999.25    2.25300    0.07600    0.52800    0.38700  -77.18400   45.77400    3.00500    2.73600    3.58100
 3400.00000    -999.25    -999.25    -999.25    2.11900    0.00900    0.21100    0.34700  -77.63600   46.36500    2.59400    2.43700    3.61200
 3450.00000    -999.25    -999.25    -999.25    2.18600    0.04400   -0.02900    0.36400  -89.71900   49.46000    2.92500    2.54900    3.61300
 3500.00000    -999.25    -999.25    -999.25    2.14800    0.03800   -0.04300    0.35100  -79.72300   62.15100    2.92300    2.75000    3.78200
 3550.00000    -999.25    -999.25    -999.25    2.34100    0.10200    0.70700    0.37400  -55.53400   75.59100    2.61700    2.55700    2.23900
 3600.00000    -999.25    -999.25    -999.25    2.18100    0.01100   -0.06000    0.33600  -84.27500   47.21500    4.39700    4.29300    4.30200
 3650.00000    -999.25    -999.25    -999.25    2.15000    0.05100   -0.12200    0.34500  -86.51000   41.60400    4.16400    3.62300    4.09900
 3700.00000    -999.25    -999.25    -999.25    2.11900    0.02900   -0.13900    0.35300  -89.72900   37.17000    3.71300    3.26500    3.79700
 3750.00000    -999.25    -999.25    -999.25    2.31800    0.10000    0.99800    0.41100  -47.39900   71.62000    1.80300    1.73800    2.76600
 3800.00000    -999.25    -999.25    -999.25    2.31500    0.05900    0.21600    0.32000  -66.91000   55.75500    4.55100    4.26300    4.58800
 3850.00000    -999.25    -999.25    -999.25    2.21700    0.06300    0.02200    0.36400  -81.31200   47.82600    3.20500    2.70800    3.84700
 3900.00000    -999.25    -999.25    -999.25    2.17300    0.05100    0.37800    0.31400  -78.60800   42.81800    4.04300    3.41900    4.50500
 3950.00000    -999.25    -999.25    -999.25    2.17900    0.02400    0.10700    0.36700  -80.38600   43.94000    4.14600    3.25100    4.29400
 4000.00000    -999.25    -999.25    -999.25    2.40800    0.05300    0.53700    0.28500  -43.91000   83.38000    4.98500    4.51800    4.07100
 4050.00000    -999.25    -999.25    -999.25    2.17000    0.03900   -0.01900    0.33700  -85.59000   45.39100    3.99700    3.14700    4.45500
 4100.00000    -999.25    -999.25    -999.25    2.48500    0.08600    0.92900    0.30000  -40.53500   65.44600    5.21900    4.73200    4.24500
 4150.00000    -999.25    -999.25    -999.25    2.14900    0.05000   -0.13900    0.32000  -84.05400   45.36200    4.67900    3.89200    4.36300
 4200.00000    -999.25    -999.25    -999.25    2.16900    0.05400   -0.02000    0.31100  -81.36600   27.16300    3.96000    3.47900    3.96900
 4250.00000    -999.25    -999.25    -999.25    2.20500    0.05400   -0.03900    0.31500  -85.74000   39.67900    4.33500    3.75100    4.76100
 4300.00000    -999.25    -999.25    -999.25    2.33200    0.10000    0.71700    0.33900  -44.08900   88.19900    3.32800    2.89100    2.38800
 4350.00000    -999.25    -999.25    -999.25    2.17100    0.03300   -0.21200    0.29400  -85.89800   34.28700    2.92200    2.31300    3.41100
 4400.00000    -999.25    -999.25    -999.25    2.17700    0.04100   -0.16600    0.35500  -87.36100   44.66500    3.34700    2.44500    3.74800
 4450.00000    -999.25    -999.25    -999.25    2.15700    0.03900   -0.17900    0.32500  -92.95000   33.67300    2.51100    1.79900    3.96000
 4500.00000    -999.25    -999.25    -999.25    2.17700    0.04500   -0.16900    0.30800  -95.66900   42.01200    2.06000    1.49300    3.68100
 4550.00000    -999.25    -999.25    -999.25    2.17500    0.03400   -0.20800    0.31700 -107.99400   33.24700    1.82100    1.30100    3.29500
 4600.00000    -999.25    -999.25    -999.25    2.21700    0.06900   -0.24500    0.31800 -106.60800   38.89600    1.83600    1.29700    3.80000
 4650.00000    -999.25    -999.25    -999.25    2.22400    0.08000   -0.32000    0.33000 -104.09900   47.47600    1.50000    1.17100    3.54600
 4700.00000    -999.25    -999.25    -999.25    2.35600    0.02900    0.12300    0.30100  -67.76100   70.63600    3.04600    2.26700    3.68200
 4750.00000    -999.25    -999.25    -999.25    1.41100   -0.02500    0.72800    0.70000  -56.90100   22.40600   30.38600   21.22900  117.02100
 4800.00000    -999.25    -999.25    -999.25    2.35000    0.06700    0.12800    0.30900  -78.65300   49.68900    2.19700    1.60300    3.39700
 4850.00000    -999.25    -999.25    -999.25    2.25200    0.03400   -0.21700    0.33700 -107.88600   50.02600    1.34000    0.98700    3.77900
 4900.00000    -999.25    -999.25    -999.25    2.18900    0.03300   -0.17900    0.33400 -118.45500   41.39900    1.06400    0.83200    3.44900
 4950.00000    -999.25    -999.25    -999.25    2.50100    0.10000    0.69800    0.32000  -25.33900   89.02500    2.54200    2.45200    2.53300
 5000.00000    -999.25    -999.25    -999.25    2.41900    0.08400    0.22500    0.24800  -82.41700   57.21300    2.52300    1.80800    4.06000
 5050.00000    -999.25    -999.25    -999.25    2.19700    0.02700   -0.17900    0.31400 -110.17500   42.92900    0.96000    0.71800    3.08900
 5100.00000    -999.25    -999.25    -999.25    2.22300    0.04500   -0.20500    0.30900 -121.93700   42.71100    0.95600    0.74900    3.71300
 5150.00000    -999.25    -999.25    -999.25    2.26300    0.04800   -0.15800    0.30500 -123.41600   38.98600    0.87600    0.73900    3.74800
 5200.00000    -999.25    -999.25    -999.25    2.30100    0.10100   -0.29000    0.29400 -120.53600   42.29900    0.85500    0.79100    3.00900
 5250.00000    -999.25    -999.25    -999.25    2.35400    0.02100   -0.00100    0.29100  -72.66700   78.30800    1.81800    1.42000    3.64600
