~Version ---------------------------------------------------
VERS.      2.0 : CWLS log ASCII Standard -VERSION 2.0
WRAP.      YES : MULTIPLE LINES PER DEPTH STEP
CREA. 09/17/13 : LAS CREATION DATE
~Well ------------------------------------------------------
STRT.FT                   2000.0 : START DEPTH
STOP.FT                  11500.0 : STOP DEPTH
STEP.FT                 50.00000 : STEP LENGTH
NULL.                    -999.25 : NULL VALUE
COMP. LADD PETROLEUM CORPORATION : COMPANY
WELL.        LADD FITZSIMMONS #1 : WELL
FLD .                    WILDCAT : FIELD
LOC .                            : LOCATION
CNTY.                     DIMMIT : COUNTY
STAT.                      TEXAS : STATE
CTRY.   UNITED STATES OF AMERICA : COUNTRY
SRVC.               Schlumberger : SERVICE COMPANY
DATE.                19-Jan-1978 : LOGDATE
API .             42127315740000 : API NUMBER
UWI .             42127315740000 : UNIQUE WELL ID
SLAT.WGS84         28.2507010101 : SURFACE LATITUDE
SLON.WGS84       -100.0580378891 : SURFACE LONGITUDE
~Curve Information -----------------------------------------
DEPT    .FT    : DEPTH FEET
CALDED  .IN    : CALIPER FROM DENSITY LOG, DEPTH ADJUSTED WITH [SPRED]
CALWS   .IN    : CALIPER [CALDED]
CILDED  .MMHO  : CONDUCTIVITY FROM RESISTIVITY LOG
CONDWS  .MMHO  : CONDUCTIVITY [1000/DRESWS]
CORRED  .G/C3  : DENSITY CORRECTION FROM DENSITY LOG, DEPTH ADJUSTED WITH [SPRED]
DCORWS  .G/C3  : DENSITY CORRECTION [CORRED]
DENWS   .G/C3  : BULK DENSITY [M=2.71 F=1.0] [RHOBED]
DPHILSED.V/V   : DENSITY POROSITY [M=2.71 F=1.0] FROM DENSITY LOG, DEPTH ADJUSTED WITH [SPRED]
DPHISSED.V/V   : DENSITY POROSITY [M=2.65 F=1.0] FROM DENSITY LOG, DEPTH ADJUSTED WITH [SPRED]
DPOLSWS .V/V   : DEBSITY POROSITY LIMESTONE [CALCULATED FROM DENWS]
DRESWS  .OHMM  : DEEP RESISTIVITY [ILDED] IF DRESWS<1;1000/CONDWS
DTED    .US/F  : DELTA TIME FROM SONIC LOG
DTWS    .US/F  : DELTA TIME [DTED]
GRDED   .GAPI  : GAMMA RAY FROM DENSITY LOG, DEPTH ADJUSTED WITH [SPRED]
GRRED   .GAPI  : GAMMA RAY FROM RESISTIVITY LOG
GRWS    .GAPI  : GAMMA RAY [GRRED], SPLICED WITH [GRDED] FROM TOP TO 5160'
ILDED   .OHMM  : INDUCTION LOG DEEP RESISTIVITY
ILMED   .OHMM  : INDUCTION LOG MEDIUM RESISTIVITY
LL8ED   .OHMM  : 8 INCH LATEROLOG RESISTIVITY
MRESWS  .OHMM  : MEDIUM RESISTIVITY [ILMED]
NPHILSED.V/V   : NEUTRON POROSITY LIMESTONE FROM DENSITY LOG, DEPTH ADJUSTED WITH [SPRED]
NPHISSED.V/V   : NEUTRON POROSITY SANDSTONE FROM DENSITY LOG, DEPTH ADJUSTED WITH [SPRED]
NPOLSWS .V/V   : NEUTRON POROSITY LIMESTONE [NPHILSED], MATRIX CONVERTED [NPHISSED] TO LIMESTONE [TOP-5100]
RHOBED  .G/C3  : BULK DENSITY FROM DENSITY LOG, DEPTH ADJUSTED WITH [SPRED]
SPHIED  .V/V   : SONIC POROSITY FROM SONIC LOG
SPOWS   .V/V   : SONIC POROSITY [SPHIED]
SPRED   .MV    : SPONTANEOUS POTENTIAL FROM RESISTIVITY LOG
SPWS    .MV    : SPONTANEOUS POTENTIAL [BASELINE 0 MV] [SPRED]
SRESWS  .OHMM  : SHALLOW RESISTIVITY [LL8ED]
~Params ----------------------------------------------------
EKB .F                  728.0 : Kelly bushing
EGL .F                  710.0 : Ground level
EDF .F                  727.0 : Drilling floor
EPD .F                  710.0 : Permanent datum
TD  .F                11519.0 : Total depth
DATE.             19-JAN-1978 : DATE LOGGED
CLNT.                 A2DTECH : CLIENT CODE
SL  . 7000' FNEL & 7500' FSEL : SURFACE LOCATION
PD  .                      GL : PERMANENT DATUM
LMF .                      KB : LOG MEASURED FROM
DMF .                      KB : DRILLING MEASURED FROM
DAPD.F                     18 : FEET ABOVE PERMANENT DATUM
DD  .F                  11518 : DEPTH DRILLER
DL  .F                  11519 : DEPTH LOGGER
BLI .F                  11513 : BOTTOM LOG INTERVAL
TLI .F                   9875 : TOP LOG INTERVAL
CS1 .IN                 7.625 : CASING SIZE
CBD1.          7.625" @ 9920' : CASING DRILLER 1
CBL1.F                   9875 : CASING LOGGER 1
BS1 .IN                   6.5 : BIT SIZE
BSD1.F                  11518 : DEPTH DRILLED WITH BIT1
DFT .               SPER-TANN : TYPE FLUID IN HOLE
DFD .                    16.5 : DENSITY
DFV .                      50 : VISCOSITY
DFPH.                    11.8 : PH
MSS .              CIRC. TANK : SOURCE OF SAMPLE
RMS .OHMM                1.41 : RM
RMF .OHMM                0.51 : RMF
RMC .OHMM                 4.6 : RMC
MFSS.                    MEAS : SOURCE RMF.
MCSS.                    CALC : SOURCE RMC.
RMB .OHMM                0.38 : RM. AT BHT
BHT .F                    260 : BHT.
TCS .HRS                 1000 : TIME CIRC. STOPPED
TLAB.                    1500 : TIME LOGGER AT BOTTOM
LUN .                    7739 : LOGGING UNIT NUMBER
LUL .                  LAREDO : LOGGING UNIT LOCATION
ENGI.                   LOGAL : RECORDED BY
WITN.                 ELLISON : WITNESSED BY
ORIG.             1" 5" PRINT : ORIGIN OF DATA
UWI .          42127315740000 : UNIQUE WELL ID
DICO.  A2D TECHNOLOGIES, INC. : DIGITIZING COMPANY
~Other -----------------------------------------------------
~ASCII -----------------------------------------------------
# ...
 4500.00000   17.44370   17.44370    -999.25  252.85090    0.07310    0.07310    2.55820    -999.25    0.06720    0.08880    3.95490   81.83060   81.83060   87.85180    -999.25   87.85180    3.95490    4.01220    4.84660    4.01220    -999.25    0.21070    0.15920    2.55820    -999.25    -999.25  -16.68910   -9.55860    4.84660
 4550.00000   15.32780   15.32780    -999.25  283.97800    0.06170    0.06170    2.58110    -999.25    0.07190    0.07540    3.52140   87.82180   87.82180  103.07210    -999.25  103.07210    3.52140    3.57180    4.12690    3.57180    -999.25    0.24810    0.19550    2.58110    -999.25    -999.25  -11.72180   -3.95750    4.12690
 4600.00000   17.44150   17.44150    -999.25  394.15080    0.10990    0.10990    2.44720    -999.25    0.13900    0.15370    2.53710   92.40850   92.40850   84.99880    -999.25   84.99880    2.53710    2.57640    3.02620    2.57640    -999.25    0.32710    0.27690    2.44720    -999.25    -999.25   -9.26800   -0.86990    3.02620
 4650.00000   17.43550   17.43550    -999.25  281.90450    0.07460    0.07460    2.51420    -999.25    0.10520    0.11450    3.54730   85.72910   85.72910   82.31920    -999.25   82.31920    3.54730    3.59820    4.04610    3.59820    -999.25    0.27770    0.22550    2.51420    -999.25    -999.25   -9.49580   -0.46380    4.04610
 4700.00000   16.91690   16.91690    -999.25  370.68610    0.08480    0.08480    2.40940    -999.25    0.14050    0.17580    2.69770   91.46430   91.46430   90.70430    -999.25   90.70430    2.69770    2.76090    3.49960    2.76090    -999.25    0.29500    0.24350    2.40940    -999.25    -999.25  -18.53910   -8.87330    3.49960
 4750.00000   17.39150   17.39150    -999.25  416.64930    0.08830    0.08830    2.20700    -999.25    0.24300    0.29420    2.40010   93.52580   93.52580   75.57040    -999.25   75.57040    2.40010    2.43650    2.99000    2.43650    -999.25    0.34990    0.30100    2.20700    -999.25    -999.25  -18.02120   -7.72160    2.99000
 4800.00000   14.00880   14.00880    -999.25  255.23230    0.00090    0.00090    2.58080    -999.25    0.10560    0.07560    3.91800   79.07010   79.07010   73.15030    -999.25   73.15030    3.91800    4.00400    5.01750    4.00400    -999.25    0.22010    0.16820    2.58080    -999.25    -999.25  -29.27340  -18.34000    5.01750
 4850.00000   12.99680   12.99680    -999.25   83.45090    0.00430    0.00430    2.65730    -999.25    0.02690    0.03080   11.98310   65.07950   65.07950   43.49870    -999.25   43.49870   11.98310   12.17180   16.90160   12.17180    -999.25    0.10230    0.06400    2.65730    -999.25    -999.25  -36.29490  -24.72770   16.90160
 4900.00000   12.19400   12.19400    -999.25  103.66990   -0.01070   -0.01070    2.61530    -999.25    0.03960    0.05540    9.64600   66.81120   66.81120   51.73670    -999.25   51.73670    9.64600    9.80160   13.95530    9.80160    -999.25    0.13750    0.09320    2.61530    -999.25    -999.25  -38.73970  -26.53870   13.95530
 4950.00000   12.64170   12.64170    -999.25  145.16950   -0.00080   -0.00080    2.62560    -999.25    0.02170    0.04940    6.88850   71.76850   71.76850   52.41570    -999.25   52.41570    6.88850    6.98720    9.87640    6.98720    -999.25    0.14220    0.09710    2.62560    -999.25    -999.25  -26.45710  -13.62230    9.87640
 5000.00000   12.62840   12.62840    -999.25   91.38430    0.00660    0.00660    2.64350    -999.25    0.01160    0.03890   10.94280   65.62640   65.62640   47.23690    -999.25   47.23690   10.94280   11.26180   15.21110   11.26180    -999.25    0.12480    0.08260    2.64350    -999.25    -999.25  -26.60320  -13.13460   15.21110
 5050.00000   12.09010   12.09010    -999.25  105.77420   -0.01280   -0.01280    2.60600    -999.25    0.01950    0.06080    9.45410   66.08770   66.08770   41.36900    -999.25   41.36900    9.45410    9.59260   11.82760    9.59260    -999.25    0.13320    0.08960    2.60600    -999.25    -999.25  -27.93570  -13.83330   11.82760
 5100.00000   12.53330   12.53330    -999.25    -999.25   -0.00880   -0.00880    2.63710    -999.25    0.01990    0.04260    -999.25   62.96950   62.96950   51.01310    -999.25   51.01310   12.71510   13.67710   16.14840   13.67710    -999.25    0.09420    0.05730    2.63710    -999.25    -999.25    -999.25    -999.25   16.14840
 5150.00000   12.14900   12.14900   72.77890   72.77890    0.13200    0.13200    2.47020    0.12200    -999.25    0.14020   13.74020    -999.25    -999.25   26.95760    -999.25   26.95760   15.14400    -999.25   21.08850    -999.25    0.08660    -999.25    0.08660    2.47020    -999.25    -999.25    -999.25    -999.25   21.08850
 5200.00000   10.94420   10.94420  122.52180  122.52180   -0.01930   -0.01930    2.49450    0.07980    -999.25    0.12600    8.16180   57.95450   57.95450   30.88230   24.47670   24.47670    8.43230    -999.25    9.74520    -999.25    0.16510    -999.25    0.16510    2.49450    0.07540    0.07540  -85.80630  -17.45320    9.74520
 5250.00000   12.17240   12.17240  101.02150  101.02150    0.00940    0.00940    2.57700    0.05950    -999.25    0.07780    9.89890   58.15420   58.15420   26.59990   22.40190   22.40190    9.09790    -999.25   16.27850    -999.25    0.13690    -999.25    0.13690    2.57700    0.06700    0.06700  -73.55020   -6.36430   16.27850
 5300.00000   11.81740   11.81740   52.78380   52.78380    0.03080    0.03080    2.67440    0.02490    -999.25    0.02080   18.94520   61.60560   61.60560   27.09520   19.47320   19.47320   20.58290    -999.25   28.93400    -999.25    0.05390    -999.25    0.05390    2.67440    0.09460    0.09460  -79.52650  -13.50780   28.93400
 5350.00000   12.04220   12.04220   56.09580   56.09580    0.00810    0.00810    2.64730    0.06300    -999.25    0.03670   17.82660   62.31830   62.31830   28.69170   20.34070   20.34070   23.57680    -999.25   29.10250    -999.25    0.09050    -999.25    0.09050    2.64730    0.10050    0.10050  -93.31190  -28.46040   29.10250
 5400.00000   12.51040   12.51040   58.90840   58.90840    0.00150    0.00150    2.62020    0.05700    -999.25    0.05250   16.97550   59.37710   59.37710   30.12560   18.17900   18.17900   19.94060    -999.25   29.01670    -999.25    0.06330    -999.25    0.06330    2.62020    0.08130    0.08130 -100.48560  -36.80130   29.01670
 5450.00000   12.97160   12.97160   61.57300   61.57300    0.01610    0.01610    2.64490    0.03940    -999.25    0.03810   16.24090   60.57540   60.57540   28.20380   20.40930   20.40930   18.37260    -999.25   22.04510    -999.25    0.05270    -999.25    0.05270    2.64490    0.08730    0.08730  -97.56340  -35.04630   22.04510
 5500.00000   12.33640   12.33640   71.74380   71.74380    0.00950    0.00950    2.56350    0.08390    -999.25    0.08570   13.93850   60.88800   60.88800   33.50960   20.85670   20.85670   15.83530    -999.25   22.00480    -999.25    0.11000    -999.25    0.11000    2.56350    0.08980    0.08980  -80.73910  -19.38920   22.00480
 5550.00000   12.49720   12.49720   54.38220   54.38220    0.00780    0.00780    2.50860    0.19160    -999.25    0.11780   18.38840   62.83070   62.83070   21.53350   18.16750   18.16750   20.82100    -999.25   24.49210    -999.25    0.07290    -999.25    0.07290    2.50860    0.10400    0.10400  -87.35290  -27.17020   24.49210
 5600.00000   15.04420   15.04420   51.66540   51.66540    0.06490    0.06490    2.39030    0.15700    -999.25    0.18700   19.35530   63.30590   63.30590   27.73940   18.18230   18.18230   21.34530    -999.25   27.91380    -999.25    0.11830    -999.25    0.11830    2.39030    0.10610    0.10610  -84.37070  -25.35520   27.91380
 5650.00000   12.78410   12.78410   40.00550   40.00550    0.00200    0.00200    2.58480    0.08640    -999.25    0.07320   24.99660   64.44930   64.44930   26.78110   19.69400   19.69400   29.29540    -999.25   38.26970    -999.25    0.09110    -999.25    0.09110    2.58480    0.11500    0.11500  -89.16760  -31.31930   38.26970
 5700.00000   12.42580   12.42580   56.53210   56.53210    0.09230    0.09230    2.61280    0.05600    -999.25    0.05680   17.68910   62.96160   62.96160   49.12260   31.01400   31.01400   21.74940    -999.25   32.14470    -999.25    0.14960    -999.25    0.14960    2.61280    0.10940    0.10940  -85.92730  -29.24620   32.14470
