~Version ---------------------------------------------------
VERS.      2.0 : CWLS log ASCII Standard -VERSION 2.0
WRAP.       NO : One line per depth step
CREA. 04/13/20 : LAS Creation Date
~Well ------------------------------------------------------
STRT.FT                             6350.0 : START DEPTH
STOP.FT                             7550.0 : STOP DEPTH
STEP.FT                           50.00000 : STEP LENGTH
NULL.                              -999.25 : NULL VALUE
COMP. PINNACLE ROYALTY & OPERATING COMPANY : COMPANY
WELL.                         G W HATCH #2 : WELL
FLD .                             PEARSALL : FIELD
LOC .                                      : LOCATION
CNTY.                               DIMMIT : COUNTY
STAT.                                TEXAS : STATE
CTRY.             UNITED STATES OF AMERICA : COUNTRY
SRVC.                         Schlumberger : SERVICE COMPANY
DATE.                          21-Jul-1990 : LOGDATE
API .                       42127328970000 : API NUMBER
UWI .                       42127328970000 : UNIQUE WELL ID
SLAT.WGS84                    28.617129252 : SURFACE LATITUDE
SLON.WGS84                  -99.4592696959 : SURFACE LONGITUDE
~Curve Information -----------------------------------------
DEPT   .FT                : DEPTH FEET
DCAL   .IN   07 280 01 00 : DIFFERENTIAL CALIPER
DPHI_LS.DEC               : DENSITY POROSITY LIMESTONE [M=2.71 F=1.00]
DRHO   .G/C3 45 356 01 00 : BULK DENSITY CORRECTION
GRR    .GAPI 07 310 01 00 : GAMMA RAY FROM RESISTIVITY LOG
ILD    .OHMM 07 120 46 00 : INDUCTION DEEP RESISTIVITY
ILM    .OHMM 07 120 44 00 : INDUCTION MEDIUM RESISTIVITY
NPHI_LS.DEC               : NEUTRON POROSITY LIMESTONE
SFLU   .OHMM 07 220 01 00 : SHALLOW FOCUSED RESISTIVITY (UNAVERAGED)
SPR    .MV   07 010 01 00 : SPONTANEOUS POTENTIAL FROM RESISTIVITY LOG
TEND   .LB   45 635 00 00 : TENSION FROM DENSITY LOG
~Params ----------------------------------------------------
PD  .                     GL : PERMANENT DATUM
EPD .FT                559.5 : ELEVATION PERMANENT DATUM
LMF .                     KB : LOG MEASURED FROM
DAPD.FT                 20.6 : FEET ABOVE PERMANENT DATUM
DMF .                     KB : DRILLING MEASURED FROM
EKB .FT                580.1 : KELLY BUSHING
EDF .FT                579.1 : DRILLING FLOOR
EGL .FT                559.5 : GROUND LEVEL
DATE.               07/21/90 : RUN DATE
RUN .                      2 : RUN NUMBER
DD  .FT                 7563 : DEPTH DRILLER
DL  .FT                 7557 : DEPTH LOGGER
BLI .FT                 7551 : BOTTOM LOG INTERVAL
TLI .FT                 6347 : TOP LOG INTERVAL
CS  .IN                7.625 : CASING SIZE
CBD .FT                 6350 : CASING BOTTOM DRILLER
CBL .FT                 6347 : CASING BOTTOM LOGGER
BS  .IN                 6.75 : BIT SIZE
BSD .FT                 7563 : BIT SIZE AT DEPTH
DFT .                CLS GEL : DRILLING FLUID TYPE
DFD .                    9.2 : DRILLING FLUID DENSITY
DFV .                     35 : DRILLING FLUID VISCOSITY
DFPH.                   11.5 : DRILLING FLUID PH
DFL .                   12.8 : DRILLING FLUID LOSS
MSS .                  TANKS : MUD SAMPLE SOURCE
RMS .OHMM               1.69 : RESISTIVITY MUD SAMPLE
MST .DEGF                 94 : MUD SAMPLE TEMPERATURE
RMF .OHMM               2.18 : RESISTIVITY MUD FILTRATE SAMPLE
MFST.DEGF                 76 : MUD FILTRATE SAMPLE TEMPERATURE
RMC .OHMM               2.54 : RESISTIVITY MUD CAKE
MCST.DEGF                 94 : MUD CAKE SAMPLE TEMPERATURE
MFSS.                   MEAS : MUD FILTRATE SAMPLE SOURCE
MCSS.                   CALC : MUD CAKE SAMPLE SOURCE
RMB .OHMM              0.894 : RESISTIVITY MUD AT BHT
TCS .HRS                2130 : TIME CIRCULATED STOPPED
TLAB.HRS                 440 : TIME LOGGER AT BOTTOM
LUN .                   8268 : LOGGING UNIT NUMBER
LUL .                  PLEAS : LOGGING UNIT LOCATION
ENGI.         WILKIE BEIERLE : RECORDING ENGINEER
WITN.             RUTHERFORD : WITNESSED BY
CLNT.                A2DTECH : CLIENT CODE
ORIG.           5" 10" PRINT : ORIGIN OF DATA
UWI .         42127328970000 : UNIQUE WELL ID
DICO. A2D Technologies, Inc. : DIGITIZING COMPANY
~Other -----------------------------------------------------
~ASCII -----------------------------------------------------
 6350.00000    0.79550    0.06910    0.01380   51.31580   25.52190    8.37740    0.15880   10.36900  -30.51000 2352.99390
 6400.00000    1.29620    0.04790    0.00940   38.37560   12.03490   11.71320    0.06880   12.96680  -29.85400 2289.93330
 6450.00000    1.98000    0.06910    0.00350   63.37720    4.44710    4.64710    0.14380    6.36780  -22.04260 2320.02990
 6500.00000    1.81400    0.09560    0.01080   69.51970    3.38900    3.39440    0.21180    3.99020  -20.87590 2336.66490
 6550.00000    1.31100    0.07270    0.01080   45.39290    9.28500    9.64690    0.11650   18.31500  -23.35770 2329.70960
 6600.00000    0.97200    0.04970   -0.00230   32.23680   15.63040   15.61420    0.06970   19.07500  -28.61310 2384.74430
 6650.00000    1.05980    0.13370   -0.00670   27.85090    9.38660    8.59700    0.07060   11.83280  -23.35870 2397.97330
 6700.00000    1.38410    0.04030    0.01140   26.31330   18.37890   20.00120    0.03970   32.35080  -23.79320 2364.05270
 6750.00000    1.35470    0.16860    -999.25   14.03730   27.49390   26.22490    0.03880   30.43750  -24.23190 2429.15820
 6800.00000    1.59020    0.11370    0.04150   12.93640   23.05660   23.05800    0.03620   26.22270  -22.18710 2401.33890
 6850.00000    1.21150    0.03850    0.03060   21.49360   19.20210   19.66280    0.05650   30.43750  -17.08030 2443.59340
 6900.00000    0.73640    0.03890    0.04740   39.03510   24.33830   20.40900    0.06710   25.01160  -17.37060 2389.19790
 6950.00000    0.88370    0.06330    0.00200   21.05100   19.59780   17.23030    0.06790   18.43840  -19.70590 2438.82880
 7000.00000    0.90080    0.06150   -0.00230   39.25200   21.84060   22.13980    0.06620   29.22700  -13.86990 2447.41290
 7050.00000    0.47790    0.05270   -0.00310   39.91230   38.66560   37.29310    0.06180   49.34520  -14.74280 2508.22340
 7100.00000    0.39810    0.25180   -0.02130   70.17540   32.83740   16.76230    0.15180   50.92280   -2.48180 2590.92300
 7150.00000    0.88330    0.07120    0.00300   50.43860   27.83720   27.14810    0.12310   38.44660   -1.11910 2501.40400
 7200.00000    0.61760    0.06950    0.01230   57.23930   27.33530   23.22150    0.12970   33.69000   -7.88680 2546.57560
 7250.00000    0.23550    0.13410    0.00350  100.44180   41.08430   37.61920    0.18700   86.07070  -13.28470 2527.42630
 7300.00000    0.44180    0.12790    0.00350   83.33330  212.60760  119.35520    0.15880  383.20100  -12.40730 2587.37830
 7350.00000    0.14330    0.04820    0.02400   23.68600   64.80200   62.18580    0.05650   67.22030  -28.46570 2652.15880
 7400.00000    0.07920    0.02520    0.01230    8.55260  389.14860  179.44990    0.01410  246.72110  -47.88180 2634.95220
 7450.00000   -0.17710   -0.00580    0.02550   16.11630   84.63290   64.54690    0.02210   68.60000  -35.17870 2668.24770
 7500.00000    0.58880    0.05800    -999.25   93.86170    3.85760    3.72940    0.24180    5.87130  -19.12410 2622.45080
 7550.00000   -0.38270    0.02260    -999.25   91.01080    4.01770    4.66310    0.21800    9.36780  -12.11510 2781.05460
