~Version ---------------------------------------------------
VERS. 2.0 : CWLS log ASCII Standard -VERSION 2.0
WRAP.  NO : ONE LINE PER DEPTH STEP
~Well ------------------------------------------------------
STRT.F                   300.0 : START DEPTH
STOP.F                 24000.0 : STOP DEPTH
STEP.F                50.00000 : STEP LENGTH
NULL.                  -999.25 : NULL VALUE
COMP.       PLACID OIL COMPANY : COMPANY
WELL.                PEELER #1 : WELL
FLD .                  WILDCAT : FIELD
LOC .                          : LOCATION
CNTY.                MC MULLEN : COUNTY
STAT.                    TEXAS : STATE
CTRY. UNITED STATES OF AMERICA : COUNTRY
SRVC.             Schlumberger : SERVICE COMPANY
DATE.              01-Jan-1984 : LOGDATE
API .           42311317850000 : API NUMBER
UWI .           42311317850000 : UNIQUE WELL ID
SLAT.WGS84       28.5959255047 : SURFACE LATITUDE
SLON.WGS84      -98.4401225914 : SURFACE LONGITUDE
~Curve Information -----------------------------------------
DEPT   .F                 : 
DPHI_LS.DEC  45 890 10 00 : DENSITY POROSITY LIMESTONE
CALD   .IN   45 280 60 00 : CALIPER FROM DENSITY LOG
RHOB   .G/C3 45 350 01 00 : BULK DENSITY
NPHI_LS.DEC  42 890 01 00 : NEUTRON POROSITY LIMESTONE
DT     .US/F 60 500 00 00 : DELTA-T (INTERVAL TRANSIT TIME)
GRR    .GAPI 07 310 01 00 : GAMMA RAY FROM RESISTIVITY LOG
NPHI_SS.DEC  42 890 03 00 : NEUTRON POROSITY SANDSTONE
ILM    .OHMM 07 120 44 00 : INDUCTION MEDIUM RESISTIVITY
SFLU   .OHMM 07 220 01 00 : SHALLOW FOCUSED RESISTIVITY (UNAVERAGED)
SPR    .MV   07 010 01 00 : SPONTANEOUS POTENTIAL FROM RESISTIVITY LOG
ILD    .OHMM 07 120 46 00 : INDUCTION DEEP RESISTIVITY
DCALR  .IN   07 280 01 00 : DIFFERENTIAL CALIPER FROM RESISTIVITY LOG
DPHI_SS.DEC  45 890 12 00 : DENSITY POROSITY SANDSTONE
DRHO   .G/C3 45 356 01 00 : BULK DENSITY CORRECTION
~Params ----------------------------------------------------
PD  .                     GL : PERMANENT DATUM
EPD .F                   336 : ELEVATION PERMANENT DATUM
LMF .                     KB : LOG MEASURED FROM
DMF .                     KB : DRILLING MEASURED FROM
EKB .F                   368 : KELLING BUSHING
EDF .F                   367 : DRILLING FLOOR
EGL .F                   336 : GROUND LEVEL
DATE.               1-1-1984 : RUN DATE
RUN .                      7 : RUN NUMBER
DD  .F                 24031 : DEPTH DRILLER
DL  .F                 24037 : DEPTH LOGGER
BLI .F                 24030 : BOTTOM LOG INTERVAL
TLI .F                 21000 : TOP LOG INTERVAL
CS  .IN                8.625 : CASING SIZE
CBD .F                 19500 : CASING BOTTOM DRILLER
CBL .F                 19500 : CASING BOTTOM LOGGER
BS  .IN                  7.5 : BIT SIZE
BSD .F                 24031 : BIT SIZE AT DEPTH
DFT .               INVERMUL : DRILLING FLUID TYPE
DFV .                     83 : DRILLING FLUID VISCOSITY
TCS .HRS                 800 : TIME CURCULATED STOPPED
TLAB.HRS                 200 : TIME LOGGER AT BOTTOM
LUL .               EDINBURG : LOGGING UNIT LOCATION
ENGI.              NEWMISTER : RECORDING ENGINEER
WITN.                   LONG : WITNESSED BY
CLNT.                A2DTECH : CLIENT CODE
ORIG.            1",5" PRINT : ORIGIN OF DATA
UWI .         42311317850000 : UNIQUE WELL ID
DICO. A2D Technologies, Inc. : DIGITIZING COMPANY
~Other -----------------------------------------------------
~ASCII -----------------------------------------------------
# ...
 19700.00000   -0.05440    7.71700    2.82700    0.06300   59.83050   85.84760    -999.25    8.74590    -999.25    -999.25    8.05590    -999.25    -999.25    -999.25
 19750.00000   -0.10580    7.68600    2.86400    0.05100   55.10900   55.05440    -999.25    9.31100    -999.25    -999.25    9.60260    -999.25    -999.25    -999.25
 19800.00000   -0.04850    7.71500    2.78500    0.13300   63.72920  115.60100    -999.25    5.44070    -999.25    -999.25    5.79330    -999.25    -999.25    -999.25
 19850.00000   -0.05390    7.73500    2.82300    0.07000   70.84160  130.87090    -999.25    3.99700    -999.25    -999.25    4.51380    -999.25    -999.25    -999.25
 19900.00000   -0.06700    7.74300    2.85100    0.07500   57.23170   70.68450    -999.25    4.29910    -999.25    -999.25    4.73290    -999.25    -999.25    -999.25
 19950.00000   -0.01100    7.76100    2.73700    0.12200   70.68540  125.97090    -999.25    4.90120    -999.25    -999.25    5.38650    -999.25    -999.25    -999.25
 20000.00000   -0.06640    7.71500    2.83000    0.12800   66.63550   93.31220    -999.25    3.26460    -999.25    -999.25    3.49210    -999.25    -999.25    -999.25
 20050.00000   -0.01380    7.73900    2.73600    0.20400   77.33880  159.33010    -999.25    1.79910    -999.25    -999.25    1.63080    -999.25    -999.25    -999.25
 20100.00000   -0.11810    7.69600    2.92700    0.00600   56.40700   41.52350    -999.25   10.83510    -999.25    -999.25   10.27410    -999.25    -999.25    -999.25
 20150.00000   -0.02060    7.72900    2.73200    0.17200   67.18720  102.78410    -999.25    1.62700    -999.25    -999.25    1.50720    -999.25    -999.25    -999.25
 20200.00000   -0.03160    7.75600    2.76600    0.01700   50.93800   53.04450    -999.25   30.79530    -999.25    -999.25   27.97610    -999.25    -999.25    -999.25
 20250.00000   -0.10590    7.72800    2.89400    0.01600   55.25300   47.01650    -999.25   10.20950    -999.25    -999.25    9.80940    -999.25    -999.25    -999.25
 20300.00000   -0.00840    7.69800    2.72800    0.09400   63.25890   94.94520    -999.25    3.97950    -999.25    -999.25    4.06990    -999.25    -999.25    -999.25
 20350.00000   -0.12590    7.67400    2.91800    0.01500   54.53050   33.82600    -999.25   12.81020    -999.25    -999.25   13.31690    -999.25    -999.25    -999.25
 20400.00000   -0.12010    7.76600    2.91700    0.00800   59.06250   42.92380    -999.25    9.91270    -999.25    -999.25    9.41240    -999.25    -999.25    -999.25
 20450.00000   -0.10420    7.78200    2.88400    0.05200   59.53050   54.12130    -999.25    4.56920    -999.25    -999.25    4.33360    -999.25    -999.25    -999.25
 20500.00000   -0.14570    7.79100    2.95800   -0.00200   50.82300   28.46000    -999.25  175.09390    -999.25    -999.25  110.20160    -999.25    -999.25    -999.25
 20550.00000   -0.02490    7.76300    2.75000    0.01600   52.13620   40.54130    -999.25   20.80370    -999.25    -999.25   16.47170    -999.25    -999.25    -999.25
 20600.00000   -0.14280    7.75400    2.95800    0.00900   55.54760   29.86040    -999.25   10.98250    -999.25    -999.25    9.35430    -999.25    -999.25    -999.25
 20650.00000   -0.01050    7.74400    2.73000    0.01900   53.33160   35.45580    -999.25    6.22880    -999.25    -999.25    6.09120    -999.25    -999.25    -999.25
 20700.00000   -0.03720    7.78800    2.74800    0.14300   63.12500   62.28620    -999.25    3.09600    -999.25    -999.25    3.36780    -999.25    -999.25    -999.25
 20750.00000   -0.14030    7.77900    2.95600    0.01700   58.94290   10.49770    -999.25    5.53030    -999.25    -999.25    5.25890    -999.25    -999.25    -999.25
 20800.00000   -0.12630    7.78200    2.92600    0.00000   48.28130    5.02200    -999.25   14.73980    -999.25    -999.25   56.66050    -999.25    -999.25    -999.25
 20850.00000   -0.00260    7.75100    2.71700    0.01700   51.17680   15.39660    -999.25   17.51270    -999.25    -999.25   15.90360    -999.25    -999.25    -999.25
 20900.00000   -0.02290    7.76300    2.75600    0.15700   72.81250   33.82580    -999.25    2.29640    -999.25    -999.25    2.20310    -999.25    -999.25    -999.25
 20950.00000    0.31030    7.72900    2.14400    0.03400   63.21110   19.82990    -999.25   14.63560    -999.25    -999.25   13.27780    -999.25    -999.25    -999.25
 21000.00000    0.33350    7.74300    2.16600    0.00500   70.00030   13.06220    -999.25   36.16090    -999.25    -999.25   30.37360    -999.25    -999.25   -0.04300
 21050.00000   -0.04270    7.64000    2.77400    0.04500   60.78120   14.60740    -999.25    3.17190    -999.25    -999.25    4.14940    -999.25    -999.25   -0.00800
 21100.00000    0.56390    7.76200    1.66600   -0.00100   64.13820    7.46500    -999.25  130.20150    -999.25    -999.25 1821.86520    -999.25    -999.25   -0.02300
 21150.00000    0.09140    7.72300    2.49100    0.09200   75.15620   25.67040    -999.25    2.72820    -999.25    -999.25    3.59410    -999.25    -999.25   -0.02400
 21200.00000    0.01730    7.80100    2.68200    0.06800   69.68750   42.45720    -999.25    1.89420    -999.25    -999.25    2.32680    -999.25    -999.25   -0.01400
 21250.00000    0.23040    7.76500    2.29600    0.04400   69.14200   16.93000    -999.25   13.52530    -999.25    -999.25   12.47000    -999.25    -999.25   -0.03400
 21300.00000    0.33350    -999.25    2.15700    0.01300   68.13300    5.75200    -999.25    -999.25    -999.25    -999.25 1016.58700    -999.25    -999.25   -0.04700
 21350.00000    0.28120    -999.25    2.21000    0.00900   68.86900    8.00300    -999.25    -999.25    -999.25    -999.25  213.18700    -999.25    -999.25   -0.06100
 21400.00000    0.38800    -999.25    2.04800    0.00800   69.66300    3.79500    -999.25    -999.25    -999.25    -999.25 1999.99960    -999.25    -999.25   -0.05500
 21450.00000    0.06780    -999.25    2.62800    0.07500   54.11900   17.18100    -999.25    -999.25    -999.25    -999.25    7.95600    -999.25    -999.25   -0.01000
 21500.00000   -0.01130    -999.25    2.74100    0.06300   55.88000   13.29400    -999.25    -999.25    -999.25    -999.25   22.00100    -999.25    -999.25   -0.02400
 21550.00000    0.17610    -999.25    2.37300    0.03900   62.01800   11.24100    -999.25    -999.25    -999.25    -999.25   37.77400    -999.25    -999.25   -0.06000
 21600.00000   -0.06210    -999.25    2.93300    0.03600   50.81300   11.14100    -999.25    -999.25    -999.25    -999.25   28.11600    -999.25    -999.25   -0.01000
 21650.00000    0.29170    -999.25    2.17700    0.01700   67.26800    4.30700    -999.25    -999.25    -999.25    -999.25  176.99700    -999.25    -999.25   -0.00700
 21700.00000    0.39860    -999.25    2.21000    0.01500   66.09100    5.48900    -999.25    -999.25    -999.25    -999.25  101.38500    -999.25    -999.25   -0.08900
 21750.00000    0.32860    -999.25    2.17800    0.01700   66.90500    4.38500    -999.25    -999.25    -999.25    -999.25 1586.49300    -999.25    -999.25   -0.04900
 21800.00000    0.18100    -999.25    2.79000    0.03300   58.12500    7.29900    -999.25    -999.25    -999.25    -999.25   69.73300    -999.25    -999.25   -0.03400
 21850.00000    0.24970    -999.25    2.78900    0.07700   63.39500   25.60800    -999.25    -999.25    -999.25    -999.25    3.53700    -999.25    -999.25   -0.00400
 21900.00000    0.08220    -999.25    2.47100    0.01700   59.41100    5.34500    -999.25    -999.25    -999.25    -999.25   24.52800    -999.25    -999.25   -0.04900
 21950.00000    0.20670    -999.25    2.47500    0.09000   66.86700   32.44500    -999.25    -999.25    -999.25    -999.25    8.08300    -999.25    -999.25    0.00300
 22000.00000    0.16770    -999.25    2.42000    0.09300   67.47100   28.34800    -999.25    -999.25    -999.25    -999.25   11.44400    -999.25    -999.25   -0.02300
 22050.00000    0.01260    -999.25    2.71500    0.16100   65.46700   34.22900    -999.25    -999.25    -999.25    -999.25    5.43200    -999.25    -999.25   -0.01500
