~Version ---------------------------------------------------
VERS. 2.0 : CWLS log ASCII Standard -VERSION 2.0
WRAP. YES : MULTIPLE LINES PER DEPTH STEP
~Well ------------------------------------------------------
STRT.FT                  300.0 : START DEPTH
STOP.FT                15250.0 : STOP DEPTH
STEP.FT               50.00000 : STEP LENGTH
NULL.                  -999.25 : NULL VALUE
COMP.  CONTINENTAL OIL COMPANY : COMPANY
WELL.    HALSELL FOUNDATION #1 : WELL
FLD .                  WILDCAT : FIELD
LOC .                          : LOCATION
CNTY.                 MAVERICK : COUNTY
STAT.                    TEXAS : STATE
CTRY. UNITED STATES OF AMERICA : COUNTRY
SRVC.             Schlumberger : SERVICE COMPANY
DATE.              02-Apr-1972 : LOGDATE
API .           42323300720000 : API NUMBER
UWI .           42323300720000 : UNIQUE WELL ID
SLAT.WGS84       28.6077848095 : SURFACE LATITUDE
SLON.WGS84     -100.3259081005 : SURFACE LONGITUDE
~Curve Information -----------------------------------------
DEPT    .FT    : DEPTH FEET
ALL8ED  .MV    : AMPLIFIED LATARLOG 8 FROM RES. LOG
ASNED   .OHMM  : 16 INCH AMPLIFIED SHORT NORMAL RESISTIVITY FROM IEL
CALDED  .IN    : CALIPER FROM DENSITY LOG, DEPTH ADJUSTED WITH [ILDED]
CALSED  .IN    : CALIPER FROM SONIC LOG, DEPTH ADJUSTED WITH [ILDED]
CALWS   .IN    : CALIPER [CALSED]
CILDED  .MMHO  : CONDUCTIVITY FROM RESISTIVITY LOG
CONDWS  .MMHO  : CONDUCTIVITY [1000/DRESWS]
DENWS   .G/C3  : BULK DENSITY [M=2.71 F=1.0] [CALCULATED FROM DPOWS]
DPHILSED.V/V   : DENSITY POROSITY [M=2.71 F=1.0] FROM DENSITY LOG, DEPTH ADJUSTED WITH [ILDED]
DPOWS   .V/V   : DENSITY POROSITY [DPHILSED]
DRESWS  .OHMM  : DEEP RESISTIVITY [ILDED] IF DRESWS<1;1000/CONDWS
DTED    .US/F  : DELTA TIME FROM SONIC LOG, DEPTH ADJUSTED WITH [ILDED]
DTWS    .US/F  : DELTA TIME [DTED]
GRDED   .GAPI  : GAMMA RAY FROM DENSITY LOG, DEPTH ADJUSTED WITH [ILDED]
GRRED   .GAPI  : GAMMA RAY FROM RESISTIVITY LOG
GRSED   .GAPI  : GAMMA RAY FROM SONIC LOG, DEPTH ADJUSTED WITH [ILDED]
GRWS    .GAPI  : GAMMA RAY [GRSED]
ILDED   .OHMM  : INDUCTION LOG DEEP RESISTIVITY
NPHILSED.V/V   : NEUTRON POROSITY LIMESTONE FROM DENSITY LOG, DEPTH ADJUSTED WITH [ILDED]
NPOWS   .V/V   : NEUTRON POROSITY SANDSTONE [NPHILSED]
SPRED   .MV    : SPONTANEOUS POTENTIAL FROM RESISTIVITY LOG
SPWS    .MV    : SPONTANEOUS POTENTIAL [BASELINE 0 MV] [SPRED]
SRESWS  .OHMM  : SHALLOW RESISTIVITY [ASNED], SPLICED WITH [ALL8ED] AT 8750'
~Params ----------------------------------------------------
PD  .                     GL : PERMANENT DATUM
EPD .F                 749.4 : ELEVATION PERMANENT DATUM
LMF .                     KB : LOG MEASURED FROM
DAPD.F                  25.2 : FEET ABOVE PERMANENT DATUM
DMF .                     KB : DRILLING MEASURED FROM
EKB .F                 775.4 : KELLING BUSHING
EDF .F                 774.6 : DRILLING FLOOR
EGL .F                 749.4 : GROUND LEVEL
DATE.               04/02/72 : RUN DATE
RUN .                      8 : RUN NUMBER
DD  .F                 15250 : DEPTH DRILLER
DL  .F                 15273 : DEPTH LOGGER
BLI .F                 15266 : BOTTOM LOG INTERVAL
TLI .F                 14800 : TOP LOG INTERVAL
CS  .IN                9.625 : CASING SIZE
CBD .F                  8736 : CASING BOTTOM DRILLER
CBL .F                  8748 : CASING BOTTOM LOGGER
BS  .IN                  8.5 : BIT SIZE
BSD .F                 15250 : BIT SIZE AT DEPTH
DFT .             LIGNO SULF : DRILLING FLUID TYPE
DFD .                   14.5 : DRILLING FLUID DENSITY
DFV .                     49 : DRILLING FLUID VISCOSITY
DFPH.                     12 : DRILLING FLUID PH
DFL .                    1.6 : DRILLING FLUID LOSS
MSS .               CIRC PIT : MUD SAMPLE SOURCE
RMS .OHMM               0.55 : RESISTIVITY MUD SAMPLE
MST .F                    75 : MUD SAMPLE TEMPERATURE
RMF .OHMM               0.17 : RESISTIVITY MUD FILTRATE SAMPLE
MFST.F                    75 : MUD FILTRATE SAMPLE TEMPERATURE
RMC .OHMM                1.1 : RESISTIVITY MUD CAKE
MCST.F                    75 : MUD CAKE SAMPLE TEMPERATURE
MFSS.                      M : MUD FILTRATE SAMPLE SOURCE
MCSS.                      C : MUD CAKE SAMPLE SOURCE
RMB .OHMM                0.1 : RESISTIVITY MUD AT BHT
TCS .HRS                 4.5 : TIME CURCULATED STOPPED
LUN .                   7029 : LOGGING UNIT NUMBER
LUL .                   VICT : LOGGING UNIT LOCATION
ENGI.               BRADFORD : RECORDING ENGINEER
CLNT.                A2DTECH : CLIENT CODE
ORIG.            2" 5" PRINT : ORIGIN OF DATA
UWI .         42323300720000 : UNIQUE WELL ID
DICO. A2D Technologies, Inc. : DIGITIZING COMPANY
~Other -----------------------------------------------------
~ASCII -----------------------------------------------------
# ...
 11150.00000   45.00420    -999.25   11.69620    9.19680    9.19680   31.98370   27.06730    2.53590    0.10180    0.10180   36.94490   55.76470   55.76470   22.53720    -999.25   32.98560   32.98560   36.94490   -0.00190   -0.00190   13.34810  -22.30540   45.00420
 11200.00000   44.13780    -999.25   12.06370    9.53100    9.53100   33.23940   27.71100    2.47620    0.13670    0.13670   36.08680   54.48570   54.48570   64.08130    -999.25   71.35920   71.35920   36.08680    0.01710    0.01710   40.84410   -1.53300   44.13780
 11250.00000   10.45130    -999.25   10.04750    9.57790    9.57790  112.22600  100.11210    2.56910    0.08240    0.08240    9.98880   58.95380   58.95380   87.54040    -999.25   80.30780   80.30780    9.98880    0.07060    0.07060   45.48650   -3.61410   10.45130
 11300.00000   46.97790    -999.25   11.42890    9.26970    9.26970   41.31580   24.24970    2.53300    0.10350    0.10350   41.23760   56.14640   56.14640   37.25300    -999.25   47.82880   47.82880   41.23760    0.00290    0.00290   44.95030  -10.87390   46.97790
 11350.00000   74.08790    -999.25    9.88370    9.42580    9.42580   22.67930   16.62370    2.58690    0.07200    0.07200   60.15500   54.04050   54.04050   35.83500    -999.25   40.05850   40.05850   60.15500    0.00330    0.00330   50.95870  -11.58900   74.08790
 11400.00000   17.49250    -999.25   10.44350    9.60290    9.60290   77.93130   76.59610    2.71000    0.00000    0.00000   13.05550   57.02530   57.02530   82.21420    -999.25   86.14900   86.14900   13.05550    0.10300    0.10300   65.26800   -4.00330   17.49250
 11450.00000  203.24390    -999.25   13.27690    9.65700    9.65700   11.67430    3.82570    2.54310    0.09760    0.09760  261.38990   50.78320   50.78320   19.11340    -999.25   22.06670   22.06670  261.38990   -0.00130   -0.00130   69.37060   -4.13790  203.24390
 11500.00000   20.20870    -999.25   10.45490    9.62460    9.62460   49.43290    4.50600    2.66550    0.02600    0.02600  221.92690   58.95710   58.95710   62.43730    -999.25   69.25270   69.25270  221.92690    0.07300    0.07300   76.32200    0.16600   20.20870
 11550.00000   94.65170    -999.25   14.12890    9.71590    9.71590   19.22040   13.71190    2.38560    0.18970    0.18970   72.92940   55.99560   55.99560   13.75240    -999.25   18.76360   18.76360   72.92940   -0.01060   -0.01060   69.59970   -9.20380   94.65170
 11600.00000   53.71090    -999.25   11.39410    9.58550    9.58550   28.02290   23.14790    2.62910    0.04730    0.04730   43.20040   51.56020   51.56020   37.97960    -999.25   53.55100   53.55100   43.20040    0.00990    0.00990   70.86580   -5.56550   53.71090
 11650.00000   16.66360    -999.25   10.35550    9.48640    9.48640   63.45570   58.84530    2.68710    0.01340    0.01340   16.99370   63.46040   63.46040  119.99230    -999.25  114.55050  114.55050   16.99370    0.08980    0.08980   64.49350   -6.61750   16.66360
 11700.00000   36.38160    -999.25    9.93250    9.47590    9.47590   55.39900   51.54240    2.69840    0.00680    0.00680   19.40150   56.25660   56.25660   49.04450    -999.25   50.18280   50.18280   19.40150    0.01660    0.01660   54.83180  -10.95900   36.38160
 11750.00000   61.88400    -999.25    9.70280    9.39180    9.39180   24.01240   12.59760    2.74030   -0.01770   -0.01770   79.38020   57.28900   57.28900   37.48090    -999.25   42.31490   42.31490   79.38020    0.02970    0.02970   43.80710  -16.66340   61.88400
 11800.00000    7.45290    -999.25    9.81450    9.63610    9.63610  165.59950  151.07570    2.69680    0.00770    0.00770    6.61920   70.29480   70.29480  100.99090    -999.25   96.79800   96.79800    6.61920    0.19670    0.19670   42.04270  -13.10760    7.45290
 11850.00000   24.25020    -999.25    9.93180    9.66800    9.66800   50.64490   28.89520    2.71430   -0.00250   -0.00250   34.60780   61.59370   61.59370   52.36960    -999.25   59.14800   59.14800   34.60780    0.05930    0.05930   39.10980  -10.72020   24.25020
 11900.00000   20.48230    -999.25    9.96760    9.58300    9.58300   83.27250   75.57840    2.66140    0.02840    0.02840   13.23130   62.16540   62.16540   83.32510    -999.25   82.28410   82.28410   13.23130    0.12490    0.12490   38.21430  -10.70760   20.48230
 11950.00000   22.78260    -999.25   12.13260   10.06120   10.06120   50.24790   43.70480    2.35530    0.20740    0.20740   22.88080   56.96920   56.96920   19.28190    -999.25   22.46580   22.46580   22.88080    0.01660    0.01660   11.36220  -40.26160   22.78260
 12000.00000   61.31910    -999.25    9.54260    9.43630    9.43630   42.16300   28.81250    2.63940    0.04130    0.04130   34.70710   57.45860   57.45860   45.55320    -999.25   49.90640   49.90640   34.70710    0.03380    0.03380   25.74010  -28.58560   61.31910
 12050.00000   13.21220    -999.25   10.07280    9.81530    9.81530  108.37350   98.08150    2.66570    0.02590    0.02590   10.19560   66.74500   66.74500   75.46740    -999.25   84.05740   84.05740   10.19560    0.13180    0.13180   41.56670  -15.46090   13.21220
 12100.00000   31.99060    -999.25    9.84590    9.69290    9.69290   38.50730   32.84780    2.72810   -0.01060   -0.01060   30.44340   56.84990   56.84990   57.67750    -999.25   55.47470   55.47470   30.44340    0.01770    0.01770   48.50760  -11.22190   31.99060
 12150.00000   12.53260    -999.25   10.35230    9.99540    9.99540   98.50410   97.85980    2.67530    0.02030    0.02030   10.21870   63.38760   63.38760   83.49080    -999.25   89.22330   89.22330   10.21870    0.14140    0.14140   57.77250   -4.65890   12.53260
 12200.00000   18.82730    -999.25   10.37930    9.94450    9.94450   62.97030   56.37110    2.69820    0.00690    0.00690   17.73960   59.99020   59.99020   63.02690    -999.25   71.46420   71.46420   17.73960    0.09630    0.09630   54.81610  -16.29200   18.82730
 12250.00000   19.71850    -999.25   10.70910   10.18420   10.18420   53.46340   47.34710    2.68710    0.01340    0.01340   21.12060   60.81400   60.81400   78.52570    -999.25   88.71470   88.71470   21.12060    0.10510    0.10510   63.95500  -18.27020   19.71850
 12300.00000   28.47940    -999.25   10.04190   10.01330   10.01330   44.43170   30.44640    2.68110    0.01690    0.01690   32.84460   61.31470   61.31470   35.00940    -999.25   46.74630   46.74630   32.84460    0.00440    0.00440   81.14350   -8.17140   28.47940
 12350.00000   33.02000    -999.25   10.16930    9.78360    9.78360   35.24420   31.01940    2.71790   -0.00460   -0.00460   32.23790   56.92420   56.92420   66.87260    -999.25   67.48450   67.48450   32.23790    0.04020    0.04020   74.43190  -18.10320   33.02000
 12400.00000   16.72320    -999.25   10.56630   10.04970   10.04970   63.81160   59.13980    2.73290   -0.01340   -0.01340   16.90910   57.52630   57.52630   75.57890    -999.25   71.28550   71.28550   16.90910    0.06810    0.06810   92.73730   -3.01800   16.72320
 12450.00000   14.68780    -999.25   10.50050   10.20170   10.20170   70.83640   68.43170    2.73820   -0.01650   -0.01650   14.61310   62.24500   62.24500   91.81640    -999.25   87.92730   87.92730   14.61310    0.12340    0.12340   88.99430   -9.98130   14.68780
 12500.00000   15.41250    -999.25   10.25310   10.52160   10.52160   68.04930   64.48620    2.70910    0.00050    0.00050   15.50720   63.15460   63.15460   71.61500    -999.25   67.67320   67.67320   15.50720    0.07170    0.07170   91.25860   -8.91000   15.41250
 12550.00000   19.60330    -999.25   10.46230    9.99170    9.99170   60.18140   55.16690    2.67240    0.02200    0.02200   18.12680   60.35340   60.35340   79.75270    -999.25   76.22650   76.22650   18.12680    0.10770    0.10770   88.65050  -11.30230   19.60330
 12600.00000   19.96760    -999.25   10.14680    9.84070    9.84070   57.56760   54.63320    2.67890    0.01820    0.01820   18.30390   59.56580   59.56580   73.55340    -999.25   75.05930   75.05930   18.30390    0.09050    0.09050   86.52880  -13.20820   19.96760
 12650.00000   19.96610    -999.25   10.40620    9.04160    9.04160   54.57670   47.47390    2.69890    0.00650    0.00650   21.06420   62.23180   62.23180   60.34600    -999.25   69.57630   69.57630   21.06420    0.05220    0.05220   86.94610  -12.57520   19.96610
