~Version ---------------------------------------------------
VERS.      2.0 : CWLS log ASCII Standard -VERSION 2.0
WRAP.      YES : Multiple lines per depth step
CREA. 05/20/13 : LAS Creation Date
~Well ------------------------------------------------------
STRT.FT                    1750.0 : START DEPTH
STOP.FT                   15250.0 : STOP DEPTH
STEP.FT                  50.00000 : STEP LENGTH
NULL.                     -999.25 : NULL VALUE
COMP. TEXAS OIL & GAS CORPORATION : COMPANY
WELL.                   REED E #1 : WELL
FLD .                  BEAR GRASS : FIELD
LOC .                             : LOCATION
CNTY.                   FREESTONE : COUNTY
STAT.                       TEXAS : STATE
CTRY.    UNITED STATES OF AMERICA : COUNTRY
SRVC.               Dresser Atlas : SERVICE COMPANY
DATE.                 20-Dec-1978 : LOGDATE
API .              42161304400000 : API NUMBER
UWI .              42161304400000 : UNIQUE WELL ID
SLAT.WGS84           31.421505692 : SURFACE LATITUDE
SLON.WGS84         -96.2242059669 : SURFACE LONGITUDE
~Curve Information -----------------------------------------
DEPT    .FT    : DEPTH FEET
CALDED  .IN    : CALIPER FROM DENSITY LOG
CALWS   .IN    : CALIPER [CALDED]
CONDWS  .MMHO  : CONDUCTIVITY [1000/DRESWS]
CORRED  .G/C3  : DENSITY CORRECTION FROM DENSITY LOG
DCORWS  .G/C3  : DENSITY CORRECTION [CORRED]
DENWS   .G/C3  : FORMATION BULK DENSITY [RHOBED]
DPHILSED.V/V   : DENSITY POROSITY LIMESTONE [M=2.71, F=1.0] FROM DENSITY LOG [ADJ. TO RHOBED]
DPOWS   .V/V   : DENSITY POROSITY LIMESTONE [DPHILSED]
DRESWS  .OHMM  : DEEP RESISTIVITY [ILDED]
GRDED   .GAPI  : GAMMA RAY FROM DENSITY LOG
GRWS    .GAPI  : GAMMA RAY [GRDED]
ILDED   .OHMM  : DEEP INDUCTION RESISTIVITY FROM RESISTIVITY LOG
ILMED   .OHMM  : MEDIUM INDUCTION RESISTIVITY FROM RESISTIVITY LOG
MRESWS  .OHMM  : MEDIUM RESISTIVITY [ILMED]
NPHILSED.V/V   : NEUTRON POROSITY LIMESTONE FROM DENSITY LOG
NPOWS   .V/V   : NEUTRON POROSITY LIMESTONE [NPHILSED]
RHOBED  .G/C3  : BULK DENSITY FROM DENSITY LOG
SFLED   .OHMM  : SPHERICALLY FOCUSED FROM RESISTIVITY LOG
SPRED   .MV    : SPONTANEOUS POTENTIAL FROM RESISTIVITY LOG
SPWS    .MV    : SPONTANEOUS POTENTIAL [BASELINE 0 MV, SPRED]
SRESWS  .OHMM  : SHALLOW RESISTIVITY [SFLED]
TENDED  .LBF   : TENSION FROM DENSITY LOG
~Params ----------------------------------------------------
PD  .                     GL : PERMANENT DATUM
EPD .FT                  452 : ELEVATION PERMANENT DATUM
LMF .                     KB : LOG MEASURED FROM
DAPD.FT                   21 : FEET ABOVE PERMANENT DATUM
DMF .                     KB : DRILLING MEASURED FROM
EKB .FT                  473 : KELLY BUSHING
EDF .FT                  472 : DRILLING FLOOR
EGL .FT                  452 : GROUND LEVEL
DATE.               12/20/78 : RUN DATE
RUN .                      4 : RUN NUMBER
DD  .FT                15297 : DEPTH DRILLER
DL  .FT                15240 : DEPTH LOGGER
BLI .FT                15238 : BOTTOM LOG INTERVAL
TLI .FT                14903 : TOP LOG INTERVAL
CS  .IN                    7 : CASING SIZE
CBD .FT                12937 : CASING BOTTOM DRILLER
CBL .FT                12936 : CASING BOTTOM LOGGER
BS  .IN                    6 : BIT SIZE
BSD .FT                15297 : BIT SIZE AT DEPTH
DFT .               CHEM GEL : DRILLING FLUID TYPE
DFD .                   16.5 : DRILLING FLUID DENSITY
DFV .                     60 : DRILLING FLUID VISCOSITY
DFPH.                   10.8 : DRILLING FLUID PH
DFL .                      8 : DRILLING FLUID LOSS
TCS .HRS                   8 : TIME CIRCULATED STOPPED
LUN .                   6104 : LOGGING UNIT NUMBER
LUL .                  TYLER : LOGGING UNIT LOCATION
ENGI.                 DELLVA : RECORDING ENGINEER
WITN.                  GRACE : WITNESSED BY
CLNT.                A2DTECH : CLIENT CODE
ORIG.               5" PRINT : ORIGIN OF DATA
UWI .         42161304400000 : UNIQUE WELL ID
DICO. A2D Technologies, Inc. : DIGITIZING COMPANY
~Other -----------------------------------------------------
CDL-CNL-DIL LOG RAN
RUN 2: CDL & CNL VALUES FROM 12935'TO 13250'NOT VALID DUE TO INTERMITTANT,
TOOL FAILURE CAUSED BY CONSTANT STICKING OF TOOL.
RUN 3:TOOL RUN WITHOUT 1.5" S.O. BECAUSE OF SMALL BOREHOLE SET DOWN AT 15033' & LOGGED UP.
~ASCII -----------------------------------------------------
# ...
 6550.00000    -999.25    -999.25  398.15260    -999.25    -999.25    -999.25    -999.25    -999.25    2.51160    -999.25    -999.25    2.51160    3.09540    3.09540    -999.25    -999.25    -999.25    3.82980  -50.93440   -4.39610    3.82980    -999.25
 6600.00000    -999.25    -999.25  727.85500    -999.25    -999.25    -999.25    -999.25    -999.25    1.37390    -999.25    -999.25    1.37390    1.49610    1.49610    -999.25    -999.25    -999.25    2.01140  -53.28400   -6.83750    2.01140    -999.25
 6650.00000    -999.25    -999.25  250.80890    -999.25    -999.25    -999.25    -999.25    -999.25    3.98710    -999.25    -999.25    3.98710    4.64540    4.64540    -999.25    -999.25    -999.25    5.54090  -50.60160   -4.24690    5.54090    -999.25
 6700.00000    -999.25    -999.25  256.17380    -999.25    -999.25    -999.25    -999.25    -999.25    3.90360    -999.25    -999.25    3.90360    4.92100    4.92100    -999.25    -999.25    -999.25    3.85810  -52.55570   -6.29280    3.85810    -999.25
 6750.00000    -999.25    -999.25  435.76780    -999.25    -999.25    -999.25    -999.25    -999.25    2.29480    -999.25    -999.25    2.29480    2.48910    2.48910    -999.25    -999.25    -999.25    2.79080  -52.21070   -6.03950    2.79080    -999.25
 6800.00000    -999.25    -999.25   95.64160    -999.25    -999.25    -999.25    -999.25    -999.25   10.45570    -999.25    -999.25   10.45570   12.32920   12.32920    -999.25    -999.25    -999.25   11.30710  -55.17430   -9.09490   11.30710    -999.25
 6850.00000    -999.25    -999.25  153.57920    -999.25    -999.25    -999.25    -999.25    -999.25    6.51130    -999.25    -999.25    6.51130    7.85090    7.85090    -999.25    -999.25    -999.25    7.13620  -53.23520   -7.24390    7.13620    -999.25
 6900.00000    -999.25    -999.25  212.35480    -999.25    -999.25    -999.25    -999.25    -999.25    4.70910    -999.25    -999.25    4.70910    5.88440    5.88440    -999.25    -999.25    -999.25    6.09150  -52.74620   -6.84220    6.09150    -999.25
 6950.00000    -999.25    -999.25  169.19330    -999.25    -999.25    -999.25    -999.25    -999.25    5.91040    -999.25    -999.25    5.91040    7.31070    7.31070    -999.25    -999.25    -999.25    8.11480  -53.69320   -7.87650    8.11480    -999.25
 7000.00000    -999.25    -999.25  131.78360    -999.25    -999.25    -999.25    -999.25    -999.25    7.58820    -999.25    -999.25    7.58820    9.33040    9.33040    -999.25    -999.25    -999.25    9.52250  -54.86110   -9.13170    9.52250    -999.25
 7050.00000    -999.25    -999.25  387.82240    -999.25    -999.25    -999.25    -999.25    -999.25    2.57850    -999.25    -999.25    2.57850    2.87240    2.87240    -999.25    -999.25    -999.25    3.68740  -52.54120   -6.89910    3.68740    -999.25
 7100.00000    -999.25    -999.25  135.51420    -999.25    -999.25    -999.25    -999.25    -999.25    7.37930    -999.25    -999.25    7.37930    8.78480    8.78480    -999.25    -999.25    -999.25    9.77720  -54.91660   -9.36190    9.77720    -999.25
 7150.00000    -999.25    -999.25   79.89330    -999.25    -999.25    -999.25    -999.25    -999.25   12.51670    -999.25    -999.25   12.51670   12.69140   12.69140    -999.25    -999.25    -999.25   14.58660  -53.54440   -8.07700   14.58660    -999.25
 7200.00000    -999.25    -999.25  423.40590    -999.25    -999.25    -999.25    -999.25    -999.25    2.36180    -999.25    -999.25    2.36180    2.68800    2.68800    -999.25    -999.25    -999.25    4.58570  -53.97410   -8.59400    4.58570    -999.25
 7250.00000    -999.25    -999.25  240.85360    -999.25    -999.25    -999.25    -999.25    -999.25    4.15190    -999.25    -999.25    4.15190    4.77250    4.77250    -999.25    -999.25    -999.25    6.50220  -52.59400   -7.30120    6.50220    -999.25
 7300.00000    -999.25    -999.25   86.85080    -999.25    -999.25    -999.25    -999.25    -999.25   11.51400    -999.25    -999.25   11.51400   14.80800   14.80800    -999.25    -999.25    -999.25   12.52680  -54.03300   -8.82760   12.52680    -999.25
 7350.00000    -999.25    -999.25  150.70450    -999.25    -999.25    -999.25    -999.25    -999.25    6.63550    -999.25    -999.25    6.63550    6.65620    6.65620    -999.25    -999.25    -999.25    9.08880  -53.05480   -7.93670    9.08880    -999.25
 7400.00000    -999.25    -999.25   35.25560    -999.25    -999.25    -999.25    -999.25    -999.25   28.36430    -999.25    -999.25   28.36430   31.02750   31.02750    -999.25    -999.25    -999.25   78.44840  -54.67660   -9.64580   78.44840    -999.25
 7450.00000    -999.25    -999.25  193.58840    -999.25    -999.25    -999.25    -999.25    -999.25    5.16560    -999.25    -999.25    5.16560    8.83100    8.83100    -999.25    -999.25    -999.25   27.50850  -52.76490   -7.82140   27.50850    -999.25
 7500.00000    -999.25    -999.25   46.37440    -999.25    -999.25    -999.25    -999.25    -999.25   21.56360    -999.25    -999.25   21.56360   35.30070   35.30070    -999.25    -999.25    -999.25   46.11170  -54.02430   -9.16810   46.11170    -999.25
 7550.00000    -999.25    -999.25   86.80710    -999.25    -999.25    -999.25    -999.25    -999.25   11.51980    -999.25    -999.25   11.51980   15.64590   15.64590    -999.25    -999.25    -999.25   16.35010  -52.98360   -8.21480   16.35010    -999.25
 7600.00000    -999.25    -999.25  299.29370    -999.25    -999.25    -999.25    -999.25    -999.25    3.34120    -999.25    -999.25    3.34120    3.95530    3.95530    -999.25    -999.25    -999.25    7.50300  -52.48770   -7.80620    7.50300    -999.25
 7650.00000    -999.25    -999.25  199.17540    -999.25    -999.25    -999.25    -999.25    -999.25    5.02070    -999.25    -999.25    5.02070    8.49930    8.49930    -999.25    -999.25    -999.25   37.86610  -52.23900   -7.64480   37.86610    -999.25
 7700.00000    -999.25    -999.25   98.82790    -999.25    -999.25    -999.25    -999.25    -999.25   10.11860    -999.25    -999.25   10.11860   12.27740   12.27740    -999.25    -999.25    -999.25   13.67560  -52.00580   -7.49890   13.67560    -999.25
 7750.00000    -999.25    -999.25  225.04280    -999.25    -999.25    -999.25    -999.25    -999.25    4.44360    -999.25    -999.25    4.44360    5.41690    5.41690    -999.25    -999.25    -999.25   10.29570  -50.61730   -6.45200   10.29570    -999.25
 7800.00000    8.92350    8.92350   26.01420    0.02220    0.02220    2.68190    0.01230    0.01640   38.44060   66.15270   66.15270   38.44060   37.06320   37.06320    0.03060    0.03060    2.68190   57.40120  -61.31860  -18.51200   57.40120  105.67410
 7850.00000    8.92850    8.92850   83.48640    0.01460    0.01460    2.66230    0.02680    0.02790   11.97800   73.99420   73.99420   11.97800   14.72760   14.72760    0.14180    0.14180    2.66230   20.28730  -50.13890   -8.69090   20.28730  108.17840
 7900.00000    8.72540    8.72540   50.25430    0.00670    0.00670    2.66540    0.02180    0.02610   19.89880   76.10850   76.10850   19.89880   34.85820   34.85820    0.07780    0.07780    2.66540   80.25800  -54.30610  -14.21670   80.25800  112.40170
 7950.00000    8.82470    8.82470   75.58520    0.03370    0.03370    2.67410    0.01760    0.02100   13.23010   64.20800   64.20800   13.23010   16.38600   16.38600    0.10980    0.10980    2.67410   22.49160  -54.45920  -15.72850   22.49160  120.03810
 8000.00000    8.89100    8.89100   50.64600    0.02150    0.02150    2.68340    0.01220    0.01560   19.74490   81.80490   81.80490   19.74490   30.65430   30.65430    0.08870    0.08870    2.68340   83.31910  -65.83710  -28.46500   83.31910   94.99750
 8050.00000    8.78720    8.78720   51.09630    0.01510    0.01510    2.71300   -0.00280   -0.00180   19.57090   71.89240   71.89240   19.57090   28.37680   28.37680    0.06100    0.06100    2.71300   46.11160  -45.74230   -9.52770   46.11160  115.67280
 8100.00000    8.92370    8.92370   42.17540    0.00580    0.00580    2.69950    0.00820    0.00610   23.71050   68.68740   68.68740   23.71050   38.87750   38.87750    0.05750    0.05750    2.69950   96.46330  -74.32900  -38.51530   96.46330  121.38530
