~Version ---------------------------------------------------
VERS. 2.0 : CWLS log ASCII Standard -VERSION 2.0
WRAP.  NO : ONE LINE PER DEPTH STEP
~Well ------------------------------------------------------
STRT.F                   2050.0 : START DEPTH
STOP.F                  10350.0 : STOP DEPTH
STEP.F                 50.00000 : STEP LENGTH
NULL.                   -999.25 : NULL VALUE
COMP. JOHN H YOUNG INCORPORATED : COMPANY
WELL.                 LANELL #1 : WELL
FLD .             WHITE KITCHEN : FIELD
LOC .                           : LOCATION
CNTY.                  LA SALLE : COUNTY
STAT.                     TEXAS : STATE
CTRY.  UNITED STATES OF AMERICA : COUNTRY
SRVC.              Schlumberger : SERVICE COMPANY
DATE.               22-Jan-1993 : LOGDATE
API .            42283315220000 : API NUMBER
UWI .            42283315220000 : UNIQUE WELL ID
SLAT.WGS84        28.3644037948 : SURFACE LATITUDE
SLON.WGS84       -98.9509534343 : SURFACE LONGITUDE
~Curve Information -----------------------------------------
DEPT.F                 : 
GRR .GAPI 06 310 01 00 : GAMMA RAY FROM RES.
SPR .MV   06 010 01 00 : SPONTANEOUS POTENTIAL FROM RES.
DCAL.IN   06 280 30 00 : DIFFERENTIAL CALIPER FROM RES
IDER.OHMM 06 120 46 00 : INDUCTION DEEP ENHANCED RESOLUTION PHASOR RES.
IMER.OHMM 06 120 44 00 : INDUCTION MEDIUM ENHANCED RESOLUTION PHASOR RES
SFLU.OHMM 06 220 01 00 : SPHERICALLY FOCUSED LOG UNAVERAGED RES.
DT  .US/F 60 520 00 00 : INTERVAL TRANSIT TIME
CALD.IN   45 280 60 00 : CALIPER FROM DENSITY LOG
PEF .B/E  45 358 01 00 : PHOTOELECTRIC FACTOR
DRHO.G/C3 45 356 01 00 : DENSITY CORRECTION
RHOB.G/C3 45 350 01 00 : BULK DENSITY
NPHI.DEC  42 890 01 00 : NEUTRON POROSITY LIMESTONE
DPHI.DEC  45 890 10 00 : DENSITY POROSITY LIMESTONE
~Params ----------------------------------------------------
PD  .                     GL : PERMANENT DATUM
EPD .F                   421 : ELEVATION PERMANENT DATUM
LMF .                    RKB : LOG MEASURED FROM
DAPD.F                  19.4 : FEET ABOVE PERMANENT DATUM
DMF .                    RKB : DRILLING MEASURED FROM
EKB .F                 440.4 : KELLING BUSHING
EDF .F                 439.4 : DRILLING FLOOR
EGL .F                   421 : GROUND LEVEL
DATE.            22-JAN-1993 : RUN DATE
RUN .                      1 : RUN NUMBER
DD  .F                 10380 : DEPTH DRILLER
DL  .F                 10388 : DEPTH LOGGER
BLI .F                 10382 : BOTTOM LOG INTERVAL
TLI .F                  2141 : TOP LOG INTERVAL
CS  .IN                9.625 : CASING SIZE
CBD .F                  2135 : CASING BOTTOM DRILLER
CBL .F                  2141 : CASING BOTTOM LOGGER
BS  .IN                 8.75 : BIT SIZE
BSD .F                 10380 : BIT SIZE AT DEPTH
DFT .                POLYMER : DRILLING FLUID TYPE
DFD .                    9.6 : DRILLING FLUID DENSITY
DFV .                     35 : DRILLING FLUID VISCOSITY
DFPH.                    8.8 : DRILLING FLUID PH
DFL .                    7.2 : DRILLING FLUID LOSS
MSS .                 MUDPIT : MUD SAMPLE SOURCE
RMS .OHMM                  4 : RESISTIVITY MUD SAMPLE
MST .F                    75 : MUD SAMPLE TEMPERATURE
RMF .OHMM                3.7 : RESISTIVITY MUD FILTRATE SAMPLE
MFST.F                    75 : MUD FILTRATE SAMPLE TEMPERATURE
RMC .OHMM                  6 : RESISTIVITY MUD CAKE
MCST.F                    75 : MUD CAKE SAMPLE TEMPERATURE
MFSS.                   MEAS : MUD FILTRATE SAMPLE SOURCE
MCSS.                   CALC : MUD CAKE SAMPLE SOURCE
RMB .OHMM              1.417 : RESISTIVITY MUD AT BHT
TCS .HRS                2030 : TIME CURCULATED STOPPED
TLAB.HRS                 100 : TIME LOGGER AT BOTTOM
LUN .                   2024 : LOGGING UNIT NUMBER
LUL .                 LAREDO : LOGGING UNIT LOCATION
ENGI.           BRIAN HOOVER : RECORDING ENGINEER
WITN.       MR. MARK O'KOREN : WITNESSED BY
CLNT.                A2DTECH : CLIENT CODE
ORIG.               5" PRINT : ORIGIN OF DATA
UWI .         42283315220000 : UNIQUE WELL ID
DICO. A2D Technologies, Inc. : DIGITIZING COMPANY
~Other -----------------------------------------------------
~ASCII -----------------------------------------------------
# ...
 7250.00000   77.48610  -15.97490    -999.25    2.04880    2.07720    2.17970    -999.25    -999.25    -999.25    -999.25    -999.25    -999.25    -999.25
 7300.00000   80.25210  -16.24470    -999.25    2.02070    2.10500    2.26420    -999.25    -999.25    -999.25    -999.25    -999.25    -999.25    -999.25
 7350.00000   77.84650  -11.92760    -999.25    2.78510    2.77350    3.02460    -999.25    -999.25    -999.25    -999.25    -999.25    -999.25    -999.25
 7400.00000   74.32230  -12.98180    -999.25    2.52240    2.50140    2.71420    -999.25    -999.25    -999.25    -999.25    -999.25    -999.25    -999.25
 7450.00000   76.58130  -13.88550    -999.25    2.34660    2.35120    2.60150    -999.25    -999.25    -999.25    -999.25    -999.25    -999.25    -999.25
 7500.00000   81.55120  -13.58410    -999.25    2.41680    2.38060    2.60900    -999.25    -999.25    -999.25    -999.25    -999.25    -999.25    -999.25
 7550.00000   78.51850  -15.01510    -999.25    2.20260    2.22190    2.28730    -999.25    -999.25    -999.25    -999.25    -999.25    -999.25    -999.25
 7600.00000   77.15580  -14.74620    -999.25    2.42580    2.44050    2.46880    -999.25    -999.25    -999.25    -999.25    -999.25    -999.25    -999.25
 7650.00000   73.97880  -12.71960    -999.25    2.68710    2.71400    2.89370    -999.25    -999.25    -999.25    -999.25    -999.25    -999.25    -999.25
 7700.00000   75.17420  -12.98140    -999.25    2.27990    2.34810    2.50310    -999.25    -999.25    -999.25    -999.25    -999.25    -999.25    -999.25
 7750.00000   74.43270  -12.54910    -999.25    2.56340    2.62430    2.91370    -999.25    -999.25    -999.25    -999.25    -999.25    -999.25    -999.25
 7800.00000   89.04360   -7.76150    -999.25    2.43720    2.53300    2.55550    -999.25    -999.25    -999.25    -999.25    -999.25    -999.25    -999.25
 7850.00000   76.92890  -14.63860    -999.25    2.40920    2.40130    2.29750    -999.25    -999.25    -999.25    -999.25    -999.25    -999.25    -999.25
 7900.00000   66.09230  -12.91180    -999.25    4.35870    4.30890    4.11510    -999.25    -999.25    -999.25    -999.25    -999.25    -999.25    -999.25
 7950.00000   95.21940   -8.74440    -999.25    1.99240    2.05950    2.04890    -999.25    -999.25    -999.25    -999.25    -999.25    -999.25    -999.25
 8000.00000   83.89350  -10.42450    -999.25    2.33780    2.27160    2.33610    -999.25    -999.25    -999.25    -999.25    -999.25    -999.25    -999.25
 8050.00000   75.96290   -8.61400    -999.25    2.65330    2.64020    2.68210    -999.25    -999.25    -999.25    -999.25    -999.25    -999.25    -999.25
 8100.00000   85.42300   -9.78560    -999.25    2.11340    2.19140    2.18030    -999.25    -999.25    -999.25    -999.25    -999.25    -999.25    -999.25
 8150.00000   80.21070  -11.32530    -999.25    1.74240    1.76950    1.83100    -999.25    -999.25    -999.25    -999.25    -999.25    -999.25    -999.25
 8200.00000   79.53100  -10.42170    -999.25    2.16800    2.29990    2.43980    -999.25    -999.25    -999.25    -999.25    -999.25    -999.25    -999.25
 8250.00000   85.54350  -10.62230    -999.25    2.11330    2.19140    2.22010    -999.25    -999.25    -999.25    -999.25    -999.25    -999.25    -999.25
 8300.00000   75.45240   -9.36750    -999.25    2.59200    2.68810    2.82450    -999.25    -999.25    -999.25    -999.25    -999.25    -999.25    -999.25
 8350.00000   89.96050  -12.98190    -999.25    2.34360    2.38060    2.31170    -999.25    -999.25    -999.25    -999.25    -999.25    -999.25    -999.25
 8400.00000   91.99510   -6.18620    -999.25    2.29570    2.39710    2.46870    -999.25    -999.25    -999.25    -999.25    -999.25    -999.25    -999.25
 8450.00000  122.08810   -9.96990    -999.25    1.66030    1.79420    1.76070    -999.25    -999.25    -999.25    -999.25    -999.25    -999.25    -999.25
 8500.00000  100.55700   -9.68390    -999.25    2.21790    2.26640    2.27250    -999.25    -999.25    -999.25    -999.25    -999.25    -999.25    -999.25
 8550.00000   83.05600   -6.80720    -999.25    3.13070    3.36130    3.65930    -999.25    -999.25    -999.25    -999.25    -999.25    -999.25    -999.25
 8600.00000  111.87590   -9.97010    -999.25    2.24560    2.31770    2.45180    -999.25    -999.25    -999.25    -999.25    -999.25    -999.25    -999.25
 8650.00000   96.89860  -10.74140    -999.25    2.42580    2.48980    2.61910    -999.25    -999.25    -999.25    -999.25    -999.25    -999.25    -999.25
 8700.00000  111.19520   -7.96890    -999.25    1.87560    1.86750    1.96570    -999.25    -999.25    -999.25    -999.25    -999.25    -999.25    -999.25
 8750.00000  102.34490  -10.12050    -999.25    2.24850    2.29700    2.43160    -999.25    -999.25    -999.25    -999.25    -999.25    -999.25    -999.25
 8800.00000   95.46820  -11.47590    -999.25    2.45950    2.53310    2.60900    -999.25    -999.25    -999.25    -999.25    -999.25    -999.25    -999.25
 8850.00000   96.89830  -11.77720    -999.25    2.45950    2.46410    2.59500    -999.25    -999.25    -999.25    -999.25    -999.25    -999.25    -999.25
 8900.00000   97.73760   -9.92480    -999.25    2.79560    2.85970    2.94580    -999.25    -999.25    -999.25    -999.25    -999.25    -999.25    -999.25
 8950.00000   96.60630   -8.57140    -999.25    3.25890    3.26770    3.29040    -999.25    -999.25    -999.25    -999.25    -999.25    -999.25    -999.25
 9000.00000   95.24890   -9.02060    -999.25    2.79690    2.89500    2.96110    -999.25    -999.25    -999.25    -999.25    -999.25    -999.25    -999.25
 9050.00000   91.79290   -8.12030    -999.25    2.99180    3.18470    3.26770    -999.25    -999.25    -999.25    -999.25    -999.25    -999.25    -999.25
 9100.00000  108.98020   -7.46890    -999.25    2.36860    2.44520    2.62420   77.10080    -999.25    -999.25    -999.25    -999.25    -999.25    -999.25
 9150.00000   93.76900   -5.67250    -999.25    3.86750    3.84900    3.83100   75.44160    -999.25    -999.25    -999.25    -999.25    -999.25    -999.25
 9200.00000   88.75430   -6.01550    -999.25    3.63410    3.66730    3.67640   77.20070   11.90980    2.68070    0.09040    2.52930    0.18110    0.08360
 9250.00000   86.87700   -6.91910    3.74810    3.07030    3.23330    3.09190   82.88920   12.40900    2.70870    0.08290    2.55220    0.20210    0.10800
 9300.00000   90.65610   -6.01500    2.75860    3.25410    3.47740    3.59990   78.32340   11.90980    2.73210   -0.01660    2.36140    0.18150    0.19750
 9350.00000   53.42420   -3.30740    2.60870    7.87470    7.91460    9.04250   66.87130   11.41370    3.84040   -0.01020    2.62780    0.09480    0.04880
 9400.00000   60.63350   -2.70680    3.05850    6.03430    6.28610    6.56170   69.35450   11.75940    3.55420   -0.01100    2.62010    0.12770    0.04650
 9450.00000   47.23400   -3.60810    2.72860    8.20010    8.25000    8.90640   65.75090   11.52930    3.65960   -0.01160    2.63980    0.08200    0.04080
 9500.00000   52.62200   -4.81200    2.00900    9.95820    9.92300   10.95860   64.17660   10.91940    3.79970   -0.00640    2.60900    0.08070    0.05930
 9550.00000   68.10010   -4.51170    2.51880    7.52300    8.23060   10.51360   62.23050   11.30830    3.07890   -0.02700    2.46550    0.08920    0.10060
 9600.00000   55.65550   -5.41310    2.08300   10.09650   10.19660   13.30000   64.77550   10.79700    3.65400   -0.01320    2.53910    0.07750    0.10000
 9650.00000   47.32340   -3.30870    1.79910   12.94570   12.98580   14.05620   63.05390   10.57150    4.21680   -0.00420    2.64860    0.05750    0.03660
 9700.00000   66.54750   -3.00620    2.45880    8.34200    7.71030   12.63470   61.40720   11.42990    3.40360   -0.01670    2.53820    0.07840    0.05420
 9750.00000   67.57370   -0.30100    3.17840    6.90650    7.73440    8.16910   71.00880   12.01500    3.35840   -0.00410    2.59410    0.14750    0.07220
 9800.00000   90.27220   -1.24940    2.43520    5.93970    6.45210    5.64260   82.44010   11.15790    3.35840   -0.03570    2.30080    0.16420    0.23540
