~Version ---------------------------------------------------
VERS. 2.0 : CWLS log ASCII Standard -VERSION 2.0
WRAP. YES : Multiple lines per depth step
~Well ------------------------------------------------------
STRT.FT                   3800.0 : START DEPTH
STOP.FT                   8500.0 : STOP DEPTH
STEP.FT                 50.00000 : STEP LENGTH
NULL.                    -999.25 : NULL VALUE
COMP. CHAMPLIN PETROLEUM COMPANY : COMPANY
WELL.          WILLIAM A LANG #1 : WELL
FLD .                   GIDDINGS : FIELD
LOC .                            : LOCATION
CNTY.                   BURLESON : COUNTY
STAT.                      TEXAS : STATE
CTRY.   UNITED STATES OF AMERICA : COUNTRY
SRVC.               Schlumberger : SERVICE COMPANY
DATE.                24-Jul-1980 : LOGDATE
API .             42051308420000 : API NUMBER
UWI .             42051308420000 : UNIQUE WELL ID
SLAT.WGS84         30.3748097121 : SURFACE LATITUDE
SLON.WGS84        -96.7279740326 : SURFACE LONGITUDE
~Curve Information -----------------------------------------
DEPT    .FT    : DEPTH FEET
CALDED  .IN    : CALIPER FROM SIMULTANEOUS CNL-FDC LOG  [ADJ. TO GRRED]
CALWS   .IN    : CALIPER [CALDED]
CONDWS  .MMHO  : CONDUCTIVITY [1000/DRESWS]
DCORWS  .G/C3  : DENSITY CORRECTION [DROHED]
DENWS   .G/C3  : FORMATION BULK DENSITY [RHOBED]
DPHILSED.V/V   : DENSITY POROSITY LIMESTONE [M=2.71 F=1.0] FROM SIMULTANEOUS CNL-FDC LOG  [ADJ. TO GRRED]
DPHISSED.V/V   : DENSITY POROSITY SANDSTONE [M=2.68 F=1.0] FROM SIMULTANEOUS CNL-FDC LOG  [ADJ. TO GRRED]
DPOWS   .V/V   : DENSITY POROSITY LIMESTONE [M=2.71 F=1.0] [CALCULATED FROM DENWS]
DRESWS  .OHMM  : DEEP RESISTIVITY [ILDED]
DRHOED  .G/C3  : BULK DENSITY CORRECTION FROM SIMULTANEOUS CNL-FDC LOG  [ADJ. TO GRRED]
DTED    .US/F  : DELTA-T FROM DIL-SFL-SONIC LOG
DTWS    .US/F  : COMPRESSIONAL SONIC [DTED]
GRDED   .GAPI  : GAMMA RAY FROM SIMULTANEOUS CNL-FDC LOG [ADJ. TO GRRED]
GRRED   .GAPI  : GAMMA RAY FROM DIL-SFL-SONIC LOG
GRWS    .GAPI  : GAMMA RAY [GRRED SPL.TO GRDED @ 8483']
ILDED   .OHMM  : DEEP INDUCTION FROM DIL-SFL-SONIC LOG
ILMED   .OHMM  : MEDIUM INDUCTION FROM DIL-SFL-SONIC LOG
MRESWS  .OHMM  : MEDIUM RESISTIVTY [ILMED]
NPHILSED.V/V   : NEUTRON POROSITY LIMESTONE FROM SIMULTANEOUS CNL-FDC LOG [ADJ. TO GRRED/RHOBED]
NPHISSED.V/V   : NEUTRON POROSITY SANDSTONE FROM SIMULTANEOUS CNL-FDC LOG  [ADJ. TO GRRED/RHOBED]
NPOWS   .V/V   : NEUTRON POROSITY LIMESTONE [NPHISSED MATRIX CONVERTED TO LIMESTONE & SPL. TO NPHILSED @ 6800.5']
RHOBED  .G/C3  : BULK DENSITY FROM SIMULTANEOUS CNL-FDC LOG  [ADJ. TO GRRED]
SFLUED  .OHMM  : SHALLOW FOCUSED RESISTIVITY FROM DIL-SFL-SONIC LOG
SPHILSED.V/V   : SONIC POROSITY LIMESTONE SONIC-DENSITY POROSITY LOG[DTM=47.6.6;DTF=189]
SPRED   .MV    : SPONTANEOUS POTENTIAL FROM DIL-SFL-SONIC LOG
SPWS    .MV    : SPONTANEOUS POTENTIAL [BASELINE 0 MV, SPRED]
SRESWS  .OHMM  : SHALLOW RESISTIVITY [SFLUED]
~Params ----------------------------------------------------
PD  .                     GL : PERMANENT DATUM
EPD .FT                  372 : ELEVATION PERMANENT DATUM
LMF .                     KB : LOG MEASURED FROM
DAPD.FT                   19 : FEET ABOVE PERMANENT DATUM
DMF .                     KB : DRILLING MEASURED FROM
EKB .FT                  391 : KELLY BUSHING
EDF .FT                  390 : DRILLING FLOOR
EGL .FT                  372 : GROUND LEVEL
DATE.               07/24/80 : RUN DATE
RUN .                      1 : RUN NUMBER
DD  .FT                 8548 : DEPTH DRILLER
DL  .FT                 8547 : DEPTH LOGGER
BLI .FT                 8544 : BOTTOM LOG INTERVAL
TLI .FT                 3800 : TOP LOG INTERVAL
CS  .IN                9.625 : CASING SIZE
CBD .FT                 3804 : CASING BOTTOM DRILLER
CBL .FT                 3800 : CASING BOTTOM LOGGER
BS  .IN                 8.75 : BIT SIZE
BSD .FT                 8548 : BIT SIZE AT DEPTH
DFT .                  BEN X : DRILLING FLUID TYPE
DFD .                    9.3 : DRILLING FLUID DENSITY
DFV .                     40 : DRILLING FLUID VISCOSITY
DFPH.                     10 : DRILLING FLUID PH
DFL .                      9 : DRILLING FLUID LOSS
MSS .              CIRC TANK : MUD SAMPLE SOURCE
RMS .OHMM               1.73 : RESISTIVITY MUD SAMPLE
MST .DEGF                 75 : MUD SAMPLE TEMPERATURE
RMF .OHMM                1.3 : RESISTIVITY MUD FILTRATE SAMPLE
MFST.DEGF                 75 : MUD FILTRATE SAMPLE TEMPERATURE
RMC .OHMM                2.6 : RESISTIVITY MUD CAKE
MCST.DEGF                 75 : MUD CAKE SAMPLE TEMPERATURE
MFSS.                      M : MUD FILTRATE SAMPLE SOURCE
MCSS.                      C : MUD CAKE SAMPLE SOURCE
RMB .OHMM              0.705 : RESISTIVITY MUD AT BHT
TCS .HRS                1400 : TIME CIRCULATED STOPPED
TLAB.HRS                2100 : TIME LOGGER AT BOTTOM
LUN .                   8015 : LOGGING UNIT NUMBER
LUL .               VICTORIA : LOGGING UNIT LOCATION
ENGI.         SHEA LANGHAMER : RECORDING ENGINEER
WITN.           DAVID SCHELL : WITNESSED BY
CLNT.                A2DTECH : CLIENT CODE
ORIG.            2" 5" PRINT : ORIGIN OF DATA
UWI .         42051308420000 : UNIQUE WELL ID
DICO. A2D Technologies, Inc. : DIGITIZING COMPANY
~Other -----------------------------------------------------
DENSITY POROSITY READING APPROX 3 UNITS LOW OVER SECTION 7990'- 7950'
~ASCII -----------------------------------------------------
# ...
 5100.00000   15.64210   15.64210  567.60130    0.04540    2.49520    -999.25    0.10990    0.12560    1.76180    0.04540   98.82760   98.82760   89.47670  104.55100  104.55100    1.76180    1.80420    1.80420    -999.25    0.32420    0.28030    2.49520    2.07100    -999.25  -30.52250   -1.62910    2.07100
 5150.00000   18.23300   18.23300  644.62060    0.02780    2.46200    -999.25    0.12990    0.14500    1.55130    0.02780  100.55420  100.55420   89.39210  100.88730  100.88730    1.55130    1.58300    1.58300    -999.25    0.32860    0.28480    2.46200    1.85840    -999.25  -30.41620   -0.64480    1.85840
 5200.00000   19.55770   19.55770  682.12820    0.07960    2.45810    -999.25    0.13120    0.14730    1.46600    0.07960  104.03430  104.03430   95.67340   97.24570   97.24570    1.46600    1.52000    1.52000    -999.25    0.33380    0.29000    2.45810    1.75050    -999.25  -34.25040   -3.60110    1.75050
 5250.00000   15.82700   15.82700  532.39630    0.03870    2.43960    -999.25    0.14290    0.15810    1.87830    0.03870   94.87020   94.87020   86.85440   99.82440   99.82440    1.87830    1.91710    1.91710    -999.25    0.31860    0.27470    2.43960    2.09870    -999.25  -34.46270   -2.93540    2.09870
 5300.00000   14.76720   14.76720  662.07630    0.08310    2.37410    -999.25    0.18270    0.19650    1.51040    0.08310   99.96460   99.96460   90.42130   91.92260   91.92260    1.51040    1.56780    1.56780    -999.25    0.38200    0.33870    2.37410    1.78530    -999.25  -35.89840   -4.61340    1.78530
 5350.00000   15.42650   15.42650  777.42360    0.10290    2.19870    -999.25    0.28740    0.29900    1.28630    0.10290  101.91580  101.91580   78.42890   88.83810   88.83810    1.28630    1.35150    1.35150    -999.25    0.35830    0.31480    2.19870    1.48210    -999.25  -33.15060   -2.10790    1.48210
 5400.00000   15.94510   15.94510 1135.71830    0.01570    2.07730    -999.25    0.36020    0.37000    0.88050    0.01570  113.52690  113.52690   78.92320   85.54020   85.54020    0.88050    0.92260    0.92260    -999.25    0.43980    0.39790    2.07730    1.17780    -999.25  -31.10010   -0.29970    1.17780
 5450.00000   10.54200   10.54200  525.87290    0.14090    2.29740    -999.25    0.23270    0.24130    1.90160    0.14090   96.33540   96.33540   74.85300   84.15730   84.15730    1.90160    2.00170    2.00170    -999.25    0.35350    0.30990    2.29740    2.15680    -999.25  -37.49880   -6.94070    2.15680
 5500.00000   12.73410   12.73410  707.21360    0.04790    2.08790    -999.25    0.36200    0.36380    1.41400    0.04790  102.07910  102.07910   69.20540   78.61260   78.61260    1.41400    1.45360    1.45360    -999.25    0.43620    0.39410    2.08790    1.51920    -999.25  -37.82760   -7.51180    1.51920
 5550.00000   12.52430   12.52430  797.82990    0.01060    1.83030    -999.25    0.47830    0.51440    1.25340    0.01060   95.59320   95.59320   65.20730   76.39010   76.39010    1.25340    1.37550    1.37550    -999.25    0.44810    0.40630    1.83030    3.05720    -999.25  -37.40270   -7.32930    3.05720
 5600.00000   16.02550   16.02550  968.71060    0.06100    2.27670    -999.25    0.24020    0.25340    1.03230    0.06100  109.15810  109.15810   71.00260   72.44020   72.44020    1.03230    1.08190    1.08190    -999.25    0.43980    0.39780    2.27670    1.36790    -999.25  -32.55760   -2.72650    1.36790
 5650.00000   12.98590   12.98590  728.27910    0.07660    2.29660    -999.25    0.22930    0.24180    1.37310    0.07660  101.81890  101.81890   74.03050   79.28680   79.28680    1.37310    1.44700    1.44700    -999.25    0.41550    0.37290    2.29660    1.50970    -999.25  -33.38110   -3.79230    1.50970
 5700.00000   11.86590   11.86590  554.87740    0.13470    2.38460    -999.25    0.17720    0.19030    1.80220    0.13470   93.20220   93.20220   66.49460   79.84240   79.84240    1.80220    1.87730    1.87730    -999.25    0.34830    0.30460    2.38460    2.09670    -999.25  -35.32590   -5.97940    2.09670
 5750.00000   10.54700   10.54700  625.11720    0.12120    2.00250    -999.25    0.36590    0.41370    1.59970    0.12120  100.48360  100.48360   68.67230   75.48530   75.48530    1.59970    1.66120    1.66120    -999.25    0.41130    0.36870    2.00250    1.80810    -999.25  -37.31960   -8.21540    1.80810
 5800.00000   14.12140   14.12140  958.86470    0.03060    2.30350    -999.25    0.22410    0.23770    1.04290    0.03060  111.59570  111.59570   84.08690   92.84470   92.84470    1.04290    1.09390    1.09390    -999.25    0.41300    0.37040    2.30350    1.31210    -999.25  -32.39580   -3.53390    1.31210
 5850.00000   13.86670   13.86670  746.04600    0.04490    2.36910    -999.25    0.18500    0.19940    1.34040    0.04490  100.72730  100.72730   77.33930   84.37320   84.37320    1.34040    1.40690    1.40690    -999.25    0.33840    0.29460    2.36910    1.67210    -999.25  -32.48770   -3.84960    1.67210
 5900.00000   12.81880   12.81880  793.71380    0.07890    2.39790    -999.25    0.16840    0.18250    1.25990    0.07890  106.38660  106.38660   84.12590   85.89230   85.89230    1.25990    1.29990    1.29990    -999.25    0.36480    0.32130    2.39790    1.53530    -999.25  -33.16410   -4.62600    1.53530
 5950.00000   13.82980   13.82980  959.69290    0.03420    2.30440    -999.25    0.22430    0.23720    1.04200    0.03420  113.59680  113.59680   79.94550   93.60910   93.60910    1.04200    1.10240    1.10240    -999.25    0.41160    0.36890    2.30440    1.27010    -999.25  -32.98950   -4.55140    1.27010
 6000.00000   11.45760   11.45760  891.10680    0.02530    2.38370    -999.25    0.17660    0.19080    1.12220    0.02530   99.20540   99.20540   88.40100  102.19460  102.19460    1.12220    1.22930    1.22930    -999.25    0.36500    0.32150    2.38370    1.42830    -999.25  -31.17660   -2.83840    1.42830
 6050.00000   12.02670   12.02670  873.51500    0.03120    2.40310    -999.25    0.16470    0.17950    1.14480    0.03120  101.86960  101.86960   99.28440  113.12540  113.12540    1.14480    1.20160    1.20160    -999.25    0.34890    0.30530    2.40310    1.16950    -999.25  -29.82310   -1.58490    1.16950
 6100.00000   12.29490   12.29490  832.98630    0.05270    2.33530    -999.25    0.20490    0.21910    1.20050    0.05270  103.23020  103.23020   89.90160   97.82780   97.82780    1.20050    1.25960    1.25960    -999.25    0.35640    0.31280    2.33530    1.35730    -999.25  -31.31130   -3.17310    1.35730
 6150.00000    9.99410    9.99410  529.57690   -0.00520    2.50050    -999.25    0.10760    0.12250    1.88830   -0.00520   88.11770   88.11770   72.81720   93.88850   93.88850    1.88830    1.98010    1.98010    -999.25    0.26040    0.21640    2.50050    2.18070    -999.25  -35.51890   -7.48070    2.18070
 6200.00000    9.75860    9.75860  596.83680    0.07060    2.49470    -999.25    0.10330    0.12590    1.67550    0.07060   91.27400   91.27400   83.92380   92.23940   92.23940    1.67550    1.72200    1.72200    -999.25    0.32200    0.27820    2.49470    1.80720    -999.25  -32.23710   -4.29890    1.80720
 6250.00000   12.23920   12.23920  804.24640    0.06470    2.28310    -999.25    0.23230    0.24960    1.24340    0.06470  101.71330  101.71330   80.30820  101.59070  101.59070    1.24340    1.30390    1.30390    -999.25    0.43880    0.39680    2.28310    1.42030    -999.25  -29.89010   -2.05180    1.42030
 6300.00000   13.12350   13.12350  618.88850    0.08020    2.33650    -999.25    0.20540    0.21840    1.61580    0.08020   94.21430   94.21430   83.56040  113.32440  113.32440    1.61580    1.69390    1.69390    -999.25    0.38560    0.34250    2.33650    1.89630    -999.25  -30.71770   -2.97940    1.89630
 6350.00000   15.89680   15.89680  788.95460    0.03680    2.27890    -999.25    0.23900    0.25210    1.26750    0.03680  100.26440  100.26440   80.54200  106.00990  106.00990    1.26750    1.32890    1.32890    -999.25    0.49650    0.45480    2.27890    1.50930    -999.25  -30.00950   -2.73810    1.50930
