~Version ---------------------------------------------------
VERS. 2.0 : CWLS log ASCII Standard -VERSION 2.0
WRAP.  NO : ONE LINE PER DEPTH STEP
~Well ------------------------------------------------------
STRT.F                     300.0 : START DEPTH
STOP.F                   19600.0 : STOP DEPTH
STEP.F                  50.00000 : STEP LENGTH
NULL.                    -999.25 : NULL VALUE
COMP. CITIES SERVICE OIL COMPANY : COMPANY
WELL.          PEELER RANCH A #1 : WELL
FLD .                    WILDCAT : FIELD
LOC .                            : LOCATION
CNTY.                   ATASCOSA : COUNTY
STAT.                      TEXAS : STATE
CTRY.   UNITED STATES OF AMERICA : COUNTRY
SRVC.               Schlumberger : SERVICE COMPANY
DATE.                12-Feb-1972 : LOGDATE
API .             42013301410000 : API NUMBER
UWI .             42013301410000 : UNIQUE WELL ID
SLAT.WGS84         28.6903618688 : SURFACE LATITUDE
SLON.WGS84        -98.4697337546 : SURFACE LONGITUDE
~Curve Information -----------------------------------------
DEPT.F                 : 
GRD .GAPI 45 310 01 00 : GAMMA RAY FROM DENSITY LOG
CALD.IN   45 280 60 00 : CALIPER FROM DENSITY LOG
CORR.G/C3 45 356 01 00 : DENSITY CORRECTION
RHOB.G/C3 45 350 01 00 : BULK DENSITY
GRS .GAPI 60 310 01 00 : GAMMA RAY FROM SONIC LOG
DT  .US/F 60 500 32 00 : DELTA-T (INTERVAL TRANSIT TIME)
CALS.IN   60 280 50 00 : CALIPER FROM SONIC LOG
ALL8.OHMM 05 221 08 00 : AMPLIFIED LATEROLOG-8
ILD .OHMM 05 120 46 00 : INDUCTION LOG DEEP
ASN .OHMM 05 041 16 00 : AMPLIFIED SHORT NORMAL 16"
CILD.MMHO 05 110 46 00 : CONDUCTIVITY INDUCTION LOG DEEP
SPR .MV   05 010 01 00 : SPONTANEOUS POTENTIAL FROM RES.
NEUT.NAPI 35 330 01 00 : NEUTRON
SNP .DEC  41 890 01 00 : SIDEWALL NEUTRON POROSITY
~Params ----------------------------------------------------
PD  .                     GL : PERMANENT DATUM
EPD .F                   297 : ELEVATION PERMANENT DATUM
LMF .                     KB : LOG MEASURED FROM
DAPD.F                  30.5 : FEET ABOVE PERMANENT DATUM
DMF .                     KB : DRILLING MEASURED FROM
EKB .F                 327.5 : KELLING BUSHING
EDF .F                 326.5 : DRILLING FLOOR
EGL .F                   297 : GROUND LEVEL
DATE.             02-12-1972 : RUN DATE
RUN .                      9 : RUN NUMBER
DD  .F                 19629 : DEPTH DRILLER
DL  .F                 19635 : DEPTH LOGGER
BLI .F                 19628 : BOTTOM LOG INTERVAL
TLI .F                 19127 : TOP LOG INTERVAL
BS  .IN                  4.4 : BIT SIZE
BSD .F                 19629 : BIT SIZE AT DEPTH
DFT .       INVERMUL 43% OIL : DRILLING FLUID TYPE
DFD .                   19.1 : DRILLING FLUID DENSITY
DFV .                     88 : DRILLING FLUID VISCOSITY
TCS .HRS                  12 : TIME CURCULATED STOPPED
LUN .                   7504 : LOGGING UNIT NUMBER
LUL .                  PLEAS : LOGGING UNIT LOCATION
ENGI.               CLEMENTS : RECORDING ENGINEER
WITN.         GRIGSBY THOMAS : WITNESSED BY
CLNT.                A2DTECH : CLIENT CODE
ORIG.            2" 5" PRINT : ORIGIN OF DATA
UWI .         42013301410000 : UNIQUE WELL ID
DICO. A2D Technologies, Inc. : DIGITIZING COMPANY
~Other -----------------------------------------------------
~ASCII -----------------------------------------------------
# ...
 12500.00000   51.53060   14.58170    0.01050    2.51090    -999.25   70.63070   13.93680   11.98980  216.52660    -999.25   71.31470  -14.04000    -999.25    0.15690
 12550.00000   43.89580   15.67810    0.06450    2.45640    -999.25   59.92430   13.63360    9.18930    9.69590    -999.25   56.15940  -15.40000    -999.25    0.31060
 12600.00000   48.19050   13.86010    0.05220    2.67510    -999.25   59.42550   13.56580    7.01060  189.07880    -999.25   53.52570  -12.65000    -999.25    0.15720
 12650.00000   53.80030   13.72360    0.04000    2.65560    -999.25   64.50930   14.02150    9.52570   26.80200    -999.25   82.07170  -14.44170    -999.25    0.30100
 12700.00000   49.99310   21.23360    0.02920    2.68620    -999.25   55.36480   14.02480   14.05000   19.70020    -999.25   38.59960  -25.32000    -999.25    0.00860
 12750.00000   19.56790   21.96960    0.03120    2.49110    -999.25   45.97430   14.02890    8.10620   19.83860    -999.25   52.03540  -50.94530    -999.25    0.02780
 12800.00000   24.16990   21.94700    0.02030    2.29720    -999.25   47.94290   13.96920    6.33260   15.36120    -999.25   70.41630  -54.00000    -999.25    0.20540
 12850.00000   20.49090   17.25110   -0.00890    2.70580    -999.25   49.68860   13.91660   18.67890   35.06870    -999.25   23.64670  -50.55000    -999.25   -0.01470
 12900.00000   21.13780   19.98940    0.00160    2.57430    -999.25   49.16530   13.87780   20.12680   22.83460    -999.25   51.17350  -41.90000    -999.25    0.00840
 12950.00000   23.73620   16.68270   -0.00080    2.72910    -999.25   48.45860   13.77010   22.15950   36.40620    -999.25   33.06770  -35.80000    -999.25    0.01180
 13000.00000   25.01030   16.14750   -0.01420    2.74460    -999.25   49.14730   13.79380   18.40420   28.99310    -999.25   25.07510  -40.80000    -999.25   -0.00510
 13050.00000   18.05910   16.75240   -0.00840    2.69930    -999.25   49.86580   13.66910   13.13610   11.18340    -999.25  126.29480  -65.16170    -999.25   -0.00150
 13100.00000   17.87300   17.06730   -0.00430    2.73260    -999.25   48.45660   13.90410   14.48660   22.84290    -999.25   42.82870  -65.20000    -999.25   -0.01440
 13150.00000   20.15260   21.92770    0.00240    2.34520    -999.25   56.85990   13.97260    4.99390   11.92390    -999.25   73.13000  -71.96080    -999.25    0.28880
 13200.00000   18.35270   21.93600    0.01530    2.36590    -999.25   51.78180   13.92450    8.14500   24.02830    -999.25   42.56310  -64.70000    -999.25    0.15350
 13250.00000   19.64950   21.97160    0.01080    2.43910    -999.25   49.22190   14.00150    9.76310   28.10900    -999.25   39.84060  -62.47870    -999.25    0.16640
 13300.00000   15.42960   15.85530   -0.01060    2.72450    -999.25   51.07150   13.55150   13.56230   10.36290    -999.25   98.40640  -69.40000    -999.25    0.08580
 13350.00000   19.68290   19.00710    0.00990    2.30040    -999.25   50.77730   14.01640   50.09440   32.23820    -999.25   25.49800  -49.00000    -999.25    0.18570
 13400.00000   19.25890   20.33410    0.00320    2.39700    -999.25   50.50880   13.96390   15.46120   21.93310    -999.25   38.67690  -64.80000    -999.25    0.15250
 13450.00000   21.00550   16.65740   -0.01150    2.72660    -999.25   50.79230   14.00570   30.70520   34.21330    -999.25   29.83620  -44.60000    -999.25   -0.01000
 13500.00000   18.13870   16.44740    0.02010    2.58300    -999.25   49.46730   13.90520   25.05430   37.16080    -999.25   22.47010  -38.24000    -999.25    0.02330
 13550.00000   22.89840   16.41870   -0.00610    2.70480    -999.25   49.62960   13.83440   20.71300   94.50420    -999.25   17.39710  -44.40070    -999.25   -0.00330
 13600.00000   24.02630   16.70880    0.01230    2.66910    -999.25   47.63060   13.86730   20.57810   25.52110    -999.25   37.83670  -52.10000    -999.25    0.00480
 13650.00000   24.94950   15.53810    0.01170    2.72940    -999.25   46.97290   13.76540   21.35450   27.17140    -999.25   41.16870  -63.30000    -999.25    0.01950
 13700.00000   30.35820   15.99170   -0.00010    2.68140    -999.25   49.60930   13.55380   15.97090   26.37570    -999.25   40.01990  -60.20000    -999.25    0.00390
 13750.00000   22.91690   15.98970   -0.00640    2.68290    -999.25   51.41670   13.44910   16.47830   17.55560    -999.25   60.95620  -53.80000    -999.25    0.02370
 13800.00000   22.54500   16.84760   -0.00390    2.66820    -999.25   52.64140   13.65100   22.39690   24.40300    -999.25   49.00400  -30.60000    -999.25    0.00300
 13850.00000   20.24500   16.72580   -0.00500    2.70340    -999.25   51.59350   13.58850   13.38420   13.94910    -999.25   61.83270  -49.96220    -999.25    0.07660
 13900.00000   17.87040   15.13820   -0.00920    2.71270    -999.25   50.45420   13.66480   21.74290   25.34180    -999.25   37.06460  -56.60000    -999.25    0.00520
 13950.00000   17.43130   15.27600    0.00350    2.75480    -999.25   53.77940   13.56990   11.39750    8.00320    -999.25  105.65420  -63.40000    -999.25    0.09570
 14000.00000   28.22700   15.09070   -0.00520    2.69360    -999.25   47.77460   13.59840   20.40900   19.56530    -999.25   51.63500  -51.60000    -999.25    0.06510
 14050.00000   23.53650   15.57810    0.02540    2.57320    -999.25   49.54240   13.40800   20.00350   25.55590    -999.25   54.56080  -49.00000    -999.25    0.04840
 14100.00000   25.44640   17.76010    0.03160    2.36700    -999.25   46.33810   13.79680   24.74970   30.43350    -999.25   30.98010  -55.80000    -999.25    0.12870
 14150.00000   26.08960   16.34630    0.04150    2.62740    -999.25   52.78110   13.45330   10.52810    8.13820    -999.25  111.55380  -52.15960    -999.25    0.08900
 14200.00000   27.25600   15.59840   -0.00670    2.75860    -999.25   47.58550   13.68440   14.99800   26.45900    -999.25   39.96590  -46.60000    -999.25    0.03870
 14250.00000   28.59720   15.57040    0.06890    2.66480   14.84620   48.56110   13.67990   43.24960   37.19840    -999.25   25.79680  -45.80000    -999.25    0.00820
 14300.00000   28.57530   15.88960   -0.00570    2.69110   14.36510   48.71320   13.25120   29.12570   34.67020    -999.25   29.50450  -49.00000    -999.25    0.02050
 14350.00000   28.86410   14.57570   -0.00790    2.71540   16.24630   49.62830   13.25870   45.43420   40.60300    -999.25   29.08370  -29.92000    -999.25    0.00880
 14400.00000   32.06100   14.27810   -0.01360    2.68860   15.86630   52.35290   13.09940   19.64880   12.28800    -999.25   95.21910  -36.60000    -999.25    0.04870
 14450.00000   31.30910   10.44760    0.00120    2.75100   30.38450   50.93620   10.17340    -999.25    8.09020    -999.25    -999.25  -32.16500    -999.25    0.01210
 14500.00000   49.70830   10.03650    0.00470    2.59570   53.10470   59.48610   10.06030    -999.25   14.83810    -999.25   59.83900    -999.25    -999.25    0.11040
 14550.00000   30.96860   10.13530    0.00710    2.75990   29.97990   51.67380    9.95100    -999.25   74.93620    -999.25    -999.25    -999.25    -999.25    0.02250
 14600.00000   27.76100   10.09600    0.00950    2.76350   31.24620   51.25590   10.06360    -999.25   91.29700    -999.25    -999.25    -999.25    -999.25    0.01580
 14650.00000   37.18450   10.09850   -0.01220    2.72910   33.96810   53.50650   10.14200    -999.25   46.51100    -999.25    -999.25    -999.25    -999.25    0.02380
 14700.00000   38.63870   10.03990   -0.00820    2.77380   38.75850   52.99500   10.01560    -999.25   32.71040    -999.25   35.05980    -999.25    -999.25    0.03180
 14750.00000   43.11600   10.05300    0.03360    2.77390   33.14970   55.51040    9.97400    -999.25   28.62940    -999.25   41.80070    -999.25    -999.25    0.04360
 14800.00000   51.09700   10.16730    0.01730    2.59280   44.34600   57.15390   10.70300    -999.25   14.96140    -999.25   58.21320    -999.25    -999.25    0.03910
 14850.00000   45.04560   10.81510    0.00810    2.70110   43.28940   57.46230   11.56640    -999.25   35.81660    -999.25   39.97340    -999.25    -999.25    0.01640
