~Version ---------------------------------------------------
VERS.      2.0 : CWLS log ASCII Standard -VERSION 2.0
WRAP.      YES : Multiple lines per depth step
CREA. 01/03/13 : LAS Creation Date
~Well ------------------------------------------------------
STRT.FT                   3950.0 : START DEPTH
STOP.FT                   8600.0 : STOP DEPTH
STEP.FT                 50.00000 : STEP LENGTH
NULL.                    -999.25 : NULL VALUE
COMP. CHAMPLIN PETROLEUM COMPANY : COMPANY
WELL.             L J KOCUREK #1 : WELL
FLD .                   GIDDINGS : FIELD
LOC .                            : LOCATION
CNTY.                   BURLESON : COUNTY
STAT.                      TEXAS : STATE
CTRY.   UNITED STATES OF AMERICA : COUNTRY
SRVC.               Schlumberger : SERVICE COMPANY
DATE.                18-Apr-1980 : LOGDATE
API .             42051306120000 : API NUMBER
UWI .             42051306120000 : UNIQUE WELL ID
SLAT.WGS84         30.3823793957 : SURFACE LATITUDE
SLON.WGS84        -96.7071432424 : SURFACE LONGITUDE
~Curve Information -----------------------------------------
DEPT    .FT    : DEPTH FEET
CALDED  .IN    : CALIPER FROM CNFD LOG [ADJ. TO GRRED]
CALWS   .IN    : CALIPER [CALDED]
CONDWS  .MMHO  : CONDUCTIVITY [1000/DRESWS]
DCORWS  .G/C3  : DENSITY CORRECTION [DRHOED]
DENWS   .G/C3  : FORMATION BULK DENSITY [RHOBED]
DPHILSED.V/V   : DENSITY POROSITY LIMESTONE [M=2.71, F=1.0] FROM CNFD LOG [ADJ. TO GRRED]
DPHISSED.V/V   : DENSITY POROSITY SANDSTONE [M=2.65, F=0.81] FROM CNFD LOG [ADJ. TO GRRED]
DPOWS   .V/V   : DENSITY POROSITY LIMESTONE [DPHISSED CONVERTED TO LIMESTONE (M=2.71, F=1.0), SPL. TO DPHILSED @ 6790.5']
DRESWS  .OHMM  : DEEP RESISTIVITY [ILDED]
DRHOED  .G/C3  : BULK DENSITY CORRECTION FROM CNFD LOG [ADJ. TO GRRED]
DTED    .US/F  : DELTA-T (INTERVAL TRANSIT TIME) FROM DIL-SONIC LOG
DTWS    .US/F  : COMPRESSIONAL  SONIC [DTED]
GRDED   .GAPI  : GAMMA RAY FROM CNFD LOG [ADJ. TO GRRED]
GRRED   .GAPI  : GAMMA RAY FROM DIL-SONIC LOG
GRWS    .GAPI  : GAMMA RAY [GRDED]
ILDED   .OHMM  : DEEP INDUCTION FROM DIL-SONIC LOG
ILMED   .OHMM  : MEDIUM INDUCTION FROM DIL-SONIC LOG
MRESWS  .OHMM  : MEDIUM RESISTIVITY [ILMED]
NPHILSED.V/V   : NEUTRON POROSITY LIMESTONE FROM CNFD LOG [ADJ. TO GRRED]
NPHISSED.V/V   : NEUTRON POROSITY SANDSTONE FROM CNFD LOG [ADJ. TO GRRED]
NPOWS   .V/V   : NEUTRON POROSITY LIMESTONE [NPHISSED MATRIX CONVERTED TO LIMESTONE, SPL. TO NPHILSED @ 6790.5']
RHOBED  .G/C3  : BULK DENSITY FROM CNFD LOG [ADJ. TO GRRED]
SFLUED  .OHMM  : SHALLOW FOCUSED INDUCTION (UNAVERAGED) FROM DIL-SONIC LOG
SPHIED  .V/V   : SONIC POROSITY [DTM=47.5, DTF=189.0] FROM FDC-SONIC LOG
SPOWS   .V/V   : SONIC POROSITY [SPHIED]
SPRED   .MV    : SPONTANEOUS POTENTIAL FROM DIL-SONIC LOG
SPWS    .MV    : SPONTANEOUS POTENTIAL [BASELINE 0 MV, SPRED]
SRESWS  .OHMM  : SHALLOW RESISTIVITY [SFLUED]
~Params ----------------------------------------------------
PD  .                     GL : PERMANENT DATUM
EPD .FT                  328 : ELEVATION PERMANENT DATUM
LMF .                     KB : LOG MEASURED FROM
DAPD.FT                   16 : FEET ABOVE PERMANENT DATUM
DMF .                     KB : DRILLING MEASURED FROM
EKB .FT                  344 : KELLY BUSHING
EDF .FT                  343 : DRILLING FLOOR
EGL .FT                  328 : GROUND LEVEL
DATE.               04/18/80 : RUN DATE
RUN .                      2 : RUN NUMBER
DD  .FT                 8660 : DEPTH DRILLER
DL  .FT                 8613 : DEPTH LOGGER
BLI .FT                 8606 : BOTTOM LOG INTERVAL
TLI .FT                 3932 : TOP LOG INTERVAL
CS  .IN                9.625 : CASING SIZE
CBD .FT                 3987 : CASING BOTTOM DRILLER
CBL .FT                 3932 : CASING BOTTOM LOGGER
BS  .IN                 8.75 : BIT SIZE
BSD .FT                 8660 : BIT SIZE AT DEPTH
DFT .                BENT EX : DRILLING FLUID TYPE
DFD .                    9.6 : DRILLING FLUID DENSITY
DFV .                     43 : DRILLING FLUID VISCOSITY
DFPH.                    8.5 : DRILLING FLUID PH
DFL .                    7.1 : DRILLING FLUID LOSS
MSS .               FLOWLINE : MUD SAMPLE SOURCE
RMS .OHMM               4.13 : RESISTIVITY MUD SAMPLE
MST .DEGF                 75 : MUD SAMPLE TEMPERATURE
RMF .OHMM               3.63 : RESISTIVITY MUD FILTRATE SAMPLE
MFST.DEGF                 75 : MUD FILTRATE SAMPLE TEMPERATURE
RMC .OHMM               6.19 : RESISTIVITY MUD CAKE
MCST.DEGF                 75 : MUD CAKE SAMPLE TEMPERATURE
MFSS.                      M : MUD FILTRATE SAMPLE SOURCE
MCSS.                      C : MUD CAKE SAMPLE SOURCE
RMB .OHMM               1.59 : RESISTIVITY MUD AT BHT
TCS .HRS                1930 : TIME CIRCULATED STOPPED
TLAB.HRS                 230 : TIME LOGGER AT BOTTOM
LUN .                   8176 : LOGGING UNIT NUMBER
LUL .                BRENHAM : LOGGING UNIT LOCATION
ENGI.                   CATE : RECORDING ENGINEER
WITN.           WESLEY DAVIS : WITNESSED BY
CLNT.                A2DTECH : CLIENT CODE
ORIG.            2" 5" PRINT : ORIGIN OF DATA
UWI .         42051306120000 : UNIQUE WELL ID
DICO. A2D Technologies, Inc. : DIGITIZING COMPANY
~Other -----------------------------------------------------
~ASCII -----------------------------------------------------
# ...
 5200.00000   16.11850   16.11850  590.52790    0.17610    2.23940    -999.25    0.24790    0.30180    1.69340    0.17610   96.85730   96.85730   67.62660   93.21970   67.62660    1.69340    1.74830    1.74830    -999.25    0.44640    0.40460    2.23940    1.82890    -999.25    -999.25  -17.77850  -12.84770    1.82890
 5250.00000   17.77300   17.77300  634.92060    0.18380    2.12960    -999.25    0.31490    0.37390    1.57500    0.18380   98.94080   98.94080   73.09210   96.80680   73.09210    1.57500    1.62640    1.62640    -999.25    0.42920    0.38700    2.12960    1.78060    -999.25    -999.25  -14.10880   -8.86150    1.78060
 5300.00000   18.99750   18.99750  677.36910    0.08900    1.63950    -999.25    0.61220    0.69380    1.47630    0.08900  101.28140  101.28140   78.69260   99.09250   78.69260    1.47630    1.52420    1.52420    -999.25    0.43220    0.39000    1.63950    1.72450    -999.25    -999.25  -13.27730   -7.71340    1.72450
 5350.00000   18.24280   18.24280  635.97050    0.19860    2.09820    -999.25    0.33490    0.39540    1.57240    0.19860   97.98520   97.98520   82.01150  100.16690   82.01150    1.57240    1.63020    1.63020    -999.25    0.41250    0.36990    2.09820    1.75550    -999.25    -999.25  -10.80690   -4.92650    1.75550
 5400.00000   18.97420   18.97420  710.93420    0.20510    2.06050    -999.25    0.35790    0.42020    1.40660    0.20510   98.29210   98.29210   71.89110   95.81990   71.89110    1.40660    1.45220    1.45220    -999.25    0.40050    0.35760    2.06050    1.51940    -999.25    -999.25  -11.44570   -5.24870    1.51940
 5450.00000   19.45020   19.45020 1309.24330    0.16340    2.00270    -999.25    0.39490    0.46000    0.76380    0.16340  114.15820  114.15820   67.15570  103.71150   67.15570    0.76380    0.81160    0.81160    -999.25    0.57410    0.53240    2.00270    0.98100    -999.25    -999.25  -10.04190   -3.52840    0.98100
 5500.00000   16.85200   16.85200  552.79160    0.10130    2.07000    -999.25    0.35330    0.41520    1.80900    0.10130   92.65650   92.65650   60.92000   88.15770   60.92000    1.80900    1.87740    1.87740    -999.25    0.47650    0.43480    2.07000    2.17330    -999.25    -999.25  -11.52530   -4.69520    2.17330
 5550.00000   13.47320   13.47320  579.47500    0.16040    2.46450    -999.25    0.09650    0.13890    1.72570    0.16040   92.41840   92.41840   64.48530   82.20640   64.48530    1.72570    1.87620    1.87620    -999.25    0.44650    0.40470    2.46450    2.19840    -999.25    -999.25  -14.55710   -7.41050    2.19840
 5600.00000   12.79470   12.79470  813.00810    0.21800    2.25920    -999.25    0.22740    0.27980    1.23000    0.21800  104.84400  104.84400   70.92360   88.86710   70.92360    1.23000    1.27130    1.27130    -999.25    0.42340    0.38100    2.25920    1.47710    -999.25    -999.25  -32.05140  -24.58820    1.47710
 5650.00000   19.61770   19.61770  918.02070    0.12190    2.45300    -999.25    0.12030    0.16450    1.08930    0.12190  109.12540  109.12540   75.54840   97.98400   75.54840    1.08930    1.16410    1.16410    -999.25    0.32290    0.27900    2.45300    1.27880    -999.25    -999.25  -15.40550   -7.62580    1.27880
 5700.00000   16.88900   16.88900  742.00490    0.11480    2.52540    -999.25    0.07450    0.11530    1.34770    0.11480   97.49250   97.49250   77.21710   97.26460   77.21710    1.34770    1.42710    1.42710    -999.25    0.29080    0.24680    2.52540    1.66050    -999.25    -999.25  -13.69290   -5.59660    1.66050
 5750.00000   14.65840   14.65840  599.55630    0.08150    2.52570    -999.25    0.07370    0.11440    1.66790    0.08150   93.07310   93.07310   65.22510   89.68170   65.22510    1.66790    1.72950    1.72950    -999.25    0.28200    0.23800    2.52570    1.80200    -999.25    -999.25  -10.58010   -2.16730    1.80200
 5800.00000   13.62040   13.62040  654.92170    0.08170    2.51910    -999.25    0.07920    0.12030    1.52690    0.08170   93.42290   93.42290   68.32490   88.81050   68.32490    1.52690    1.57840    1.57840    -999.25    0.30540    0.26140    2.51910    1.80730    -999.25    -999.25  -15.19640   -6.72160    1.80730
 5850.00000   14.70750   14.70750 1010.61140    0.10490    2.47440    -999.25    0.10540    0.14850    0.98950    0.10490  106.45100  106.45100   78.66390   98.34870   78.66390    0.98950    1.04610    1.04610    -999.25    0.35290    0.30930    2.47440    1.22070    -999.25    -999.25  -14.16990   -5.75860    1.22070
 5900.00000   15.38070   15.38070  860.65930    0.11230    2.49770    -999.25    0.09600    0.13840    1.16190    0.11230  103.35060  103.35060   76.76320   96.90690   76.76320    1.16190    1.18630    1.18630    -999.25    0.37760    0.33430    2.49770    1.34490    -999.25    -999.25  -12.84010   -4.49230    1.34490
 5950.00000   14.31430   14.31430  819.20210    0.14470    2.49930    -999.25    0.08650    0.12820    1.22070    0.14470  102.27860  102.27860   87.72520  109.46940   87.72520    1.22070    1.27710    1.27710    -999.25    0.37490    0.33160    2.49930    1.36900    -999.25    -999.25  -11.27180   -2.98750    1.36900
 6000.00000   13.02200   13.02200  681.84920    0.06800    2.46760    -999.25    0.10080    0.14360    1.46660    0.06800   97.77230   97.77230   80.19970  100.11640   80.19970    1.46660    1.53840    1.53840    -999.25    0.36450    0.32110    2.46760    1.85190    -999.25    -999.25  -15.20900   -6.98820    1.85190
 6050.00000   11.97240   11.97240  867.52840    0.10150    2.44470    -999.25    0.12500    0.16960    1.15270    0.10150   98.67290   98.67290   82.43790  105.47760   82.43790    1.15270    1.22880    1.22880    -999.25    0.34970    0.30610    2.44470    1.42890    -999.25    -999.25  -14.54350   -6.38620    1.42890
 6100.00000   11.43830   11.43830  617.05540    0.13680    2.51530    -999.25    0.08090    0.12210    1.62060    0.13680   89.98320   89.98320   75.66710   94.10380   75.66710    1.62060    1.67350    1.67350    -999.25    0.27260    0.22860    2.51530    1.73300    -999.25    -999.25  -15.87050   -7.77670    1.73300
 6150.00000   12.06660   12.06660  807.16760    0.09730    2.45200    -999.25    0.11770    0.16170    1.23890    0.09730   97.11280   97.11280   93.24150  110.18800   93.24150    1.23890    1.34860    1.34860    -999.25    0.34260    0.29890    2.45200    1.46700    -999.25    -999.25  -13.25260   -5.22230    1.46700
 6200.00000   11.35630   11.35630  502.84110    0.02980    2.50620    -999.25    0.08820    0.13000    1.98870    0.02980   89.35260   89.35260   74.79070   96.37420   74.79070    1.98870    2.18520    2.18520    -999.25    0.27460    0.23060    2.50620    2.30990    -999.25    -999.25  -17.96920  -10.00240    2.30990
 6250.00000   11.60780   11.60780  559.59710    0.18560    2.50670    -999.25    0.08560    0.12720    1.78700    0.18560   84.28360   84.28360   89.91890  100.13800   89.91890    1.78700    1.94390    1.94390    -999.25    0.29680    0.25280    2.50670    2.33770    -999.25    -999.25  -26.23990  -18.33660    2.33770
 6300.00000   13.09580   13.09580  765.40380    0.16690    2.46780    -999.25    0.10940    0.15280    1.30650    0.16690   96.47520   96.47520   80.54970   96.72100   80.54970    1.30650    1.38060    1.38060    -999.25    0.34670    0.30300    2.46780    1.41960    -999.25    -999.25  -16.73470   -8.89490    1.41960
 6350.00000   13.36260   13.36260  724.21780    0.11900    2.48460    -999.25    0.10120    0.14400    1.38080    0.11900   95.93280   95.93280   89.66280  106.89460   89.66280    1.38080    1.46960    1.46960    -999.25    0.33330    0.28950    2.48460    1.57830    -999.25    -999.25  -11.57230   -3.79600    1.57830
 6400.00000   13.09860   13.09860  746.54720    0.10270    2.48760    -999.25    0.09650    0.13890    1.33950    0.10270   97.67670   97.67670  106.38330  126.14040  106.38330    1.33950    1.39450    1.39450    -999.25    0.30550    0.26150    2.48760    1.47780    -999.25    -999.25  -15.74370   -8.03090    1.47780
