~Version ---------------------------------------------------
VERS. 2.0 : CWLS log ASCII Standard -VERSION 2.0
WRAP.  NO : ONE LINE PER DEPTH STEP
~Well ------------------------------------------------------
STRT.F                    3500.0 : START DEPTH
STOP.F                    7900.0 : STOP DEPTH
STEP.F                  50.00000 : STEP LENGTH
NULL.                    -999.25 : NULL VALUE
COMP. CHAMPLIN PETROLEUM COMPANY : COMPANY
WELL.        LOUIS LOEHR UNIT #1 : WELL
FLD .                   GIDDINGS : FIELD
LOC .                            : LOCATION
CNTY.                   BURLESON : COUNTY
STAT.                      TEXAS : STATE
CTRY.   UNITED STATES OF AMERICA : COUNTRY
SRVC.              Dresser Atlas : SERVICE COMPANY
DATE.                12-Jun-1981 : LOGDATE
API .             42051315010000 : API NUMBER
UWI .             42051315010000 : UNIQUE WELL ID
SLAT.WGS84         30.5892913168 : SURFACE LATITUDE
SLON.WGS84        -96.6057686939 : SURFACE LONGITUDE
~Curve Information -----------------------------------------
DEPT.F                 : 
GRR .GAPI 07 310 01 00 : GAMMA RAY FROM RESISTIVITY
NPHI.DEC  42 890 03 00 : NEUTRON POROSITY
SPR .MV   07 010 01 00 : SPONTANEOUS POTENTIAL FROM RESISTIVITY
DPHI.DEC  45 890 12 00 : DENSITY POROSITY
CALR.IN   07 280 01 00 : CALIPER FROM RESISTIVITY LOG
ILD .OHMM 07 120 46 00 : INDUCTION DEEP RESISTIVITY
ILM .OHMM 07 120 44 00 : INDUCTION MEDIUM RESISTIVITY
SFL .OHMM 07 220 01 00 : SPHERICALLY FOCUSSED LOG
CORR.G/C3 45 356 01 00 : CORRELATION LOG
~Params ----------------------------------------------------
PD  .                     GL : PERMANENT DATUM
EPD .FT                  313 : ELEVATION PERMANENT DATUM
LMF .                     KB : LOG MEASURED FROM
DAPD.FT                   14 : FEET ABOVE PERMANENT DATUM
DMF .                     KB : DRILLING MEASURED FROM
EKB .FT                  327 : KELLY BUSHING
EDF .FT                  325 : DRILLING FLOOR
EGL .FT                  313 : GROUND LEVEL
DATE.               06/12/81 : RUN DATE
RUN .                      1 : RUN NUMBER
DD  .FT                 7918 : DEPTH DRILLER
DL  .FT                 7918 : DEPTH LOGGER
BLI .FT                 7916 : BOTTOM LOG INTERVAL
TLI .FT                 3498 : TOP LOG INTERVAL
CS  .IN                9.625 : CASING SIZE
CBD .FT                 3474 : CASING BOTTOM DRILLER
CBL .FT                 3498 : CASING BOTTOM LOGGER
BS  .IN                 8.75 : BIT SIZE
BSD .FT                 7918 : BIT SIZE AT DEPTH
DFT .                  BENEX : DRILLING FLUID TYPE
DFD .                    9.4 : DRILLING FLUID DENSITY
DFV .                     43 : DRILLING FLUID VISCOSITY
DFPH.                      9 : DRILLING FLUID PH
DFL .                     13 : DRILLING FLUID LOSS
MSS .                    PIT : MUD SAMPLE SOURCE
RMS .OHMM                3.6 : RESISTIVITY MUD SAMPLE
MST .DEGF                 75 : MUD SAMPLE TEMPERATURE
RMF .OHMM                2.7 : RESISTIVITY MUD FILTRATE SAMPLE
MFST.DEGF                 75 : MUD FILTRATE SAMPLE TEMPERATURE
RMC .OHMM                4.5 : RESISTIVITY MUD CAKE
MCST.DEGF                 75 : MUD CAKE SAMPLE TEMPERATURE
MFSS.                   CALC : MUD FILTRATE SAMPLE SOURCE
MCSS.                   CALC : MUD CAKE SAMPLE SOURCE
RMB .OHMM                1.3 : RESISTIVITY MUD AT BHT
TCS .HRS                   4 : TIME CIRCULATED STOPPED
LUN .                   6300 : LOGGING UNIT NUMBER
LUL .                  BRYAN : LOGGING UNIT LOCATION
ENGI.            BROWN MARSH : RECORDING ENGINEER
WITN.                  VODAK : WITNESSED BY
CLNT.                A2DTECH : CLIENT CODE
ORIG.          1" 2.5" PRINT : ORIGIN OF DATA
UWI .         42051315010000 : UNIQUE WELL ID
DICO. A2D Technologies, Inc. : DIGITIZING COMPANY
~Other -----------------------------------------------------
~ASCII -----------------------------------------------------
 3500.00000   44.75590    0.18080  -71.23720    0.40370    9.04380    1.22040    3.64130    3.87090   -0.16260
 3550.00000   44.52800    0.23830  -69.66880    0.39740    9.30340    4.41340    4.46580    4.80820   -0.15740
 3600.00000   60.06630    0.21980  -73.85190    0.34660    8.79170    4.87430    6.03180    6.36600   -0.13620
 3650.00000   69.75730    0.22200  -59.93580    0.32740   10.36160    1.91290    1.97910    2.62290   -0.11970
 3700.00000   62.56400    0.22200  -57.54420    0.30000    9.75580    2.17400    2.23350    2.37040   -0.12410
 3750.00000   58.76000    0.22160  -66.38520    0.29000    9.28320    2.49680    2.58230    2.79290   -0.12380
 3800.00000   64.87870    0.24100  -67.55650    0.24660    9.61330    2.19750    2.33780    2.51020   -0.11290
 3850.00000   68.16530    0.22570  -67.83940    0.28150    9.67470    2.17760    2.26670    2.32500   -0.11800
 3900.00000   69.19420    0.22840  -66.76690    0.35160    9.36330    2.05170    2.14970    2.24890   -0.13070
 3950.00000   73.17620    0.23880  -66.38940    0.21140    9.87950    1.78060    1.86460    2.06580   -0.09010
 4000.00000   72.41620    0.27830  -67.61700    0.23160   10.39190    1.47710    1.51180    1.84260   -0.11240
 4050.00000   68.84260    0.22400  -67.23030    0.18230   10.06910    2.08320    2.10450    2.12870   -0.08770
 4100.00000   68.98330    0.20660  -67.93570    0.38440   11.18970    1.49860    1.51390    1.84960   -0.12920
 4150.00000   68.24300    0.21220  -66.08080    0.31890   13.73610    1.41920    1.43390    1.75090   -0.11840
 4200.00000   69.54210    0.19240  -67.04750    0.36240   14.44430    1.34920    1.36300    1.68910   -0.13410
 4250.00000   73.78550    0.20910  -65.17880    0.28060   14.95360    1.17710    1.18930    1.50450   -0.11410
 4300.00000   73.02430    0.24000  -62.67870    0.21390   12.72160    1.53550    1.57820    1.75470   -0.08850
 4350.00000   72.46550    0.23140  -65.21700    0.29060   13.97140    1.26040    1.27370    1.55600   -0.11720
 4400.00000   68.64540    0.21740  -61.49510    0.26150   12.87690    0.81540    0.83640    1.24300   -0.10360
 4450.00000   67.02700    0.25240  -60.44450    0.31360   11.27130    0.75080    0.78830    1.27760   -0.12250
 4500.00000   69.77490    0.24030  -62.60260    0.22740    9.20910    1.67570    1.74660    2.04400   -0.10140
 4550.00000   65.82860    0.23360  -62.51770    0.27900   10.02580    1.30030    1.35060    1.69430   -0.12720
 4600.00000   63.36880    0.21560  -62.10170    0.20790    9.90120    1.38870    1.46630    1.73600   -0.09540
 4650.00000   60.70690    0.22010  -62.44960    0.16720    8.87450    1.67580    1.69060    1.87400   -0.10700
 4700.00000   65.73090    0.22860  -59.59420    0.30530   10.55200    1.12560    1.17720    1.55310   -0.14220
 4750.00000   64.80100    0.21950  -62.17960    0.23230   10.45410    1.30260    1.31630    1.59140   -0.10090
 4800.00000   63.97640    0.21990  -62.17040    0.14630   11.18210    1.39600    1.41010    1.62070   -0.08970
 4850.00000   63.45610    0.21530  -61.61240    0.15740   12.03440    1.20370    1.23820    1.51650   -0.10420
 4900.00000   67.74110    0.21890  -62.57800    0.16120   13.37270    0.91020    0.95050    1.34770   -0.10790
 4950.00000   67.26450    0.20960  -62.98610    0.18380   13.42630    1.02590    1.06260    1.39070   -0.11830
 5000.00000   63.51850    0.20910  -64.15370    0.07260   12.01700    1.59690    1.65860    1.82770   -0.08940
 5050.00000   81.48470    0.23230  -59.51360    0.14380   11.19420    1.00450    1.06490    1.50920   -0.10340
 5100.00000   60.61040    0.19880  -60.01940    0.14610   10.80350    1.20730    1.27230    1.47020   -0.10640
 5150.00000   62.25380    0.20620  -60.92670    0.11330   10.13340    1.37230    1.41760    1.65020   -0.08770
 5200.00000   76.26890    0.23800  -59.00510    0.24860   10.18300    0.98530    1.02960    1.31790   -0.13640
 5250.00000   66.11180    0.21530  -62.54100    0.17860   10.78400    1.25090    1.28920    1.43720   -0.13270
 5300.00000   73.14160    0.19680  -61.41160    0.07690   12.19560    1.12510    1.15090    1.38570   -0.12380
 5350.00000   83.79010    0.21720  -59.09390    0.15110   12.33290    0.88180    0.92170    1.14410   -0.15720
 5400.00000   74.96440    0.20530  -57.99490    0.05960   10.83130    1.37710    1.47060    1.64650   -0.16140
 5450.00000   85.53660    0.20720  -57.16760    0.09310   10.96750    1.07160    1.13390    1.50030   -0.16470
 5500.00000   69.43570    0.20470  -56.31310    0.09290   11.03620    1.52300    1.56570    1.76790   -0.19750
 5550.00000   68.02890    0.20540  -55.11050    0.08070   11.40660    1.45490    1.51490    1.70320   -0.15320
 5600.00000   67.00280    0.18650  -54.48240    0.11200   11.93500    1.30950    1.38740    1.59810   -0.21280
 5650.00000   63.76950    0.20220  -53.91100    0.10650   12.57080    1.30910    1.37540    1.61890   -0.22120
 5700.00000   86.44190    0.19930  -51.78580    0.11200   12.71770    0.97900    1.09310    1.36170   -0.20140
 5750.00000   76.35620    0.21650  -57.39280    0.13930   12.55930    1.00070    1.05430    1.40670   -0.21370
 5800.00000   70.62920    0.11480  -29.11730   -0.02140   12.33400    1.07460    1.12650    1.44070   -0.19260
 5850.00000   61.38730    0.17910  -46.77430    0.12350   11.70270    1.20030    1.30680    1.58360   -0.18690
 5900.00000   44.46680    0.10910  -47.89120    0.09380   10.17600    2.44460    2.54950    2.58010   -0.24810
 5950.00000   46.64170    0.12200  -48.68710    0.04580   10.10360    2.20920    2.36700    2.47640   -0.23020
 6000.00000   38.90640    0.09600  -49.59130    0.09310   10.05790    2.88960    3.08110    3.12600   -0.25060
 6050.00000   72.63260    0.15230  -47.71480    0.09110   10.12690    1.59490    1.76070    1.96760   -0.15320
 6100.00000   74.71320    0.15540  -47.50040    0.12440   10.15850    1.96970    2.09160    2.23720   -0.17070
 6150.00000   68.47870    0.13000  -46.56490    0.10330   10.04330    2.04500    2.20150    2.29530   -0.23120
 6200.00000   54.74020    0.11170  -47.30250    0.12370   10.01180    2.62330    2.76750    2.86100   -0.26890
 6250.00000   61.44810    0.12460  -45.55120    0.11860   10.01710    2.49470    2.60960    2.70240   -0.25400
 6300.00000   65.94440    0.15060  -42.37570    0.11950   10.05550    1.82980    1.96600    2.27700   -0.24620
 6350.00000   65.98240    0.17580  -41.87780    0.09730   10.65360    1.59940    1.72010    2.00750   -0.13000
 6400.00000   71.20880    0.18050  -41.34480    0.14450   11.49530    1.27840    1.38420    1.64990   -0.15190
 6450.00000   68.63030    0.16280  -39.90740    0.13980   11.21160    1.40630    1.58060    1.84010   -0.16870
 6500.00000   72.34400    0.17380  -38.82060    0.10510   10.97630    1.43470    1.56560    1.83470   -0.15670
 6550.00000   69.69590    0.16100  -38.37290    0.10610   11.06780    1.41190    1.50700    1.82400   -0.16020
 6600.00000   65.70830    0.15860  -36.42360    0.09150   11.30670    1.42910    1.56070    1.85950   -0.15740
 6650.00000   70.89840    0.15630  -35.18440    0.11510   11.55360    1.41830    1.54010    1.83000   -0.16890
 6700.00000   69.95720    0.15920  -52.50890    0.11400   12.55710    1.32140    1.41650    1.74340   -0.14510
 6750.00000   68.40870    0.16980  -49.72780    0.10160   13.16310    1.28740    1.37920    1.73700   -0.16440
 6800.00000   67.87520    0.16420  -49.34120    0.11660   12.76470    1.33410    1.45370    1.75080   -0.16690
 6850.00000   68.62920    0.15710  -46.17480    0.10930   11.47180    1.57980    1.72000    2.00560   -0.18190
 6900.00000   68.30690    0.14900  -43.25480    0.11030   12.00420    1.51440    1.62860    1.98760   -0.17980
 6950.00000   68.70850    0.16060  -39.73150    0.08780   12.22670    1.53560    1.67770    2.01520   -0.16400
 7000.00000   67.42970    0.17010  -36.65530    0.10710   11.88840    1.48810    1.61600    1.93670   -0.18960
 7050.00000   66.51340    0.14010  -28.12980    0.08190   10.67760    2.08320    2.24160    2.49200   -0.24790
 7100.00000  110.92360    0.16140  -28.45920    0.13870   10.52940    1.81810    1.99770    1.99140   -0.17950
