~Version ---------------------------------------------------
VERS.      2.0 : CWLS log ASCII Standard -VERSION 2.0
WRAP.      YES : Multiple lines per depth step
CREA. 02/15/13 : LAS Creation Date
~Well ------------------------------------------------------
STRT.FT                 1550.0 : START DEPTH
STOP.FT                 9650.0 : STOP DEPTH
STEP.FT               50.00000 : STEP LENGTH
NULL.                  -999.25 : NULL VALUE
COMP.     MARATHON OIL COMPANY : COMPANY
WELL.              NEWELL #A-2 : WELL
FLD .               BEAR GRASS : FIELD
LOC .                          : LOCATION
CNTY.                     LEON : COUNTY
STAT.                    TEXAS : STATE
CTRY. UNITED STATES OF AMERICA : COUNTRY
SRVC.                   Reeves : SERVICE COMPANY
DATE.              02-Nov-1999 : LOGDATE
API .           42289313060000 : API NUMBER
UWI .           42289313060000 : UNIQUE WELL ID
SLAT.WGS84       31.3636770246 : SURFACE LATITUDE
SLON.WGS84      -96.2532956557 : SURFACE LONGITUDE
~Curve Information -----------------------------------------
DEPT    .FT    : DEPTH FEET
CALWS   .IN    : CALIPER [DCALED+BITS]
CONDWS  .MMHO  : CONDUCTIVITY [1000/DRESWS]
DCALED  .IN    : DIFFERENTIAL CALIPER FROM AIT LOG
DCORWS  .G/C3  : DENSITY CORRECTION [DRHOED]
DENWS   .G/C3  : FORMATION BULK DENSITY [CALC FROM DPOWS, M=2.71, F=1.0]
DPHILSED.V/V   : DENSITY POROSITY LIME[M=2.71, F=1.0] FROM DENSITY LOG
DPOWS   .V/V   : DENSITY POROSITY LIME[DPHIED]
DRESWS  .OHMM  : DEEP RESISTIVITY [ILDED]
DRHOED  .G/C3  : DENSITY CORRECTION FROM DENSITY LOG
GRRED   .GAPI  : GAMMA RAY FROM AIT LOG
GRWS    .GAPI  : GAMMA RAY [GRRED]
ILDED   .OHMM  : DEEP INDUCTION RESISTIVITY FROM AIT LOG
ILMED   .OHMM  : MEDIUM  INDUCTION RESISTIVITY FROM AIT LOG
MRESWS  .OHMM  : MEDIUM RESISTIVITY [ILMED]
NPHILSED.V/V   : NEUTRON POROSITY LIME FROM DENSITY LOG
NPOWS   .V/V   : NEUTRON POROSITY LIME  [NPHIED]
PEFED   .B/E   : PHOTOELECTRIC FACTOR FROM DENSITY LOG
PEFWS   .B/E   : PHOTOELECTRIC FACTOR [PEFED]
SFLED   .OHMM  : SHALLOW FOCUSED RESISTIVITY FROM AIT LOG
SPRED   .MV    : SPONTANEOUS POTENTIAL FROM AIT LOG
SPWS    .MV    : SPONTANEOUS POTENTIAL [SPRED]
SRESWS  .OHMM  : SHALLOW RESISTIVITY [SFLED]
~Params ----------------------------------------------------
PD  .                     GL : PERMANENT DATUM
EPD .FT                  525 : ELEVATION PERMANENT DATUM
LMF .                     KB : LOG MEASURED FROM
DAPD.FT                   17 : FEET ABOVE PERMANENT DATUM
DMF .                     KB : DRILLING MEASURED FROM
EKB .FT                  542 : KELLY BUSHING
EDF .FT                  540 : DRILLING FLOOR
EGL .FT                  525 : GROUND LEVEL
DATE.               11/02/99 : RUN DATE
RUN .                      1 : RUN NUMBER
DD  .FT                 9700 : DEPTH DRILLER
DL  .FT                 9705 : DEPTH LOGGER
BLI .FT                 9704 : BOTTOM LOG INTERVAL
TLI .FT                 1514 : TOP LOG INTERVAL
CS  .IN                8.625 : CASING SIZE
CBD .FT                 1515 : CASING BOTTOM DRILLER
CBL .FT                 1514 : CASING BOTTOM LOGGER
BS  .IN                7.875 : BIT SIZE
BSD .FT                 9700 : BIT SIZE AT DEPTH
DFT .                   DISP : DRILLING FLUID TYPE
DFD .                   10.1 : DRILLING FLUID DENSITY
DFV .                     50 : DRILLING FLUID VISCOSITY
DFPH.                    9.1 : DRILLING FLUID PH
DFL .                     10 : DRILLING FLUID LOSS
MSS .               FLOWLINE : MUD SAMPLE SOURCE
RMS .OHMM               1.22 : RESISTIVITY MUD SAMPLE
MST .DEGF                 80 : MUD SAMPLE TEMPERATURE
RMF .OHMM               0.91 : RESISTIVITY MUD FILTRATE SAMPLE
MFST.DEGF                 80 : MUD FILTRATE SAMPLE TEMPERATURE
RMC .OHMM               1.51 : RESISTIVITY MUD CAKE
MCST.DEGF                 80 : MUD CAKE SAMPLE TEMPERATURE
MFSS.                   MEAS : MUD FILTRATE SAMPLE SOURCE
MCSS.                   MEAS : MUD CAKE SAMPLE SOURCE
RMB .OHMM               0.45 : RESISTIVITY MUD AT BHT
TCS .HRS                   6 : TIME CIRCULATED STOPPED
LUN .                  V1049 : LOGGING UNIT NUMBER
LUL .                   KLCR : LOGGING UNIT LOCATION
ENGI.                 LEESON : RECORDING ENGINEER
WITN.                LAMBERT : WITNESSED BY
CLNT.                A2DTECH : CLIENT CODE
ORIG.         1" 2" 5" PRINT : ORIGIN OF DATA
UWI .         42289313060000 : UNIQUE WELL ID
DICO. A2D Technologies, Inc. : DIGITIZING COMPANY
~Other -----------------------------------------------------
TOOL RUN IN COMBINATION:ARRAY INDUCTION/RSFE/PHOTO-DENSITY/NEUTRON/GR LOG
~ASCII -----------------------------------------------------
 1550.00000    -999.25  233.20900    -999.25    -999.25    -999.25    -999.25    -999.25    4.28800    -999.25   71.90100   71.90100    4.28800    3.96300    3.96300    -999.25    -999.25    -999.25    -999.25    3.69800  -62.74800  -16.28630    3.69800
 1600.00000    -999.25  359.58290    -999.25    -999.25    -999.25    -999.25    -999.25    2.78100    -999.25   71.46000   71.46000    2.78100    2.40200    2.40200    -999.25    -999.25    -999.25    -999.25    2.71500  -58.69800  -11.66290    2.71500
 1650.00000    -999.25  307.50310    -999.25    -999.25    -999.25    -999.25    -999.25    3.25200    -999.25   72.52000   72.52000    3.25200    2.85300    2.85300    -999.25    -999.25    -999.25    -999.25    2.96500  -55.84500   -7.87640    2.96500
 1700.00000    -999.25  389.10510    -999.25    -999.25    -999.25    -999.25    -999.25    2.57000    -999.25   87.66400   87.66400    2.57000    2.20200    2.20200    -999.25    -999.25    -999.25    -999.25    2.65600  -54.40300   -8.66820    2.65600
 1750.00000    -999.25  461.46750    -999.25    -999.25    -999.25    -999.25    -999.25    2.16700    -999.25   89.16400   89.16400    2.16700    1.87300    1.87300    -999.25    -999.25    -999.25    -999.25    2.25300  -46.34300   -3.38820    2.25300
 1800.00000    -999.25  471.69810    -999.25    -999.25    -999.25    -999.25    -999.25    2.12000    -999.25   78.85100   78.85100    2.12000    1.82100    1.82100    -999.25    -999.25    -999.25    -999.25    2.21700  -46.11500   -3.41870    2.21700
 1850.00000    -999.25  408.16330    -999.25    -999.25    -999.25    -999.25    -999.25    2.45000    -999.25   80.08400   80.08400    2.45000    2.06800    2.06800    -999.25    -999.25    -999.25    -999.25    2.50700  -46.47900   -4.04110    2.50700
 1900.00000    -999.25  513.87460    -999.25    -999.25    -999.25    -999.25    -999.25    1.94600    -999.25   83.37300   83.37300    1.94600    1.70800    1.70800    -999.25    -999.25    -999.25    -999.25    2.03300  -46.29100   -4.11150    2.03300
 1950.00000    -999.25  657.89470    -999.25    -999.25    -999.25    -999.25    -999.25    1.52000    -999.25   84.51900   84.51900    1.52000    1.35200    1.35200    -999.25    -999.25    -999.25    -999.25    1.76600  -46.07700   -4.15590    1.76600
 2000.00000    -999.25  593.82420    -999.25    -999.25    -999.25    -999.25    -999.25    1.68400    -999.25   78.17800   78.17800    1.68400    1.47100    1.47100    -999.25    -999.25    -999.25    -999.25    1.88200  -46.27500   -4.61230    1.88200
 2050.00000    -999.25  490.91800    -999.25    -999.25    -999.25    -999.25    -999.25    2.03700    -999.25   81.25900   81.25900    2.03700    1.78100    1.78100    -999.25    -999.25    -999.25    -999.25    2.08600  -46.39000   -4.98580    2.08600
 2100.00000    -999.25  523.56020    -999.25    -999.25    -999.25    -999.25    -999.25    1.91000    -999.25   90.62900   90.62900    1.91000    1.70500    1.70500    -999.25    -999.25    -999.25    -999.25    2.05000  -46.41400   -5.26820    2.05000
 2150.00000    -999.25  466.63560    -999.25    -999.25    -999.25    -999.25    -999.25    2.14300    -999.25   87.24700   87.24700    2.14300    1.89200    1.89200    -999.25    -999.25    -999.25    -999.25    2.21200  -48.20500   -7.38550    2.21200
 2200.00000    -999.25  553.09730    -999.25    -999.25    -999.25    -999.25    -999.25    1.80800    -999.25   80.11500   80.11500    1.80800    1.61800    1.61800    -999.25    -999.25    -999.25    -999.25    2.09400  -45.71800   -5.23400    2.09400
 2250.00000    -999.25  423.90840    -999.25    -999.25    -999.25    -999.25    -999.25    2.35900    -999.25   89.10200   89.10200    2.35900    2.04000    2.04000    -999.25    -999.25    -999.25    -999.25    2.38800  -50.00000   -9.85150    2.38800
 2300.00000    -999.25  573.72350    -999.25    -999.25    -999.25    -999.25    -999.25    1.74300    -999.25   84.30100   84.30100    1.74300    1.56200    1.56200    -999.25    -999.25    -999.25    -999.25    2.00000  -44.94300   -5.13000    2.00000
 2350.00000    -999.25  657.89470    -999.25    -999.25    -999.25    -999.25    -999.25    1.52000    -999.25   70.04000   70.04000    1.52000    1.38700    1.38700    -999.25    -999.25    -999.25    -999.25    1.68100  -42.55900   -3.08150    1.68100
 2400.00000    -999.25  798.08460    -999.25    -999.25    -999.25    -999.25    -999.25    1.25300    -999.25   71.95700   71.95700    1.25300    1.13700    1.13700    -999.25    -999.25    -999.25    -999.25    1.49000  -43.32600   -4.18410    1.49000
 2450.00000    -999.25  701.75440    -999.25    -999.25    -999.25    -999.25    -999.25    1.42500    -999.25   83.77600   83.77600    1.42500    1.23800    1.23800    -999.25    -999.25    -999.25    -999.25    1.65500  -46.57900   -7.77260    1.65500
 2500.00000    -999.25  814.33220    -999.25    -999.25    -999.25    -999.25    -999.25    1.22800    -999.25   86.52900   86.52900    1.22800    1.10300    1.10300    -999.25    -999.25    -999.25    -999.25    1.53900  -43.20600   -4.73510    1.53900
 2550.00000    -999.25  823.72320    -999.25    -999.25    -999.25    -999.25    -999.25    1.21400    -999.25   77.41800   77.41800    1.21400    1.09500    1.09500    -999.25    -999.25    -999.25    -999.25    1.50600  -42.78000   -4.64460    1.50600
 2600.00000    -999.25  468.16480    -999.25    -999.25    -999.25    -999.25    -999.25    2.13600    -999.25   75.49800   75.49800    2.13600    1.98800    1.98800    -999.25    -999.25    -999.25    -999.25    2.45300  -48.22600  -10.42610    2.45300
 2650.00000    -999.25  249.62560    -999.25    -999.25    -999.25    -999.25    -999.25    4.00600    -999.25   38.27900   38.27900    4.00600    3.80400    3.80400    -999.25    -999.25    -999.25    -999.25    3.70400  -45.81800   -8.35370    3.70400
 2700.00000    -999.25  617.28400    -999.25    -999.25    -999.25    -999.25    -999.25    1.62000    -999.25   58.57900   58.57900    1.62000    1.49800    1.49800    -999.25    -999.25    -999.25    -999.25    1.68100  -42.34000   -5.27700    1.68100
 2750.00000    -999.25  809.06150    -999.25    -999.25    -999.25    -999.25    -999.25    1.23600    -999.25   74.56900   74.56900    1.23600    1.11500    1.11500    -999.25    -999.25    -999.25    -999.25    1.49200  -40.98100   -4.39980    1.49200
 2800.00000    -999.25  799.36050    -999.25    -999.25    -999.25    -999.25    -999.25    1.25100    -999.25   74.73000   74.73000    1.25100    1.13400    1.13400    -999.25    -999.25    -999.25    -999.25    1.45200  -39.30600   -3.20660    1.45200
 2850.00000    -999.25  606.06060    -999.25    -999.25    -999.25    -999.25    -999.25    1.65000    -999.25   70.03400   70.03400    1.65000    1.49200    1.49200    -999.25    -999.25    -999.25    -999.25    1.77900  -41.23700   -5.61940    1.77900
 2900.00000    -999.25  720.98050    -999.25    -999.25    -999.25    -999.25    -999.25    1.38700    -999.25   75.81600   75.81600    1.38700    1.28000    1.28000    -999.25    -999.25    -999.25    -999.25    1.59800  -39.24600   -3.70660    1.59800
 2950.00000    -999.25  695.41030    -999.25    -999.25    -999.25    -999.25    -999.25    1.43800    -999.25   86.97100   86.97100    1.43800    1.29800    1.29800    -999.25    -999.25    -999.25    -999.25    1.62200  -42.00700   -6.09090    1.62200
 3000.00000    -999.25  960.61480    -999.25    -999.25    -999.25    -999.25    -999.25    1.04100    -999.25   74.33800   74.33800    1.04100    0.95300    0.95300    -999.25    -999.25    -999.25    -999.25    1.32800  -40.33900   -4.04620    1.32800
 3050.00000    -999.25  773.39520    -999.25    -999.25    -999.25    -999.25    -999.25    1.29300    -999.25   98.27900   98.27900    1.29300    1.20300    1.20300    -999.25    -999.25    -999.25    -999.25    1.54800  -41.53400   -4.86450    1.54800
 3100.00000    -999.25  785.54600    -999.25    -999.25    -999.25    -999.25    -999.25    1.27300    -999.25   89.88400   89.88400    1.27300    1.17900    1.17900    -999.25    -999.25    -999.25    -999.25    1.53500  -40.88700   -3.84080    1.53500
