~Version ---------------------------------------------------
VERS. 2.0 : CWLS log ASCII Standard -VERSION 2.0
WRAP. YES : MULTIPLE LINES PER DEPTH STEP
~Well ------------------------------------------------------
STRT.FT                        2500.0 : START DEPTH
STOP.FT                       18000.0 : STOP DEPTH
STEP.FT                      50.00000 : STEP LENGTH
NULL.                         -999.25 : NULL VALUE
COMP. UNION PACIFIC RESOURCES COMPANY : COMPANY
WELL.       UPR T-BAR-X KING COBRA #1 : WELL
FLD .                         WILDCAT : FIELD
LOC .                                 : LOCATION
CNTY.                            LEON : COUNTY
STAT.                           TEXAS : STATE
CTRY.        UNITED STATES OF AMERICA : COUNTRY
SRVC.                    Schlumberger : SERVICE COMPANY
DATE.                     05-Nov-1997 : LOGDATE
API .                  42289312660000 : API NUMBER
UWI .                  42289312660000 : UNIQUE WELL ID
SLAT.WGS84              31.2008912115 : SURFACE LATITUDE
SLON.WGS84             -96.2874133979 : SURFACE LONGITUDE
~Curve Information -----------------------------------------
DEPT    .FT    : DEPTH FEET
AT10ED  .OHMM  : 10 INCH RESISTIVITY TWO FOOT RESOLUTION FROM AIT LOG
AT20ED  .OHMM  : 20 INCH RESISTIVITY TWO FOOT RESOLUTION FROM AIT LOG
AT30ED  .OHMM  : 30 INCH RESISTIVITY TWO FOOT RESOLUTION FROM AIT LOG
AT60ED  .OHMM  : 60 INCH RESISTIVITY TWO FOOT RESOLUTION FROM AIT LOG
AT90ED  .OHMM  : 90 INCH RESISTIVITY TWO FOOT RESOLUTION FROM AIT LOG
CALDED  .IN    : CALIPER FROM DENSITY LOG [DEP ADJ TO GRRED]
CALRED  .IN    : CALIPER FROM RESISTIVITY LOG
CALWS   .IN    : CALIPER [2484 CALICAL 15888 CALRED]
CGRDED  .GAPI  : GAMMA RAY FROM DENSITY LOG [DEP ADJ TO GRRED]
CONDWS  .MMHO  : CONDUCTIVITY [1000/DRESWS]
DCALED  .IN    : DIFFERENTIAL CALIPER FROM DENSITY LOG
DCORWS  .G/C3  : DENSITY CORRECTION [2484 DRHOED 9946 DRHED 15888.5 DRHOED]
DENWS   .G/C3  : BULK DENSITY [M=2.71 F=1.0] [CALCULATED FROM DPOWS]
DPHILSED.V/V   : DENSITY POROSITY [M=2.71 F=1.0] FROM DENSITY LOG [DEP ADJ TO GRRED]
DPOLSED .V/V   : DENSITY POROSITY HIGH RESOLUTION [M=2.71 F=1.0] FROM DENSITY LOG
DPOWS   .V/V   : DENSITY POROSITY [M=2.71 F=1.0] [2484 DPHILSED 9942 DPOLSED 15888 DPHILSED]
DRESWS  .OHMM  : DEEP RESISTIVITY [A2484 AT90ED 9948.5 IDPHED 15892 LLDED]
DRHED   .G/C3  : DENSITY CORRECTION
DRHOED  .G/C3  : DENSITY CORRECTION FROM DENSITY LOG [DEP ADJ TO GRRED]
DTCOED  .US/F  : DELTA TIME COMPRESSIONAL FROM SONIC LOG [DEP ADJ TO GRRED]
DTED    .US/F  : DELTA TIME FROM SONIC LOG
DTLED   .US/F  : DELTA TIME LONG SPACING FROM SONIC LOG
DTLFED  .US/F  : DELTA TIME LONG SPACING FAR DETECTOR FROM SONIC LOG
DTLNED  .US/F  : DELTA TIME LONG SPACING NEAR DETECTOR FROM SONIC LOG
DTSMED  .US/F  : DELTA TIME SHEAR WAVE FROM SONIC LOG [DEP ADJ TO GRRED]
DTSWS   .US/F  : DELTA TIME SHEAR [DTSMED]
DTWS    .US/F  : DELTA TIME [2484 DTLNED 10155.5 DTLFED 10297.5 DTLNED 10506.5 DTLFED 10628.5 DTLNED 10694 DTLFED 10859 DTLNED 11620 DTLFED 13285.5 DTLNED 14723 DTLFED 15057 DTLNED 15798 DTLFED 15889.5 DTED 15912.5 DTCOED]
GRRED   .GAPI  : GAMMA RAY FROM RESISTIVITY LOG
GRSED   .GAPI  : GAMMA RAY FROM SONIC LOG [DEP ADJ TO GRRED]
GRWS    .GAPI  : GAMMA RAY [2484 GRRED 9881.5 GRREDNRM 9946 GRRED 15728.5 GRSEDNRM 15878 CGRDED 16070 GRRED]
IDPHED  .OHMM  : INDUCTION DEEP PHASE RESISTIVITY
IMPHED  .OHMM  : INDUCTION MEDIUM PHASE RESISTIVITY
LLDED   .OHMM  : LATEROLOG DEEP RESISTIVITY
LLSED   .OHMM  : LATEROLOG SHALLOW RESISTIVITY
MRESWS  .OHMM  : MEDIUM RESISTIVITY [2484 AT30ED 9949.5 IMPHED]
NPHILSED.V/V   : NEUTRON POROSITY LIMESTONE FROM DENSITY LOG [DEP ADJ TO GRRED]
NPOWS   .V/V   : NEUTRON POROSITY LIMESTONE [2484 NPHILSED 15780.5 NPHILNRM 15883.5 NPHILSED]
PEFED   .B/E   : PHOTOELECTRIC FACTOR FROM DENSITY LOG
PEFLED  .B/E   : PHOTOELECTRIC FACTOR FROM DENSITY LOG
PEFWS   .B/E   : PHOTOELECTRIC FACTOR [2484 PEFED 9952.5 PEFLED]
RESED   .OHMM  : SYNTHETIC RESISTIVITY
SFLUED  .OHMM  : SPHERICALLY FOCUSED LOG RESISTIVITY
SPHILSED.V/V   : SONIC POROSITY FROM SONIC LOG [DEP ADJ TO GRRED]
SPOWS   .V/V   : SONIC POROSITY [CAL FR DTWS; M= 47.6, F=189]
SPRED   .MV    : SPONTANEOUS POTENTIAL FROM RESISTIVITY LOG [SHIFTS ARE REMOVED]
SPWS    .MV    : SPONTANEOUS POTENTIAL [BASELINE 0 MV] [SPRED]
SRESWS  .OHMM  : SHALLOW RESISTIVITY [2484 AT10ED 9945.5 SFLUED 15891.5 LLSED]
TENDED  .LBF   : TENSION FROM DENSITY LOG [DEP ADJ TO GRRED]
TENRED  .LBF   : TENSION FROM RESISTIVITY LOG
~Params ----------------------------------------------------
PD  .                     GL : PERMANENT DATUM
EPD .FT                  348 : ELEVATION PERMANENT DATUM
LMF .                     KB : LOG MEASURED FROM
DAPD.FT                   28 : FEET ABOVE PERMANENT DATUM
DMF .                     KB : DRILLING MEASURED FROM
EKB .FT                  376 : KELLY BUSHING
EDF .FT                  374 : DRILLING FLOOR
EGL .FT                  348 : GROUND LEVEL
DATE.               11/05/97 : RUN DATE
RUN .                      3 : RUN NUMBER
DD  .FT                18038 : DEPTH DRILLER
DL  .FT                18024 : DEPTH LOGGER
BLI .FT                 1800 : BOTTOM LOG INTERVAL
TLI .FT                15888 : TOP LOG INTERVAL
CS  .IN                7.625 : CASING SIZE
CBD .FT                15888 : CASING BOTTOM DRILLER
CBL .FT                15888 : CASING BOTTOM LOGGER
BS  .IN                    6 : BIT SIZE
BSD .FT                18038 : BIT SIZE AT DEPTH
DFT .                POLYMER : DRILLING FLUID TYPE
DFD .                   18.2 : DRILLING FLUID DENSITY
DFV .                     40 : DRILLING FLUID VISCOSITY
DFPH.                      9 : DRILLING FLUID PH
DFL .                    5.6 : DRILLING FLUID LOSS
MSS .       CIRCULATION TANK : MUD SAMPLE SOURCE
RMS .OHMM               1.14 : RESISTIVITY MUD SAMPLE
MST .DEGF                 90 : MUD SAMPLE TEMPERATURE
RMF .OHMM              0.969 : RESISTIVITY MUD FILTRATE SAMPLE
MFST.DEGF                 90 : MUD FILTRATE SAMPLE TEMPERATURE
RMC .OHMM              1.311 : RESISTIVITY MUD CAKE
MCST.DEGF                 90 : MUD CAKE SAMPLE TEMPERATURE
MFSS.             CALCULATED : MUD FILTRATE SAMPLE SOURCE
MCSS.             CALCULATED : MUD CAKE SAMPLE SOURCE
RMB .OHMM              0.278 : RESISTIVITY MUD AT BHT
TCS .HRS                2200 : TIME CIRCULATED STOPPED
TLAB.HRS                 445 : TIME LOGGER AT BOTTOM
LUN .                   8400 : LOGGING UNIT NUMBER
LUL .                   6450 : LOGGING UNIT LOCATION
ENGI.                SKRBICH : RECORDING ENGINEER
WITN.          BLANKE WEAVER : WITNESSED BY
CLNT.                A2DTECH : CLIENT CODE
ORIG.         1" 2" 5" PRINT : ORIGIN OF DATA
UWI .         42289312660000 : UNIQUE WELL ID
DICO. A2D Technologies, Inc. : DIGITIZING COMPANY
~Other -----------------------------------------------------
~ASCII -----------------------------------------------------
# ...
 17500.00000    -999.25    -999.25    -999.25    -999.25    -999.25    5.92840    5.74690    5.74690   11.47860    2.78350    -999.25   -0.06550    2.71500   -0.00290    -999.25   -0.00290  359.26480    -999.25   -0.06550   48.57790   49.71950   49.26880    -999.25    -999.25   93.09370   93.09370   48.57790   19.75970   18.81750   19.75970    -999.25    -999.25  359.26480  323.14030    -999.25    0.00260    0.00260    -999.25    -999.25    -999.25    -999.25    -999.25    0.00790    0.00690    -999.25    -999.25  323.14030 5268.71920 6547.24410
 17550.00000    -999.25    -999.25    -999.25    -999.25    -999.25    5.84790    5.81040    5.81040    3.58970    2.58010    -999.25   -0.07070    2.73050   -0.01200    -999.25   -0.01200  387.58840    -999.25   -0.07070   48.78350   49.63110   49.18320    -999.25    -999.25   92.65440   92.65440   48.78350   13.32160   13.55990   13.32160    -999.25    -999.25  387.58840  391.91130    -999.25    0.00490    0.00490    -999.25    -999.25    -999.25    -999.25    -999.25    0.01100    0.00840    -999.25    -999.25  391.91130 5361.72270 6575.74020
 17600.00000    -999.25    -999.25    -999.25    -999.25    -999.25    5.91210    5.91360    5.91360    3.40530    2.61430    -999.25   -0.06510    2.67320    0.02150    -999.25    0.02150  382.51080    -999.25   -0.06510   51.27220   51.13000   50.69730    -999.25    -999.25   92.85920   92.85920   51.27220   25.95000   27.95510   25.95000    -999.25    -999.25  382.51080  337.69170    -999.25    0.00600    0.00600    -999.25    -999.25    -999.25    -999.25    -999.25    0.02710    0.02600    -999.25    -999.25  337.69170 5356.44870 6761.31540
 17650.00000    -999.25    -999.25    -999.25    -999.25    -999.25    5.82200    5.72600    5.72600    3.46770    3.29960    -999.25   -0.08720    2.75670   -0.02730    -999.25   -0.02730  303.07130    -999.25   -0.08720   52.62890   51.00730   50.56900    -999.25    -999.25   94.00660   94.00660   52.62890   23.52140   21.87860   23.52140    -999.25    -999.25  303.07130  269.62410    -999.25    0.00050    0.00050    -999.25    -999.25    -999.25    -999.25    -999.25    0.03700    0.03560    -999.25    -999.25  269.62410 5332.48390 6524.54050
 17700.00000    -999.25    -999.25    -999.25    -999.25    -999.25    5.79640    5.81830    5.81830    3.47010    3.43050    -999.25   -0.06990    2.73150   -0.01260    -999.25   -0.01260  291.50560    -999.25   -0.06990   50.53990   49.36590   48.93330    -999.25    -999.25   95.13570   95.13570   50.53990   16.22540   18.06330   16.22540    -999.25    -999.25  291.50560  329.37210    -999.25    0.00380    0.00380    -999.25    -999.25    -999.25    -999.25    -999.25    0.02350    0.02080    -999.25    -999.25  329.37210 5406.60890 6604.41750
 17750.00000    -999.25    -999.25    -999.25    -999.25    -999.25    5.95710    5.87950    5.87950    3.50390    2.86000    -999.25   -0.05840    2.72740   -0.01020    -999.25   -0.01020  349.64550    -999.25   -0.05840   48.94190   48.78240   48.51520    -999.25    -999.25   91.97730   91.97730   48.94190   16.36710   15.90200   16.36710    -999.25    -999.25  349.64550  368.65600    -999.25    0.00220    0.00220    -999.25    -999.25    -999.25    -999.25    -999.25    0.01000    0.00950    -999.25    -999.25  368.65600 5337.64310 6912.95650
 17800.00000    -999.25    -999.25    -999.25    -999.25    -999.25    5.38960    5.95120    5.95120    3.51840    3.26340    -999.25   -0.07950    2.75570   -0.02670    -999.25   -0.02670  306.42710    -999.25   -0.07950   50.22080   49.61060   49.11900    -999.25    -999.25   93.42510   93.42510   50.22080   15.58070   17.40360   15.58070    -999.25    -999.25  306.42710  318.53110    -999.25    0.00750    0.00750    -999.25    -999.25    -999.25    -999.25    -999.25    0.01960    0.01850    -999.25    -999.25  318.53110 5403.70410 6599.12260
 17850.00000    -999.25    -999.25    -999.25    -999.25    -999.25    5.15720    5.14690    5.14690    3.62320    2.81430    -999.25   -0.17750    2.65990    0.02930    -999.25    0.02930  355.32520    -999.25   -0.17750   50.86730   49.57960   49.13870    -999.25    -999.25   89.86410   89.86410   50.86730   19.29420   24.35060   19.29420    -999.25    -999.25  355.32520  333.92910    -999.25    0.00510    0.00510    -999.25    -999.25    -999.25    -999.25    -999.25    0.02200    0.02310    -999.25    -999.25  333.92910 5438.08300 6671.16060
 17900.00000    -999.25    -999.25    -999.25    -999.25    -999.25    5.11250    5.12710    5.12710    3.52290    2.62790    -999.25   -0.18460    2.63750    0.04240    -999.25    0.04240  380.53070    -999.25   -0.18460   45.47560   53.02620   52.41660    -999.25    -999.25   89.78470   89.78470   45.47560   20.11540    -999.25   20.11540    -999.25    -999.25  380.53070  394.57420    -999.25    0.00310    0.00310    -999.25    -999.25    -999.25    -999.25    -999.25   -0.01280   -0.01500    -999.25    -999.25  394.57420 5589.31350 6980.92190
 17950.00000    -999.25    -999.25    -999.25    -999.25    -999.25    5.05030    5.05990    5.05990    -999.25    2.52490    -999.25    -999.25    -999.25    -999.25    -999.25    -999.25  396.05470    -999.25    -999.25   48.59390   52.94940   51.98710    -999.25    -999.25   91.96880   91.96880   48.59390   12.75460    -999.25    -999.25    -999.25    -999.25  396.05470  371.49300    -999.25    0.00600    0.00600    -999.25    -999.25    -999.25    -999.25    -999.25    0.00970    0.00700    -999.25    -999.25  371.49300 6033.34770 5111.49510
 18000.00000    -999.25    -999.25    -999.25    -999.25    -999.25    -999.25    -999.25    -999.25    -999.25    -999.25    -999.25    -999.25    -999.25    -999.25    -999.25    -999.25    -999.25    -999.25    -999.25    -999.25    -999.25    -999.25    -999.25    -999.25    -999.25    -999.25    -999.25    -999.25    -999.25    -999.25    -999.25    -999.25    -999.25    -999.25    -999.25    -999.25    -999.25    -999.25    -999.25    -999.25    -999.25    -999.25    -999.25    -999.25    -999.25    -999.25    -999.25    -999.25    -999.25
