~Version ---------------------------------------------------
VERS. 2.0 : CWLS log ASCII Standard -VERSION 2.0
WRAP. YES : Multiple lines per depth step
~Well ------------------------------------------------------
STRT.FT                    300.0 : START DEPTH
STOP.FT                   7750.0 : STOP DEPTH
STEP.FT                 50.00000 : STEP LENGTH
NULL.                    -999.25 : NULL VALUE
COMP. CHAMPLIN PETROLEUM COMPANY : COMPANY
WELL.             ALVIN DRGAC #1 : WELL
FLD .                CALDWELL NE : FIELD
LOC .                            : LOCATION
CNTY.                   BURLESON : COUNTY
STAT.                      TEXAS : STATE
CTRY.   UNITED STATES OF AMERICA : COUNTRY
SRVC.               Schlumberger : SERVICE COMPANY
DATE.                03-Apr-1981 : LOGDATE
API .             42051312420000 : API NUMBER
UWI .             42051312420000 : UNIQUE WELL ID
SLAT.WGS84         30.6064505753 : SURFACE LATITUDE
SLON.WGS84        -96.6018284968 : SURFACE LONGITUDE
~Curve Information -----------------------------------------
DEPT    .FT    : DEPTH FEET
CALRED  .IN    : CALIPER FROM RESISTIVITY FROM DUAL INDUCTION-SFL-COMPENSATED NEUTRON-FORMATION DENSITY LOG
CALWS   .IN    : CALIPER [CALRED SPL. TO DCALED+BIT SIZE @ 3487']
CONDWS  .MMHO  : CONDUCTIVITY [1000/DRESWS]
DCALED  .IN    : DIFFERENTIAL CALIPER FROM DUAL INDUCTION-SFL-COMPENSATED NEUTRON-FORMATION DENSITY LOG
DCORWS  .G/C3  : DENSITY CORRECTION [DRHOED]
DENWS   .G/C3  : BULK DENSITY [M=2.71 F=1.0] [CALCULATED FROM DPOWS]
DPHILSED.V/V   : DENSITY POROSITY LIMESTONE [M=2.71 F=1.0] FROM DUAL INDUCTION-SFL-COMPENSATED NEUTRON-FORMATION DENSITY LOG
DPHISSED.V/V   : DENSITY POROSITY SANDSTONE [M=2.65 F=1.0]  FROM DUAL INDUCTION-SFL-COMPENSATED NEUTRON-FORMATION DENSITY LOG
DPOWS   .V/V   : DENSITY POROSITY [DPHISSED  CONVERTED TO LIMESTONE (M=2.71, F=1.0) SPL. TO DPHILSED @ 6250']
DRESWS  .OHMM  : DEEP RESISTIVITY [ILDED]
DRHOED  .G/C3  : DENSITY CORRECTION FROM DUAL INDUCTION-SFL-COMPENSATED NEUTRON-FORMATION DENSITY LOG
DTED    .US/F  : COMPRESSIONAL SONIC FROM INDUCTION-VELOCITY LOG
DTWS    .US/F  : COMPRESSIONAL SONIC [VELED]
GRRED   .GAPI  : GAMMA RAY FROM FROM DUAL INDUCTION-SFL-COMPENSATED NEUTRON-FORMATION DENSITY-VELOCITY LOG [ GRRED IN CASING FROM 67' - 90']
GRWS    .GAPI  : GAMMA RAY [GRRED, GRRED+30 FROM 3520' to 3542']
GUARDED .OHMM  : GUARD RESISTIVITY FROM INDUCTION-VELOCITY LOG
ILDED   .OHMM  : DEEP INDUCTION FROM DUAL INDUCTION-SFL-COMPENSATED NEUTRON-FORMATION DENSITY-VELOCITY LOG
ILMED   .OHMM  : MEDIUM INDUCTION FROM DUAL INDUCTION-SFL-COMPENSATED NEUTRON-FORMATION DENSITY-VELOCITY LOG
MRESWS  .OHMM  : MEDIUM RESISTIVITY [ILMED]
NPHILSED.V/V   : NEUTRON POROSITY LIMESTONE FROM DUAL INDUCTION-SFL-COMPENSATED NEUTRON-FORMATION DENSITY LOG
NPHISSED.V/V   : NEUTRON POROSITY SANDSTONE FROM DUAL INDUCTION-SFL-COMPENSATED NEUTRON-FORMATION DENSITY LOG
NPOWS   .V/V   : NEUTRON POROSITY LIMESTONE[NPHISSED MATRIX CONVERTED TO LIMESTONE SPL. TO NPHILSED @ 6250']
SFLUED  .OHMM  : SHALLOW FOCUS RESISTIVITY UNAVERAGED FROM DUAL INDUCTION-SFL-COMPENSATED NEUTRON-FORMATION DENSITY-VELOCITY LOG
SPRED   .MV    : SPONTANEOUS POTENTIAL ROM DUAL INDUCTION-SFL-COMPENSATED NEUTRON-FORMATION DENSITY-VELOCITY LOG
SPWS    .MV    : SPONTANEOUS POTENTIAL [BASELINE 0 MV] [SPRED]
SRESWS  .OHMM  : SHALLOW RESISTIVITY [SFLUED SPLICED GUARDED AT 3540']
~Params ----------------------------------------------------
PD  .                     GL : PERMANENT DATUM
EPD .FT                  353 : ELEVATION PERMANENT DATUM
LMF .                     KB : LOG MEASURED FROM
DAPD.FT                   18 : FEET ABOVE PERMANENT DATUM
DMF .                     KB : DRILLING MEASURED FROM
EKB .FT                  371 : KELLY BUSHING
EDF .FT                  370 : DRILLING FLOOR
EGL .FT                  353 : GROUND LEVEL
DATE.               04/03/81 : RUN DATE
RUN .                      1 : RUN NUMBER
DD  .FT                 7797 : DEPTH DRILLER
DL  .FT                 7760 : DEPTH LOGGER
BLI .FT                 7754 : BOTTOM LOG INTERVAL
TLI .FT                 3537 : TOP LOG INTERVAL
CS  .IN                9.625 : CASING SIZE
CBD .FT                 3543 : CASING BOTTOM DRILLER
CBL .FT                 3537 : CASING BOTTOM LOGGER
BS  .IN                 8.75 : BIT SIZE
BSD .FT                 7797 : BIT SIZE AT DEPTH
DFT .             LOW SOLIDS : DRILLING FLUID TYPE
DFD .                    9.4 : DRILLING FLUID DENSITY
DFV .                     43 : DRILLING FLUID VISCOSITY
DFPH.                    9.5 : DRILLING FLUID PH
DFL .                    6.8 : DRILLING FLUID LOSS
MSS .               FLOWLINE : MUD SAMPLE SOURCE
RMS .OHMM               1.99 : RESISTIVITY MUD SAMPLE
MST .DEGF                 75 : MUD SAMPLE TEMPERATURE
RMF .OHMM               1.49 : RESISTIVITY MUD FILTRATE SAMPLE
MFST.DEGF                 75 : MUD FILTRATE SAMPLE TEMPERATURE
RMC .OHMM               2.98 : RESISTIVITY MUD CAKE
MCST.DEGF                 75 : MUD CAKE SAMPLE TEMPERATURE
MFSS.                      M : MUD FILTRATE SAMPLE SOURCE
MCSS.                      C : MUD CAKE SAMPLE SOURCE
RMB .OHMM               0.87 : RESISTIVITY MUD AT BHT
TCS .HRS                 700 : TIME CIRCULATED STOPPED
TLAB.HRS                1430 : TIME LOGGER AT BOTTOM
LUN .                   8138 : LOGGING UNIT NUMBER
LUL .                BRENHAM : LOGGING UNIT LOCATION
ENGI.              STAVINOHA : RECORDING ENGINEER
WITN.                  VODAK : WITNESSED BY
CLNT.                A2DTECH : CLIENT CODE
ORIG.            2" 5" PRINT : ORIGIN OF DATA
UWI .         42051312420000 : UNIQUE WELL ID
DICO. A2D Technologies, Inc. : DIGITIZING COMPANY
~Other -----------------------------------------------------
~ASCII -----------------------------------------------------
# ...
 7050.00000    -999.25    4.72090  121.60270    0.97090    0.00570    2.60810    0.05960    -999.25    0.05960    8.22350    0.00570    -999.25    -999.25   41.72000   41.72000    -999.25    8.22350    8.25410    8.25410    0.00570    -999.25    0.07590   12.99870  -19.68620  -21.78700   12.99870
 7100.00000    -999.25    4.38120   43.85330    0.63120    0.00680    2.56260    0.08620    -999.25    0.08620   22.80330    0.00680    -999.25    -999.25   54.62540   54.62540    -999.25   22.80330   27.71500   27.71500    0.00680    -999.25    0.08340   44.54540  -19.79920  -22.76040   44.54540
 7150.00000    -999.25    4.57180   56.52460    0.82180    0.00110    2.54190    0.09830    -999.25    0.09830   17.69140    0.00110    -999.25    -999.25   33.16100   33.16100    -999.25   17.69140   21.04610   21.04610    0.00110    -999.25    0.07640   38.79210  -24.55920  -28.38090   38.79210
 7200.00000    -999.25    7.63790  902.77150    3.88790    -999.25    2.44990    0.15210    -999.25    0.15210    1.10770    -999.25    -999.25    -999.25   93.87200   93.87200    -999.25    1.10770    1.24800    1.24800    -999.25    -999.25    0.35290    1.67580  -12.84450  -17.52660    1.67580
 7250.00000    -999.25    8.60270  290.87520    4.85270    -999.25    1.96990    0.43280    -999.25    0.43280    3.43790    -999.25    -999.25    -999.25   89.38070   89.38070    -999.25    3.43790    2.55090    2.55090    -999.25    -999.25    0.43580    3.64410   -9.88200  -15.42450    3.64410
 7300.00000    -999.25    5.51670  209.16560    1.76670    0.09920    2.43930    0.15830    -999.25    0.15830    4.78090    0.09920    -999.25    -999.25   98.61960   98.61960    -999.25    4.78090    5.79800    5.79800    0.09920    -999.25    0.29430    4.55800   -3.32340   -9.72640    4.55800
 7350.00000    -999.25    4.56250   64.01760    0.81250    0.00110    2.45260    0.15050    -999.25    0.15050   15.62070    0.00110    -999.25    -999.25  100.18560  100.18560    -999.25   15.62070   23.39640   23.39640    0.00110    -999.25    0.26500   26.94910    5.34360   -1.91980   26.94910
 7400.00000    -999.25    4.56640  102.21400    0.81640    0.02800    2.48020    0.13440    -999.25    0.13440    9.78340    0.02800    -999.25    -999.25  148.57240  148.57240    -999.25    9.78340   11.17360   11.17360    0.02800    -999.25    0.26970   24.28450    3.16310   -4.78860   24.28450
 7450.00000    -999.25   10.41960  502.15930    6.66960    0.08860    1.94490    0.44740    -999.25    0.44740    1.99140    0.08860    -999.25    -999.25   69.34960   69.34960    -999.25    1.99140    1.86720    1.86720    0.08860    -999.25    0.39100    3.82130  -12.28130  -19.94550    3.82130
 7500.00000    -999.25    6.00050  291.75780    2.25050    -999.25    2.58380    0.07380    -999.25    0.07380    3.42750    -999.25    -999.25    -999.25   51.60180   51.60180    -999.25    3.42750    4.09100    4.09100    -999.25    -999.25    0.16800    4.78500    2.07290   -5.30380    4.78500
 7550.00000    -999.25    5.03040   37.25590    1.28040    -999.25    2.63250    0.04530    -999.25    0.04530   26.84140    -999.25    -999.25    -999.25   18.89960   18.89960    -999.25   26.84140   36.19260   36.19260    -999.25    -999.25    0.02850   58.41060   -7.35260  -14.44190   58.41060
 7600.00000    -999.25    5.20520   68.14310    1.45520    0.01480    2.63560    0.04350    -999.25    0.04350   14.67500    0.01480    -999.25    -999.25   23.53160   23.53160    -999.25   14.67500   16.79680   16.79680    0.01480    -999.25    0.02800   16.26340  -11.64990  -18.53220   16.26340
 7650.00000    -999.25    5.31850   48.59980    1.56850    0.09580    2.66040    0.02900    -999.25    0.02900   20.57620    0.09580    -999.25    -999.25   16.60260   16.60260    -999.25   20.57620   22.06730   22.06730    0.09580    -999.25    0.05230   18.51390  -44.62940  -51.51170   18.51390
 7700.00000    -999.25    4.42150   43.00630    0.67150    0.02630    2.67850    0.01840    -999.25    0.01840   23.25240    0.02630    -999.25    -999.25   18.22710   18.22710    -999.25   23.25240   25.06480   25.06480    0.02630    -999.25    0.01600   29.69310   -2.84130   -9.72360   29.69310
 7750.00000    -999.25    3.88670   67.40320    0.13670    -999.25    -999.25    -999.25    -999.25    -999.25   14.83610    -999.25    -999.25    -999.25    -999.25    -999.25    -999.25   14.83610   16.08600   16.08600    -999.25    -999.25    -999.25   27.74570   -1.69140   -8.57370   27.74570
