~Version ---------------------------------------------------
VERS.      2.0 : CWLS log ASCII Standard -VERSION 2.0
WRAP.      YES : Multiple lines per depth step
CREA. 06/26/18 : LAS Creation Date
~Well ------------------------------------------------------
STRT.FT                 1950.0 : START DEPTH
STOP.FT                10950.0 : STOP DEPTH
STEP.FT               50.00000 : STEP LENGTH
NULL.                  -999.25 : NULL VALUE
COMP.            DIRNETT, INC. : COMPANY
WELL.     ESCHENBURG POLLOK #1 : WELL
FLD .                  FASHING : FIELD
LOC .                          : LOCATION
CNTY.                 ATASCOSA : COUNTY
STAT.                    TEXAS : STATE
CTRY. UNITED STATES OF AMERICA : COUNTRY
SRVC.             Schlumberger : SERVICE COMPANY
DATE.              23-Aug-1996 : LOGDATE
API .           42013340590000 : API NUMBER
UWI .           42013340590000 : UNIQUE WELL ID
SLAT.WGS84       28.7834983741 : SURFACE LATITUDE
SLON.WGS84      -98.2167863068 : SURFACE LONGITUDE
~Curve Information -----------------------------------------
DEPT    .FT    : DEPTH FEET
CALWS   .IN    : CALIPER [DCALED+BIT]
CONDWS  .MMHO  : DEEP CONDUCTIVITY [1000/DRESWS]
DCALED  .IN    : DIFFERENTIAL CALIPER FROM PHI/LDT/CNL LOG
DCORWS  .G/C3  : DENSITY CORRECTION [DRHOED]
DENWS   .G/C3  : BULK DENSITY [CALC. TOP DPHISSED 9493.5' DPHILSED]
DPHILSED.V/V   : DENSITY POROSITY (LS) [M=2.71 F=1.0] FROM PHI/LDT/CNL LOG
DPHISSED.V/V   : DENSITY POROSITY (SS) [M=2.65 F=1.0] FROM PHI/LDT/CNL LOG
DPOLSWS .V/V   : DENSITY POROSITY LIMESTONE [M=2.71 F=1.0] [CALC. FROM DENWS]
DRESWS  .OHMM  : DEEP RESISTIVITY [IDPHED]
DRHOED  .G/C3  : DENSITY CORRECTION FROM DENSITY LOG
GRRED   .GAPI  : GAMMA RAY FROM RESISTIVITY LOG
GRWS    .GAPI  : GAMMA RAY [GRRED]
IDPHED  .OHMM  : INDUCTION DEEP PHASE RESISTIVITY
IMPHED  .OHMM  : INDUCTION MEDIUM PHASE RESISTIVITY
MRESWS  .OHMM  : MEDIUM RESISTIVITY [IMPHED]
NPHILSED.V/V   : NEUTRON POROSITY LIMESTONE FROM PHI/LDT/CNL LOG
NPHISSED.V/V   : NEUTRON POROSITY SANDSTONE FROM PHI/LDT/CNL LOG
NPOLSWS .V/V   : NEUTRON POROSITY LIMESTONE [TOP CONVERSE NPHISSED TO LIME FROM POWER LOG 9494' NPHILSED]
SFLUED  .OHMM  : SPHERICALLY FOCUSED LOG RESISTIVITY
SPRED   .MV    : SPONTANEOUS POTENTIAL FROM PHI/LDT/CNL LOG
SPWS    .MV    : SPONTANEOUS POTENTIAL [BASELINE 0 MV] [SPRED]
SRESWS  .OHMM  : SHALLOW RESISTIVITY [SFLUED]
~Params ----------------------------------------------------
PD  .                     GL : PERMANENT DATUM
EPD .FT                411.5 : ELEVATION PERMANENT DATUM
LMF .                     KB : LOG MEASURED FROM
DAPD.FT                 19.5 : FEET ABOVE PERMANENT DATUM
DMF .                     KB : DRILLING MEASURED FROM
EKB .FT                  431 : KELLY BUSHING
EDF .FT                  430 : DRILLING FLOOR
EGL .FT                411.5 : GROUND LEVEL
DATE.               08/23/96 : RUN DATE
RUN .                      1 : RUN NUMBER
DD  .FT                11000 : DEPTH DRILLER
DL  .FT                10988 : DEPTH LOGGER
BLI .FT                10970 : BOTTOM LOG INTERVAL
TLI .FT                 2006 : TOP LOG INTERVAL
CS  .IN                8.625 : CASING SIZE
CBD .FT                 2016 : CASING BOTTOM DRILLER
CBL .FT                 2008 : CASING BOTTOM LOGGER
BS  .IN                7.875 : BIT SIZE
BSD .FT                11000 : BIT SIZE AT DEPTH
DFT .                    LIG : DRILLING FLUID TYPE
DFD .                   10.2 : DRILLING FLUID DENSITY
DFV .                     48 : DRILLING FLUID VISCOSITY
DFPH.                   11.3 : DRILLING FLUID PH
DFL .                    5.8 : DRILLING FLUID LOSS
MSS .               MUD TANK : MUD SAMPLE SOURCE
RMS .OHMM               1.83 : RESISTIVITY MUD SAMPLE
MST .FT                   75 : MUD SAMPLE TEMPERATURE
RMF .OHMM               1.48 : RESISTIVITY MUD FILTRATE SAMPLE
MFST.FT                   75 : MUD FILTRATE SAMPLE TEMPERATURE
RMC .OHMM               2.45 : RESISTIVITY MUD CAKE
MCST.FT                   75 : MUD CAKE SAMPLE TEMPERATURE
MFSS.                   MEAS : MUD FILTRATE SAMPLE SOURCE
MCSS.                   CALC : MUD CAKE SAMPLE SOURCE
RMB .OHMM              0.473 : RESISTIVITY MUD AT BHT
TCS .HRS                1200 : TIME CURCULATED STOPPED
TLAB.HRS                2000 : TIME LOGGER AT BOTTOM
LUN .                   2017 : LOGGING UNIT NUMBER
LUL .               VICTORIA : LOGGING UNIT LOCATION
ENGI.            JOHN GAMBLE : RECORDING ENGINEER
WITN.  J FISHER J JOHNSON JR : WITNESSED BY
CLNT.                A2DTECH : CLIENT CODE
ORIG.               5" PRINT : ORIGIN OF DATA
UWI .         42013340590000 : UNIQUE WELL ID
DICO. A2D Technologies, Inc. : DIGITIZING COMPANY
~Other -----------------------------------------------------
REMOVED ALL RESISTIVITY FROM 3804' - 3814' DUE TO INVALID DATA.
~ASCII -----------------------------------------------------
# ...
 8350.00000    9.67960  508.67290    1.80460    -999.25    -999.25    -999.25    -999.25    -999.25    1.96590    -999.25   94.27670   94.27670    1.96590    2.17200    2.17200    -999.25    -999.25    -999.25    2.61650   -0.06100   -8.71160    2.61650
 8400.00000    9.73390  481.41730    1.85890    0.07160    2.26770    -999.25    0.23170    0.25870    2.07720    0.07160   89.89990   89.89990    2.07720    2.09860    2.09860    -999.25    0.33500    0.29120    2.45970   -1.60950  -10.26010    2.45970
 8450.00000   10.00960  542.24050    2.13460    0.10000    2.37920    -999.25    0.16410    0.19340    1.84420    0.10000   85.55390   85.55390    1.84420    1.85550    1.85550    -999.25    0.32060    0.27670    2.02380   -1.65720  -10.30780    2.02380
 8500.00000    8.35490  394.30620    0.47990    0.09550    2.58350    -999.25    0.04030    0.07400    2.53610    0.09550   81.43790   81.43790    2.53610    2.52650    2.52650    -999.25    0.23860    0.19480    3.04910    3.13340   -5.51720    3.04910
 8550.00000    8.86450  328.47190    0.98950    0.00420    2.59370    -999.25    0.03410    0.06800    3.04440    0.00420   80.83810   80.83810    3.04440    3.00010    3.00010    -999.25    0.19760    0.15420    3.49000    4.33110   -4.31950    3.49000
 8600.00000    8.53870  245.21820    0.66370   -0.00180    2.61140    -999.25    0.02340    0.05770    4.07800   -0.00180   75.67110   75.67110    4.07800    4.00430    4.00430    -999.25    0.18970    0.14640    4.57490    4.73050   -3.92010    4.57490
 8650.00000    9.34430  385.63880    1.46930    0.10000    2.47810    -999.25    0.10420    0.13560    2.59310    0.10000   97.84330   97.84330    2.59310    2.66540    2.66540    -999.25    0.29370    0.24970    2.81960    3.73430   -4.91630    2.81960
 8700.00000    9.73410  416.31970    1.85910   -0.00630    2.42030    -999.25    0.13920    0.16940    2.40200   -0.00630   97.45510   97.45510    2.40200    2.59700    2.59700    -999.25    0.24790    0.20400    2.85920    2.17810   -6.47250    2.85920
 8750.00000    9.34450  329.68480    1.46950    -999.25    -999.25    -999.25    -999.25    -999.25    3.03320    -999.25   94.21160   94.21160    3.03320    3.02090    3.02090    -999.25    -999.25    -999.25    3.34900    3.72060   -4.93000    3.34900
 8800.00000    9.87450  380.96690    1.99950    -999.25    -999.25    -999.25    -999.25    -999.25    2.62490    -999.25   92.96370   92.96370    2.62490    2.61480    2.61480    -999.25    -999.25    -999.25    2.74010    2.13570   -6.51490    2.74010
 8850.00000    2.71760  438.71190   -5.15740    -999.25    -999.25    -999.25    -999.25    -999.25    2.27940    -999.25   97.79760   97.79760    2.27940    2.40110    2.40110    -999.25    -999.25    -999.25    2.65110    3.33600   -5.31460    2.65110
 8900.00000    2.80340  408.11330   -5.07160    -999.25    -999.25    -999.25    -999.25    -999.25    2.45030    -999.25   96.10780   96.10780    2.45030    2.44120    2.44120    -999.25    -999.25    -999.25    2.72490    4.98840   -3.66220    2.72490
 8950.00000    2.71760  370.94740   -5.15740    -999.25    -999.25    -999.25    -999.25    -999.25    2.69580    -999.25   81.73510   81.73510    2.69580    2.65540    2.65540    -999.25    -999.25    -999.25    2.66930   -2.82290  -11.41690    2.66930
 9000.00000    2.74700  548.69680   -5.12800    -999.25    -999.25    -999.25    -999.25    -999.25    1.82250    -999.25   98.80090   98.80090    1.82250    1.82340    1.82340    -999.25    -999.25    -999.25    1.84170    5.52890   -2.94200    1.84170
 9050.00000    2.71760  481.41730   -5.15740    -999.25    -999.25    -999.25    -999.25    -999.25    2.07720    -999.25  149.99980  149.99980    2.07720    2.06990    2.06990    -999.25    -999.25    -999.25    1.81650    5.02010   -3.32780    1.81650
 9100.00000    2.72090  397.99410   -5.15410    -999.25    -999.25    -999.25    -999.25    -999.25    2.51260    -999.25  106.72330  106.72330    2.51260    2.47500    2.47500    -999.25    -999.25    -999.25    2.50510    6.68380   -1.54100    2.50510
 9150.00000    2.80750  415.81770   -5.06750    -999.25    -999.25    -999.25    -999.25    -999.25    2.40490    -999.25  109.59920  109.59920    2.40490    2.40780    2.40780    -999.25    -999.25    -999.25    2.47490    6.12940   -1.97240    2.47490
 9200.00000    2.71760  393.43750   -5.15740    -999.25    -999.25    -999.25    -999.25    -999.25    2.54170    -999.25  105.98770  105.98770    2.54170    2.59690    2.59690    -999.25    -999.25    -999.25    2.63440    5.73050   -2.24820    2.63440
 9250.00000    2.69000  437.19670   -5.18500    -999.25    -999.25    -999.25    -999.25    -999.25    2.28730    -999.25  104.76980  104.76980    2.28730    2.10850    2.10850    -999.25    -999.25    -999.25    2.27140    3.33340   -4.52230    2.27140
 9300.00000    2.71770  394.30620   -5.15730    -999.25    -999.25    -999.25    -999.25    -999.25    2.53610    -999.25  113.84660  113.84660    2.53610    2.56150    2.56150    -999.25    -999.25    -999.25    2.85910    3.93210   -3.80050    2.85910
 9350.00000    2.71480  314.16900   -5.16020    -999.25    -999.25    -999.25    -999.25    -999.25    3.18300    -999.25   99.81530   99.81530    3.18300    2.99610    2.99610    -999.25    -999.25    -999.25    3.08390    2.73450   -4.87510    3.08390
 9400.00000    4.11940  341.23870   -3.75560    -999.25    -999.25    -999.25    -999.25    -999.25    2.93050    -999.25  111.15310  111.15310    2.93050    3.06290    3.06290    -999.25    -999.25    -999.25    3.11770    2.52400   -4.96260    3.11770
 9450.00000   11.21300  336.56440    3.33800    -999.25    -999.25    -999.25    -999.25    -999.25    2.97120    -999.25  115.36730  115.36730    2.97120    2.92720    2.92720    -999.25    -999.25    -999.25    2.97120    1.14840   -6.21510    2.97120
 9500.00000    9.78290  398.37460    1.90790    0.09550    2.49250    0.12720    -999.25    0.12720    2.51020    0.09550  131.78040  131.78040    2.51020    2.55670    2.55670    0.19970    -999.25    0.19970    2.91210    2.08450   -5.15600    2.91210
 9550.00000   11.89870  447.10720    4.02370    0.10000    2.54160    0.09850    -999.25    0.09850    2.23660    0.10000  120.53970  120.53970    2.23660    2.30200    2.30200    0.21940    -999.25    0.21940    2.58890    0.72350   -6.39390    2.58890
 9600.00000    9.00780  210.29610    1.13280    0.00410    2.57060    0.08150    -999.25    0.08150    4.75520    0.00410   97.37830   97.37830    4.75520    4.71010    4.71010    0.14150    -999.25    0.14150    4.99340    1.73650   -5.25790    4.99340
 9650.00000    9.42470  270.25570    1.54970    0.01130    2.54000    0.09940    -999.25    0.09940    3.70020    0.01130  106.37180  106.37180    3.70020    3.74760    3.74760    0.15440    -999.25    0.15440    3.91300    0.53970   -6.33160    3.91300
 9700.00000    9.42460  249.28950    1.54960    0.01300    2.56450    0.08510    -999.25    0.08510    4.01140    0.01300   94.00300   94.00300    4.01140    3.99040    3.99040    0.15220    -999.25    0.15220    4.25020    0.53830   -6.21000    4.25020
 9750.00000    9.63320  320.71840    1.75820    0.05200    2.56110    0.08710    -999.25    0.08710    3.11800    0.05200  105.02250  105.02250    3.11800    3.28960    3.28960    0.17730    -999.25    0.17730    3.40990   -0.45910   -5.89680    3.40990
 9800.00000    8.38210  123.16480    0.50710    0.01160    2.62260    0.05110    -999.25    0.05110    8.11920    0.01160   56.01110   56.01110    8.11920    8.13870    8.13870    0.11280    -999.25    0.11280    8.87700   -3.26050   -7.32520    8.87700
 9850.00000    8.50070  205.03150    0.62570    0.01150    2.63950    0.04120    -999.25    0.04120    4.87730    0.01150   85.18110   85.18110    4.87730    4.78070    4.78070    0.13340    -999.25    0.13340    5.65690   -1.05790   -3.74950    5.65690
 9900.00000    8.38210  199.95200    0.50710    0.01460    2.63340    0.04480    -999.25    0.04480    5.00120    0.01460   80.81880   80.81880    5.00120    5.10370    5.10370    0.13700    -999.25    0.13700    6.83350   -1.25790   -2.57650    6.83350
