~Version ---------------------------------------------------
VERS. 2.0 : CWLS log ASCII Standard -VERSION 2.0
WRAP.  NO : ONE LINE PER DEPTH STEP
~Well ------------------------------------------------------
STRT.F                  2450.0 : START DEPTH
STOP.F                 15800.0 : STOP DEPTH
STEP.F                50.00000 : STEP LENGTH
NULL.                  -999.25 : NULL VALUE
COMP.     MARATHON OIL COMPANY : COMPANY
WELL.                 CAZEY #1 : WELL
FLD .                  WILDCAT : FIELD
LOC .                          : LOCATION
CNTY.                ROBERTSON : COUNTY
STAT.                    TEXAS : STATE
CTRY. UNITED STATES OF AMERICA : COUNTRY
SRVC.        STRATAGRAPH, INC. : SERVICE COMPANY
DATE.              30-Dec-1995 : LOGDATE
API .           42395304440000 : API NUMBER
UWI .           42395304440000 : UNIQUE WELL ID
SLAT.WGS84       31.0729547384 : SURFACE LATITUDE
SLON.WGS84      -96.4245842071 : SURFACE LONGITUDE
~Curve Information -----------------------------------------
DEPT.F                 : 
DTCO.US/F 60 523 00 00 : COMPRESSIONAL-WAVE INTERVAL TRANSIT TIME ACAUSTIC SLOWNESS
SPR .MV   07 010 01 00 : SPONTANEOUS POTENTIAL
TEND.LB   45 635 01 00 : TENSION FROM DENSITY LOG
DCAL.IN   07 280 30 00 : DIFFERENTIAL CALIPER
SFLU.OHMM 07 220 01 00 : SPHERICALLY FOCUSED LOG UNAVERAGED RESISTIVITY
ILM .OHMM 07 120 44 00 : INDUCTION LOG MEDIUM
ILD .OHMM 07 120 46 00 : INDUCTION LOG DEEP
PEF .B/E  45 358 01 00 : PHOTOELECTRIC FACTOR
DRHO.G/C3 45 356 01 00 : DENSITY CORRECTION
DT  .US/F 60 520 00 00 : INTERVAL TRANSIT TIME
DPHI.DEC  45 890 10 00 : DENSITY POROSITY LIMESTONE
GRD .GAPI 45 310 01 00 : GAMMA RAY FROM DENSITY LOG
IDPH.OHMM 07 120 46 00 : INDUCTION DEEP PHASOR RES.
IMPH.OHMM 07 120 44 00 : INDUCTION MEDIUM PHASOR RES.
NPHI.DEC  42 890 01 00 : NEUTRON POROSITY LIMESTONE
DTLF.US/F 60 523 00 00 : ACOUSTIC TRANSIT TIME, LONG SPACED, FAR ARRAY
DTLN.US/F 60 523 00 00 : ACOUSTIC TRANSIT TIME, LONG SPACED, NEAR ARRAY
~Params ----------------------------------------------------
EKB .F                 421.0 : Kelly bushing
EGL .F                 390.0 : Ground level
EDF .F                 420.0 : Drilling floor
EPD .F                 390.0 : Permanent datum
TD  .F               15800.0 : Total depth
DATE.            31-DEC-1995 : Date logged
CLNT.                A2DTECH : Client Code
SL  . 344' FNWL & 1230' FNEL : Surface Location
PD  .                     GL : Permanent Datum
LMF .                     KB : Log Measured From
DMF .                     KB : Drilling Measured From
DAPD.F                    31 : Feet Above Permanent Datum
DD  .F                 15800 : Depth driller
DL  .F                 15796 : Depth logger
BLI .F                 15793 : Bottom log interval
CS1 .IN                7.875 : Casing size
CBD1.        7.875" @ 14300' : Casing driller 1
CBL1.F                 14292 : Casing logger 1
BS1 .IN                  8.5 : Bit size
BSD1.F                 15800 : Depth drilled with bit1
DFT .                THERMEX : Type fluid in hole
DFD .                   16.2 : Density
DFPH.                   10.5 : pH
MSS .              CIRC TANK : Source of sample
RMS .OHMM              1.932 : Rm
RMF .OHMM              1.872 : Rmf
RMC .OHMM              2.181 : Rmc
MFSS.                   MEAS : Source Rmf.
MCSS.                   CALC : Source Rmc.
RMB .OHMM              0.423 : Rm. at BHT
BHT .F                   358 : BHT.
TCS .HRS                 130 : Time Circ. stopped
TLAB.HRS                1130 : Time logger at bottom
LUN .                   8400 : Logging unit number
LUL .                    LER : Logging unit location
ENGI.                 CORLEA : Recorded By
WITN.              FAIRHURST : Witnessed by
ORIG.               5" PRINT : Origin of data
UWI .         42395304440000 : Unique Well ID
DICO. A2D TECHNOLOGIES, INC. : Digitizing Company
~Other -----------------------------------------------------
~ASCII -----------------------------------------------------
# ...
 12650.00000    -999.25  -26.30300 5202.58790    0.95700   29.46100   20.26900   18.27100    6.53900    0.01200   57.78100   -0.02500   43.02500    -999.25    -999.25    0.02900    -999.25    -999.25
 12700.00000    -999.25  -15.45100 5161.50390    2.94600    2.21300    3.03700    2.41900    -999.25    0.00800   80.12200    -999.25   73.41400    -999.25    -999.25    0.21900    -999.25    -999.25
 12750.00000    -999.25  -36.49000 5268.31880    0.32600  122.35900   77.31600   90.03300    3.15100    0.01300   64.64300    0.10600   24.40300    -999.25    -999.25    0.01600    -999.25    -999.25
 12800.00000    -999.25  -14.77700 5440.26510    1.46800    8.41700    4.46700    3.58300    6.91700   -0.00200   66.22100    0.25300   64.54500    -999.25    -999.25    0.14700    -999.25    -999.25
 12850.00000    -999.25  -35.80200 5320.79590    0.58300   75.21500   71.18300   57.41500    3.04900    0.03000   58.32600    0.07200   23.34900    -999.25    -999.25    0.00600    -999.25    -999.25
 12900.00000    -999.25   -9.97900 5332.62500    2.78900   16.08100   12.54700   11.39600    -999.25   -0.07700   61.67600    -999.25   73.34100    -999.25    -999.25    0.03100    -999.25    -999.25
 12950.00000    -999.25  -17.01100 5440.26510    0.57800    9.38100    8.07600    7.16800    8.65000    0.02200   66.89600    0.15100   74.51900    -999.25    -999.25    0.09500    -999.25    -999.25
 13000.00000    -999.25  -13.56100 5382.58690    4.24600    6.38900    3.89700    4.11200   10.14300   -0.00400   69.21200    0.34400   65.03600    -999.25    -999.25    0.17700    -999.25    -999.25
 13050.00000    -999.25  -16.56100 5433.81300    0.46200   82.48000   78.38800   48.40400    3.37300    0.05900   59.44200    0.11000   23.62700    -999.25    -999.25   -0.00300    -999.25    -999.25
 13100.00000    -999.25    1.57400 5351.97800    1.58200    4.65500    5.07600    5.19700    6.64700    0.02000   77.24900    0.14800   80.97400    -999.25    -999.25    0.08400    -999.25    -999.25
 13150.00000    -999.25   -5.23500 5434.08590    4.16700    3.47400    3.25200    3.11700    -999.25    0.09400   77.58700    0.15200   79.95700    -999.25    -999.25    0.18300    -999.25    -999.25
 13200.00000    -999.25   -0.81900 5440.26510    2.66200    3.73100    3.64700    3.72300    6.97600    0.01900   73.03800    0.03700   83.08600    -999.25    -999.25    0.19300    -999.25    -999.25
 13250.00000    -999.25   10.19200 5460.35300    2.25900    4.72500    4.40600    4.08500    6.73200    0.01000   73.33700    0.11600   84.77800    -999.25    -999.25    0.14700    -999.25    -999.25
 13300.00000    -999.25    1.96400 5471.17580    1.75700    6.39000    6.39000    6.66000    4.13600    0.08000   67.01900    0.00800   62.39400    -999.25    -999.25    0.09200    -999.25    -999.25
 13350.00000    -999.25    3.03100 5360.61910    0.93800   35.72000   16.53000   15.01100    5.12100    0.00100   56.98800   -0.01400   31.95100    -999.25    -999.25    0.02800    -999.25    -999.25
 13400.00000    -999.25    5.15200 5548.53420    3.00900    4.24000    3.92700    3.78600    5.47900    0.03300   73.56500    0.04000   74.87900    -999.25    -999.25    0.15700    -999.25    -999.25
 13450.00000    -999.25   -1.74700 5609.72800    0.56200   38.54000   17.04300   14.31900    4.64800    -999.25   27.05500   -0.06600   46.73000    -999.25    -999.25    0.10400    -999.25    -999.25
 13500.00000    -999.25    4.30000 5528.43410    2.04200    3.16500    3.20900    3.14200    -999.25    -999.25   79.47800    -999.25   82.51500    -999.25    -999.25    0.17700    -999.25    -999.25
 13550.00000    -999.25    5.27800 5583.82710    2.08700    7.33400    5.96500    5.44600    5.16000    0.17300   74.79600   -0.06400   69.66800    -999.25    -999.25    0.12500    -999.25    -999.25
 13600.00000    -999.25    7.85700 5581.45900    1.83100   10.18500    9.28900    8.78300    5.34900   -0.00800   68.64900    0.05100   74.14700    -999.25    -999.25    0.06600    -999.25    -999.25
 13650.00000    -999.25   -1.71600 5613.99410    1.58500    3.53400    2.82400    2.65000    9.57400    0.02400   80.36700    0.19400   86.51600    -999.25    -999.25    0.19600    -999.25    -999.25
 13700.00000    -999.25   10.05300 5719.02690    1.35800    8.58500    3.07900    4.27200   10.02300    0.02800   70.19900    0.34400   40.86700    -999.25    -999.25    0.02300    -999.25    -999.25
 13750.00000    -999.25    3.49100 5679.20410    4.39200    2.43700    2.43700    2.48800    -999.25    0.07400   83.78900    0.12400   76.67800    -999.25    -999.25    0.23300    -999.25    -999.25
 13800.00000    -999.25   10.68400 5798.67290    2.11200    3.07900    3.18700    3.24200    9.22700    0.00300   79.51200    0.08200   89.10100    -999.25    -999.25    0.20300    -999.25    -999.25
 13850.00000    -999.25   12.02900 5845.09720    1.66500    8.41700    8.44200    8.27200    4.58000    0.02100   70.98300    0.02600   73.64600    -999.25    -999.25    0.10600    -999.25    -999.25
 13900.00000    -999.25   18.22000 5880.01220    1.58500    6.30300    5.22700    4.99800    5.42200    0.11000   75.59300   -0.01900   88.03600    -999.25    -999.25    0.17600    -999.25    -999.25
 13950.00000    -999.25   14.48000 6025.26810    1.69200    4.22700    3.50100    3.36200    5.12400    0.01200   76.59000    0.06800   78.79500    -999.25    -999.25    0.16000    -999.25    -999.25
 14000.00000    -999.25   23.61800 6241.70410    1.51600    4.18600    3.53600    3.53400    3.90800    0.01200   75.19400    0.05700   78.70400    -999.25    -999.25    0.18400    -999.25    -999.25
 14050.00000    -999.25    8.18100 6236.72610    1.35500    3.73400    2.99700    2.95500    5.76000    0.01400   81.51000    0.07600   86.56400    -999.25    -999.25    0.18400    -999.25    -999.25
 14100.00000    -999.25    2.51300 6176.49710    2.64200   10.21200   11.39600   11.37000    -999.25    0.02100   75.49700    0.21400   82.74300    -999.25    -999.25    0.16600    -999.25    -999.25
 14150.00000    -999.25    5.32100 6386.42480    2.35200    4.95700    4.91900    4.74600    6.88800    0.14600   88.14800    0.03000   91.81700    -999.25    -999.25    0.21500    -999.25    -999.25
 14200.00000    -999.25    6.35000 6322.59420    1.68400    4.28600    4.22700    4.65500    8.80700    0.01000   93.52300    0.13900    -999.25    -999.25    -999.25    0.23500    -999.25    -999.25
 14250.00000    -999.25    8.60400 6243.82520    0.50100   12.20900    7.23400    6.47900    5.14900   -0.02600   89.10300    0.09700   76.71700    -999.25    -999.25    0.20700    -999.25    -999.25
 14300.00000    -999.25  -51.61300 5957.96480    1.20300   14.46600    -999.25    -999.25    -999.25   -0.04600    -999.25    0.06600  106.30300   33.41700    3.37700    0.19000   95.35300   93.72300
 14350.00000    -999.25  -84.74400 4772.45510    0.55600    7.35400    -999.25    -999.25    -999.25   -0.04200    -999.25    0.08100  109.04200    4.81400    4.64400    0.15500   89.75200   89.75200
 14400.00000    -999.25 -136.99600 4459.52290    0.51600    7.89800    -999.25    -999.25    -999.25   -0.04400    -999.25    0.05900  120.57500    4.64000    3.65400    0.18000   94.04000   93.72300
 14450.00000    -999.25 -337.36100 3534.92990    0.27800    8.06800    -999.25    -999.25    -999.25   -0.04400    -999.25    0.05600   94.71300    4.38600    4.62200    0.14600   85.50600   85.58200
 14500.00000    -999.25 -344.54400 3534.92990    0.14300    7.03400    -999.25    -999.25    -999.25   -0.04900    -999.25    0.06900  107.11700    4.47300    4.53500    0.12700   85.77800   86.67100
 14550.00000    -999.25 -292.80800 3614.77000    0.00500    3.26200    -999.25    -999.25    -999.25   -0.03400    -999.25    0.03900  109.71400    3.04400    2.54900    0.17900   91.61800   91.72700
 14600.00000    -999.25 -276.51400 3682.54200    0.08700    5.72600    -999.25    -999.25    -999.25   -0.04500    -999.25    0.06000  112.10400    3.59100    3.78200    0.13800   89.35500   91.04700
