~Version ---------------------------------------------------
VERS. 2.0 : CWLS log ASCII Standard -VERSION 2.0
WRAP.  NO : ONE LINE PER DEPTH STEP
~Well ------------------------------------------------------
STRT.F                   300.0 : START DEPTH
STOP.F                 24000.0 : STOP DEPTH
STEP.F                50.00000 : STEP LENGTH
NULL.                  -999.25 : NULL VALUE
COMP.       PLACID OIL COMPANY : COMPANY
WELL.                PEELER #1 : WELL
FLD .                  WILDCAT : FIELD
LOC .                          : LOCATION
CNTY.                MC MULLEN : COUNTY
STAT.                    TEXAS : STATE
CTRY. UNITED STATES OF AMERICA : COUNTRY
SRVC.             Schlumberger : SERVICE COMPANY
DATE.              01-Jan-1984 : LOGDATE
API .           42311317850000 : API NUMBER
UWI .           42311317850000 : UNIQUE WELL ID
SLAT.WGS84       28.5959255047 : SURFACE LATITUDE
SLON.WGS84      -98.4401225914 : SURFACE LONGITUDE
~Curve Information -----------------------------------------
DEPT   .F                 : 
DPHI_LS.DEC  45 890 10 00 : DENSITY POROSITY LIMESTONE
CALD   .IN   45 280 60 00 : CALIPER FROM DENSITY LOG
RHOB   .G/C3 45 350 01 00 : BULK DENSITY
NPHI_LS.DEC  42 890 01 00 : NEUTRON POROSITY LIMESTONE
DT     .US/F 60 500 00 00 : DELTA-T (INTERVAL TRANSIT TIME)
GRR    .GAPI 07 310 01 00 : GAMMA RAY FROM RESISTIVITY LOG
NPHI_SS.DEC  42 890 03 00 : NEUTRON POROSITY SANDSTONE
ILM    .OHMM 07 120 44 00 : INDUCTION MEDIUM RESISTIVITY
SFLU   .OHMM 07 220 01 00 : SHALLOW FOCUSED RESISTIVITY (UNAVERAGED)
SPR    .MV   07 010 01 00 : SPONTANEOUS POTENTIAL FROM RESISTIVITY LOG
ILD    .OHMM 07 120 46 00 : INDUCTION DEEP RESISTIVITY
DCALR  .IN   07 280 01 00 : DIFFERENTIAL CALIPER FROM RESISTIVITY LOG
DPHI_SS.DEC  45 890 12 00 : DENSITY POROSITY SANDSTONE
DRHO   .G/C3 45 356 01 00 : BULK DENSITY CORRECTION
~Params ----------------------------------------------------
PD  .                     GL : PERMANENT DATUM
EPD .F                   336 : ELEVATION PERMANENT DATUM
LMF .                     KB : LOG MEASURED FROM
DMF .                     KB : DRILLING MEASURED FROM
EKB .F                   368 : KELLING BUSHING
EDF .F                   367 : DRILLING FLOOR
EGL .F                   336 : GROUND LEVEL
DATE.               1-1-1984 : RUN DATE
RUN .                      7 : RUN NUMBER
DD  .F                 24031 : DEPTH DRILLER
DL  .F                 24037 : DEPTH LOGGER
BLI .F                 24030 : BOTTOM LOG INTERVAL
TLI .F                 21000 : TOP LOG INTERVAL
CS  .IN                8.625 : CASING SIZE
CBD .F                 19500 : CASING BOTTOM DRILLER
CBL .F                 19500 : CASING BOTTOM LOGGER
BS  .IN                  7.5 : BIT SIZE
BSD .F                 24031 : BIT SIZE AT DEPTH
DFT .               INVERMUL : DRILLING FLUID TYPE
DFV .                     83 : DRILLING FLUID VISCOSITY
TCS .HRS                 800 : TIME CURCULATED STOPPED
TLAB.HRS                 200 : TIME LOGGER AT BOTTOM
LUL .               EDINBURG : LOGGING UNIT LOCATION
ENGI.              NEWMISTER : RECORDING ENGINEER
WITN.                   LONG : WITNESSED BY
CLNT.                A2DTECH : CLIENT CODE
ORIG.            1",5" PRINT : ORIGIN OF DATA
UWI .         42311317850000 : UNIQUE WELL ID
DICO. A2D Technologies, Inc. : DIGITIZING COMPANY
~Other -----------------------------------------------------
~ASCII -----------------------------------------------------
# ...
 10100.00000    -999.25    -999.25    -999.25    -999.25   80.89570   55.02630    -999.25    2.82800    3.03690   -8.51260    2.82730    -999.25    -999.25    -999.25
 10150.00000    -999.25    -999.25    -999.25    -999.25   71.72260   42.49380    -999.25    4.05970    4.68020   -6.17960    4.95180    -999.25    -999.25    -999.25
 10200.00000    -999.25    -999.25    -999.25    -999.25   63.31040   34.20530    -999.25    8.80600   13.35420   -7.10390   10.12140    -999.25    -999.25    -999.25
 10250.00000    -999.25    -999.25    -999.25    -999.25   67.97550   40.12660    -999.25    5.51370    8.12270   -8.52240    6.79300    -999.25    -999.25    -999.25
 10300.00000    -999.25    -999.25    -999.25    -999.25   69.57560   38.82640    -999.25    4.83270    6.96680  -11.24050    6.24870    -999.25    -999.25    -999.25
 10350.00000    -999.25    -999.25    -999.25    -999.25   83.40160   55.10770    -999.25    2.43980    3.01440  -13.14330    2.75210    -999.25    -999.25    -999.25
 10400.00000    -999.25    -999.25    -999.25    -999.25   79.05370   51.07800    -999.25    3.40550    4.28730  -16.45220    3.62930    -999.25    -999.25    -999.25
 10450.00000    -999.25    -999.25    -999.25    -999.25   71.71890   47.27230    -999.25    4.87050    5.70690  -21.93370    5.25730    -999.25    -999.25    -999.25
 10500.00000    -999.25    -999.25    -999.25    -999.25   58.86100   22.14470    -999.25   24.49130   37.20790  -24.15360   28.31200    -999.25    -999.25    -999.25
 10550.00000    -999.25    -999.25    -999.25    -999.25   81.04300   53.92120    -999.25   14.38370   22.93750  -26.36080   17.15560    -999.25    -999.25    -999.25
 10600.00000    -999.25    -999.25    -999.25    -999.25   72.42980   48.09240    -999.25   41.44580   95.85830  -30.90590   60.73720    -999.25    -999.25    -999.25
 10650.00000    0.04360   14.72900    2.62400    0.25400   75.56410   23.87900    -999.25    8.36620   10.75710  -33.58240   11.96410    -999.25    -999.25    0.04300
 10700.00000    0.00670   15.81600    2.69400    0.01600   52.52770   19.09720    -999.25    -999.25  210.18190  -38.16640  458.68840    -999.25    -999.25    0.00800
 10750.00000    0.06720   16.23200    2.55600    0.20300   66.44500   45.81510    -999.25    -999.25    8.66220  -64.24490   17.60570    -999.25    -999.25    0.07600
 10800.00000    0.00120   15.48600    2.70500    0.00000   50.76510   25.66100    -999.25    -999.25  285.78430  -92.11180   19.80770    -999.25    -999.25    0.03300
 10850.00000   -0.00990   15.41400    2.72600    0.06100   50.18150   41.64070    -999.25    -999.25   66.94830 -111.75470  497.72030    -999.25    -999.25    0.09300
 10900.00000    0.01610   15.32400    2.68200    0.01200   51.90330   24.14460    -999.25    -999.25   17.61580 -131.63020   12.05560    -999.25    -999.25    0.06500
 10950.00000    0.02020   15.99500    2.68200   -0.00100   49.98760   21.22860    -999.25    -999.25  184.10600 -127.20500  173.62180    -999.25    -999.25    0.07400
 11000.00000    0.01060   14.73500    2.69400    0.00400   50.20080   14.77450    -999.25    -999.25  253.08650 -127.72260  212.87990    -999.25    -999.25    0.04300
 11050.00000   -0.01950   15.58700    2.74300    0.01500   50.16450   19.49230    -999.25    -999.25  145.42070 -124.31920  192.19470    -999.25    -999.25    0.03200
 11100.00000   -0.02190   16.82500    2.74400    0.00000   49.44700   20.68430    -999.25    -999.25  144.70480 -140.66260   53.24730    -999.25    -999.25    0.05400
 11150.00000   -0.00020   15.34900    2.71300    0.00000   48.32010   23.57460    -999.25    -999.25  203.79240 -142.96590   89.41270    -999.25    -999.25    0.01100
 11200.00000    0.01570   15.31200    2.68400    0.00600   50.15920   21.01790    -999.25    -999.25   69.55540 -139.96070   43.17190    -999.25    -999.25   -0.00100
 11250.00000    0.02140   15.43100    2.66800    0.02800   56.85380   21.34530    -999.25    -999.25   99.66720 -142.11180   36.75890    -999.25    -999.25    0.05700
 11300.00000   -0.02700   17.46100    2.75500    0.00100   48.14720   16.38150    -999.25    -999.25   74.38270 -143.48350   34.62100    -999.25    -999.25    0.04400
 11350.00000    0.00310   15.81100    2.70400   -0.00600   49.34050   16.71860    -999.25    -999.25   82.70390 -135.74530   45.05590    -999.25    -999.25    0.02000
 11400.00000   -0.02510   16.23900    2.74700    0.00200   50.03670   21.67710    -999.25    -999.25  197.53090 -125.03050  464.23690    -999.25    -999.25    0.04400
 11450.00000   -0.00500   16.52300    2.71700   -0.00600   50.39620   24.28710    -999.25    -999.25  165.45140 -110.33130 1947.19870    -999.25    -999.25    0.06000
 11500.00000    0.02590   15.60700    2.69000    0.01400   53.52630   26.07500    -999.25    -999.25  168.44670 -101.99780  273.82570    -999.25    -999.25    0.06000
 11550.00000    0.13190   21.93200    2.46500    0.02200   50.07630   19.93320    -999.25    -999.25  290.69790 -116.80120   78.06980    -999.25    -999.25    0.07800
 11600.00000   -0.00210   14.45100    2.71300   -0.00900   47.93960   21.32450    -999.25    -999.25  227.11960 -126.09180  169.37710    -999.25    -999.25    0.01900
 11650.00000   -0.00220   13.62100    2.71600   -0.00500   49.51970   21.07370    -999.25    -999.25  269.76760 -128.36960  328.95610    -999.25    -999.25    0.01100
 11700.00000   -0.00020   13.89500    2.70900   -0.00400   49.87460   14.69740    -999.25    -999.25  212.95720 -124.09940 1140.06570    -999.25    -999.25    0.01900
 11750.00000   -0.00650   14.18500    2.71900   -0.00600   50.14900   15.20250    -999.25    -999.25 1462.53250 -130.29760   84.54660    -999.25    -999.25    0.01500
 11800.00000   -0.00960   13.71600    2.73100   -0.00800   51.12060   13.21930    -999.25    -999.25  207.75180 -120.51650  228.10020    -999.25    -999.25    0.01400
 11850.00000   -0.05740   13.87400    2.80200    0.08100   48.98340   17.76830    -999.25    -999.25  156.89920 -118.92350  147.78100    -999.25    -999.25    0.00900
 11900.00000    0.19140   15.25700    2.40200    0.09200   47.93810   15.62990    -999.25    -999.25  299.74180 -128.60260  294.70660    -999.25    -999.25    0.03400
 11950.00000    0.04700   15.71800    2.48800    0.01700   50.34350   20.33440    -999.25    -999.25 1505.94300 -129.76710  132.72700    -999.25    -999.25    0.07200
 12000.00000    0.44260   17.58200    2.00000    0.31200   54.38350   20.83980    -999.25    -999.25  434.10830 -129.19650   95.50350    -999.25    -999.25   -0.06700
 12050.00000   -0.02340   15.65400    2.74800    0.00500   47.51630   10.26470    -999.25    -999.25 1492.96260 -131.39750  983.23060    -999.25    -999.25    0.04500
 12100.00000    0.03030   16.80700    2.63300    0.02400   46.82340   13.86700    -999.25    -999.25  297.02220 -116.33540  158.26900    -999.25    -999.25    0.01200
 12150.00000   -0.01450   17.65000    2.73300    0.04200   49.83740   16.87450    -999.25    -999.25 1201.93950 -119.90650 1991.42210    -999.25    -999.25    0.02000
 12200.00000   -0.00560   17.94100    2.71800    0.12400   50.79470   14.41160    -999.25    -999.25  127.44190 -115.24860 1999.99960    -999.25    -999.25    0.01900
 12250.00000   -0.01870   14.66100    2.74000    0.01200   48.99040   13.91890    -999.25    -999.25  428.68190 -107.26460 1939.60610    -999.25    -999.25    0.00800
 12300.00000   -0.01830   15.01900    2.73700    0.00600   48.14280   13.99690    -999.25    -999.25  334.36700 -110.71950 1908.55530    -999.25    -999.25    0.02900
 12350.00000   -0.00760   14.07500    2.71500   -0.00700   49.43490   13.60810    -999.25    -999.25  287.59690 -103.56370 1999.99960    -999.25    -999.25    0.06000
 12400.00000   -0.04380   13.99100    2.78000    0.01300   50.90280   16.01870    -999.25    -999.25  174.47030 -109.62410 1999.99960    -999.25    -999.25    0.08900
 12450.00000   -0.00890   13.67600    2.72400   -0.00500   48.06780   20.48950    -999.25    -999.25  306.74440 -109.73600 1999.99960    -999.25    -999.25    0.02100
