~Version ---------------------------------------------------
VERS. 2.0 : CWLS log ASCII Standard -VERSION 2.0
WRAP. YES : MULTIPLE LINES PER DEPTH STEP
~Well ------------------------------------------------------
STRT.FT                   1000.0 : START DEPTH
STOP.FT                  11500.0 : STOP DEPTH
STEP.FT                 50.00000 : STEP LENGTH
NULL.                    -999.25 : NULL VALUE
COMP. KAISER-FRANCIS OIL COMPANY : COMPANY
WELL.            D.C. MCMANUS #1 : WELL
FLD .              AUSTIN PIERCE : FIELD
LOC .                            : LOCATION
CNTY.                   GONZALES : COUNTY
STAT.                      TEXAS : STATE
CTRY.   UNITED STATES OF AMERICA : COUNTRY
SRVC.               Schlumberger : SERVICE COMPANY
DATE.                01-Dec-1996 : LOGDATE
API .             42177320060000 : API NUMBER
UWI .             42177320060000 : UNIQUE WELL ID
SLAT.WGS84          29.374572664 : SURFACE LATITUDE
SLON.WGS84        -97.3289574079 : SURFACE LONGITUDE
~Curve Information -----------------------------------------
DEPT    .FT    : DEPTH FEET
AO10ED  .OHMM  : 10 INCH ARRAY RESISTIVITY ONE FOOT RESOLUTION
AO20ED  .OHMM  : 20 INCH ARRAY RESISTIVITY ONE FOOT RESOLUTION
AO30ED  .OHMM  : 30 INCH ARRAY RESISTIVITY ONE FOOT RESOLUTION
AO60ED  .OHMM  : 60 INCH ARRAY RESISTIVITY ONE FOOT RESOLUTION
AO90ED  .OHMM  : 90 INCH ARRAY RESISTIVITY ONE FOOT RESOLUTION
CALWS   .IN    : CALIPER [DCALED+BITED]
CONDWS  .MMHO  : CONDUCTIVITY [1000/DRESWS]
DCALRED .IN    : DIFFERENTIAL CALIPER FROM RESISTIVITY LOG
DCORWS  .G/C3  : DENSITY CORRECTION [HDRAED]
DENWS   .G/C3  : BULK DENSITY [M=2.71 F=1.0] [CALCULATED FROM DPOWS]
DPHZLSED.V/V   : DENSITY POROSITY [M=2.71 F=1.0] FROM DENSITY LOG
DPOWS   .V/V   : DENSITY POROSITY [M=2.71 F=1.0] [DPHZLSED]
DRESWS  .OHMM  : DEEP RESISTIVITY [AO90ED]
DTED    .US/F  : DELTA TIME FROM SONIC LOG
DTWS    .US/F  : DELTA TIME [DTED]
GRRED   .GAPI  : GAMMA RAY FROM RESISTIVITY LOG
GRWS    .GAPI  : GAMMA RAY [GRRED, CSG ABOVE 1070F]
HDRAED  .G/C3  : DENSITY CORRECTION FROM DENSITY LOG
MRESWS  .OHMM  : MEDIUM RESISTIVITY [AO30ED]
NPHILSED.V/V   : NEUTRON POROSITY LIMESTONE FROM DENSITY LOG
NPOWS   .V/V   : NEUTRON POROSITY LIMESTONE [NPHILSED]
SPRED   .MV    : SPONTANEOUS POTENTIAL FROM RESISTIVITY LOG
SPWS    .MV    : SPONTANEOUS POTENTIAL [BASELINE 0 MV] [SPRED]
SRESWS  .OHMM  : SHALLOW RESISTIVITY [AO10ED]
TENRED  .LBF   : TENSION FROM RESISTIVITY LOG
~Params ----------------------------------------------------
PD  .                     GL : PERMANENT DATUM
EPD .FT               257.26 : ELEVATION PERMANENT DATUM
LMF .                     KB : LOG MEASURED FROM
DAPD.FT                 16.3 : FEET ABOVE PERMANENT DATUM
DMF .                     KB : DRILLING MEASURED FROM
EKB .FT               275.58 : KELLY BUSHING
EDF .FT                  275 : DRILLING FLOOR
EGL .FT               257.26 : GROUND LEVEL
DATE.               12/01/96 : RUN DATE
RUN .                      1 : RUN NUMBER
DD  .FT                11530 : DEPTH DRILLER
DL  .FT                11500 : DEPTH LOGGER
BLI .FT                11500 : BOTTOM LOG INTERVAL
TLI .FT                 1070 : TOP LOG INTERVAL
CS  .IN                9.625 : CASING SIZE
CBD .FT                 1061 : CASING BOTTOM DRILLER
CBL .FT                 1070 : CASING BOTTOM LOGGER
BS  .IN                 8.75 : BIT SIZE
BSD .FT                11530 : BIT SIZE AT DEPTH
DFT .                 LOLIME : DRILLING FLUID TYPE
DFD .                   10.1 : DRILLING FLUID DENSITY
DFV .                     47 : DRILLING FLUID VISCOSITY
DFPH.                    9.5 : DRILLING FLUID PH
MSS .                MUD PIT : MUD SAMPLE SOURCE
RMS .OHMM               4.36 : RESISTIVITY MUD SAMPLE
MST .FT                   75 : MUD SAMPLE TEMPERATURE
RMF .OHMM                3.7 : RESISTIVITY MUD FILTRATE SAMPLE
MFST.FT                   75 : MUD FILTRATE SAMPLE TEMPERATURE
RMC .OHMM                6.5 : RESISTIVITY MUD CAKE
MCST.FT                   75 : MUD CAKE SAMPLE TEMPERATURE
MFSS.              MUD PRESS : MUD FILTRATE SAMPLE SOURCE
MCSS.                   CALC : MUD CAKE SAMPLE SOURCE
RMB .OHMM              1.515 : RESISTIVITY MUD AT BHT
TCS .HRS                 430 : TIME CURCULATED STOPPED
TLAB.HRS                 900 : TIME LOGGER AT BOTTOM
LUN .                   3075 : LOGGING UNIT NUMBER
LUL .               VICTORIA : LOGGING UNIT LOCATION
ENGI.                  NAHRI : RECORDING ENGINEER
WITN.                   RUSS : WITNESSED BY
CLNT.                A2DTECH : CLIENT CODE
ORIG.               5" PRINT : ORIGIN OF DATA
UWI .         42177320060000 : UNIQUE WELL ID
DICO. A2D Technologies, Inc. : DIGITIZING COMPANY
~Other -----------------------------------------------------
~ASCII -----------------------------------------------------
# ...
 6600.00000    5.07070    3.33290    1.63940    0.85450    0.67830    9.65200 1474.27390    0.90200    -999.25    -999.25    -999.25    -999.25    0.67830    -999.25    -999.25   56.69820   56.69820    -999.25    1.63940    -999.25    -999.25 -126.28720  -99.89860    5.07070 3361.96240
 6650.00000    6.30250    5.64150    2.38940    1.27310    0.99060    9.25330 1009.48920    0.50330    -999.25    -999.25    -999.25    -999.25    0.99060    -999.25    -999.25   56.82130   56.82130    -999.25    2.38940    -999.25    -999.25  -98.63220  -73.19630    6.30250 3431.58840
 6700.00000    6.36050    4.74380    2.32190    1.31810    1.04450    9.26900  957.39590    0.51900    -999.25    -999.25    -999.25    -999.25    1.04450    -999.25    -999.25   56.63440   56.63440    -999.25    2.32190    -999.25    -999.25 -115.69130  -91.20800    6.36050 3410.49270
 6750.00000   12.23230    4.97010    1.74800    0.81270    0.67180    9.06880 1488.53820    0.31880    -999.25    -999.25    -999.25    -999.25    0.67180    -999.25    -999.25   51.03690   51.03690    -999.25    1.74800    -999.25    -999.25 -129.81110 -106.28040   12.23230 3430.07450
 6800.00000    4.38810    2.67560    1.55090    0.90620    0.73370    9.43580 1362.95500    0.68580    -999.25    -999.25    -999.25    -999.25    0.73370    -999.25    -999.25   49.93470   49.93470    -999.25    1.55090    -999.25    -999.25 -124.39560 -101.81750    4.38810 3412.67700
 6850.00000    5.97220    2.63560    1.63120    0.91450    0.76580    9.41000 1305.82400    0.66000    -999.25    -999.25    -999.25    -999.25    0.76580    -999.25    -999.25   58.64640   58.64640    -999.25    1.63120    -999.25    -999.25 -118.99230  -97.36680    5.97220 3425.56570
 6900.00000    3.08210    2.48210    1.82230    1.29820    1.17650   10.39860  849.97880    1.64860    -999.25    -999.25    -999.25    -999.25    1.17650    -999.25    -999.25   79.07870   79.07870    -999.25    1.82230    -999.25    -999.25  -54.50370  -33.71270    3.08210 3392.74540
 6950.00000    7.11510    4.89550    1.98830    1.05930    0.83290    9.06050 1200.62440    0.31050    -999.25    -999.25    -999.25    -999.25    0.83290    -999.25    -999.25   51.49720   51.49720    -999.25    1.98830    -999.25    -999.25 -116.74130  -96.64610    7.11510 3393.54830
 7000.00000    9.23680    6.57210    2.43210    1.30160    1.08450    9.43700  922.08390    0.68700    -999.25    -999.25    -999.25    -999.25    1.08450    -999.25    -999.25   61.97220   61.97220    -999.25    2.43210    -999.25    -999.25  -99.45810  -80.05870    9.23680 3388.14400
 7050.00000    6.02920    5.14520    2.65740    1.50740    1.18640    9.43800  842.88600    0.68800    -999.25    -999.25    -999.25    -999.25    1.18640    -999.25    -999.25   73.60190   73.60190    -999.25    2.65740    -999.25    -999.25  -86.38820  -67.68470    6.02920 3409.06130
 7100.00000    6.69970    4.58340    2.35780    1.26370    1.00910    9.06130  990.98210    0.31130    -999.25    -999.25    -999.25    -999.25    1.00910    -999.25    -999.25   56.60360   56.60360    -999.25    2.35780    -999.25    -999.25 -112.67790  -94.67020    6.69970 3395.82200
 7150.00000    2.35280    2.40160    2.15300    2.07990    1.98600   11.01550  503.52470    2.26550    -999.25    -999.25    -999.25    -999.25    1.98600    -999.25    -999.25   82.53690   82.53690    -999.25    2.15300    -999.25    -999.25  -19.08180   -1.76990    2.35280 3379.25900
 7200.00000    3.01160    2.91410    1.37270    0.84280    0.69940   10.50600 1429.79700    1.75600    -999.25    -999.25    -999.25    -999.25    0.69940    -999.25    -999.25  106.70950  106.70950    -999.25    1.37270    -999.25    -999.25  -45.09710  -28.48110    3.01160 3416.27100
 7250.00000    5.58260    4.75160    3.88270    3.42930    3.27710   10.79090  305.14780    2.04090    -999.25    -999.25    -999.25    -999.25    3.27710    -999.25    -999.25   77.94780   77.94780    -999.25    3.88270    -999.25    -999.25  -24.88060   -8.96040    5.58260 3455.88960
 7300.00000    3.54550    2.92560    2.82410    2.34970    2.26270   10.44940  441.94990    1.69940    -999.25    -999.25    -999.25    -999.25    2.26270    -999.25    -999.25   98.92750   98.92750    -999.25    2.82410    -999.25    -999.25  -28.47060  -13.24620    3.54550 3488.85940
 7350.00000    2.40800    1.96480    1.85090    1.53170    1.50670    9.99740  663.70210    1.24740    -999.25    -999.25    -999.25    -999.25    1.50670    -999.25    -999.25   67.07410   67.07410    -999.25    1.85090    -999.25    -999.25  -41.68280  -27.15430    2.40800 3521.27080
 7400.00000    2.10320    2.08420    2.07430    2.02990    1.99280   10.67860  501.80650    1.92860    -999.25    -999.25    -999.25    -999.25    1.99280    -999.25    -999.25  122.63070  122.63070    -999.25    2.07430    -999.25    -999.25  -16.91100   -3.07830    2.10320 3564.42650
 7450.00000    6.90420    5.45890    2.75880    1.57050    1.28130    9.11550  780.45740    0.36550    -999.25    -999.25    -999.25    -999.25    1.28130    -999.25    -999.25   74.33520   74.33520    -999.25    2.75880    -999.25    -999.25  -79.01620  -65.87930    6.90420 3587.64530
 7500.00000    2.12830    2.11170    2.04170    2.01280    1.97380   10.84750  506.63700    2.09750    -999.25    -999.25    -999.25    -999.25    1.97380    -999.25    -999.25  105.91650  105.91650    -999.25    2.04170    -999.25    -999.25  -16.57370   -4.13270    2.12830 3708.27050
 7550.00000    4.05050    3.65950    2.95870    2.60720    2.49640   10.68310  400.57680    1.93310    -999.25    -999.25    -999.25    -999.25    2.49640    -999.25    -999.25  102.91440  102.91440    -999.25    2.95870    -999.25    -999.25  -33.12680  -21.38160    4.05050 3640.06810
 7600.00000    1.94980    1.93460    1.91990    1.91010    1.89660   10.98490  527.25930    2.23490    -999.25    -999.25    -999.25    -999.25    1.89660    -999.25    -999.25  117.42520  117.42520    -999.25    1.91990    -999.25    -999.25  -12.83530   -1.78590    1.94980 3629.91940
 7650.00000    2.25530    2.30200    2.16590    2.11700    1.99720   10.99660  500.70100    2.24660    -999.25    -999.25    -999.25    -999.25    1.99720    -999.25    -999.25  112.44520  112.44520    -999.25    2.16590    -999.25    -999.25  -15.84500   -5.49150    2.25530 3602.60400
 7700.00000    1.99850    2.14870    1.94830    1.93810    1.87270   11.00630  533.98830    2.25630    -999.25    -999.25    -999.25    -999.25    1.87270    -999.25    -999.25  105.28950  105.28950    -999.25    1.94830    -999.25    -999.25  -10.78420   -1.12650    1.99850 3648.09300
 7750.00000    2.74080    2.68550    2.66730    2.64460    2.61390   10.92660  382.57010    2.17660    -999.25    -999.25    -999.25    -999.25    2.61390    -999.25    -999.25   90.52760   90.52760    -999.25    2.66730    -999.25    -999.25  -12.83330   -3.87140    2.74080 3654.00440
 7800.00000    2.49810    2.43320    2.40930    2.37790    2.33540   10.99850  428.19210    2.24850    -999.25    -999.25    -999.25    -999.25    2.33540    -999.25    -999.25   74.64330   74.64330    -999.25    2.40930    -999.25    -999.25  -23.80370  -15.53770    2.49810 3690.46700
 7850.00000    3.30970    3.10300    3.05940    3.00620    2.93450   10.50900  340.77360    1.75900    -999.25    -999.25    -999.25    -999.25    2.93450    -999.25    -999.25   97.05420   97.05420    -999.25    3.05940    -999.25    -999.25  -10.05970   -2.48950    3.30970 3678.62130
 7900.00000    2.87400    2.83060    2.81640    2.79890    2.77500   11.05110  360.36040    2.30110    -999.25    -999.25    -999.25    -999.25    2.77500    -999.25    -999.25   94.05600   94.05600    -999.25    2.81640    -999.25    -999.25  -11.93390   -5.00020    2.87400 3733.11300
 7950.00000    2.84190    2.76930    2.69550    2.65880    2.60910   10.82090  383.27390    2.07090    -999.25    -999.25    -999.25    -999.25    2.60910    -999.25    -999.25   94.81890   94.81890    -999.25    2.69550    -999.25    -999.25   -8.59960   -2.27830    2.84190 3685.16670
