~Version ---------------------------------------------------
VERS. 2.0 : CWLS log ASCII Standard -VERSION 2.0
WRAP.  NO : ONE LINE PER DEPTH STEP
~Well ------------------------------------------------------
STRT.F                  2450.0 : START DEPTH
STOP.F                 15800.0 : STOP DEPTH
STEP.F                50.00000 : STEP LENGTH
NULL.                  -999.25 : NULL VALUE
COMP.     MARATHON OIL COMPANY : COMPANY
WELL.                 CAZEY #1 : WELL
FLD .                  WILDCAT : FIELD
LOC .                          : LOCATION
CNTY.                ROBERTSON : COUNTY
STAT.                    TEXAS : STATE
CTRY. UNITED STATES OF AMERICA : COUNTRY
SRVC.        STRATAGRAPH, INC. : SERVICE COMPANY
DATE.              30-Dec-1995 : LOGDATE
API .           42395304440000 : API NUMBER
UWI .           42395304440000 : UNIQUE WELL ID
SLAT.WGS84       31.0729547384 : SURFACE LATITUDE
SLON.WGS84      -96.4245842071 : SURFACE LONGITUDE
~Curve Information -----------------------------------------
DEPT.F                 : 
DTCO.US/F 60 523 00 00 : COMPRESSIONAL-WAVE INTERVAL TRANSIT TIME ACAUSTIC SLOWNESS
SPR .MV   07 010 01 00 : SPONTANEOUS POTENTIAL
TEND.LB   45 635 01 00 : TENSION FROM DENSITY LOG
DCAL.IN   07 280 30 00 : DIFFERENTIAL CALIPER
SFLU.OHMM 07 220 01 00 : SPHERICALLY FOCUSED LOG UNAVERAGED RESISTIVITY
ILM .OHMM 07 120 44 00 : INDUCTION LOG MEDIUM
ILD .OHMM 07 120 46 00 : INDUCTION LOG DEEP
PEF .B/E  45 358 01 00 : PHOTOELECTRIC FACTOR
DRHO.G/C3 45 356 01 00 : DENSITY CORRECTION
DT  .US/F 60 520 00 00 : INTERVAL TRANSIT TIME
DPHI.DEC  45 890 10 00 : DENSITY POROSITY LIMESTONE
GRD .GAPI 45 310 01 00 : GAMMA RAY FROM DENSITY LOG
IDPH.OHMM 07 120 46 00 : INDUCTION DEEP PHASOR RES.
IMPH.OHMM 07 120 44 00 : INDUCTION MEDIUM PHASOR RES.
NPHI.DEC  42 890 01 00 : NEUTRON POROSITY LIMESTONE
DTLF.US/F 60 523 00 00 : ACOUSTIC TRANSIT TIME, LONG SPACED, FAR ARRAY
DTLN.US/F 60 523 00 00 : ACOUSTIC TRANSIT TIME, LONG SPACED, NEAR ARRAY
~Params ----------------------------------------------------
EKB .F                 421.0 : Kelly bushing
EGL .F                 390.0 : Ground level
EDF .F                 420.0 : Drilling floor
EPD .F                 390.0 : Permanent datum
TD  .F               15800.0 : Total depth
DATE.            31-DEC-1995 : Date logged
CLNT.                A2DTECH : Client Code
SL  . 344' FNWL & 1230' FNEL : Surface Location
PD  .                     GL : Permanent Datum
LMF .                     KB : Log Measured From
DMF .                     KB : Drilling Measured From
DAPD.F                    31 : Feet Above Permanent Datum
DD  .F                 15800 : Depth driller
DL  .F                 15796 : Depth logger
BLI .F                 15793 : Bottom log interval
CS1 .IN                7.875 : Casing size
CBD1.        7.875" @ 14300' : Casing driller 1
CBL1.F                 14292 : Casing logger 1
BS1 .IN                  8.5 : Bit size
BSD1.F                 15800 : Depth drilled with bit1
DFT .                THERMEX : Type fluid in hole
DFD .                   16.2 : Density
DFPH.                   10.5 : pH
MSS .              CIRC TANK : Source of sample
RMS .OHMM              1.932 : Rm
RMF .OHMM              1.872 : Rmf
RMC .OHMM              2.181 : Rmc
MFSS.                   MEAS : Source Rmf.
MCSS.                   CALC : Source Rmc.
RMB .OHMM              0.423 : Rm. at BHT
BHT .F                   358 : BHT.
TCS .HRS                 130 : Time Circ. stopped
TLAB.HRS                1130 : Time logger at bottom
LUN .                   8400 : Logging unit number
LUL .                    LER : Logging unit location
ENGI.                 CORLEA : Recorded By
WITN.              FAIRHURST : Witnessed by
ORIG.               5" PRINT : Origin of data
UWI .         42395304440000 : Unique Well ID
DICO. A2D TECHNOLOGIES, INC. : Digitizing Company
~Other -----------------------------------------------------
~ASCII -----------------------------------------------------
# ...
 6550.00000   56.87600  -54.79200 3885.40500    1.78700   15.65600   20.28900   21.33000    4.88600    0.00200    -999.25    0.05000   41.49600    -999.25    -999.25    0.04200   56.05300   56.04400
 6600.00000   61.27900  -52.33400 3806.66600    1.80900    8.27100   10.08800   11.57600    5.04600    0.04500    -999.25    0.07100   50.20400    -999.25    -999.25    0.09700   53.59300   58.98600
 6650.00000   64.06600  -50.76500 3900.00000    2.52500    7.26900    7.63600    7.96200    5.16600   -0.00600    -999.25    0.03100   44.83700    -999.25    -999.25    0.09400   40.47100   61.37200
 6700.00000   79.53800  -51.38300 3959.94090    3.97800    2.45400    2.81300    3.01300    4.27100    0.05400    -999.25    0.29400   65.04200    -999.25    -999.25    0.32400   88.07800   86.02400
 6750.00000   66.87300  -49.56500 3910.90600    2.66000    8.28700    8.07500    7.96000    4.64200    0.01800    -999.25    0.09000   43.05300    -999.25    -999.25    0.11900   65.70000   63.14200
 6800.00000   55.89800  -54.42200 3912.87790    2.22100   17.71500   26.38200   30.26600    5.45200    0.04000    -999.25    0.03600   34.56300    -999.25    -999.25    0.03500   52.82300   51.03400
 6850.00000   71.51600  -50.42200 3999.91090    3.16100    4.48800    4.48200    4.30600    4.87300    0.01200    -999.25    0.05700   43.37500    -999.25    -999.25    0.14600   71.34700   53.22100
 6900.00000   91.65800  -54.84000 4020.00000    6.36500    2.68800    1.83800    1.82200    4.23700   -0.01000    -999.25    -999.25   44.43500    -999.25    -999.25    0.35000   46.72600   64.55300
 6950.00000   67.07300  -51.56800 3980.00000    5.46400    3.13900    3.37600    3.45600    4.20500    0.00400    -999.25    -999.25   39.06800    -999.25    -999.25    0.30500   71.92100   62.96200
 7000.00000   63.84800  -51.35400 3929.98510    2.37200    6.94600    6.82200    6.96300    5.60000   -0.00100    -999.25    0.03600   34.23900    -999.25    -999.25    0.08400   62.56500   61.72000
 7050.00000   79.06100  -54.65300 4037.82400    5.51400    2.66200    1.60200    1.86500    4.61700   -0.01700    -999.25    -999.25   37.63800    -999.25    -999.25    0.34900   73.10100   73.20200
 7100.00000   58.09400  -53.04600 3950.84910    3.34700   11.61400   12.74100   14.82100    5.30200    0.02200    -999.25    0.09600   28.42700    -999.25    -999.25    0.09100   58.00400   44.27400
 7150.00000   61.44800  -55.32200 3989.27000    2.42600   14.09400   10.17000    9.81500    5.13000    0.00800    -999.25    0.04200   30.98400    -999.25    -999.25    0.07500   52.36900   58.38600
 7200.00000   52.01000  -55.72400 4044.66410    2.52500   55.77100   48.61000   51.82300    5.21000    0.07600    -999.25    0.07500   28.54000    -999.25    -999.25    0.04700   50.17300   50.03400
 7250.00000   65.04900  -53.82100 4020.00000    2.10900    7.66500    8.53500    7.67700    4.77000   -0.00200    -999.25    0.03800   35.62900    -999.25    -999.25    0.18100   97.13400    6.50100
 7300.00000   78.39200  -57.82700 4020.00000    6.14200    1.99500    2.18300    2.40200    4.24900   -0.01000    -999.25    -999.25   49.87400    -999.25    -999.25    -999.25   80.06000   82.34600
 7350.00000   73.27500  -57.63300 4002.11600    6.30900    2.69900    2.89100    3.13900    4.54400    0.00000    -999.25    0.34800   43.31000    -999.25    -999.25    0.34900   78.67500   68.92600
 7400.00000   54.92500  -57.68400 4216.14210    2.04800   29.85300   30.52500   35.93900    5.12900   -0.01400    -999.25    0.03200   51.31600    -999.25    -999.25    0.03200   46.38400   50.83500
 7450.00000   68.47900  -54.67900 4073.98190    2.24300    7.35600    7.66500    7.42200    5.24800   -0.00400    -999.25    0.03700   52.28500    -999.25    -999.25    0.13200   65.52700   65.54900
 7500.00000   64.05500  -59.30700 4060.00000    2.74300   16.76800   10.91100    7.03300    4.97500    0.00000    -999.25    0.19100   37.00100    -999.25    -999.25    0.09400   44.86600   66.14300
 7550.00000   57.45300  -56.65600 4220.00000    2.46000   25.14500   18.84500   15.26600    4.99900   -0.00700    -999.25    0.03500   29.06400    -999.25    -999.25    0.04100   54.98800   54.98800
 7600.00000   52.80800  -59.31500 4180.00000    2.55200   54.62800   50.30700   48.27600    5.70500    0.02200    -999.25    0.04100   28.94800    -999.25    -999.25    0.01400   50.83500   50.57700
 7650.00000   56.92300 -117.70600 4140.00000    2.78900   21.71700   12.20400   11.03000    6.38700    0.03200    -999.25    0.12600   21.01500    -999.25    -999.25    0.07100   53.02200   52.02800
 7700.00000   52.68400  -59.50000 4156.34520    2.97300   47.67700   47.13300   53.88200    5.70600    0.05800    -999.25    0.05900   20.36100    -999.25    -999.25    0.03300   54.32300   51.82900
 7750.00000   80.72400  -59.80000 4260.00000    2.87700   33.63500   13.44700    8.88000    5.67300    0.01300    -999.25    0.12000   22.72200    -999.25    -999.25    0.11100   78.86700   46.21600
 7800.00000   52.40400  -57.78300 4163.33300    2.35200   69.94700   37.85300   36.04100    5.62600    0.01200    -999.25    0.02900   19.09700    -999.25    -999.25    0.07000   84.19200   21.01400
 7850.00000   66.77400  -57.36700 4100.00000    3.71600    5.57400    4.45600    4.70800    4.69000    0.01800    -999.25    0.21300   50.90900    -999.25    -999.25    0.31600   88.45900   72.70400
 7900.00000   57.83200  -57.27000 4202.37300    2.17300   18.65700   17.23500   19.72300    5.27600    0.00400    -999.25    0.03600   29.54700    -999.25    -999.25    0.11000   47.85300   23.00200
 7950.00000   54.61200  -65.36200 4220.00000    3.27500   26.38200   29.36700   41.03100    5.33700    0.15800    -999.25    0.11200   29.03400    -999.25    -999.25    0.04200   53.41900   53.43000
 8000.00000   54.92400  -66.03300 4308.07620    2.84300   25.87000   25.98300   24.17900    5.34800    0.00800    -999.25    0.03500   32.74300    -999.25    -999.25    0.01800   53.22100   53.62200
 8050.00000   54.75500  -62.49200 4167.41410    3.20100   47.54600   37.70300   46.96800    5.39300    0.01000    -999.25    0.03300   25.95100    -999.25    -999.25    0.01100   51.62200   51.76600
 8100.00000   51.08900  -75.00000 4289.05420    3.71300   65.54200   75.95400  197.14400    4.91300    0.01100    -999.25    0.11200   19.17600    -999.25    -999.25    0.00600   49.79200   49.81500
 8150.00000   55.17100  -56.73200 4211.58200    2.49700   95.44300   51.04200   36.93900    5.48100    0.00100    -999.25   -0.05100   12.11700    -999.25    -999.25    0.00400   39.50300   50.63600
 8200.00000   51.87000  -77.01100 4380.00000    2.22200   51.68800   62.63100   98.59900    4.93100    0.01300    -999.25    0.05300   23.29600    -999.25    -999.25    0.01400   50.43700   50.43700
 8250.00000   51.80000  -87.79800 4180.00000    2.04400   54.32800   54.25500   68.75000    5.38300   -0.00400    -999.25    0.03100   31.79500    -999.25    -999.25    0.01500   49.44300   49.29900
 8300.00000   50.55600  -52.73400 4373.19090    1.89000   79.14900   72.88900   87.13500    5.12800   -0.00300    -999.25    0.04900   33.38300    -999.25    -999.25    0.00500   48.84700   48.97800
 8350.00000   56.45900  -69.84000 4314.69480    2.00300   19.10600   19.05700   21.61900    5.26100    0.00500    -999.25    0.03300   38.94100    -999.25    -999.25    0.05800  106.20300   55.94800
 8400.00000   51.86300  -52.20000 4232.87400    1.48300   51.42400   54.62800   58.62200    5.75000   -0.00200    -999.25    0.02900   35.51900    -999.25    -999.25    0.01500   50.23900   49.70800
 8450.00000   55.02100  -47.54100 4369.89790    1.80800   40.07000   30.68400   23.96400    5.40400   -0.00100    -999.25    0.02000   23.91700    -999.25    -999.25    0.03100   50.43700   51.15800
 8500.00000   56.36400  -44.14100 4372.68020    1.62600   25.66700   24.97200   24.09600    5.26800    0.00400    -999.25    0.01200   33.12300    -999.25    -999.25    0.05600  109.88100   55.40800
 8550.00000   73.27200  -47.42500 4340.00000    2.70900    3.85600    3.97100    3.77600    4.87200    0.01300    -999.25    -999.25   58.89700    -999.25    -999.25    -999.25   76.28200   68.45200
