~Version ---------------------------------------------------
VERS. 2.0 : CWLS log ASCII Standard -VERSION 2.0
WRAP. YES : MULTIPLE LINES PER DEPTH STEP
~Well ------------------------------------------------------
STRT.FT                  300.0 : START DEPTH
STOP.FT                15250.0 : STOP DEPTH
STEP.FT               50.00000 : STEP LENGTH
NULL.                  -999.25 : NULL VALUE
COMP.  CONTINENTAL OIL COMPANY : COMPANY
WELL.    HALSELL FOUNDATION #1 : WELL
FLD .                  WILDCAT : FIELD
LOC .                          : LOCATION
CNTY.                 MAVERICK : COUNTY
STAT.                    TEXAS : STATE
CTRY. UNITED STATES OF AMERICA : COUNTRY
SRVC.             Schlumberger : SERVICE COMPANY
DATE.              02-Apr-1972 : LOGDATE
API .           42323300720000 : API NUMBER
UWI .           42323300720000 : UNIQUE WELL ID
SLAT.WGS84       28.6077848095 : SURFACE LATITUDE
SLON.WGS84     -100.3259081005 : SURFACE LONGITUDE
~Curve Information -----------------------------------------
DEPT    .FT    : DEPTH FEET
ALL8ED  .MV    : AMPLIFIED LATARLOG 8 FROM RES. LOG
ASNED   .OHMM  : 16 INCH AMPLIFIED SHORT NORMAL RESISTIVITY FROM IEL
CALDED  .IN    : CALIPER FROM DENSITY LOG, DEPTH ADJUSTED WITH [ILDED]
CALSED  .IN    : CALIPER FROM SONIC LOG, DEPTH ADJUSTED WITH [ILDED]
CALWS   .IN    : CALIPER [CALSED]
CILDED  .MMHO  : CONDUCTIVITY FROM RESISTIVITY LOG
CONDWS  .MMHO  : CONDUCTIVITY [1000/DRESWS]
DENWS   .G/C3  : BULK DENSITY [M=2.71 F=1.0] [CALCULATED FROM DPOWS]
DPHILSED.V/V   : DENSITY POROSITY [M=2.71 F=1.0] FROM DENSITY LOG, DEPTH ADJUSTED WITH [ILDED]
DPOWS   .V/V   : DENSITY POROSITY [DPHILSED]
DRESWS  .OHMM  : DEEP RESISTIVITY [ILDED] IF DRESWS<1;1000/CONDWS
DTED    .US/F  : DELTA TIME FROM SONIC LOG, DEPTH ADJUSTED WITH [ILDED]
DTWS    .US/F  : DELTA TIME [DTED]
GRDED   .GAPI  : GAMMA RAY FROM DENSITY LOG, DEPTH ADJUSTED WITH [ILDED]
GRRED   .GAPI  : GAMMA RAY FROM RESISTIVITY LOG
GRSED   .GAPI  : GAMMA RAY FROM SONIC LOG, DEPTH ADJUSTED WITH [ILDED]
GRWS    .GAPI  : GAMMA RAY [GRSED]
ILDED   .OHMM  : INDUCTION LOG DEEP RESISTIVITY
NPHILSED.V/V   : NEUTRON POROSITY LIMESTONE FROM DENSITY LOG, DEPTH ADJUSTED WITH [ILDED]
NPOWS   .V/V   : NEUTRON POROSITY SANDSTONE [NPHILSED]
SPRED   .MV    : SPONTANEOUS POTENTIAL FROM RESISTIVITY LOG
SPWS    .MV    : SPONTANEOUS POTENTIAL [BASELINE 0 MV] [SPRED]
SRESWS  .OHMM  : SHALLOW RESISTIVITY [ASNED], SPLICED WITH [ALL8ED] AT 8750'
~Params ----------------------------------------------------
PD  .                     GL : PERMANENT DATUM
EPD .F                 749.4 : ELEVATION PERMANENT DATUM
LMF .                     KB : LOG MEASURED FROM
DAPD.F                  25.2 : FEET ABOVE PERMANENT DATUM
DMF .                     KB : DRILLING MEASURED FROM
EKB .F                 775.4 : KELLING BUSHING
EDF .F                 774.6 : DRILLING FLOOR
EGL .F                 749.4 : GROUND LEVEL
DATE.               04/02/72 : RUN DATE
RUN .                      8 : RUN NUMBER
DD  .F                 15250 : DEPTH DRILLER
DL  .F                 15273 : DEPTH LOGGER
BLI .F                 15266 : BOTTOM LOG INTERVAL
TLI .F                 14800 : TOP LOG INTERVAL
CS  .IN                9.625 : CASING SIZE
CBD .F                  8736 : CASING BOTTOM DRILLER
CBL .F                  8748 : CASING BOTTOM LOGGER
BS  .IN                  8.5 : BIT SIZE
BSD .F                 15250 : BIT SIZE AT DEPTH
DFT .             LIGNO SULF : DRILLING FLUID TYPE
DFD .                   14.5 : DRILLING FLUID DENSITY
DFV .                     49 : DRILLING FLUID VISCOSITY
DFPH.                     12 : DRILLING FLUID PH
DFL .                    1.6 : DRILLING FLUID LOSS
MSS .               CIRC PIT : MUD SAMPLE SOURCE
RMS .OHMM               0.55 : RESISTIVITY MUD SAMPLE
MST .F                    75 : MUD SAMPLE TEMPERATURE
RMF .OHMM               0.17 : RESISTIVITY MUD FILTRATE SAMPLE
MFST.F                    75 : MUD FILTRATE SAMPLE TEMPERATURE
RMC .OHMM                1.1 : RESISTIVITY MUD CAKE
MCST.F                    75 : MUD CAKE SAMPLE TEMPERATURE
MFSS.                      M : MUD FILTRATE SAMPLE SOURCE
MCSS.                      C : MUD CAKE SAMPLE SOURCE
RMB .OHMM                0.1 : RESISTIVITY MUD AT BHT
TCS .HRS                 4.5 : TIME CURCULATED STOPPED
LUN .                   7029 : LOGGING UNIT NUMBER
LUL .                   VICT : LOGGING UNIT LOCATION
ENGI.               BRADFORD : RECORDING ENGINEER
CLNT.                A2DTECH : CLIENT CODE
ORIG.            2" 5" PRINT : ORIGIN OF DATA
UWI .         42323300720000 : UNIQUE WELL ID
DICO. A2D Technologies, Inc. : DIGITIZING COMPANY
~Other -----------------------------------------------------
~ASCII -----------------------------------------------------
# ...
 4950.00000    -999.25   15.13340    -999.25    -999.25    -999.25   49.01300   43.49000    -999.25    -999.25    -999.25   22.99380   53.88540   53.88540    -999.25    -999.25    9.02550    9.02550   22.99380    -999.25    -999.25  -50.80730  -41.17860   15.13340
 5000.00000    -999.25   13.43410    -999.25    -999.25    -999.25   55.16190   59.85590    -999.25    -999.25    -999.25   16.70680   52.09750   52.09750    -999.25    -999.25    8.99810    8.99810   16.70680    -999.25    -999.25  -25.93990  -16.95510   13.43410
 5050.00000    -999.25   12.18340    -999.25    -999.25    -999.25   14.39950   23.63400    -999.25    -999.25    -999.25   42.31200   55.18160   55.18160    -999.25    -999.25   12.17910   12.17910   42.31200    -999.25    -999.25  -27.51470  -19.17380   12.18340
 5100.00000    -999.25   25.59350    -999.25    -999.25    -999.25   28.59450   30.40750    -999.25    -999.25    -999.25   32.88660   52.24760   52.24760    -999.25    -999.25   15.08350   15.08350   32.88660    -999.25    -999.25  -20.73150  -13.03450   25.59350
 5150.00000    -999.25   25.63590    -999.25    -999.25    -999.25   35.56380   36.89610    -999.25    -999.25    -999.25   27.10310   51.18750   51.18750    -999.25    -999.25    8.69180    8.69180   27.10310    -999.25    -999.25  -17.20080  -10.14770   25.63590
 5200.00000    -999.25   19.07120    -999.25    -999.25    -999.25   67.92920   68.71390    -999.25    -999.25    -999.25   14.55310   70.45510   70.45510    -999.25    -999.25   25.60670   25.60670   14.55310    -999.25    -999.25  -14.57110   -8.16190   19.07120
 5250.00000    -999.25   31.44550    -999.25    -999.25    -999.25   46.72530   47.65400    -999.25    -999.25    -999.25   20.98460   52.34570   52.34570    -999.25    -999.25   23.33820   23.33820   20.98460    -999.25    -999.25  -10.84090   -5.07560   31.44550
 5300.00000    -999.25   38.74080    -999.25    -999.25    -999.25   35.39720   31.28940    -999.25    -999.25    -999.25   31.95970   58.88090   58.88090    -999.25    -999.25   30.87370   30.87370   31.95970    -999.25    -999.25   -9.44620   -3.97620   38.74080
 5350.00000    -999.25   45.39450    -999.25    -999.25    -999.25   29.65620   31.17960    -999.25    -999.25    -999.25   32.07230   51.00340   51.00340    -999.25    -999.25    9.55950    9.55950   32.07230    -999.25    -999.25  -14.29610   -8.72830   45.39450
 5400.00000    -999.25   40.98410    -999.25    -999.25    -999.25   18.30850   18.49850    -999.25    -999.25    -999.25   54.05850   50.86220   50.86220    -999.25    -999.25   18.22670   18.22670   54.05850    -999.25    -999.25  -23.11550  -17.45000   40.98410
 5450.00000    -999.25   34.46650    -999.25    -999.25    -999.25    8.33220    9.11500    -999.25    -999.25    -999.25  109.70900   52.99500   52.99500    -999.25    -999.25   13.31900   13.31900  109.70900    -999.25    -999.25  -31.39110  -25.62780   34.46650
 5500.00000    -999.25   35.50120    -999.25    -999.25    -999.25   12.32530   14.89020    -999.25    -999.25    -999.25   67.15820   51.19540   51.19540    -999.25    -999.25    8.50020    8.50020   67.15820    -999.25    -999.25  -33.07430  -27.21320   35.50120
 5550.00000    -999.25   33.66570    -999.25    -999.25    -999.25   37.30170   38.62600    -999.25    -999.25    -999.25   25.88930   51.29840   51.29840    -999.25    -999.25   17.55790   17.55790   25.88930    -999.25    -999.25  -27.15510  -21.19630   33.66570
 5600.00000    -999.25   22.28120    -999.25    -999.25    -999.25   50.09770   53.32570    -999.25    -999.25    -999.25   18.75270   55.61030   55.61030    -999.25    -999.25   14.26520   14.26520   18.75270    -999.25    -999.25  -21.44190  -15.38530   22.28120
 5650.00000    -999.25   34.94570    -999.25    -999.25    -999.25   31.42590   32.64070    -999.25    -999.25    -999.25   30.63660   51.79620   51.79620    -999.25    -999.25   18.40030   18.40030   30.63660    -999.25    -999.25  -22.80110  -16.64670   34.94570
 5700.00000    -999.25   33.06290    -999.25    -999.25    -999.25   29.33380   30.59390    -999.25    -999.25    -999.25   32.68630   50.99510   50.99510    -999.25    -999.25   15.62860   15.62860   32.68630    -999.25    -999.25  -24.42700  -18.17490   33.06290
 5750.00000    -999.25   25.20350    -999.25    -999.25    -999.25   36.07800   39.55050    -999.25    -999.25    -999.25   25.28410   52.71560   52.71560    -999.25    -999.25   13.17950   13.17950   25.28410    -999.25    -999.25  -14.47620   -8.12630   25.20350
 5800.00000    -999.25   24.19380    -999.25    -999.25    -999.25   46.05240   49.15020    -999.25    -999.25    -999.25   20.34580   55.29810   55.29810    -999.25    -999.25   17.38180   17.38180   20.34580    -999.25    -999.25  -14.12450   -7.67680   24.19380
 5850.00000    -999.25   26.82220    -999.25    -999.25    -999.25   35.93540   38.16440    -999.25    -999.25    -999.25   26.20240   55.28200   55.28200    -999.25    -999.25   12.43670   12.43670   26.20240    -999.25    -999.25  -20.96890  -14.42350   26.82220
 5900.00000    -999.25   29.54770    -999.25    -999.25    -999.25   32.17270   33.22340    -999.25    -999.25    -999.25   30.09930   53.12970   53.12970    -999.25    -999.25   16.38760   16.38760   30.09930    -999.25    -999.25  -20.48210  -13.83890   29.54770
 5950.00000    -999.25   26.01350    -999.25    -999.25    -999.25   25.85540   23.57290    -999.25    -999.25    -999.25   42.42160   53.91410   53.91410    -999.25    -999.25   13.89050   13.89050   42.42160    -999.25    -999.25  -20.29960  -13.55870   26.01350
 6000.00000    -999.25   26.84990    -999.25    -999.25    -999.25   35.12010   37.73630    -999.25    -999.25    -999.25   26.49970   54.72030   54.72030    -999.25    -999.25   10.60190   10.60190   26.49970    -999.25    -999.25  -11.49190   -4.65320   26.84990
 6050.00000    -999.25   27.65220    -999.25    -999.25    -999.25   19.64610   18.31330    -999.25    -999.25    -999.25   54.60500   53.29960   53.29960    -999.25    -999.25   11.94570   11.94570   54.60500    -999.25    -999.25   -6.61100    0.32550   27.65220
 6100.00000    -999.25   25.17070    -999.25    -999.25    -999.25   41.25580   42.99630    -999.25    -999.25    -999.25   23.25780   53.18370   53.18370    -999.25    -999.25   18.12780   18.12780   23.25780    -999.25    -999.25  -11.82890   -4.79470   25.17070
 6150.00000    -999.25   29.47150    -999.25    -999.25    -999.25   30.07250   33.37030    -999.25    -999.25    -999.25   29.96680   51.67990   51.67990    -999.25    -999.25   14.09140   14.09140   29.96680    -999.25    -999.25  -13.97530   -6.84330   29.47150
 6200.00000    -999.25   26.07140    -999.25    -999.25    -999.25   49.51480   51.98990    -999.25    -999.25    -999.25   19.23450   52.50840   52.50840    -999.25    -999.25   19.32310   19.32310   19.23450    -999.25    -999.25  -19.54680  -12.31700   26.07140
 6250.00000    -999.25   32.49110    -999.25    -999.25    -999.25   43.27380   45.14710    -999.25    -999.25    -999.25   22.14980   60.31940   60.31940    -999.25    -999.25   15.97020   15.97020   22.14980    -999.25    -999.25  -21.49230  -14.16480   32.49110
 6300.00000    -999.25   34.74530    -999.25    -999.25    -999.25   24.57040   25.04500    -999.25    -999.25    -999.25   39.92810   51.34100   51.34100    -999.25    -999.25   11.93120   11.93120   39.92810    -999.25    -999.25  -26.14700  -18.72170   34.74530
 6350.00000    -999.25   29.29790    -999.25    -999.25    -999.25    -999.25    -999.25    -999.25    -999.25    -999.25    -999.25   54.62350   54.62350    -999.25    -999.25   15.16990   15.16990    -999.25    -999.25    -999.25  -32.74240  -25.21930   29.29790
 6400.00000    -999.25   29.78600    -999.25    -999.25    -999.25    -999.25    -999.25    -999.25    -999.25    -999.25    -999.25   54.09170   54.09170    -999.25    -999.25   15.17490   15.17490    -999.25    -999.25    -999.25  -39.09230  -31.47150   29.78600
 6450.00000    -999.25   28.63470    -999.25    -999.25    -999.25    0.24740    1.00170    -999.25    -999.25    -999.25  998.34560   52.99590   52.99590    -999.25    -999.25   10.45150   10.45150  998.34560    -999.25    -999.25  -45.76110  -38.04250   28.63470
