~Version ---------------------------------------------------
VERS. 2.0 : CWLS log ASCII Standard -VERSION 2.0
WRAP.  NO : ONE LINE PER DEPTH STEP
~Well ------------------------------------------------------
STRT.F                     2000.0 : START DEPTH
STOP.F                    10700.0 : STOP DEPTH
STEP.F                   50.00000 : STEP LENGTH
NULL.                     -999.25 : NULL VALUE
COMP.             CHEVRON USA INC : COMPANY
WELL.           HENDERSON UNIT #6 : WELL
FLD .                     FASHING : FIELD
LOC .                             : LOCATION
CNTY.                    ATASCOSA : COUNTY
STAT.                       TEXAS : STATE
CTRY.    UNITED STATES OF AMERICA : COUNTRY
SRVC. HALLIBURTON Sperry Drilling : SERVICE COMPANY
DATE.                 21-Jul-1997 : LOGDATE
API .              42013340740000 : API NUMBER
UWI .              42013340740000 : UNIQUE WELL ID
SLAT.WGS84          28.8137871938 : SURFACE LATITUDE
SLON.WGS84         -98.1578651047 : SURFACE LONGITUDE
~Curve Information -----------------------------------------
DEPT.F                 : 
GRR .GAPI 06 310 01 00 : GAMMA RAY FROM RESISTIVITY LOG
HDRS.OHMM 06 120 46 00 : HIGH RESOLUTION DEEP RESISTIVITY
HMRS.OHMM 06 120 44 00 : HIGH RESOLUTION MEDIUM RESISTIVITY
SPR .MV   06 010 01 00 : SPONTANEOUS POTENTIAL FROM RESISTIVITY LOG
DFL .OHMM 06 220 04 00 : DIGITAL FOCUSED LATEROLOG
CALR.IN   06 280 01 00 : CALIPER FROM RESISTIVITY LOG
DPHI.DEC  45 890 10 00 : DENSITY POROSITY
DRHO.G/C3 45 356 01 00 : BULK DENSITY CORRECTION
~Params ----------------------------------------------------
PD  .                     GL : PERMANENT DATUM
EPD .FT                457.5 : ELEVATION PERMANENT DATUM
LMF .                    TKB : LOG MEASURED FROM
DAPD.FT                 23.5 : FEET ABOVE PERMANENT DATUM
DMF .                    TKB : DRILLING MEASURED FROM
EKB .FT                  481 : KELLY BUSHING
EDF .FT                  480 : DRILLING FLOOR
EGL .FT                457.5 : GROUND LEVEL
DATE.               07/21/97 : RUN DATE
RUN .                      2 : RUN NUMBER
DD  .FT                10718 : DEPTH DRILLER
DL  .FT                10743 : DEPTH LOGGER
BLI .FT                10741 : BOTTOM LOG INTERVAL
TLI .FT                10630 : TOP LOG INTERVAL
CS  .IN                  5.5 : CASING SIZE
CBD .FT                10630 : CASING BOTTOM DRILLER
CBL .FT                10630 : CASING BOTTOM LOGGER
BS  .IN                 4.75 : BIT SIZE
BSD .FT                10718 : BIT SIZE AT DEPTH
DFT .             WATER BASE : DRILLING FLUID TYPE
DFD .                    9.4 : DRILLING FLUID DENSITY
DFV .                     47 : DRILLING FLUID VISCOSITY
DFPH.                      9 : DRILLING FLUID PH
DFL .                     92 : DRILLING FLUID LOSS
MSS .               FLOWLINE : MUD SAMPLE SOURCE
RMS .OHMM               1.97 : RESISTIVITY MUD SAMPLE
MST .DEGF                 75 : MUD SAMPLE TEMPERATURE
RMF .OHMM               1.62 : RESISTIVITY MUD FILTRATE SAMPLE
MFST.DEGF                 75 : MUD FILTRATE SAMPLE TEMPERATURE
RMC .OHMM               2.11 : RESISTIVITY MUD CAKE
MCST.DEGF                 75 : MUD CAKE SAMPLE TEMPERATURE
MFSS.                   MEAS : MUD FILTRATE SAMPLE SOURCE
MCSS.                   MEAS : MUD CAKE SAMPLE SOURCE
RMB .OHMM               0.64 : RESISTIVITY MUD AT BHT
TCS .HRS                   8 : TIME CIRCULATED STOPPED
TLAB.HRS                2355 : TIME LOGGER AT BOTTOM
LUN .                   7668 : LOGGING UNIT NUMBER
LUL .                   VICT : LOGGING UNIT LOCATION
ENGI.                  STAPP : RECORDING ENGINEER
WITN.       SKLENAR SHEPPARD : WITNESSED BY
CLNT.                A2DTECH : CLIENT CODE
ORIG.               5" PRINT : ORIGIN OF DATA
UWI .         42013340740000 : UNIQUE WELL ID
DICO. A2D Technologies, Inc. : DIGITIZING COMPANY
~Other -----------------------------------------------------
~ASCII -----------------------------------------------------
 2000.00000   61.11640    1.34820    0.84490  -25.96680    0.97620    -999.25    -999.25    -999.25
 2050.00000   60.43760    1.19900    1.22330  -28.98560    1.22360    -999.25    -999.25    -999.25
 2100.00000   60.95870    1.28050    1.31700  -29.38020    1.28450    -999.25    -999.25    -999.25
 2150.00000   61.61400    1.17830    1.29740  -28.51100    1.31430    -999.25    -999.25    -999.25
 2200.00000   67.27580    0.92550    0.97990  -29.50570    0.91120    -999.25    -999.25    -999.25
 2250.00000   60.41010    1.08610    1.16810  -31.23110    1.05560    -999.25    -999.25    -999.25
 2300.00000   60.00080    1.31690    1.37040  -32.46800    1.38800    -999.25    -999.25    -999.25
 2350.00000   72.45690    1.24170    1.26680  -34.68050    1.22560    -999.25    -999.25    -999.25
 2400.00000   67.40710    1.14690    1.17020  -34.53060    1.21930    -999.25    -999.25    -999.25
 2450.00000   45.66730    1.71930    2.07240  -74.17070    3.36620    -999.25    -999.25    -999.25
 2500.00000   51.20960    1.82040    2.08530  -60.38900    2.92220    -999.25    -999.25    -999.25
 2550.00000   74.47760    1.57140    1.60280  -37.82620    1.51260    -999.25    -999.25    -999.25
 2600.00000  107.98930    0.56760    0.58520  -31.77380    0.53220    -999.25    -999.25    -999.25
 2650.00000   60.49010    1.12150    1.14400  -34.70140    1.14320    -999.25    -999.25    -999.25
 2700.00000   36.05290    1.34380    1.55250  -68.71070    1.93130    -999.25    -999.25    -999.25
 2750.00000   49.24560    1.55570    1.62380  -39.82210    1.49930    -999.25    -999.25    -999.25
 2800.00000   50.15120    1.66980    1.90360  -61.83040    2.36320    -999.25    -999.25    -999.25
 2850.00000   45.64580    2.16950    2.39060  -77.43770    3.78040    -999.25    -999.25    -999.25
 2900.00000   49.14280    1.85670    1.93060  -42.30800    1.78410    -999.25    -999.25    -999.25
 2950.00000   45.91270    2.21320    2.36690  -58.80000    3.60190    -999.25    -999.25    -999.25
 3000.00000   66.34470    1.92170    1.96030  -56.42420    1.74710    -999.25    -999.25    -999.25
 3050.00000   66.05680    1.50550    1.55780  -43.37060    1.64610    -999.25    -999.25    -999.25
 3100.00000   43.03590    2.05960    2.24490  -69.60650    2.51420    -999.25    -999.25    -999.25
 3150.00000   71.76460    2.00390    2.04430  -52.38770    1.82810    -999.25    -999.25    -999.25
 3200.00000   70.63770    2.15030    2.42920  -83.33650    4.67040    -999.25    -999.25    -999.25
 3250.00000   39.75520    1.78520    1.99590  -89.02280    3.95220    -999.25    -999.25    -999.25
 3300.00000   59.44840    1.98920    2.08100  -43.18050    2.44590    -999.25    -999.25    -999.25
 3350.00000   74.04330    1.07430    1.12790  -35.09000    1.12650    -999.25    -999.25    -999.25
 3400.00000   53.11510    2.04880    2.18030  -59.46580    4.80430    -999.25    -999.25    -999.25
 3450.00000   67.90200    1.95570    1.99490  -34.70650    2.32600    -999.25    -999.25    -999.25
 3500.00000   63.05180    1.59960    1.64820  -36.16280    1.82570    -999.25    -999.25    -999.25
 3550.00000   61.62640    2.24160    2.28720  -42.55620    2.37030    -999.25    -999.25    -999.25
 3600.00000   77.63040    1.83280    2.19690  -44.85050    2.13980    -999.25    -999.25    -999.25
 3650.00000   69.06410    2.58540    2.71710  -48.22110    3.22260    -999.25    -999.25    -999.25
 3700.00000   58.73120    2.42950    2.49010  -33.45740    2.82800    -999.25    -999.25    -999.25
 3750.00000   60.83770    1.25170    1.29540  -30.94090    1.37960    -999.25    -999.25    -999.25
 3800.00000   74.80970    1.34070    1.40150  -31.35190    1.37000    -999.25    -999.25    -999.25
 3850.00000   66.28850    1.55050    1.59050  -31.49540    1.63230    -999.25    -999.25    -999.25
 3900.00000   79.68450    1.81660    1.87130  -26.30500    1.99190    -999.25    -999.25    -999.25
 3950.00000   67.05110    2.17470    2.27460  -23.00070    2.46250    -999.25    -999.25    -999.25
 4000.00000   50.72700    3.99110    3.77480  -26.00310    3.60790    -999.25    -999.25    -999.25
 4050.00000   30.09020   16.15950   13.85010  -32.99080   12.27270    -999.25    -999.25    -999.25
 4100.00000   18.20990   20.57590   16.86810  -37.79650   15.33270    -999.25    -999.25    -999.25
 4150.00000   44.02340   16.16970   16.60060  -34.81210   13.22820    -999.25    -999.25    -999.25
 4200.00000   26.42920   30.21900   22.65960  -32.00330   19.04040    -999.25    -999.25    -999.25
 4250.00000   17.50080   23.49820   17.53730  -29.34730   15.02300    -999.25    -999.25    -999.25
 4300.00000   77.30770    2.34330    2.49060  -17.18970    2.27680    -999.25    -999.25    -999.25
 4350.00000   42.01950   16.24090   14.92370  -35.24980   13.67760    -999.25    -999.25    -999.25
 4400.00000   28.95770   30.08190   22.90600  -36.29690   20.06350    -999.25    -999.25    -999.25
 4450.00000   40.99510   10.34160   12.34170  -31.68720    9.31800    -999.25    -999.25    -999.25
 4500.00000   27.23680   29.76920   19.70230  -34.05080   15.81950    -999.25    -999.25    -999.25
 4550.00000   31.15230   24.37480   18.47850  -32.35690   15.79090    -999.25    -999.25    -999.25
 4600.00000   74.34290    4.05340    4.36980  -33.58870    5.03720    -999.25    -999.25    -999.25
 4650.00000   48.02220    6.04280    6.47500  -42.34910    7.62150    -999.25    -999.25    -999.25
 4700.00000   58.27290    7.01290    7.73640  -46.39370    6.38990    -999.25    -999.25    -999.25
 4750.00000   71.84180    5.36710    5.47620  -52.83890    5.30220    -999.25    -999.25    -999.25
 4800.00000   54.05510    9.61560    9.81270  -56.62870   11.57130    -999.25    -999.25    -999.25
 4850.00000   70.35170    3.72070    4.07120  -56.21950    3.45930    -999.25    -999.25    -999.25
 4900.00000   40.28250   10.60920   10.89550  -66.05610   10.34870    -999.25    -999.25    -999.25
 4950.00000   60.94150    2.99200    3.78740  -85.38690    4.64360    -999.25    -999.25    -999.25
 5000.00000   73.02300    2.05110    2.09230  -52.05630    1.92570    -999.25    -999.25    -999.25
 5050.00000   70.42690    2.25700    2.33210  -40.37500    2.10580    -999.25    -999.25    -999.25
 5100.00000   76.55520    1.45250    1.49540  -34.16290    1.60380    -999.25    -999.25    -999.25
 5150.00000   40.71210    1.81650    2.16970 -102.11270    5.91230    -999.25    -999.25    -999.25
 5200.00000   90.06630    2.41410    2.46300  -36.10580    2.67270    -999.25    -999.25    -999.25
 5250.00000   65.66120    1.45900    1.49740  -35.63980    1.73840    -999.25    -999.25    -999.25
 5300.00000   74.07360    2.84490    2.98160  -41.92880    3.42350    -999.25    -999.25    -999.25
 5350.00000   75.24470    2.35670    2.40550  -38.35570    2.23540    -999.25    -999.25    -999.25
 5400.00000   51.55940    3.21780    3.80370  -72.08930    6.76720    -999.25    -999.25    -999.25
 5450.00000   74.34440    2.00510    2.04610  -37.21460    2.22700    -999.25    -999.25    -999.25
 5500.00000   77.41500    0.87600    0.90230  -34.18840    0.83870    -999.25    -999.25    -999.25
 5550.00000   77.38700    1.95540    2.00930  -36.11740    2.56060    -999.25    -999.25    -999.25
 5600.00000   76.83910    2.06900    2.22520  -49.58540    2.03630    -999.25    -999.25    -999.25
 5650.00000   80.84390    1.72450    1.80970  -39.08080    2.43370    -999.25    -999.25    -999.25
 5700.00000   74.83060    2.56510    2.61880  -40.97530    2.78860    -999.25    -999.25    -999.25
 5750.00000   65.78380    1.62040    1.67040  -38.60080    1.80450    -999.25    -999.25    -999.25
 5800.00000   42.00400    1.45490    1.59100 -121.81760    4.32690    -999.25    -999.25    -999.25
 5850.00000   81.95990    2.38170    2.45370  -48.11000    2.59270    -999.25    -999.25    -999.25
 5900.00000   84.78610    1.93710    2.05310  -57.74730    1.85540    -999.25    -999.25    -999.25
 5950.00000   88.32000    2.48610    2.54410  -67.13720    3.04390    -999.25    -999.25    -999.25
