~Version ---------------------------------------------------
VERS. 2.0 : CWLS log ASCII Standard -VERSION 2.0
WRAP. YES : Multiple lines per depth step
~Well ------------------------------------------------------
STRT.FT                  300.0 : START DEPTH
STOP.FT                24000.0 : STOP DEPTH
STEP.FT               50.00000 : STEP LENGTH
NULL.                  -999.25 : NULL VALUE
COMP.       PLACID OIL COMPANY : COMPANY
WELL.                PEELER #1 : WELL
FLD .                  WILDCAT : FIELD
LOC .                          : LOCATION
CNTY.                MC MULLEN : COUNTY
STAT.                    TEXAS : STATE
CTRY. UNITED STATES OF AMERICA : COUNTRY
SRVC.             Schlumberger : SERVICE COMPANY
DATE.              01-Jan-1984 : LOGDATE
API .           42311317850000 : API NUMBER
UWI .           42311317850000 : UNIQUE WELL ID
SLAT.WGS84       28.5959255047 : SURFACE LATITUDE
SLON.WGS84      -98.4401225914 : SURFACE LONGITUDE
~Curve Information -----------------------------------------
DEPT  .FT    : 
CALDED.IN    : CALIPER FROM DENSITY LOG (ADJ TO RES.)
CALWS .IN    : CALIPER (CALDED)
CILDED.MMHO  : CONDUCTIVITY FROM LOG
CONDWS.MMHO  : CONDUCTIVITY (1000/DRESws)
DCORWS.G/C3  : DENSITY CORRECTION (DRHOED)
DENWS .G/C3  : BULK DENSITY  (FROM DPOws LS)
DPHIED.V/V   : DENSITY POROSITY  (ADJ TO RES.)
DPOWS .V/V   : DENSITY POROSITY (M=2.71 F=1 DPHIED)
DRESWS.OHMM  : DEEP RESISTIVITY (ILDED)
DRHOED.G/C3  : DENSITY CORRECTION (ADJ TO RES.)
DTED  .US/F  : DELTA TIME
DTWS  .US/F  : DELTA TIME  (DTED)
GRWS  .GAPI  : GAMMA RAY (GRRED)
GRRED .GAPI  : GAMMA RAY FROM RESISTIVITY LOG
ILDED .OHMM  : DEEP INDUCTION RESISTIVITY
ILMED .OHMM  : MEDIUM INDUCTION RESISTIVITY
MRESWS.OHMM  : MEDIUM RESISTIVITY (ILMED)
NPHIED.V/V   : NEUTRON POROSITY (ADJ TO RES.)
NPOWS .V/V   : NEUTRON POROSITY LIMESTONE (NPHIED)
RHOBED.G/C3  : BULK DENSITY (ADJ TO RES.)
SFLAED.OHMM  : SPHERICALLY FOCUSED RESISTIVITY
SPWS  .MV    : SPONTANEOUS POTENTIAL BASELINE 0 MV (SPRED)
SPRED .MV    : SPONTANEOUS POTENTIAL FROM RESISTIVITY
SRESWS.OHMM  : SHALLOW RESISTIVITY (SFLAED)
~Params ----------------------------------------------------
PD  .                     GL : PERMANENT DATUM
EPD .F                   336 : ELEVATION PERMANENT DATUM
LMF .                     KB : LOG MEASURED FROM
DMF .                     KB : DRILLING MEASURED FROM
EKB .F                   368 : KELLING BUSHING
EDF .F                   367 : DRILLING FLOOR
EGL .F                   336 : GROUND LEVEL
DATE.               1-1-1984 : RUN DATE
RUN .                      7 : RUN NUMBER
DD  .F                 24031 : DEPTH DRILLER
DL  .F                 24037 : DEPTH LOGGER
BLI .F                 24030 : BOTTOM LOG INTERVAL
TLI .F                 21000 : TOP LOG INTERVAL
CS  .IN                8.625 : CASING SIZE
CBD .F                 19500 : CASING BOTTOM DRILLER
CBL .F                 19500 : CASING BOTTOM LOGGER
BS  .IN                  7.5 : BIT SIZE
BSD .F                 24031 : BIT SIZE AT DEPTH
DFT .               INVERMUL : DRILLING FLUID TYPE
DFV .                     83 : DRILLING FLUID VISCOSITY
TCS .HRS                 800 : TIME CURCULATED STOPPED
TLAB.HRS                 200 : TIME LOGGER AT BOTTOM
LUL .               EDINBURG : LOGGING UNIT LOCATION
ENGI.              NEWMISTER : RECORDING ENGINEER
WITN.                   LONG : WITNESSED BY
CLNT.                A2DTECH : CLIENT CODE
ORIG.            1",5" PRINT : ORIGIN OF DATA
UWI .         42311317850000 : UNIQUE WELL ID
DICO. A2D Technologies, Inc. : DIGITIZING COMPANY
~Other -----------------------------------------------------
~ASCII -----------------------------------------------------
# ...
 10450.00000    -999.25    -999.25  226.81110  173.17520    -999.25    -999.25    -999.25    -999.25    5.77450    -999.25    -999.25    -999.25   41.84100   41.84100    5.77450    -999.25    -999.25    -999.25    -999.25    -999.25    6.12820  -12.13210  -21.88450    6.12820
 10500.00000    -999.25    -999.25   28.07750   34.17680    -999.25    -999.25    -999.25    -999.25   29.25960    -999.25    -999.25    -999.25   23.38060   23.38060   29.25960    -999.25    -999.25    -999.25    -999.25    -999.25   35.27310  -10.94080  -24.46150   35.27310
 10550.00000    -999.25    -999.25   47.14070   49.33300    -999.25    -999.25    -999.25    -999.25   20.27040    -999.25    -999.25    -999.25   48.39870   48.39870   20.27040    -999.25    -999.25    -999.25    -999.25    -999.25   18.68300   -9.72390  -27.01290   18.68300
 10600.00000    -999.25    -999.25   13.89800   15.01150    -999.25    -999.25    -999.25    -999.25   66.61560    -999.25    -999.25    -999.25   52.34350   52.34350   66.61560    -999.25    -999.25    -999.25    -999.25    -999.25   92.13880  -10.01960  -31.07690   92.13880
 10650.00000   14.72900   14.72900   34.13740   83.58340    -999.25    -999.25    -999.25    -999.25   11.96410    -999.25    -999.25    -999.25   23.87900   23.87900   11.96410    -999.25    -999.25    -999.25    -999.25    -999.25   12.88370   -8.75680  -33.58240   12.88370
 10700.00000   15.81600   15.81600    0.00040    2.18010    0.00800    2.69850    0.00670    0.00670  458.68840    0.00800    -999.25    -999.25   19.09720   19.09720  458.68840    -999.25    -999.25    0.01600    0.01600    2.69400  210.18190   -9.57250  -38.16640  210.18190
 10750.00000   16.23200   16.23200  311.30550   56.79980    0.07600    2.59510    0.06720    0.06720   17.60570    0.07600    -999.25    -999.25   45.81510   45.81510   17.60570    -999.25    -999.25    0.20300    0.20300    2.55600    8.66220  -33.48000  -64.24490    8.66220
 10800.00000   15.48600   15.48600   23.14810   50.48540    0.03300    2.70790    0.00120    0.00120   19.80770    0.03300    -999.25    -999.25   25.66100   25.66100   19.80770    -999.25    -999.25    0.00000    0.00000    2.70500  285.78430  -61.78180  -92.11180  285.78430
 10850.00000   15.41400   15.41400    0.00040    2.00920    0.09300    2.72690   -0.00990   -0.00990  497.72030    0.09300    -999.25    -999.25   41.64070   41.64070  497.72030    -999.25    -999.25    0.06100    0.06100    2.72600   66.94830  -81.85970 -111.75470   66.94830
 10900.00000   15.32400   15.32400   45.27090   82.94900    0.06500    2.68250    0.01610    0.01610   12.05560    0.06500    -999.25    -999.25   24.14460   24.14460   12.05560    -999.25    -999.25    0.01200    0.01200    2.68200   17.61580 -102.17010 -131.63020   17.61580
 10950.00000   15.99500   15.99500   10.41670    5.75960    0.07400    2.67550    0.02020    0.02020  173.62180    0.07400    -999.25    -999.25   21.22860   21.22860  173.62180    -999.25    -999.25   -0.00100   -0.00100    2.68200  184.10600  -98.17990 -127.20500  184.10600
 11000.00000   14.73500   14.73500    7.20120    4.69750    0.04300    2.69190    0.01060    0.01060  212.87990    0.04300    -999.25    -999.25   14.77450   14.77450  212.87990    -999.25    -999.25    0.00400    0.00400    2.69400  253.08650  -99.13240 -127.72260  253.08650
 11050.00000   15.60700   15.60700    0.00040    5.20310    0.03100    2.73910   -0.01700   -0.01700  192.19470    0.03100    -999.25    -999.25   19.49230   19.49230  192.19470    -999.25    -999.25    0.00700    0.00700    2.74000  145.42070  -96.16400 -124.31920  145.42070
 11100.00000   15.75900   15.75900   12.86010   18.78030    0.04600    2.72060   -0.00620   -0.00620   53.24730    0.04600    -999.25    -999.25   20.68430   20.68430   53.24730    -999.25    -999.25    0.00300    0.00300    2.72200  144.70480 -112.94240 -140.66260  144.70480
 11150.00000   15.34000   15.34000    9.64510   11.18410    0.02400    2.71480   -0.00280   -0.00280   89.41270    0.02400    -999.25    -999.25   23.57460   23.57460   89.41270    -999.25    -999.25    0.00100    0.00100    2.71500  203.79240 -115.68060 -142.96590  203.79240
 11200.00000   14.98700   14.98700   24.69140   23.16320    0.02000    2.71150   -0.00090   -0.00090   43.17190    0.02000    -999.25    -999.25   21.01790   21.01790   43.17190    -999.25    -999.25    0.00600    0.00600    2.70600   69.55540 -113.11040 -139.96070   69.55540
 11250.00000   15.91300   15.91300   20.83330   27.20430    0.05200    2.73260   -0.01320   -0.01320   36.75890    0.05200    -999.25    -999.25   21.34530   21.34530   36.75890    -999.25    -999.25    0.00300    0.00300    2.73000   99.66720 -115.69640 -142.11180   99.66720
 11300.00000   16.64300   16.64300   26.74940   28.88420    0.05200    2.74010   -0.01760   -0.01760   34.62100    0.05200    -999.25    -999.25   16.38150   16.38150   34.62100    -999.25    -999.25    0.00300    0.00300    2.73400   74.38270 -117.50310 -143.48350   74.38270
 11350.00000   15.92000   15.92000   24.68990   22.19470    0.00200    2.69460    0.00900    0.00900   45.05590    0.00200    -999.25    -999.25   16.71860   16.71860   45.05590    -999.25    -999.25   -0.00100   -0.00100    2.69600   82.70390 -110.19990 -135.74530   82.70390
 11400.00000   16.60000   16.60000    0.00040    2.15410    0.04900    2.74060   -0.01790   -0.01790  464.23690    0.04900    -999.25    -999.25   21.67710   21.67710  464.23690    -999.25    -999.25   -0.00500   -0.00500    2.73900  197.53090  -99.92000 -125.03050  197.53090
 11450.00000   15.76400   15.76400    1.15520    0.51360    0.09000    2.75160   -0.02430   -0.02430 1947.19870    0.09000    -999.25    -999.25   24.28710   24.28710 1947.19870    -999.25    -999.25    0.00400    0.00400    2.75400  165.45140  -85.65580 -110.33130  165.45140
 11500.00000   15.79300   15.79300    3.85800    3.65200    0.05800    2.65100    0.03450    0.03450  273.82570    0.05800    -999.25    -999.25   26.07500   26.07500  273.82570    -999.25    -999.25    0.00900    0.00900    2.65400  168.44670  -77.75720 -101.99780  168.44670
 11550.00000   19.08400   19.08400    1.93120   12.80910    0.06000    2.52810    0.10640    0.10640   78.06980    0.06000    -999.25    -999.25   19.93320   19.93320   78.06980    -999.25    -999.25    0.01200    0.01200    2.48100  290.69790  -92.99560 -116.80120  290.69790
 11600.00000   13.93300   13.93300    5.44690    5.90400   -0.00100    2.72800   -0.01050   -0.01050  169.37710   -0.00100    -999.25    -999.25   21.32450   21.32450  169.37710    -999.25    -999.25   -0.00900   -0.00900    2.72800  227.11960 -102.72120 -126.09180  227.11960
 11650.00000   13.79700   13.79700    2.50770    3.03990    0.01700    2.72830   -0.01070   -0.01070  328.95610    0.01700    -999.25    -999.25   21.07370   21.07370  328.95610    -999.25    -999.25   -0.00700   -0.00700    2.73400  269.76760 -105.43390 -128.36960  269.76760
 11700.00000   14.07700   14.07700    0.38580    0.87710    0.01200    2.71310   -0.00180   -0.00180 1140.06570    0.01200    -999.25    -999.25   14.69740   14.69740 1140.06570    -999.25    -999.25   -0.01000   -0.01000    2.71000  212.95720 -101.59870 -124.09940  212.95720
 11750.00000   14.58600   14.58600    9.06630   11.82780    0.01200    2.71170   -0.00100   -0.00100   84.54660    0.01200    -999.25    -999.25   15.20250   15.20250   84.54660    -999.25    -999.25   -0.00800   -0.00800    2.71600 1462.53250 -108.23180 -130.29760 1462.53250
 11800.00000   13.78900   13.78900    3.08640    4.38400    0.02100    2.71820   -0.00480   -0.00480  228.10020    0.02100    -999.25    -999.25   13.21930   13.21930  228.10020    -999.25    -999.25   -0.00700   -0.00700    2.72000  207.75180  -98.88570 -120.51650  207.75180
 11850.00000   13.49600   13.49600   10.54440    6.76680    0.01700    2.76560   -0.03250   -0.03250  147.78100    0.01700    -999.25    -999.25   17.76830   17.76830  147.78100    -999.25    -999.25    0.06000    0.06000    2.77200  156.89920  -97.72770 -118.92350  156.89920
