~Version ---------------------------------------------------
VERS. 2.0 : CWLS log ASCII Standard -VERSION 2.0
WRAP.  NO : ONE LINE PER DEPTH STEP
~Well ------------------------------------------------------
STRT.F                   300.0 : START DEPTH
STOP.F                 16100.0 : STOP DEPTH
STEP.F                50.00000 : STEP LENGTH
NULL.                  -999.25 : NULL VALUE
COMP.    MOBIL OIL CORPORATION : COMPANY
WELL.     DAISY BRICE BRYNE #1 : WELL
FLD .                  WILDCAT : FIELD
LOC .                          : LOCATION
CNTY.                   ZAVALA : COUNTY
STAT.                    TEXAS : STATE
CTRY. UNITED STATES OF AMERICA : COUNTRY
SRVC.             Schlumberger : SERVICE COMPANY
DATE.              30-Jun-1968 : LOGDATE
API .           42507007550000 : API NUMBER
UWI .           42507007550000 : UNIQUE WELL ID
SLAT.WGS84       28.7751642991 : SURFACE LATITUDE
SLON.WGS84      -99.5625449173 : SURFACE LONGITUDE
~Curve Information -----------------------------------------
DEPT.F                 : 
SPR .MV   05 010 01 00 : SPONTANEOUS POTENTIAL
GRR .GAPI 05 310 01 00 : GAMMA RAY FROM RES.
CALS.IN   60 280 50 00 : CALIPER FROM SONIC LOG
DT  .US/F 60 520 00 00 : ACOUSTIC TRANSIT TIME SLOWNESS, DELTA T
ILD .OHMM 05 120 46 00 : INDUCTION LOG DEEP
ASN .OHMM 05 041 16 00 : AMPLIFIED SHORT NORMAL 16"
~Params ----------------------------------------------------
EKB .F                 748.0 : KELLY BUSHING
EGL .F                   730 : ELEVATION GROUND LEVEL
EDF .F                   0.0 : DRILLING FLOOR
EPD .F                   730 : ELEVATION PERMANENT DATUM
TD  .F               16152.0 : TOTAL DEPTH
DATE.            30-JUN-1968 : DATE LOGGED
CLNT.                A2DTECH : CLIENT CODE
PD  .                     GL : PERMANENT DATUM
LMF .                     KB : LOG MEASURED FROM
DMF .                     KB : DRILLING MEASURED FROM
DAPD.F                    18 : FEET ABOVE PERMANENT DATUM
DD  .F                 16152 : DEPTH DRILLER
DL  .F                 16100 : DEPTH LOGGER
BLI .F                 16090 : BOTTOM LOG INTERVAL
TLI .F                 15700 : TOP LOG INTERVAL
CS1 .IN                7.625 : CASING SIZE
CBD1.        7.625" @ 15700' : CASING DRILLER 1
CBL1.F                 15700 : CASING LOGGER 1
BS1 .IN                  6.5 : BIT SIZE
DFT .                CAUSTIC : TYPE FLUID IN HOLE
DFD .                   11.3 : DENSITY
DFV .                     44 : VISCOSITY
DFPH.                     12 : PH
DFL .                   14.6 : FLUID LOSS
MSS .               FLOWLINE : SOURCE OF SAMPLE
RMS .OHMM               0.24 : RM
RMF .OHMM               0.17 : RMF
MFSS.                   MEAS : SOURCE RMF.
RMC .OHMM               0.21 : RMC
MCSS.                   CALC : SOURCE RMC.
RMB .OHMM               0.07 : RM. AT BHT
BHT .F                   280 : BHT.
TCS .HRS                   6 : TIME CIRC. STOPPED
LUN .                   4540 : LOGGING UNIT NUMBER
LUL .                  PLEAS : LOGGING UNIT LOCATION
ENGI.         MATYEAR-HAMMAR : RECORDED BY
WITN.                 BISHOP : WITNESSED BY
ORIG.          1" & 5" PRINT : ORIGIN OF DATA
UWI .         42507007550000 : UNIQUE WELL ID
DICO. A2D TECHNOLOGIES, INC. : DIGITIZING COMPANY
~Other -----------------------------------------------------
~ASCII -----------------------------------------------------
# ...
 5450.00000  -20.70550    -999.25   16.10130   78.12450    4.62960    4.74460
 5500.00000  -20.39880    -999.25   16.03900   71.31920    6.32720    7.64710
 5550.00000  -20.55210    -999.25   15.88300   72.92580    5.86420    5.85140
 5600.00000  -21.47240    -999.25   14.96260   72.19480    6.40430    6.22290
 5650.00000  -25.46010    -999.25   14.05770   63.24510   11.18830   10.89790
 5700.00000  -20.85890    -999.25   14.42430   64.11700   12.80860   13.40560
 5750.00000  -27.14750    -999.25   14.13560   55.80560   11.95990   12.97200
 5800.00000  -23.00610    -999.25   14.26040   56.17900   16.20370   17.61610
 5850.00000  -24.61670    -999.25   14.24490   57.18560   13.19440   16.05260
 5900.00000  -34.81590    -999.25   14.37140   60.31520   12.80860   12.94120
 5950.00000  -27.68450    -999.25   14.74410   58.35020   14.89200   15.54950
 6000.00000  -25.46010    -999.25   14.02650   67.24520   30.55560   31.67180
 6050.00000  -25.53670    -999.25   14.52570   59.40460   15.77930   15.12380
 6100.00000  -29.44790    -999.25   14.47890   69.86000   13.81160   13.74610
 6150.00000  -34.27930    -999.25   14.04210   59.58750   19.21300   18.56040
 6200.00000  -24.38650    -999.25   13.94850   69.69650   27.31480   39.10220
 6250.00000  -22.16260    -999.25   14.27610   71.10120   31.32730   37.22910
 6300.00000  -21.31900    -999.25   14.40090   72.33460   14.04320   17.77090
 6350.00000  -20.78220    -999.25   14.49440   73.73550   10.10800   21.05640
 6400.00000  -19.93870    -999.25   14.63490   78.45150   21.60490   28.94740
 6450.00000  -18.63520    -999.25   15.02490   83.27630   36.80580   46.51700
 6500.00000  -27.45400    -999.25   14.47890   56.08580   48.92050   43.37460
 6550.00000  -33.70420    -999.25   14.08900   53.92250   40.04610   38.97830
 6600.00000  -37.42330    -999.25   13.99530   54.01890   43.67280   40.92900
 6650.00000  -16.94790    -999.25   16.05290   89.41240    3.78090    4.50460
 6700.00000  -15.49080    -999.25   16.03890   95.96110    3.39510    3.65330
 6750.00000  -10.96620    -999.25   15.47740   62.20210    7.71570    7.24480
 6800.00000  -56.90180    -999.25   16.05460   52.12060   16.35800   16.56340
 6850.00000  -47.92940    -999.25   15.44620   55.38520   39.42900   30.90170
 6900.00000  -39.87730    -999.25   15.83620   55.57150   42.90120   37.02790
 6950.00000  -73.15960    -999.25   14.65050   51.30350   21.52780   24.03630
 7000.00000  -87.73010    -999.25   15.63340   59.47070    4.01230   12.91020
 7050.00000  -77.76100    -999.25   15.92970   50.68870   19.75310   27.02790
 7100.00000  -74.53990    -999.25   15.85960   51.19460   14.81480   20.33500
 7150.00000  -79.90800    -999.25   14.74410   50.17920   37.46120   51.98140
 7200.00000  -90.49080    -999.25   15.68010   54.34240   16.35800   27.46130
 7250.00000  -92.44630    -999.25   13.52720   52.09310   12.69280   26.47060
 7300.00000  -74.53990    -999.25   12.76290   53.51740   14.12030   18.85770
 7350.00000  -74.04150    -999.25   14.35410   51.97670   32.13660   26.78020
 7400.00000  -85.12270    -999.25   13.60530   50.54090   16.04940   28.94740
 7450.00000  -85.96630    -999.25   13.79250   50.74710   21.68230   30.57260
 7500.00000  -73.15950    -999.25   14.08880   49.26840   44.13640   34.36530
 7550.00000  -62.50000    -999.25   14.01090   50.76260   72.91670   98.29650
 7600.00000  -41.71780    -999.25   13.90170   75.64980   43.98090   75.07740
 7650.00000  -42.36970    -999.25   13.79250   54.54500   59.02790   84.98450
 7700.00000  -78.52760    -999.25   13.87050   53.42410   37.80860   41.95050
 7750.00000  -79.67780    -999.25   13.69890   50.99610   32.71520   43.18890
 7800.00000  -41.41100    -999.25   13.50000   51.88390   41.51230   41.33130
 7850.00000  -79.63970    -999.25   14.08880   54.03150   11.11140   19.79120
 7900.00000  -38.34340    -999.25   13.62080   51.07390   50.77160   50.95980
 7950.00000  -21.62580    -999.25   11.84240   57.67320   22.76220   28.06500
 8000.00000  -76.38040    -999.25   12.06080   51.27630   15.43360   16.32850
 8050.00000  -50.49820    -999.25   11.96720   52.48240   42.28450   43.43670
 8100.00000  -28.68100    -999.25   11.74870   52.36580   56.48180   50.03100
 8150.00000  -32.43870    -999.25   12.04520   52.72390   56.28860   50.97520
 8200.00000  -27.91410    -999.25   11.95160   52.00000   65.12350   54.39630
 8250.00000  -50.00040    -999.25   11.68640   52.67700   39.58330   42.64710
 8300.00000  -40.79750    -999.25   11.73320   53.98420   55.39970   56.19200
 8350.00000  -72.54600    -999.25   11.63960   52.35020   32.48380   49.84520
 8400.00000  -51.68710    -999.25   11.45240   50.12440   57.56170   67.18270
 8450.00000  -57.78360    -999.25   11.74880   50.52930   70.75620   65.49540
 8500.00000  -59.35580    -999.25   11.39000   52.05440   53.70370   51.57890
 8550.00000  -31.32660    -999.25   11.88940   51.99260   50.11690   51.90400
 8600.00000  -60.12270    -999.25   11.62410   52.44390   45.52470   49.75230
 8650.00000  -46.08910    -999.25   11.71760   57.93780   43.28750   41.87300
 8700.00000  -78.98770    -999.25   11.68640   51.47840   52.08330   58.05100
 8750.00000  -52.07060    -999.25   11.85800   49.65350   80.13120   91.02170
 8800.00000  -65.64420    -999.25   12.81720   54.33460   63.11730   84.36530
 8850.00000  -82.74590    -999.25   12.06080   49.87590   76.15790   83.04970
 8900.00000  -59.66260    -999.25   12.06080   49.80770   57.40740   85.60370
 8950.00000  -49.46320    -999.25   12.40400   50.62200   83.02560   92.10530
 9000.00000 -110.58280    -999.25   12.22860   51.32270   31.17280   39.93810
 9050.00000 -105.13800    -999.25   12.15840   48.18280   42.28380   38.00270
 9100.00000  -72.85320    -999.25   12.99690   50.10910   69.75310  100.03100
 9150.00000  -62.65360    -999.25   12.32600   52.36570   87.42250   88.20430
 9200.00000  -91.71780    -999.25   12.34160   52.25700   49.53700   62.75540
 9250.00000  -53.06810    -999.25   12.99680   53.79770   64.27420   77.22910
 9300.00000  -27.60740    -999.25   12.04520   48.88320   72.06790   67.38390
 9350.00000  -75.61240    -999.25   12.52880   50.50580   29.55200   39.11760
 9400.00000  -78.83440    -999.25   12.46650   49.79750   54.01230   47.77090
 9450.00000  -69.09490    -999.25   12.80970   53.61860   28.62690   32.48420
 9500.00000  -74.99850    -999.25   12.37280   49.23320   60.49380   57.84810
 9550.00000  -27.18580    -999.25   12.76280   50.45960   48.37980   57.97990
 9600.00000  -84.35580    -999.25   12.80960   50.57610   46.29630   45.41800
 9650.00000  -81.82520    -999.25   12.57560   49.79780   96.45060   85.57330
 9700.00000  -31.13500    -999.25   12.12320   55.64200   61.57410   80.43340
 9750.00000  -16.29600    -999.25   12.43530   53.28000   48.30250   47.81700
 9800.00000  -15.95090    -999.25   13.58970   60.17470   17.59260   22.94120
 9850.00000  -21.08880    -999.25   13.16080   67.71540   11.26530   23.06500
 9900.00000  -24.84660    -999.25   14.12010   63.15970    9.49070   13.71520
 9950.00000  -24.23310    -999.25   12.82660   67.66560   39.73770   33.59130
 10000.00000  -23.31290    -999.25   12.68490   60.04280   22.68520   28.48300
 10050.00000  -22.62270    -999.25   11.48360   57.46320   32.25320   40.41800
 10100.00000  -30.52150    -999.25   15.80500  104.56330    8.95060   14.86070
 10150.00000  -17.25460    -999.25   11.81120   67.15170   16.51230   23.34350
 10200.00000  -19.01840    -999.25   13.15290   65.56420   18.51850   26.99690
 10250.00000  -25.00000    -999.25   12.27930   55.36190   72.91720   55.12380
 10300.00000  -30.06130    -999.25   11.88920   52.45980   28.70370   37.33750
 10350.00000  -21.62580    -999.25   12.65370   71.78150   19.36820   24.81420
 10400.00000  -26.68710    -999.25   13.09830   78.84040   22.22220   20.95980
 10450.00000  -26.99390    -999.25   12.10760   66.17240   31.86800   26.88570
 10500.00000  -85.73510    -999.25   11.10920   42.87720   32.25310   30.27790
 10550.00000  -82.51530    -999.25   10.82840   51.50970   53.00700   71.96560
