~Version ---------------------------------------------------
VERS.      2.0 : CWLS log ASCII Standard -VERSION 2.0
WRAP.      YES : Multiple lines per depth step
CREA. 02/26/13 : LAS Creation Date
~Well ------------------------------------------------------
STRT.FT                 2300.0 : START DEPTH
STOP.FT                 9950.0 : STOP DEPTH
STEP.FT               50.00000 : STEP LENGTH
NULL.                  -999.25 : NULL VALUE
COMP.       APACHE CORPORATION : COMPANY
WELL.             C. BARRON #3 : WELL
FLD .                   JEWETT : FIELD
LOC .                          : LOCATION
CNTY.                     LEON : COUNTY
STAT.                    TEXAS : STATE
CTRY. UNITED STATES OF AMERICA : COUNTRY
SRVC.             Schlumberger : SERVICE COMPANY
DATE.              10-Jan-1991 : LOGDATE
API .           42289310950000 : API NUMBER
UWI .           42289310950000 : UNIQUE WELL ID
SLAT.WGS84       31.3592876733 : SURFACE LATITUDE
SLON.WGS84      -96.1250620138 : SURFACE LONGITUDE
~Curve Information -----------------------------------------
DEPT    .FT    : DEPTH FEET
CALDED  .IN    : CALIPER FROM DENSITY LOG
CALWS   .IN    : CALIPER [CALDED]
CONDWS  .MMHO  : CONDUCTIVITY [1000/DRESWS]
DCALED  .IN    : DIFFERENTIAL CALIPER FROM RESISTIVITY LOG
DCORWS  .G/C3  : DENSITY CORRECTION [DRHOED]
DENWS   .G/C3  : FORMATION BULK DENSITY [RHOBED]
DPHILSED.V/V   : DENSITY POROSITY LIME [M=2.71, F=1.0] FROM DENSITY LOG
DPOWS   .V/V   : DENSITY POROSITY LIME [DPHILSED]
DRESWS  .OHMM  : DEEP RESISTIVITY [ILDED]
DRHOED  .G/C3  : BULK DENSITY CORRECTION FROM DENSITY LOG
GRDED   .GAPI  : GAMMA RAY FROM DENSITY LOG
GRWS    .GAPI  : GAMMA RAY [GRDED]
ILDED   .OHMM  : DEEP INDUCTION FROM RESISTIVITY LOG
ILMED   .OHMM  : MEDIUM INDUCTION FROM RESISTIVITY LOG
MRESWS  .OHMM  : MEDIUM RESISTIVITY [ILMED]
NPHILSED.V/V   : NEUTRON POROSITY LIME FROM DENSITY LOG
NPOWS   .V/V   : NEUTRON POROSITY LIME [NPHILSED]
PEFED   .B/E   : PHOTOELECTRIC FACTOR FROM DENSITY LOG
PEFWS   .B/E   : PHOTOELECTRIC FACTOR [PEFED]
RHOBED  .G/C3  : BULK DENSITY FROM DENSITY LOG
SFLUED  .OHMM  : SHALLOW FOCUSED RESISTIVITY (UNAVERAGED) FROM RESISTIVITY LOG
SPRED   .MV    : SPONTANEOUS POTENTIAL FROM RESISTIVITY LOG
SPWS    .MV    : SPONTANEOUS POTENTIAL [BASELINE 0 MV, SPRED]
SRESWS  .OHMM  : SHALLOW RESISTIVITY [SFLUED]
TENDED  .LBF   : TENSION FROM DENSITY LOG
~Params ----------------------------------------------------
PD  .                     GL : PERMANENT DATUM
EPD .FT                  485 : ELEVATION PERMANENT DATUM
LMF .                     KB : LOG MEASURED FROM
DAPD.FT                   12 : FEET ABOVE PERMANENT DATUM
DMF .                     KB : DRILLING MEASURED FROM
EKB .FT                  497 : KELLY BUSHING
EDF .FT                  498 : DRILLING FLOOR
EGL .FT                  485 : GROUND LEVEL
DATE.               01/10/91 : RUN DATE
RUN .                      1 : RUN NUMBER
DD  .FT                 9950 : DEPTH DRILLER
DL  .FT                 9957 : DEPTH LOGGER
BLI .FT                 9946 : BOTTOM LOG INTERVAL
TLI .FT                 2234 : TOP LOG INTERVAL
CS  .IN                9.625 : CASING SIZE
CBD .FT                 2298 : CASING BOTTOM DRILLER
CBL .FT                 2294 : CASING BOTTOM LOGGER
BS  .IN                 6.75 : BIT SIZE
BSD .FT                 9950 : BIT SIZE AT DEPTH
DFT .           LIGHTLY DISP : DRILLING FLUID TYPE
DFD .                   10.3 : DRILLING FLUID DENSITY
DFV .                     60 : DRILLING FLUID VISCOSITY
DFPH.                    9.5 : DRILLING FLUID PH
DFL .                     74 : DRILLING FLUID LOSS
MSS .               FLOWLINE : MUD SAMPLE SOURCE
RMS .OHMM               2.45 : RESISTIVITY MUD SAMPLE
MST .DEGF                 75 : MUD SAMPLE TEMPERATURE
MFST.DEGF                 75 : MUD FILTRATE SAMPLE TEMPERATURE
RMC .OHMM               2.75 : RESISTIVITY MUD CAKE
MCST.DEGF                 75 : MUD CAKE SAMPLE TEMPERATURE
MFSS.                   MEAS : MUD FILTRATE SAMPLE SOURCE
MCSS.                   CALC : MUD CAKE SAMPLE SOURCE
RMB .OHMM                885 : RESISTIVITY MUD AT BHT
TCS .HRS                1700 : TIME CIRCULATED STOPPED
LUN .                   8407 : LOGGING UNIT NUMBER
LUL .                  TYLER : LOGGING UNIT LOCATION
CLNT.                A2DTECH : CLIENT CODE
ORIG.          1" 2.5" PRINT : ORIGIN OF DATA
UWI .         42289310950000 : UNIQUE WELL ID
DICO. A2D Technologies, Inc. : DIGITIZING COMPANY
~Other -----------------------------------------------------
TOOL RUN:DISFL-CN-LDT LOG
~ASCII -----------------------------------------------------
# ...
 5100.00000   11.57140   11.57140  672.63070    2.83540    0.05310    2.31560    0.22610    0.22610    1.48670    0.05310   87.89420   87.89420    1.48670    1.52480    1.52480    0.30260    0.30260    3.13610    3.13610    2.31560    1.64540  -30.72270   -3.99230    1.64540 2600.54590
 5150.00000   11.25900   11.25900  656.68510    2.58170    0.12570    2.30830    0.23190    0.23190    1.52280    0.12570   85.95220   85.95220    1.52280    1.57910    1.57910    0.28550    0.28550    3.34650    3.34650    2.30830    1.83760  -29.27690   -2.49880    1.83760 2580.86130
 5200.00000   11.82050   11.82050  638.73280    3.16390    0.09490    2.26980    0.24760    0.24760    1.56560    0.09490   78.63240   78.63240    1.56560    1.60610    1.60610    0.31600    0.31600    3.37160    3.37160    2.26980    1.79430  -29.55540   -2.72940    1.79430 2600.29080
 5250.00000   11.39820   11.39820  592.66280    2.63430    0.04550    2.37900    0.19500    0.19500    1.68730    0.04550   82.94790   82.94790    1.68730    1.73080    1.73080    0.30730    0.30730    3.68650    3.68650    2.37900    1.77580  -29.18850   -2.31480    1.77580 2652.30660
 5300.00000   10.17410   10.17410  326.28560    1.40220   -0.00590    2.50690    0.11680    0.11680    3.06480   -0.00590   43.08390   43.08390    3.06480    3.17890    3.17890    0.18200    0.18200    4.45800    4.45800    2.50690    3.02780  -34.68870   -7.95520    3.02780 2631.68850
 5350.00000   10.09420   10.09420  299.34740    1.35910   -0.01200    2.49550    0.12390    0.12390    3.34060   -0.01200   40.51590   40.51590    3.34060    3.46490    3.46490    0.15160    0.15160    4.57520    4.57520    2.49550    3.62740  -35.19400   -8.87150    3.62740 2686.89600
 5400.00000    9.76450    9.76450  310.34700    1.01750   -0.01140    2.50160    0.12290    0.12290    3.22220   -0.01140   32.69310   32.69310    3.22220    3.31000    3.31000    0.13440    0.13440    4.73290    4.73290    2.50160    3.25730  -33.73480   -7.82320    3.25730 2698.06470
 5450.00000    9.99320    9.99320  450.32870    1.17010    0.01570    2.51650    0.09420    0.09420    2.22060    0.01570   79.83940   79.83940    2.22060    2.38100    2.38100    0.15120    0.15120    4.39830    4.39830    2.51650    3.89960  -29.81020   -4.30950    3.89960 2701.55710
 5500.00000   10.12820   10.12820  308.60390    1.32020   -0.00070    2.50170    0.11710    0.11710    3.24040   -0.00070   47.55120   47.55120    3.24040    3.47170    3.47170    0.15220    0.15220    4.50360    4.50360    2.50170    3.98090  -28.96890   -3.93440    3.98090 2728.90430
 5550.00000    9.76280    9.76280  378.41520    1.03460   -0.00770    2.52230    0.10870    0.10870    2.64260   -0.00770   56.35470   56.35470    2.64260    2.70660    2.70660    0.17280    0.17280    4.01150    4.01150    2.52230    3.06370  -25.94800   -1.47780    3.06370 2723.40670
 5600.00000    9.63650    9.63650  226.64430    0.89230   -0.00290    2.50490    0.12180    0.12180    4.41220   -0.00290   17.65090   17.65090    4.41220    4.96600    4.96600    0.12380    0.12380    4.88180    4.88180    2.50490    6.82210  -52.11550  -28.20970    6.82210 2678.40210
 5650.00000   10.86310   10.86310  407.03350    2.11930    0.11890    2.46240    0.14440    0.14440    2.45680    0.11890   67.52770   67.52770    2.45680    2.55720    2.55720    0.26940    0.26940    3.62810    3.62810    2.46240    2.84370  -27.11270   -3.77130    2.84370 2701.54930
 5700.00000   11.83530   11.83530  634.55800    3.15120    0.08100    2.28950    0.24280    0.24280    1.57590    0.08100   84.96130   84.96130    1.57590    1.62330    1.62330    0.31340    0.31340    2.68130    2.68130    2.28950    1.91660  -27.12780   -4.35080    1.91660 2739.18140
 5750.00000   12.75470   12.75470  627.19520    4.05490    0.12630    2.18780    0.30510    0.30510    1.59440    0.12630   89.96840   89.96840    1.59440    1.64920    1.64920    0.36110    0.36110    2.52960    2.52960    2.18780    1.73280  -26.23120   -4.01850    1.73280 2760.09230
 5800.00000   12.58060   12.58060 1131.99000    3.79730    0.04350    1.94190    0.43980    0.43980    0.88340    0.04350   89.91450   89.91450    0.88340    0.91770    0.91770    0.40110    0.40110    2.61000    2.61000    1.94190    1.26230  -22.96010   -1.39440    1.26230 2759.22050
 5850.00000   12.93580   12.93580  557.84890    4.19270    0.09930    2.35010    0.20850    0.20850    1.79260    0.09930   80.81860   80.81860    1.79260    1.87330    1.87330    0.32640    0.32640    2.77520    2.77520    2.35010    2.12920  -23.04620   -2.79590    2.12920 2757.76830
 5900.00000   11.73510   11.73510  686.81320    3.03800    0.08650    2.12790    0.33890    0.33890    1.45600    0.08650   95.36600   95.36600    1.45600    1.51980    1.51980    0.35580    0.35580    2.67920    2.67920    2.12790    1.89550  -21.77370   -2.83890    1.89550 2801.52470
 5950.00000   10.61500   10.61500  400.89800    2.02290    0.15750    2.32800    0.22150    0.22150    2.49440    0.15750   86.23480   86.23480    2.49440    2.66720    2.66720    0.30100    0.30100    2.86800    2.86800    2.32800    3.56540  -20.96480   -2.44990    3.56540 2860.29710
 6000.00000   12.00170   12.00170  498.25610    3.38280    0.14150    2.27290    0.26020    0.26020    2.00700    0.14150   84.91960   84.91960    2.00700    2.09280    2.09280    0.37810    0.37810    3.24010    3.24010    2.27290    2.50500  -20.71900   -1.94670    2.50500 2879.88110
 6050.00000   12.91040   12.91040  547.73510    4.27990    0.10170    2.24600    0.26540    0.26540    1.82570    0.10170   70.04940   70.04940    1.82570    1.89580    1.89580    0.31510    0.31510    3.12330    3.12330    2.24600    1.92190  -23.59140   -3.63870    1.92190 2883.70750
 6100.00000   12.07270   12.07270  568.44020    3.49500    0.01180    2.37860    0.18840    0.18840    1.75920    0.01180   80.18330   80.18330    1.75920    1.82560    1.82560    0.30810    0.30810    2.58470    2.58470    2.37860    2.06110  -30.91210   -9.77900    2.06110 2913.17800
 6150.00000   10.43350   10.43350  308.12840    1.71720    0.02020    2.36030    0.20270    0.20270    3.24540    0.02020   53.94510   53.94510    3.24540    3.45500    3.45500    0.19230    0.19230    2.54380    2.54380    2.36030    3.74570  -43.50950  -20.73770    3.74570 2911.59910
 6200.00000   14.19640   14.19640  654.06500    5.17660    0.09110    2.10930    0.33100    0.33100    1.52890    0.09110   71.68660   71.68660    1.52890    1.57920    1.57920    0.32440    0.32440    2.76410    2.76410    2.10930    2.00010  -32.74110   -7.99870    2.00010 2897.69950
 6250.00000   15.19010   15.19010  557.19620    6.38900    0.10110    2.25830    0.26630    0.26630    1.79470    0.10110   73.37120   73.37120    1.79470    1.89890    1.89890    0.31390    0.31390    2.73840    2.73840    2.25830    2.03600  -35.46800   -8.75500    2.03600 2935.92920
 6300.00000   12.27700   12.27700  345.12510    3.72130    0.09510    2.25070    0.30050    0.30050    2.89750    0.09510   62.81300   62.81300    2.89750    3.06990    3.06990    0.20020    0.20020    2.74250    2.74250    2.25070    6.07000  -33.76360   -5.08000    6.07000 2936.45610
 6350.00000   16.21820   16.21820  698.47030    7.40050    0.06410    2.32050    0.22070    0.22070    1.43170    0.06410   74.64060   74.64060    1.43170    1.48130    1.48130    0.34920    0.34920    3.08730    3.08730    2.32050    1.56660  -35.65840   -4.45940    1.56660 2932.90530
 6400.00000   15.78480   15.78480  541.74120    7.03940    0.09940    2.28100    0.24480    0.24480    1.84590    0.09940   70.42660   70.42660    1.84590    1.92370    1.92370    0.32490    0.32490    3.00440    3.00440    2.28100    1.87240  -35.97710   -2.22810    1.87240 2923.48390
 6450.00000   11.46890   11.46890   62.16350    2.71780    0.18130    2.68710    0.01280    0.01280   16.08660    0.18130   17.99860   17.99860   16.08660   15.06490   15.06490    0.02360    0.02360    4.12180    4.12180    2.68710   12.17380  -45.56310  -12.19430   12.17380 2978.65380
