~Version ---------------------------------------------------
VERS. 2.0 : CWLS log ASCII Standard -VERSION 2.0
WRAP.  NO : ONE LINE PER DEPTH STEP
~Well ------------------------------------------------------
STRT.F                  4000.0 : START DEPTH
STOP.F                  8450.0 : STOP DEPTH
STEP.F                50.00000 : STEP LENGTH
NULL.                  -999.25 : NULL VALUE
COMP.        BRENT EXPLORATION : COMPANY
WELL.          GOODSON UNIT #1 : WELL
FLD .                 GIDDINGS : FIELD
LOC .                          : LOCATION
CNTY.                      LEE : COUNTY
STAT.                    TEXAS : STATE
CTRY. UNITED STATES OF AMERICA : COUNTRY
SRVC.                    Welex : SERVICE COMPANY
DATE.              10-Apr-1981 : LOGDATE
API .           42287309060000 : API NUMBER
UWI .           42287309060000 : UNIQUE WELL ID
SLAT.WGS84       30.2342842208 : SURFACE LATITUDE
SLON.WGS84      -96.8872485651 : SURFACE LONGITUDE
~Curve Information -----------------------------------------
DEPT  .F    0   1   0  0 : 1 MEASURED DEPTH
ILD   .OHMM 06 120 46 00 : INDUCTION DEEP RESISTIVITY
SPR   .MV   06 010 01 00 : SPONTANEOUS POTENTIAL FROM RESISTIVITY LOG
SGUARD.OHMM 06 120 05 00 : SHALLOW/SHORT GUARD RESISTIVITY
ILM   .OHMM 06 120 44 00 : INDUCTION MEDIUM RESISTIVITY
GRD   .GAPI 45 310 01 00 : GAMMA RAY FROM DENSITY LOG
RHOB  .G/C3 45 350 01 00 : BULK DENSITY
CALD  .IN   45 280 60 00 : CALIPER FROM DENSITY LOG
CORR  .G/C3 45 356 01 00 : DENSITY CORRECTION
~Params ----------------------------------------------------
PD  .                     GL : PERMANENT DATUM
EPD .FT                  355 : ELEVATION PERMANENT DATUM
LMF .                    RKB : LOG MEASURED FROM
DAPD.FT                   22 : FEET ABOVE PERMANENT DATUM
DMF .                    TKB : DRILLING MEASURED FROM
EGL .FT                  355 : GROUND LEVEL
DATE.               04/10/81 : RUN DATE
RUN .                      1 : RUN NUMBER
DD  .FT                 8475 : DEPTH DRILLER
DL  .FT                 8480 : DEPTH LOGGER
BLI .FT                 8478 : BOTTOM LOG INTERVAL
TLI .FT                 3974 : TOP LOG INTERVAL
CS  .IN                9.625 : CASING SIZE
CBD .FT                 3978 : CASING BOTTOM DRILLER
CBL .FT                 3974 : CASING BOTTOM LOGGER
BS  .IN                 8.75 : BIT SIZE
BSD .FT                 8475 : BIT SIZE AT DEPTH
DFT .             WATER BASE : DRILLING FLUID TYPE
DFD .                    9.7 : DRILLING FLUID DENSITY
DFV .                     39 : DRILLING FLUID VISCOSITY
DFPH.                    9.5 : DRILLING FLUID PH
DFL .                      7 : DRILLING FLUID LOSS
MSS .                MUD PIT : MUD SAMPLE SOURCE
RMS .OHMM                2.1 : RESISTIVITY MUD SAMPLE
MST .DEGF                 75 : MUD SAMPLE TEMPERATURE
RMF .OHMM                1.1 : RESISTIVITY MUD FILTRATE SAMPLE
MFST.DEGF                 75 : MUD FILTRATE SAMPLE TEMPERATURE
RMC .OHMM               2.75 : RESISTIVITY MUD CAKE
MCST.DEGF                 75 : MUD CAKE SAMPLE TEMPERATURE
MFSS.                   MEAS : MUD FILTRATE SAMPLE SOURCE
MCSS.                   MEAS : MUD CAKE SAMPLE SOURCE
RMB .OHMM               0.78 : RESISTIVITY MUD AT BHT
TCS .HRS                   2 : TIME CIRCULATED STOPPED
LUN .                   1904 : LOGGING UNIT NUMBER
LUL .               VICTORIA : LOGGING UNIT LOCATION
ENGI.                 MOOREY : RECORDING ENGINEER
WITN.                    JIM : WITNESSED BY
CLNT.                A2DTECH : CLIENT CODE
ORIG.               5" PRINT : ORIGIN OF DATA
UWI .         42287309060000 : UNIQUE WELL ID
DICO. A2D Technologies, Inc. : DIGITIZING COMPANY
~Other -----------------------------------------------------
~ASCII -----------------------------------------------------
 4000.00000    5.37090  -62.74740    7.84960    6.31800    -999.25    -999.25    -999.25    -999.25
 4050.00000    4.74550  -75.66720    7.21540    5.90010    -999.25    -999.25    -999.25    -999.25
 4100.00000    3.74060  -78.25830    7.41290    5.14410    -999.25    -999.25    -999.25    -999.25
 4150.00000    2.95250  -79.97210    5.68150    3.98450    -999.25    -999.25    -999.25    -999.25
 4200.00000    2.65190  -81.69200    6.39900    3.84690    -999.25    -999.25    -999.25    -999.25
 4250.00000    3.06680  -76.47590    6.38370    4.11930    -999.25    -999.25    -999.25    -999.25
 4300.00000    2.71740  -69.53720    4.72540    3.44770    -999.25    -999.25    -999.25    -999.25
 4350.00000    3.73240  -70.72350    6.92040    4.74810    -999.25    -999.25    -999.25    -999.25
 4400.00000    3.13470  -62.07170    4.94710    3.80980    -999.25    -999.25    -999.25    -999.25
 4450.00000    3.67610  -52.04640    4.69880    4.01320    -999.25    -999.25    -999.25    -999.25
 4500.00000    3.91920  -78.69850    8.46840    5.19370    -999.25    -999.25    -999.25    -999.25
 4550.00000    3.40730  -53.67260    5.01190    3.83300    -999.25    -999.25    -999.25    -999.25
 4600.00000    2.95620  -51.53780    4.59370    3.65550    -999.25    -999.25    -999.25    -999.25
 4650.00000    3.20080  -62.83390    5.48550    3.69270    -999.25    -999.25    -999.25    -999.25
 4700.00000    3.01610  -35.45200    2.96130    3.12250    -999.25    -999.25    -999.25    -999.25
 4750.00000    2.85660  -32.88120    3.04710    2.89110    -999.25    -999.25    -999.25    -999.25
 4800.00000    2.93580  -36.12560    3.38510    3.00450    -999.25    -999.25    -999.25    -999.25
 4850.00000    3.20410  -33.20680    3.72680    3.25320    -999.25    -999.25    -999.25    -999.25
 4900.00000    2.80520  -31.44610    2.78540    2.80910    -999.25    -999.25    -999.25    -999.25
 4950.00000    2.20250  -33.85230    2.26760    2.26950    -999.25    -999.25    -999.25    -999.25
 5000.00000    1.91280  -38.18710    1.97820    1.87800    -999.25    -999.25    -999.25    -999.25
 5050.00000    2.05890  -37.67290    2.09490    1.98200    -999.25    -999.25    -999.25    -999.25
 5100.00000    2.11200  -37.19790    2.24370    2.13590    -999.25    -999.25    -999.25    -999.25
 5150.00000    1.72080  -37.52320    1.86890    1.75740    -999.25    -999.25    -999.25    -999.25
 5200.00000    1.69320  -36.92990    1.86540    1.71830    -999.25    -999.25    -999.25    -999.25
 5250.00000    1.61490  -37.20090    1.77910    1.64730    -999.25    -999.25    -999.25    -999.25
 5300.00000    1.76560  -36.06700    1.91490    1.80210    -999.25    -999.25    -999.25    -999.25
 5350.00000    1.53210  -35.49530    1.58130    1.56850    -999.25    -999.25    -999.25    -999.25
 5400.00000    1.59400  -33.43510    1.65930    1.60760    -999.25    -999.25    -999.25    -999.25
 5450.00000    1.36300  -34.34570    1.43100    1.38670    -999.25    -999.25    -999.25    -999.25
 5500.00000    2.37960  -37.27630    2.17230    2.33530    -999.25    -999.25    -999.25    -999.25
 5550.00000    1.66470  -36.47470    1.76380    1.70640    -999.25    -999.25    -999.25    -999.25
 5600.00000    2.21880  -48.46130    2.70190    2.50790    -999.25    -999.25    -999.25    -999.25
 5650.00000    1.55010  -38.08920    1.64520    1.57790    -999.25    -999.25    -999.25    -999.25
 5700.00000    2.35030  -36.13570    2.40520    2.37170    -999.25    -999.25    -999.25    -999.25
 5750.00000    1.80080  -36.78150    1.89660    1.82340    -999.25    -999.25    -999.25    -999.25
 5800.00000    1.37450  -33.89540    1.53170    1.39000    -999.25    -999.25    -999.25    -999.25
 5850.00000    1.26780  -35.41650    1.35110    1.28650    -999.25    -999.25    -999.25    -999.25
 5900.00000    1.66200  -34.74810    1.72940    1.70100    -999.25    -999.25    -999.25    -999.25
 5950.00000    1.14330  -30.51930    1.26420    1.16760    -999.25    -999.25    -999.25    -999.25
 6000.00000    1.14830  -31.09030    1.26660    1.17150    -999.25    -999.25    -999.25    -999.25
 6050.00000    2.45010  -33.65180    2.79070    2.54850    -999.25    -999.25    -999.25    -999.25
 6100.00000    1.65720  -30.47390    1.74500    1.69360    -999.25    -999.25    -999.25    -999.25
 6150.00000    1.44980  -36.65220    1.37430    1.40350    -999.25    -999.25    -999.25    -999.25
 6200.00000    1.37900  -34.39360    1.34550    1.37720    -999.25    -999.25    -999.25    -999.25
 6250.00000    1.36370  -35.91590    1.30990    1.35000    -999.25    -999.25    -999.25    -999.25
 6300.00000    1.75630  -34.85260    1.67640    1.71830    -999.25    -999.25    -999.25    -999.25
 6350.00000    1.55410  -34.22010    1.49980    1.54410    -999.25    -999.25    -999.25    -999.25
 6400.00000    1.29080  -32.17730    1.37260    1.32370    -999.25    -999.25    -999.25    -999.25
 6450.00000    1.85160  -39.55480    1.77730    1.82370    -999.25    -999.25    -999.25    -999.25
 6500.00000    1.32480  -33.83390    1.29220    1.30640    -999.25    -999.25    -999.25    -999.25
 6550.00000    1.57170  -33.47760    1.58900    1.57130    -999.25    -999.25    -999.25    -999.25
 6600.00000    2.20970  -32.76970    2.39510    2.28120    -999.25    -999.25    -999.25    -999.25
 6650.00000    1.63820  -35.42790    1.75170    1.65980    -999.25    -999.25    -999.25    -999.25
 6700.00000    1.95860  -33.43630    2.06980    1.98720    -999.25    -999.25    -999.25    -999.25
 6750.00000    1.97270  -34.06360    2.04010    2.00220    -999.25    -999.25    -999.25    -999.25
 6800.00000    1.56450  -33.13380    1.70330    1.60300    -999.25    -999.25    -999.25    -999.25
 6850.00000    1.40070  -33.27080    1.47280    1.42300    -999.25    -999.25    -999.25    -999.25
 6900.00000    2.40740  -31.68420    2.72590    2.46540    -999.25    -999.25    -999.25    -999.25
 6950.00000    4.19460  -31.56860    4.74890    4.07510   40.70880    2.56160   12.04420    0.09990
 7000.00000    3.18170  -28.96280    3.56600    3.26680   76.49370    2.53710   12.04790    0.14790
 7050.00000    3.85860  -28.58620    4.32400    3.94140   56.76150    2.56540   12.05180    0.10250
 7100.00000    2.39990  -29.74490    2.67680    2.51280   81.82970    2.51700   12.03900    0.19830
 7150.00000    2.71710  -27.42760    3.06380    2.86590   79.25230    2.55100   12.05900    0.14930
 7200.00000    2.44070  -27.70810    2.82820    2.55740   73.78510    2.51710   12.04610    0.17010
 7250.00000    3.33900  -26.52830    4.16380    3.52700   84.46070    2.52030   12.05210    0.20940
 7300.00000    1.99410  -27.78340    2.47350    2.15290   73.17350    2.43220   12.04540    0.19460
 7350.00000    3.01140  -32.52290    3.83110    3.45960   78.68550    2.42840   12.03650    0.16760
 7400.00000    3.66860  -36.30530    4.35720    4.08820   42.67510    2.60840   12.04710    0.12590
 7450.00000    6.89090  -45.48460    8.75980    7.76590   29.10340    2.57660   12.04690    0.13730
 7500.00000    7.32170  -44.38370    6.10130    8.04560   28.26420    2.49590   12.06850    0.10910
 7550.00000   12.78920  -53.68970   14.85450   14.25610   27.45280    2.30800   12.03780    0.12590
 7600.00000   10.20920  -44.13750   11.57680   10.96290   24.47770    2.59140   12.03610    0.16280
 7650.00000   12.43530  -54.40160   15.62260   13.49210   22.14070    2.15530   11.86560    0.20180
 7700.00000   10.23020  -43.15060    9.91850   10.98320   35.37450    2.51040    9.43110    0.11960
 7750.00000    8.01120  -38.82730   22.00520    9.53560   47.02650    2.55360    9.20090    0.10890
 7800.00000    8.01370  -35.54880    9.53740    8.40150   41.93000    2.61900    9.21290    0.12420
 7850.00000    7.48840  -35.42570   10.70120    8.44820   35.48240    2.57920    9.20850    0.08910
 7900.00000    6.20050  -37.55150    5.04200    5.97510   24.18530    2.61550    9.17560    0.12490
 7950.00000    8.90020  -37.65860   10.73480    9.43730   35.11430    2.61350    9.16490    0.11550
