~Version ---------------------------------------------------
VERS.      2.0 : CWLS log ASCII Standard -VERSION 2.0
WRAP.      YES : MULTIPLE LINES PER DEPTH STEP
CREA. 08/31/18 : LAS CREATION DATE
~Well ------------------------------------------------------
STRT.FT                 2300.0 : START DEPTH
STOP.FT                11300.0 : STOP DEPTH
STEP.FT               50.00000 : STEP LENGTH
NULL.                  -999.25 : NULL VALUE
COMP.         HUNT OIL COMPANY : COMPANY
WELL.          PIPHER L. A. #1 : WELL
FLD .                  WILDCAT : FIELD
LOC .                          : LOCATION
CNTY.                 GONZALES : COUNTY
STAT.                    TEXAS : STATE
CTRY. UNITED STATES OF AMERICA : COUNTRY
SRVC.             Schlumberger : SERVICE COMPANY
DATE.              06-May-1999 : LOGDATE
API .           42177320410000 : API NUMBER
UWI .           42177320410000 : UNIQUE WELL ID
SLAT.WGS84       29.2698822473 : SURFACE LATITUDE
SLON.WGS84      -97.7138948507 : SURFACE LONGITUDE
~Curve Information -----------------------------------------
DEPT    .FT    : DEPTH FEET
AHT10ED .OHMM  : 10 INCH RESISTIVITY TWO FOOT RESOLUTION FROM AIT LOG
AHT20ED .OHMM  : 20 INCH RESISTIVITY TWO FOOT RESOLUTION FROM AIT LOG
AHT30ED .OHMM  : 30 INCH RESISTIVITY TWO FOOT RESOLUTION FROM AIT LOG
AHT60ED .OHMM  : 60 INCH RESISTIVITY TWO FOOT RESOLUTION FROM AIT LOG
AHT90ED .OHMM  : 90 INCH RESISTIVITY TWO FOOT RESOLUTION FROM AIT LOG
CALWS   .IN    : CALIPER [DCALRED+BITED]
CONDWS  .MMHO  : CONDUCTIVITY [1000/DRESWS]
DCALRED .IN    : DIFFERENTIAL CALIPER FROM RES. LOG
DCORWS  .G/C3  : DENSITY CORRECTION [HDRAED]
DENWS   .G/C3  : BULK DENSITY [M=2.71 F=1.0] [CALCULATED FROM DPOLSWS]
DPHZLSED.V/V   : DENSITY POROSITY [M=2.71 F=1.0] FROM DENSITY LOG
DPOLSWS .V/V   : DENSITY POROSITY [M=2.71 F=1.0] [DPHZLSED]
DRESWS  .OHMM  : DEEP RESISTIVITY [AHT90ED]
DTLFED  .US/F  : DELTA TIME LONG SPACING FAR DETECTOR FROM SONIC LOG
DTLNED  .US/F  : DELTA TIME LONG SPACING NEAR DETECTOR FROM SONIC LOG
DTWS    .US/F  : DELTA TIME [DTLNED]
GRRED   .GAPI  : GAMMA RAY FROM RESISTIVITY LOG
GRWS    .GAPI  : GAMMA RAY [GRRED]
HDRAED  .G/C3  : DENSITY CORRECTION FROM DENSITY LOG
MRESWS  .OHMM  : MEDIUM RESISTIVITY [AHT30ED]
NPORLSED.V/V   : NEUTRON POROSITY LIMESTONE FROM DENSITY LOG
NPOLSWS .V/V   : NEUTRON POROSITY LIMESTONE [NPORLSED]
PEFWS   .B/E   : PHOTOELECTRIC FACTOR [PEFZED]
PEFZED  .B/E   : PHOTOELECTRIC FACTOR STANDARD RESOLUTION FROM DENSITY LOG
SPRED   .MV    : SPONTANEOUS POTENTIAL FROM RESISTIVITY LOG
SPWS    .MV    : SPONTANEOUS POTENTIAL [BASELINE 0 MV] [SPRED]
SRESWS  .OHMM  : SHALLOW RESISTIVITY [AHT10ED]
TENRED  .LBF   : TENSION FROM RESISTIVITY LOG
~Params ----------------------------------------------------
PD  .                     GL : PERMANENT DATUM
EPD .FT                  349 : ELEVATION PERMANENT DATUM
LMF .                     KB : LOG MEASURED FROM
DAPD.FT                 14.5 : FEET ABOVE PERMANENT DATUM
DMF .                     KB : DRILLING MEASURED FROM
EKB .FT                363.5 : KELLY BUSHING
EDF .FT                362.5 : DRILLING FLOOR
EGL .FT                  349 : GROUND LEVEL
DATE.               05/06/99 : RUN DATE
RUN .                      1 : RUN NUMBER
DD  .FT                11318 : DEPTH DRILLER
DL  .FT                11300 : DEPTH LOGGER
BLI .FT                11292 : BOTTOM LOG INTERVAL
TLI .FT                 2462 : TOP LOG INTERVAL
CS  .IN                9.625 : CASING SIZE
CBD .FT                 2469 : CASING BOTTOM DRILLER
CBL .FT                 2462 : CASING BOTTOM LOGGER
BS  .IN                 8.75 : BIT SIZE
BSD .FT                11318 : BIT SIZE AT DEPTH
DFT .              FRESH MUD : DRILLING FLUID TYPE
DFD .                   10.2 : DRILLING FLUID DENSITY
DFV .                     42 : DRILLING FLUID VISCOSITY
DFPH.                     11 : DRILLING FLUID PH
DFL .                      6 : DRILLING FLUID LOSS
MSS .              CIRC TANK : MUD SAMPLE SOURCE
RMS .OHMM              0.812 : RESISTIVITY MUD SAMPLE
MST .DEGF                 75 : MUD SAMPLE TEMPERATURE
RMF .OHMM               0.51 : RESISTIVITY MUD FILTRATE SAMPLE
MFST.DEGF                 75 : MUD FILTRATE SAMPLE TEMPERATURE
RMC .OHMM              1.218 : RESISTIVITY MUD CAKE
MCST.DEGF                 75 : MUD CAKE SAMPLE TEMPERATURE
MFSS.                     MP : MUD FILTRATE SAMPLE SOURCE
MCSS.                   CALC : MUD CAKE SAMPLE SOURCE
RMB .OHMM               0.28 : RESISTIVITY MUD AT BHT
TCS .HRS                1930 : TIME CIRCULATED STOPPED
TLAB.HRS                 630 : TIME LOGGER AT BOTTOM
LUN .                   2129 : LOGGING UNIT NUMBER
LUL .               VICTORIA : LOGGING UNIT LOCATION
ENGI.    VORIS WILBECK BOWEN : RECORDING ENGINEER
WITN.     SIMON SKILES BLACK : WITNESSED BY
CLNT.                A2DTECH : CLIENT CODE
ORIG.         1" 2" 5" PRINT : ORIGIN OF DATA
UWI .         42177320410000 : UNIQUE WELL ID
DICO. A2D Technologies, Inc. : DIGITIZING COMPANY
~Other -----------------------------------------------------
~ASCII -----------------------------------------------------
# ...
 9800.00000   35.76290   41.34140   42.51280   39.62510   44.85810   10.78860   22.29250    2.03860    0.00070    2.73820   -0.01650   -0.01650   44.85810   50.89540   50.57220   50.57220   41.49000   41.49000    0.00070   42.51280    0.02810    0.02810    4.68310    4.68310  -38.90420  -40.80220   35.76290 3749.83940
 9850.00000   72.46660   97.44300   85.42650   77.42980  110.08890   11.14750    9.08360    2.39750    0.00480    2.70950    0.00030    0.00030  110.08890   50.33190   50.04130   50.04130   23.17270   23.17270    0.00480   85.42650    0.00430    0.00430    5.23640    5.23640  -61.12450  -63.05890   72.46660 3795.17850
 9900.00000   17.53720   14.19080   14.06550   11.87570   10.82210   11.79650   92.40350    3.04650    0.00690    2.71150   -0.00090   -0.00090   10.82210   48.73370   48.19260   48.19260   27.88140   27.88140    0.00690   14.06550    0.08530    0.08530    3.26480    3.26480  -68.85490  -70.82580   17.53720 3748.88280
 9950.00000   99.91650  238.58880  149.17690  112.27410  261.91570   11.78110    3.81800    3.03110   -0.00060    2.75450   -0.02600   -0.02600  261.91570   47.07750   46.43600   46.43600   38.04230   38.04230   -0.00060  149.17690    0.04560    0.04560    3.66390    3.66390  -67.15850  -69.16580   99.91650 3768.49340
 10000.00000   74.51880   53.92740   60.28160   56.23540   52.04860   10.57400   19.21280    1.82400    0.00490    2.78680   -0.04490   -0.04490   52.04860   47.25910   46.97570   46.97570   32.92910   32.92910    0.00490   60.28160    0.05930    0.05930    3.54400    3.54400  -54.49660  -56.54040   74.51880 3732.50370
 10050.00000   41.69450   35.24370   33.52670   31.21130   28.97620   11.41830   34.51110    2.66830    0.00310    2.81160   -0.05940   -0.05940   28.97620   50.59390   50.25760   50.25760   37.69590   37.69590    0.00310   33.52670    0.08010    0.08010    3.61850    3.61850  -48.46300  -50.54320   41.69450 3780.16720
 10100.00000   19.93510   20.29270   21.02280   18.68060   19.92510   11.49830   50.18800    2.74830    0.00390    2.81170   -0.05950   -0.05950   19.92510   50.28920   50.00270   50.00270   47.87630   47.87630    0.00390   21.02280    0.06950    0.06950    2.90880    2.90880  -52.53890  -54.65560   19.93510 3843.43730
 10150.00000   80.67320   58.12190   66.74500   72.56680   78.90090   10.25990   12.67410    1.50990   -0.00480    2.83670   -0.07410   -0.07410   78.90090   46.87450   46.39210   46.39210   29.66460   29.66460   -0.00480   66.74500    0.03330    0.03330    3.65230    3.65230  -45.73800  -47.89120   80.67320 3844.87770
 10200.00000   67.53320   60.88570   73.16890   83.31150   95.49610   10.59990   10.47160    1.84990    0.00390    2.83820   -0.07500   -0.07500   95.49610   46.35570   46.04570   46.04570   30.38790   30.38790    0.00390   73.16890    0.03230    0.03230    3.42030    3.42030  -56.60460  -58.79420   67.53320 3866.37040
 10250.00000  103.02300   93.73750  118.96520  183.79460  235.57280   10.69960    4.24500    1.94960    0.00220    2.86390   -0.09000   -0.09000  235.57280   45.42890   44.85860   44.85860   30.41750   30.41750    0.00220  118.96520    0.02930    0.02930    3.30900    3.30900  -64.52980  -66.75590  103.02300 3853.77000
 10300.00000  156.54090  157.21610  171.84120  190.16520  217.91220   10.76110    4.58900    2.01110    0.00160    2.81530   -0.06160   -0.06160  217.91220   44.67850   44.38690   44.38690   31.83340   31.83340    0.00160  171.84120    0.02080    0.02080    3.58330    3.58330  -63.03260  -65.29510  156.54090 3832.34500
 10350.00000  153.15420  133.07830  143.08060  258.34870  296.11450   10.50880    3.37710    1.75880    0.00280    2.82250   -0.06580   -0.06580  296.11450   44.89840   44.61110   44.61110   25.78670   25.78670    0.00280  143.08060    0.02030    0.02030    3.59530    3.59530  -49.74880  -52.04780  153.15420 3860.74800
 10400.00000   59.09640   43.46000   61.73120   66.52520   72.96910   10.86680   13.70440    2.11680    0.00600    2.82970   -0.07000   -0.07000   72.96910   46.76790   46.39030   46.39030   45.78790   45.78790    0.00600   61.73120    0.04580    0.04580    3.26280    3.26280  -46.60910  -48.94450   59.09640 3866.90160
 10450.00000   56.00520   47.39920   76.88690   88.82550  113.48230   10.81510    8.81190    2.06510    0.00280    2.82420   -0.06680   -0.06680  113.48230   46.31940   46.03640   46.03640   36.75560   36.75560    0.00280   76.88690    0.03140    0.03140    3.59040    3.59040  -36.15890  -38.53080   56.00520 3923.23050
 10500.00000   12.37380   14.20660   14.14390   13.76860   12.98430   10.43030   77.01610    1.68030    0.00330    2.79790   -0.05140   -0.05140   12.98430   53.86860   53.32870   53.32870   57.07060   57.07060    0.00330   14.14390    0.09490    0.09490    3.21620    3.21620  -16.66660  -19.07490   12.37380 3941.32790
 10550.00000   91.31730  141.67210  128.39640  108.64100  102.63890   10.08610    9.74290    1.33610    0.00670    2.73870   -0.01680   -0.01680  102.63890   49.67580   49.39010   49.39010   37.84690   37.84690    0.00670  128.39640    0.00890    0.00890    4.60560    4.60560  -23.34140  -25.78620   91.31730 3912.31370
 10600.00000   35.52960   31.25360   30.09520   28.11720   25.83470   10.38140   38.70760    1.63140    0.00550    2.74400   -0.01990   -0.01990   25.83470   53.43920   53.09660   53.09660   52.03040   52.03040    0.00550   30.09520    0.04320    0.04320    4.45920    4.45920  -16.18920  -18.67040   35.52960 3978.72850
 10650.00000   52.78630   49.10170   66.28960   73.12160   83.82190   10.78920   11.93010    2.03920    0.00880    2.73870   -0.01680   -0.01680   83.82190   50.44610   50.12720   50.12720   39.73970   39.73970    0.00880   66.28960    0.01930    0.01930    4.92130    4.92130  -18.95540  -21.47310   52.78630 3958.98880
 10700.00000   16.74840   25.17810   21.30900   18.65860   17.81490   10.45720   56.13280    1.70720    0.00680    2.75750   -0.02780   -0.02780   17.81490   53.07940   52.79280   52.79280   52.75010   52.75010    0.00680   21.30900    0.05750    0.05750    4.57030    4.57030  -11.79170  -14.34580   16.74840 3909.87230
 10750.00000   27.61010   30.37720   27.24020   25.69880   23.67530   10.72880   42.23810    1.97880    0.01050    2.70830    0.00100    0.00100   23.67530   54.15050   53.67970   53.67970   52.37590   52.37590    0.01050   27.24020    0.04710    0.04710    4.48060    4.48060   -6.06320   -8.65380   27.61010 4106.37160
 10800.00000    2.78100    4.49490    6.23200    8.80920   10.18860   11.63900   98.14890    2.88900    0.09010    2.35940    0.20500    0.20500   10.18860   67.19860   73.30850   73.30850   90.64640   90.64640    0.09010    6.23200    0.15950    0.15950    4.90690    4.90690   -6.59540   -9.22240    2.78100 3960.25320
 10850.00000   11.39500   11.93600   13.09900   14.14420   15.05520   10.15320   66.42220    1.40320    0.01330    2.80230   -0.05400   -0.05400   15.05520   53.53260   53.24700   53.24700   60.88030   60.88030    0.01330   13.09900    0.06930    0.06930    3.68270    3.68270  -12.03580  -14.69930   11.39500 3966.82860
 10900.00000   55.28120   72.24560   48.78280   44.93230   42.24110   10.04450   23.67360    1.29450    0.00770    2.82000   -0.06430   -0.06430   42.24110   49.33050   48.97240   48.97240   45.32600   45.32600    0.00770   48.78280    0.04510    0.04510    3.38870    3.38870  -11.31430  -14.01420   55.28120 4054.37550
 10950.00000   22.34650   21.82920   21.84100   20.84990   19.67920    9.99140   50.81510    1.24140    0.00550    2.78350   -0.04300   -0.04300   19.67920   54.74140   54.34110   54.34110   59.71230   59.71230    0.00550   21.84100    0.08870    0.08870    3.23900    3.23900   -0.81300   -3.54940   22.34650 4033.37820
 11000.00000  115.34870  106.37890   87.53800   75.01630   64.43650    9.86450   15.51920    1.11450    0.00230    2.85140   -0.08270   -0.08270   64.43650   48.00860   47.22750   47.22750   28.45800   28.45800    0.00230   87.53800    0.03050    0.03050    3.55960    3.55960    0.06280   -2.42360  115.34870 4042.61620
