~Version ---------------------------------------------------
VERS. 2.0 : CWLS log ASCII Standard -VERSION 2.0
WRAP.  NO : ONE LINE PER DEPTH STEP
~Well ------------------------------------------------------
STRT.F                     300.0 : START DEPTH
STOP.F                   19600.0 : STOP DEPTH
STEP.F                  50.00000 : STEP LENGTH
NULL.                    -999.25 : NULL VALUE
COMP. CITIES SERVICE OIL COMPANY : COMPANY
WELL.          PEELER RANCH A #1 : WELL
FLD .                    WILDCAT : FIELD
LOC .                            : LOCATION
CNTY.                   ATASCOSA : COUNTY
STAT.                      TEXAS : STATE
CTRY.   UNITED STATES OF AMERICA : COUNTRY
SRVC.               Schlumberger : SERVICE COMPANY
DATE.                12-Feb-1972 : LOGDATE
API .             42013301410000 : API NUMBER
UWI .             42013301410000 : UNIQUE WELL ID
SLAT.WGS84         28.6903618688 : SURFACE LATITUDE
SLON.WGS84        -98.4697337546 : SURFACE LONGITUDE
~Curve Information -----------------------------------------
DEPT.F                 : 
GRD .GAPI 45 310 01 00 : GAMMA RAY FROM DENSITY LOG
CALD.IN   45 280 60 00 : CALIPER FROM DENSITY LOG
CORR.G/C3 45 356 01 00 : DENSITY CORRECTION
RHOB.G/C3 45 350 01 00 : BULK DENSITY
GRS .GAPI 60 310 01 00 : GAMMA RAY FROM SONIC LOG
DT  .US/F 60 500 32 00 : DELTA-T (INTERVAL TRANSIT TIME)
CALS.IN   60 280 50 00 : CALIPER FROM SONIC LOG
ALL8.OHMM 05 221 08 00 : AMPLIFIED LATEROLOG-8
ILD .OHMM 05 120 46 00 : INDUCTION LOG DEEP
ASN .OHMM 05 041 16 00 : AMPLIFIED SHORT NORMAL 16"
CILD.MMHO 05 110 46 00 : CONDUCTIVITY INDUCTION LOG DEEP
SPR .MV   05 010 01 00 : SPONTANEOUS POTENTIAL FROM RES.
NEUT.NAPI 35 330 01 00 : NEUTRON
SNP .DEC  41 890 01 00 : SIDEWALL NEUTRON POROSITY
~Params ----------------------------------------------------
PD  .                     GL : PERMANENT DATUM
EPD .F                   297 : ELEVATION PERMANENT DATUM
LMF .                     KB : LOG MEASURED FROM
DAPD.F                  30.5 : FEET ABOVE PERMANENT DATUM
DMF .                     KB : DRILLING MEASURED FROM
EKB .F                 327.5 : KELLING BUSHING
EDF .F                 326.5 : DRILLING FLOOR
EGL .F                   297 : GROUND LEVEL
DATE.             02-12-1972 : RUN DATE
RUN .                      9 : RUN NUMBER
DD  .F                 19629 : DEPTH DRILLER
DL  .F                 19635 : DEPTH LOGGER
BLI .F                 19628 : BOTTOM LOG INTERVAL
TLI .F                 19127 : TOP LOG INTERVAL
BS  .IN                  4.4 : BIT SIZE
BSD .F                 19629 : BIT SIZE AT DEPTH
DFT .       INVERMUL 43% OIL : DRILLING FLUID TYPE
DFD .                   19.1 : DRILLING FLUID DENSITY
DFV .                     88 : DRILLING FLUID VISCOSITY
TCS .HRS                  12 : TIME CURCULATED STOPPED
LUN .                   7504 : LOGGING UNIT NUMBER
LUL .                  PLEAS : LOGGING UNIT LOCATION
ENGI.               CLEMENTS : RECORDING ENGINEER
WITN.         GRIGSBY THOMAS : WITNESSED BY
CLNT.                A2DTECH : CLIENT CODE
ORIG.            2" 5" PRINT : ORIGIN OF DATA
UWI .         42013301410000 : UNIQUE WELL ID
DICO. A2D Technologies, Inc. : DIGITIZING COMPANY
~Other -----------------------------------------------------
~ASCII -----------------------------------------------------
# ...
 14900.00000   48.12390   10.52690    0.01380    2.72610   53.16760   59.54600   11.12390    -999.25   17.00320    -999.25   50.76180    -999.25    -999.25    0.04400
 14950.00000   24.34150   12.06250    0.10770    2.52530   31.93310   59.67100   10.57620    -999.25   74.60370    -999.25   35.13940    -999.25    -999.25    0.04260
 15000.00000   45.10550    9.84550    0.01690    2.71900   51.61640   59.24240   10.03560    -999.25   24.87930    -999.25   37.05180    -999.25    -999.25    0.02360
 15050.00000   23.49590   10.16340    0.11690    2.53960   25.36060   59.25600   10.30060    -999.25  128.01970    -999.25    -999.25    -999.25    -999.25    0.03530
 15100.00000   40.59400    9.98910    0.09250    2.47960   38.41380   54.75200   10.31150    -999.25   33.94030    -999.25   32.27090    -999.25    -999.25    0.12440
 15150.00000   33.04180   10.13720    0.01620    2.82640   32.98710   53.18250   10.24580    -999.25   44.76560    -999.25   31.31920    -999.25    -999.25    0.02680
 15200.00000   50.91360   10.01170    0.02940    2.72260   49.49040   59.28790   10.21330    -999.25   56.00010    -999.25   31.13450    -999.25    -999.25    0.04970
 15250.00000   29.35900   10.19100    0.10510    2.60840   34.23640   57.18740   10.27610    -999.25  108.90940    -999.25    -999.25    -999.25    -999.25    0.03530
 15300.00000   11.99510   10.98130    0.02130    2.44330   14.12760   56.38120   10.58020    -999.25  158.59280    -999.25    -999.25    -999.25    -999.25    0.02530
 15350.00000   16.54090   10.23920    0.01470    2.85730   24.99030   49.57350   11.05020    -999.25  106.88220    -999.25    -999.25    -999.25    -999.25    0.01810
 15400.00000   28.77880   10.25930    0.01470    2.56760   46.38640   64.13730   10.53280    -999.25   26.16290    -999.25   31.47410    -999.25    -999.25    0.04480
 15450.00000   74.03290   10.67750    0.00810    2.67350   72.25610   72.05900   10.77800    -999.25   13.07630    -999.25   97.77430    -999.25    -999.25    0.11770
 15500.00000   59.87890    9.71220   -0.00750    2.70920   85.64770   61.38170    9.91310    -999.25   19.96530    -999.25   54.08370    -999.25    -999.25    0.04740
 15550.00000   37.90380    9.70730   -0.00460    2.69120   71.28720   57.61010    9.83240    -999.25   20.51650    -999.25   45.81090    -999.25    -999.25    0.02800
 15600.00000   58.94690    9.71220   -0.00080    2.69750   89.15280   65.61470    9.86860    -999.25   14.28980    -999.25   74.15630    -999.25    -999.25    0.06740
 15650.00000   73.02040    9.92430    0.01030    2.72660   89.24490   70.11360    9.91230    -999.25   11.10980    -999.25   87.10160    -999.25    -999.25    0.09750
 15700.00000   63.90550    9.89710    0.00730    2.70660   82.23440   67.57800    9.85900    -999.25   13.06450    -999.25   80.16440    -999.25    -999.25    0.09150
 15750.00000   24.20710    9.88070    0.01310    2.74990   58.38900   53.81470    9.80170    -999.25   32.30360    -999.25   32.66930    -999.25    -999.25    0.00790
 15800.00000   51.71360    9.87050    0.00670    2.74180   75.01220   47.33650    9.86220    -999.25   23.68390    -999.25   39.94020    -999.25    -999.25    0.02920
 15850.00000   22.81380   11.86660    0.03960    2.50250   36.85160   58.33350   10.93000    -999.25   85.27280    -999.25    -999.25    -999.25    -999.25    0.03030
 15900.00000   27.53330    9.79150    0.01900    2.68930   35.48170   45.10790    9.81100    -999.25   74.70270    -999.25    -999.25    -999.25    -999.25    0.00930
 15950.00000   35.03000    9.76220    0.01530    2.74460   49.76790   58.52840    9.79370    -999.25   36.87110    -999.25   40.23900    -999.25    -999.25    0.02430
 16000.00000    9.70670    9.92500    0.01730    2.72170   15.64530   50.94610    9.87810    -999.25   38.47360    -999.25   49.55050    -999.25    -999.25    0.01280
 16050.00000   13.40740    9.86780    0.00370    2.72890   33.30430   49.49680    9.85370    -999.25   47.90780    -999.25   29.92950    -999.25    -999.25    0.00130
 16100.00000   32.57400    9.80340    0.01760    2.76530   41.41030   58.08950    9.81190    -999.25   15.08870    -999.25   65.74680    -999.25    -999.25    0.03930
 16150.00000   25.28330    9.74640    0.00710    2.74990   36.36010   55.81920    9.82610    -999.25   14.08980    -999.25   58.16730    -999.25    -999.25    0.02720
 16200.00000   46.36340    9.79830    0.00640    2.72680   51.29960   64.76290    9.82150    -999.25    7.48280    -999.25  121.51390    -999.25    -999.25    0.05650
 16250.00000   53.03640    9.73850    0.01040    2.72440   58.90350   70.30270    9.83080    -999.25    5.72680    -999.25  180.34530    -999.25    -999.25    0.08440
 16300.00000   56.38610    9.76630    0.01740    2.71620   61.64010   69.04420    9.82180    -999.25    5.18540    -999.25  195.61750    -999.25    -999.25    0.07180
 16350.00000   48.63820    9.76280   -0.00180    2.72300   60.13380   74.20910    9.84200    -999.25    5.71940    -999.25  189.08370    -999.25    -999.25    0.08440
 16400.00000   51.48110    9.75150    0.01250    2.70800   59.44040   67.40910    9.83150    -999.25    5.85220    -999.25  174.40240    -999.25    -999.25    0.08970
 16450.00000   44.78260    9.74060    0.03440    2.74410   55.02950   66.89310    9.82460    -999.25    6.61610    -999.25  163.25810    -999.25    -999.25    0.06740
 16500.00000   64.18480    9.72060   -0.00020    2.66370   63.00670   75.06690    9.79470    -999.25    6.10780    -999.25  166.83270    -999.25    -999.25    0.08590
 16550.00000   45.76040    9.69370    0.02580    2.67000   41.73530   63.95960    9.76820    -999.25   11.09600    -999.25   88.56000    -999.25    -999.25    0.03580
 16600.00000   63.30220    9.74180    0.00490    2.70690   63.34910   71.60240    9.81290    -999.25    5.37430    -999.25  200.00000    -999.25  744.88030    0.08920
 16650.00000   68.65820    9.72000    0.00570    2.69120   69.90720   73.30000    9.81560    -999.25    4.52850    -999.25  220.83990    -999.25  687.93750    0.10440
 16700.00000   62.07630    9.71680    0.00720    2.68820   68.63320   72.13300    9.85030    -999.25    4.72690    -999.25  212.15360    -999.25  665.26510    0.09990
 16750.00000   71.45320    9.69530    0.01390    2.69450   76.97490   74.90290    9.86490    -999.25    4.03130    -999.25  261.08020    -999.25  618.87450    0.11910
 16800.00000   61.63230    9.64550    0.01150    2.70780   67.35140   72.80290    9.79730    -999.25    4.79050    -999.25  250.59760    -999.25  669.88070    0.09690
 16850.00000   92.86910    7.27910   -0.05440    2.64520   94.20810   71.10260    6.87030    -999.25    2.72010    -999.25  200.17480    -999.25  947.65270    -999.25
 16900.00000   96.79740    7.11790   -0.05190    2.64770   85.53730   70.60260    6.77150    -999.25    2.38420    -999.25  199.60160    -999.25  983.50950    -999.25
 16950.00000  104.71330    7.10730   -0.04460    2.67760  106.58740   74.50780    6.73330    -999.25    1.94190    -999.25  229.08370    -999.25  920.54590    -999.25
 17000.00000   88.38560    7.11420   -0.05480    2.68570   83.08450   66.25090    6.72270    -999.25    2.94010    -999.25  152.25230    -999.25 1020.17570    -999.25
 17050.00000   73.65690    7.08920   -0.04740    2.66350   52.22450   59.95310    6.71280    -999.25    3.68530    -999.25  131.45910    -999.25 1399.69600    -999.25
 17100.00000  113.60180    7.09780   -0.04350    2.69090  111.97500   73.09180    6.71970    -999.25    1.31080    -999.25  323.90440    -999.25  729.96700    -999.25
 17150.00000   75.06610    7.10930   -0.04390    2.79720  102.26550   70.94800    6.71400    -999.25    2.88540    -999.25  156.89240    -999.25 1105.61270    -999.25
 17200.00000  116.50390    7.10140   -0.05350    2.72110  117.87070   68.49030    6.68890    -999.25    1.57560    -999.25  265.48850    -999.25  619.09470    -999.25
 17250.00000  110.65560    7.09580   -0.05600    2.66400  100.00170   70.80680    6.69620    -999.25    1.79440    -999.25  244.77470    -999.25  931.13400    -999.25
