~Version ---------------------------------------------------
VERS. 2.0 : CWLS log ASCII Standard -VERSION 2.0
WRAP.  NO : ONE LINE PER DEPTH STEP
~Well ------------------------------------------------------
STRT.F                     300.0 : START DEPTH
STOP.F                   19600.0 : STOP DEPTH
STEP.F                  50.00000 : STEP LENGTH
NULL.                    -999.25 : NULL VALUE
COMP. CITIES SERVICE OIL COMPANY : COMPANY
WELL.          PEELER RANCH A #1 : WELL
FLD .                    WILDCAT : FIELD
LOC .                            : LOCATION
CNTY.                   ATASCOSA : COUNTY
STAT.                      TEXAS : STATE
CTRY.   UNITED STATES OF AMERICA : COUNTRY
SRVC.               Schlumberger : SERVICE COMPANY
DATE.                12-Feb-1972 : LOGDATE
API .             42013301410000 : API NUMBER
UWI .             42013301410000 : UNIQUE WELL ID
SLAT.WGS84         28.6903618688 : SURFACE LATITUDE
SLON.WGS84        -98.4697337546 : SURFACE LONGITUDE
~Curve Information -----------------------------------------
DEPT.F                 : 
GRD .GAPI 45 310 01 00 : GAMMA RAY FROM DENSITY LOG
CALD.IN   45 280 60 00 : CALIPER FROM DENSITY LOG
CORR.G/C3 45 356 01 00 : DENSITY CORRECTION
RHOB.G/C3 45 350 01 00 : BULK DENSITY
GRS .GAPI 60 310 01 00 : GAMMA RAY FROM SONIC LOG
DT  .US/F 60 500 32 00 : DELTA-T (INTERVAL TRANSIT TIME)
CALS.IN   60 280 50 00 : CALIPER FROM SONIC LOG
ALL8.OHMM 05 221 08 00 : AMPLIFIED LATEROLOG-8
ILD .OHMM 05 120 46 00 : INDUCTION LOG DEEP
ASN .OHMM 05 041 16 00 : AMPLIFIED SHORT NORMAL 16"
CILD.MMHO 05 110 46 00 : CONDUCTIVITY INDUCTION LOG DEEP
SPR .MV   05 010 01 00 : SPONTANEOUS POTENTIAL FROM RES.
NEUT.NAPI 35 330 01 00 : NEUTRON
SNP .DEC  41 890 01 00 : SIDEWALL NEUTRON POROSITY
~Params ----------------------------------------------------
PD  .                     GL : PERMANENT DATUM
EPD .F                   297 : ELEVATION PERMANENT DATUM
LMF .                     KB : LOG MEASURED FROM
DAPD.F                  30.5 : FEET ABOVE PERMANENT DATUM
DMF .                     KB : DRILLING MEASURED FROM
EKB .F                 327.5 : KELLING BUSHING
EDF .F                 326.5 : DRILLING FLOOR
EGL .F                   297 : GROUND LEVEL
DATE.             02-12-1972 : RUN DATE
RUN .                      9 : RUN NUMBER
DD  .F                 19629 : DEPTH DRILLER
DL  .F                 19635 : DEPTH LOGGER
BLI .F                 19628 : BOTTOM LOG INTERVAL
TLI .F                 19127 : TOP LOG INTERVAL
BS  .IN                  4.4 : BIT SIZE
BSD .F                 19629 : BIT SIZE AT DEPTH
DFT .       INVERMUL 43% OIL : DRILLING FLUID TYPE
DFD .                   19.1 : DRILLING FLUID DENSITY
DFV .                     88 : DRILLING FLUID VISCOSITY
TCS .HRS                  12 : TIME CURCULATED STOPPED
LUN .                   7504 : LOGGING UNIT NUMBER
LUL .                  PLEAS : LOGGING UNIT LOCATION
ENGI.               CLEMENTS : RECORDING ENGINEER
WITN.         GRIGSBY THOMAS : WITNESSED BY
CLNT.                A2DTECH : CLIENT CODE
ORIG.            2" 5" PRINT : ORIGIN OF DATA
UWI .         42013301410000 : UNIQUE WELL ID
DICO. A2D Technologies, Inc. : DIGITIZING COMPANY
~Other -----------------------------------------------------
~ASCII -----------------------------------------------------
# ...
 7650.00000    -999.25    -999.25    -999.25    -999.25    -999.25   83.03850   13.64100    -999.25    2.31880    2.81120  413.17370  -23.40000    -999.25    -999.25
 7700.00000    -999.25    -999.25    -999.25    -999.25    -999.25   87.61850   13.65520    -999.25    2.23600    2.92260  405.90340  -23.00000    -999.25    -999.25
 7750.00000    -999.25    -999.25    -999.25    -999.25    -999.25   94.09040   13.58020    -999.25    1.55280    2.14760  558.88220  -23.00000    -999.25    -999.25
 7800.00000    -999.25    -999.25    -999.25    -999.25    -999.25   88.64860   13.65370    -999.25    1.62650    1.99790  632.73450  -23.00000    -999.25    -999.25
 7850.00000    -999.25    -999.25    -999.25    -999.25    -999.25   87.16640   13.58860    -999.25    1.87890    2.11870  534.70840  -25.80000    -999.25    -999.25
 7900.00000    -999.25    -999.25    -999.25    -999.25    -999.25   89.47290   13.86920    -999.25    1.58390    2.03720  629.91590  -49.20000    -999.25    -999.25
 7950.00000    -999.25    -999.25    -999.25    -999.25    -999.25   94.73460   13.42710    -999.25    1.35090    1.63980  714.57090  -23.60000    -999.25    -999.25
 8000.00000    -999.25    -999.25    -999.25    -999.25    -999.25   96.09670   13.23550    -999.25    1.07660    1.39730  896.56940  -22.20000    -999.25    -999.25
 8050.00000    -999.25    -999.25    -999.25    -999.25    -999.25   88.62770   13.35180    -999.25    1.66670    1.75540  645.50900  -23.40000    -999.25    -999.25
 8100.00000    -999.25    -999.25    -999.25    -999.25    -999.25   90.43750   13.53220    -999.25    1.92550    2.30340  501.45110  -24.60000    -999.25    -999.25
 8150.00000    -999.25    -999.25    -999.25    -999.25    -999.25   88.88350   13.62450    -999.25    1.67700    1.97210  557.56500  -22.80000    -999.25    -999.25
 8200.00000    -999.25    -999.25    -999.25    -999.25    -999.25   86.67780   13.64860    -999.25    2.10590    2.48710  447.50200  -23.40000    -999.25    -999.25
 8250.00000    -999.25    -999.25    -999.25    -999.25    -999.25   93.19220   13.81160    -999.25    2.12220    2.23120  449.10180  -25.40000    -999.25    -999.25
 8300.00000    -999.25    -999.25    -999.25    -999.25    -999.25  113.54460   13.69690    -999.25    1.98760    1.98350  536.80790  -22.20000    -999.25    -999.25
 8350.00000    -999.25    -999.25    -999.25    -999.25    -999.25   95.15130   13.89680    -999.25    1.45960    1.82660  615.43580  -22.20000    -999.25    -999.25
 8400.00000    -999.25    -999.25    -999.25    -999.25    -999.25   90.90670   13.97930    -999.25    1.43260    1.78120  640.71860  -21.60000    -999.25    -999.25
 8450.00000    -999.25    -999.25    -999.25    -999.25    -999.25   92.00000   14.12400    -999.25    1.50620    1.85860  610.77840  -22.20000    -999.25    -999.25
 8500.00000   61.72450   21.05420    0.04970    2.47590    -999.25   88.19810   14.24140    -999.25    1.64600    2.04330  542.11410  -20.96690    -999.25    0.29780
 8550.00000   66.27420   21.79980    0.05680    2.52090    -999.25   94.67140   14.26780    -999.25    1.41300    1.84830  612.77450  -20.20000    -999.25    0.31210
 8600.00000   62.98840   21.82660    0.01210    2.39400    -999.25  103.27450   14.26060    -999.25    1.30430    1.66150  643.81320  -20.65480    -999.25    0.33870
 8650.00000   61.63180   21.27840    0.04290    2.57450    -999.25   81.72340   14.08120    -999.25    2.54660    2.63570  378.67120  -22.20000    -999.25    0.18530
 8700.00000   75.87270   21.54640    0.02680    2.49320    -999.25   82.72680   13.62180    -999.25    1.93580    2.25180  461.07780  -21.80000    -999.25    0.24050
 8750.00000   66.88380   21.80280    0.05310    2.52860    -999.25   86.68380   13.96490    -999.25    2.04970    2.38390  447.27210  -22.20000    -999.25    0.19850
 8800.00000   59.88680   21.25040    0.03250    2.52940    -999.25   82.67180   13.87590    -999.25    2.38090    2.55110  393.92020  -22.06670    -999.25    0.26250
 8850.00000   65.61110   21.84260    0.01080    2.50830    -999.25   85.18760   13.93610    -999.25    2.01860    2.24870  473.05390  -21.00000    -999.25    0.25860
 8900.00000   60.98900   21.41450    0.01960    2.55050    -999.25   84.10370   14.02260    -999.25    2.42240    2.68730  392.52910  -21.00000    -999.25    0.16220
 8950.00000   64.35470   20.84220    0.04910    2.53370    -999.25   86.79190   14.48230    -999.25    2.32920    2.61610  413.17370  -20.60000    -999.25    0.21350
 9000.00000   61.12040   21.73550    0.04030    2.49770    -999.25   87.60540   14.62800    -999.25    2.46950    -999.25  113.17570  -53.66350    -999.25    0.28750
 9050.00000   53.77040   19.82040    0.03580    2.53550    -999.25   79.64510   14.62900    -999.25    3.39680    4.71150  294.93450  -55.99930    -999.25    0.13480
 9100.00000   48.11060   18.77620    0.04140    2.60730    -999.25   78.83670   14.64830    -999.25    3.52510    6.07270  256.97210  -55.94620    -999.25    0.15480
 9150.00000   59.09940   17.64760    0.03660    2.53450    -999.25   76.72630   14.64120    -999.25    4.99880    5.37620  182.60290  -56.79800    -999.25    0.14730
 9200.00000   57.87020   17.51750    0.02670    2.55020    -999.25    -999.25   14.21990    -999.25    6.59830    6.23910  125.60370  -56.80270    -999.25    0.11440
 9250.00000   42.98870   16.97260    0.01170    2.61730    -999.25   79.66090   14.14720    -999.25    4.10790    4.33880  244.62150  -55.59250    -999.25    0.11270
 9300.00000   46.25790   16.53850    0.01170    2.62300    -999.25   74.64920   14.09440    -999.25    5.15700    5.13930  188.30440  -55.36170    -999.25    0.10130
 9350.00000   41.64870   16.66610    0.01980    2.64710    -999.25   67.23670   14.15470    -999.25    7.02450    6.52630  147.46730  -57.36350    -999.25    0.09120
 9400.00000   29.16290   16.38560    0.01290    2.67880    -999.25   56.62260   14.08730    -999.25    9.88810    7.54950  112.14270  -60.76630    -999.25    0.06080
 9450.00000   49.87030   17.50800    0.02280    2.61990    -999.25   65.58850   14.06420    -999.25    3.65430    4.05430  398.80480  -60.19440    -999.25    0.09620
 9500.00000   17.12100   16.02550    0.02180    2.67970    -999.25   61.02610   13.95700    -999.25   16.43390   13.31360   59.58310  -70.94790    -999.25    0.03770
 9550.00000   29.02060   16.19240    0.00440    2.63970    -999.25   61.90860   14.01070    -999.25   17.17080   13.99400   50.59760  -65.80760    -999.25    0.04910
 9600.00000   46.80250   16.68590    0.02060    2.57810    -999.25   69.12480   14.08630    -999.25   10.89370   10.01780   75.12040  -63.78390    -999.25    0.10830
 9650.00000   41.58230   17.22940   -0.00320    2.54810    -999.25   73.55330   14.08410    -999.25   26.99690   22.43050   33.46610  -63.69930    -999.25    0.10340
 9700.00000   58.75490   16.99130    0.04620    2.54200    -999.25   73.16760   14.03270    -999.25   96.23740   26.06610   20.30430  -66.38850    -999.25    0.17750
 9750.00000   14.47340   19.17270    0.03880    2.60650    -999.25   51.64270   14.68060    -999.25  120.30280   22.82420   10.84490  -71.83590    -999.25    0.02780
 9800.00000   16.91340   16.63250    0.01180    2.64870    -999.25   52.04170   14.75090    -999.25   32.17140   19.14190   30.68630  -69.18810    -999.25    0.02970
 9850.00000   32.85670   19.76420    0.03430    2.23490    -999.25   63.50470   14.78980    -999.25    5.41410    7.07240  161.75300  -67.73810    -999.25    0.27630
 9900.00000   17.13530   16.96580    0.02380    2.57860    -999.25   51.81750   14.82410    -999.25   37.26970   23.30610   27.94020 -102.83500    -999.25    0.06190
 9950.00000   17.54350   15.83370    0.01320    2.57040    -999.25   52.36890   14.72560    -999.25   26.13270   24.01100   39.44220  -96.70100    -999.25    0.07280
 10000.00000   16.17430   15.29980    0.01320    2.46540    -999.25   55.28760   14.28340    -999.25    7.45260   15.59190  131.21710 -183.28990    -999.25    0.19140
 10050.00000   16.05970   17.17050    0.03130    2.54880    -999.25   51.31680   14.01110    -999.25   21.91400   28.36530   21.91240 -162.98800    -999.25    0.09840
