~Version ---------------------------------------------------
VERS. 2.0 : CWLS log ASCII Standard -VERSION 2.0
WRAP.  NO : ONE LINE PER DEPTH STEP
~Well ------------------------------------------------------
STRT.F                    2550.0 : START DEPTH
STOP.F                   14550.0 : STOP DEPTH
STEP.F                  50.00000 : STEP LENGTH
NULL.                    -999.25 : NULL VALUE
COMP. CHAMPLIN PETROLEUM COMPANY : COMPANY
WELL.        KESELING UNIT II #1 : WELL
FLD .         NORTHEAST YORKTOWN : FIELD
LOC .                            : LOCATION
CNTY.                    DE WITT : COUNTY
STAT.                      TEXAS : STATE
CTRY.   UNITED STATES OF AMERICA : COUNTRY
SRVC.               Schlumberger : SERVICE COMPANY
DATE.                09-May-1979 : LOGDATE
API .             42123309670000 : API NUMBER
UWI .             42123309670000 : UNIQUE WELL ID
SLAT.WGS84         29.0130345675 : SURFACE LATITUDE
SLON.WGS84        -97.4839413883 : SURFACE LONGITUDE
~Curve Information -----------------------------------------
DEPT.F                 : 
DT  .US/F 60 520 00 00 : INTERVAL TRANSIT TIME
CALR.INI  07 280 01 00 : CALIPER FROM RESISTIVITY
ILM .OHMM 07 120 44 00 : INDUCTION LOG MEDIUM
DRHO.G/C3 45 356 01 00 : DENSITY CORRECTION
RHOB.G/C3 45 350 01 00 : BULK DENSITY
SPR .MV   07 010 01 00 : SPONTANEOUS POTENTIAL FROM RES.
ALL8.OHMM 07 221 08 00 : AMPLIFIED LATEROLOG-8
ILD .OHMM 07 120 46 00 : INDUCTION LOG DEEP
CALD.IN   45 280 60 00 : CALIPER FROM DENSITY LOG
GRD .GAPI 45 310 01 00 : GAMMA RAY FROM DENSITY LOG
DPHI.DEC  45 890 10 00 : DENSITY POROSITY LIMESTONE
NPHI.DEC  42 890 01 00 : NEUTRON POROSITY LIMESTONE
GRR .GAPI 07 310 01 00 : GAMMA RAY FROM RESISITIVITY LOG
CILD.MMHO 07 110 46 00 : CONDUCTIVITY INDUCTION LOG DEEP
~Params ----------------------------------------------------
PD  .                     GL : PERMANENT DATUM
EPD .F                 391.2 : ELEVATION PERMANENT DATUM
LMF .                     KB : LOG MEASURED FROM
DAPD.F                    14 : FEET ABOVE PERMANENT DATUM
DMF .                     KB : DRILLING MEASURED FROM
EKB .F                 405.2 : KELLING BUSHING
EDF .F                 404.2 : DRILLING FLOOR
EGL .F                 391.2 : GROUND LEVEL
DATE.                 5/7/79 : RUN DATE
RUN .                      2 : RUN NUMBER
DD  .F                 14600 : DEPTH DRILLER
DL  .F                 14592 : DEPTH LOGGER
BLI .F                 14586 : BOTTOM LOG INTERVAL
TLI .F                 10012 : TOP LOG INTERVAL
CS  .IN                10.75 : CASING SIZE
CBD .F                  2525 : CASING BOTTOM DRILLER
BS  .IN                 8.75 : BIT SIZE
BSD .F                 14600 : BIT SIZE AT DEPTH
DFT .                  GELEX : DRILLING FLUID TYPE
DFD .                   11.9 : DRILLING FLUID DENSITY
DFV .                     41 : DRILLING FLUID VISCOSITY
DFPH.                    8.5 : DRILLING FLUID PH
DFL .                    6.5 : DRILLING FLUID LOSS
MSS .               FLOWLINE : MUD SAMPLE SOURCE
RMS .OHMM               2.56 : RESISTIVITY MUD SAMPLE
MST .F                    75 : MUD SAMPLE TEMPERATURE
RMF .OHMM               2.39 : RESISTIVITY MUD FILTRATE SAMPLE
MFST.F                    75 : MUD FILTRATE SAMPLE TEMPERATURE
RMC .OHMM               3.84 : RESISTIVITY MUD CAKE
MCST.F                    75 : MUD CAKE SAMPLE TEMPERATURE
MFSS.                   MEAS : MUD FILTRATE SAMPLE SOURCE
MCSS.                   CALC : MUD CAKE SAMPLE SOURCE
RMB .OHMM              0.636 : RESISTIVITY MUD AT BHT
TCS .HRS                 900 : TIME CURCULATED STOPPED
TLAB.HRS                1730 : TIME LOGGER AT BOTTOM
LUN .                   8078 : LOGGING UNIT NUMBER
LUL .                 DAYTON : LOGGING UNIT LOCATION
ENGI.                WILKINS : RECORDING ENGINEER
WITN.              JOHNSTONE : WITNESSED BY
CLNT.                A2DTECH : CLIENT CODE
ORIG.           2", 5" PRINT : ORIGIN OF DATA
UWI .         42123309670000 : UNIQUE WELL ID
DICO. A2D Technologies, Inc. : DIGITIZING COMPANY
~Other -----------------------------------------------------
~ASCII -----------------------------------------------------
# ...
 7450.00000    -999.25   11.02650    2.78720    -999.25    -999.25  -60.19000    3.87700    2.52800    -999.25    -999.25    0.11240    0.26510  100.91500  413.04350
 7500.00000    -999.25   11.33830    2.72750    -999.25    -999.25  -62.75400    3.73100    2.54700    -999.25    -999.25    0.12920    0.26950   92.23790  420.94860
 7550.00000    -999.25   11.96210    3.37730    -999.25    -999.25  -41.81800    3.41300    3.29100    -999.25    -999.25    0.09790    0.28110   91.76470  312.53530
 7600.00000    -999.25   10.41030    4.42970    -999.25    -999.25  -79.93400    6.51200    3.28400    -999.25    -999.25    0.16350    0.24680   60.70520  354.58840
 7650.00000    -999.25   12.52100    1.92300    -999.25    -999.25  -45.45400    2.13800    2.20000    -999.25    -999.25    0.15130    0.30170  104.16180  506.21120
 7700.00000    -999.25   10.94910    2.72530    -999.25    -999.25  -68.03400    3.56300    2.39100    -999.25    -999.25    0.12130    0.29010   89.96800  429.28390
 7750.00000    -999.25   12.03290    3.38270    -999.25    -999.25  -45.98000    3.83900    3.43300    -999.25    -999.25    0.10390    0.26780   85.73630  293.04170
 7800.00000    -999.25   11.63770    3.70080    -999.25    -999.25  -64.16200    4.68600    3.50200    -999.25    -999.25    0.12180    0.29100   88.70310  310.27670
 7850.00000    -999.25   11.95210    3.22290    -999.25    -999.25  -41.49000    3.48200    3.26100    -999.25    -999.25    0.10240    0.30180   98.16160  321.25600
 7900.00000    -999.25   11.74260    2.96630    -999.25    -999.25  -51.86600    3.29100    2.91400    -999.25    -999.25    0.11940    0.28830   98.08500  339.67060
 7950.00000    -999.25   11.68810    2.80660    -999.25    -999.25  -41.96400    3.09600    3.06300    -999.25    -999.25    0.10570    0.35840  113.33070  357.70750
 8000.00000    -999.25   10.24890    4.02100    -999.25    -999.25 -110.56600   10.04000    2.71300    -999.25    -999.25    0.19020    0.24840   65.15710  376.65710
 8050.00000    -999.25   13.70680    2.51510    -999.25    -999.25  -41.99600    2.80600    2.76200    -999.25    -999.25    0.18500    0.38030   91.26140  401.65080
 8100.00000    -999.25   11.85430    3.50980    -999.25    -999.25  -43.87400    3.63800    3.70300    -999.25    -999.25    0.09880    0.28440   88.43100  279.24900
 8150.00000    -999.25   12.31140    2.60100    -999.25    -999.25  -40.47000    2.99300    2.66300    -999.25    -999.25    0.11410    0.35200   95.83820  379.05140
 8200.00000    -999.25   11.53290    3.07060    -999.25    -999.25  -65.56600    4.06000    3.22900    -999.25    -999.25    0.11420    0.29810   90.44490  330.03950
 8250.00000    -999.25   11.66770    3.47750    -999.25    -999.25  -44.68000    3.86200    3.48100    -999.25    -999.25    0.10170    0.28200   94.82730  287.27990
 8300.00000    -999.25   11.54790    3.29040    -999.25    -999.25  -39.62800    3.84200    3.24300    -999.25    -999.25    0.09410    0.30540  102.92700  303.85970
 8350.00000    -999.25   10.71630    3.02820    -999.25    -999.25 -100.70400    7.85900    2.25500    -999.25    -999.25    0.18830    0.23400   63.20350  430.83000
 8400.00000    -999.25   11.91220    3.20810    -999.25    -999.25  -39.92800    3.72300    3.16500    -999.25    -999.25    0.09250    0.31080   92.32120  317.93480
 8450.00000    -999.25   11.77240    3.83080    -999.25    -999.25  -57.64400    4.17900    3.72400    -999.25    -999.25    0.08350    0.28020   96.01780  263.28500
 8500.00000    -999.25   11.90720    3.52600    -999.25    -999.25  -58.92800    4.33300    3.50100    -999.25    -999.25    0.12590    0.26540   72.23780  292.70580
 8550.00000    -999.25   11.67970    4.33490    -999.25    -999.25  -38.34000    4.83000    4.11100    -999.25    -999.25    0.07380    0.29510  102.41250  227.27270
 8600.00000    -999.25   12.09140    3.62300    -999.25    -999.25  -39.27600    4.78900    3.55200    -999.25    -999.25    0.07020    0.24020   88.14600  271.19620
 8650.00000    -999.25   11.26400    4.88000    -999.25    -999.25  -39.68200    5.33300    4.87900    -999.25    -999.25    0.08970    0.25920  104.77580  215.41500
 8700.00000    -999.25   11.59940    3.85760    -999.25    -999.25  -40.29600    4.16500    3.88400    -999.25    -999.25    0.06390    0.23750   98.28110  247.03560
 8750.00000    -999.25   11.50650    4.55660    -999.25    -999.25  -40.95400    4.97400    4.73800    -999.25    -999.25    0.09810    0.24920  105.66860  214.66310
 8800.00000    -999.25   10.24550    4.30030    -999.25    -999.25 -111.40400   11.66600    2.98600    -999.25    -999.25    0.17270    0.21940   70.09520  352.85050
 8850.00000    -999.25   13.08980    3.15670    -999.25    -999.25  -36.21200    3.74500    3.23700    -999.25    -999.25    0.08360    0.33100  108.65200  321.22230
 8900.00000    -999.25   12.50600    4.04900    -999.25    -999.25  -39.72000    3.90600    4.26600    -999.25    -999.25    0.06300    0.22960  108.13430  272.92660
 8950.00000    -999.25   10.35110    6.23390    -999.25    -999.25 -108.52800   20.26900    3.86400    -999.25    -999.25    0.12140    0.17360   39.12940  267.36310
 9000.00000    -999.25   12.56590    2.76850    -999.25    -999.25  -47.43600    3.85200    3.07000    -999.25    -999.25    0.08910    0.29700  115.69530  349.23770
 9050.00000    -999.25   10.34630    7.49240    -999.25    -999.25  -81.12400   12.68100    5.07500    -999.25    -999.25    0.05310    0.09440   44.71700  201.58100
 9100.00000    -999.25   10.33180    6.58230    -999.25    -999.25  -88.72400   13.62400    4.88800    -999.25    -999.25    0.14260    0.18140   65.47120  212.12120
 9150.00000    -999.25   10.10940    6.34650    -999.25    -999.25  -87.35400   14.54300    4.14300    -999.25    -999.25    0.16490    0.19070   54.02090  231.78990
 9200.00000    -999.25   10.57700    6.58670    -999.25    -999.25  -69.29000   10.25500    5.40500    -999.25    -999.25    0.13730    0.18580   63.79420  187.74700
 9250.00000    -999.25    9.93160    5.77400    -999.25    -999.25 -120.05800   18.12700    3.77300    -999.25    -999.25    0.16530    0.16550   40.58300  270.51380
 9300.00000    -999.25   10.18260    6.88840    -999.25    -999.25 -108.17200   16.99400    4.53500    -999.25    -999.25    0.15560    0.16100   39.66630  224.03860
 9350.00000    -999.25   10.23050    5.72110    -999.25    -999.25 -113.59200   17.40700    4.24200    -999.25    -999.25    0.14860    0.15500   40.80720  270.75100
 9400.00000    -999.25   11.35510    3.98610    -999.25    -999.25  -48.16200    4.27000    5.50000    -999.25    -999.25    0.07650    0.22000   82.78120  284.76800
 9450.00000    -999.25   10.00600    5.91830    -999.25    -999.25  -84.47800   14.84300    4.02500    -999.25    -999.25    0.14710    0.17900   49.55080  254.94070
 9500.00000    -999.25   11.38320    4.52260    -999.25    -999.25  -37.35800    5.12800    4.50600    -999.25    -999.25    0.07380    0.22010  104.03590  240.08940
 9550.00000    -999.25   12.53380    2.67110    -999.25    -999.25  -37.96200    3.13900    2.98200    -999.25    -999.25    0.33940    0.40750   91.77060  397.23320
 9600.00000    -999.25   12.28160    2.22440    -999.25    -999.25  -42.26600    2.73500    2.07600    -999.25    -999.25    0.14510    0.35210  113.00350  458.11960
 9650.00000    -999.25   12.25140    2.36660    -999.25    -999.25  -41.70800    2.76200    2.54700    -999.25    -999.25    0.09770    0.31990   97.47170  440.05270
 9700.00000    -999.25   11.59720    2.16750    -999.25    -999.25  -40.21600    2.72500    2.10500    -999.25    -999.25    0.20560    0.32740  100.72750  465.55620
 9750.00000    -999.25   13.02990    2.03280    -999.25    -999.25  -44.00400    2.40900    1.98000    -999.25    -999.25    0.12520    0.41210   88.85300  528.66920
 9800.00000    -999.25   11.14370    7.17320    -999.25    -999.25  -47.42800    7.28600    6.99100    -999.25    -999.25    0.09360    0.18560   81.39010  140.41520
 9850.00000    -999.25   12.31140    2.05610    -999.25    -999.25  -42.63400    2.29200    1.99800    -999.25    -999.25    0.09810    0.35860  108.74440  503.84360
