~Version ---------------------------------------------------
VERS. 2.0 : CWLS log ASCII Standard -VERSION 2.0
WRAP. YES : MULTIPLE LINES PER DEPTH STEP
~Well ------------------------------------------------------
STRT.FT                  300.0 : START DEPTH
STOP.FT                18600.0 : STOP DEPTH
STEP.FT               50.00000 : STEP LENGTH
NULL.                  -999.25 : NULL VALUE
COMP.        SHELL OIL COMPANY : COMPANY
WELL. PAWELEK BEN A ET AL A #1 : WELL
FLD .    PERSON AREA (WILDCAT) : FIELD
LOC .                          : LOCATION
CNTY.                   KARNES : COUNTY
STAT.                    TEXAS : STATE
CTRY. UNITED STATES OF AMERICA : COUNTRY
SRVC.             Schlumberger : SERVICE COMPANY
DATE.              22-May-1978 : LOGDATE
API .           42255305980000 : API NUMBER
UWI .           42255305980000 : UNIQUE WELL ID
SLAT.WGS84       29.0241796548 : SURFACE LATITUDE
SLON.WGS84      -97.8796797249 : SURFACE LONGITUDE
~Curve Information -----------------------------------------
DEPT    .FT    : DEPTH FEET
CALDED  .IN    : CALIPER FROM DENSITY LOG [DEP ADJ TO GRSED]
CALMED  .IN    : CALIPER FROM MICROLOG [DEP ADJ TO SFLED]
CALSED  .IN    : CALIPER FROM SONIC LOG
CALWS   .IN    : CALIPER [10 CALDED 4845.5 CALMED 4849 CALDED 17451 CALSED 17577 CALDED]
CONDWS  .MMHO  : CONDUCTIVITY [1000/DRESWS]
DCORWS  .G/C3  : DENSITY CORRECTION [DRHOED]
DENWS   .G/C3  : BULK DENSITY [M=2.71 F=1.0] [RHOBED]
DPHILSED.V/V   : DENSITY POROSITY [M=2.71 F=1.0] FROM DENSITY LOG [DEP ADJ TO GRSED/RHOBED]
DPHISSED.V/V   : DENSITY POROSITY [M=2.65 F=1.0] FROM DENSITY LOG [DEP ADJ TO GRSED/RHOBED]
DPOLSWS .V/V   : DENSITY POROSITY [M=2.71 F=1.0] [CAL FR DENWS]
DRESWS  .OHMM  : DEEP RESISTIVITY [ILDED]
DRHOED  .G/C3  : DENSITY CORRECTION FROM DENSITY LOG [DEP ADJ TO GRSED]
DTED    .US/F  : DELTA TIME FROM SONIC LOG
DTWS    .US/F  : DELTA TIME [DTED]
GRDED   .GAPI  : GAMMA RAY FROM DENSITY LOG
GRRED   .GAPI  : GAMMA RAY FROM RESISTIVITY LOG [DEP ADJ TO GRSED]
GRSED   .GAPI  : GAMMA RAY FROM SONIC LOG
GRWS    .GAPI  : GAMMA RAY [70 GRDED 4800.5 GRDEDNRM [0-100 TO 0-140]4844.5 GRSED 4853.5 GRDED 12903.5 GRSED 12939.5 GRDED 12962 GRSED 17526 GRDED 17550 GRRED 18607 GRDED]
ILDED   .OHMM  : INDUCTION LOG DEEP RESISTIVITY
ILMED   .OHMM  : INDUCTION LOG MEDIUM RESISTIVITY
MRESWS  .OHMM  : MEDIUM RESISTIVITY [ILMED]
NPHILSED.V/V   : NEUTRON POROSITY LISTONE FROM DENSITY LOG [DEP ADJ TO GRSED/RHOBED]
NPHISSED.V/V   : NEUTRON POROSITY SANDSTONE FROM DENSITY LOG [DEP ADJ TO GRSED/RHOBED]
NPOLSWS .V/V   : NEUTRON POROSITY LIMESTONE [10 NPOLSCAL 9446 NPHILSED] [NPHISSED IS CONVERTED TO NPOLSCAL USING POWERLOG MODULE]
PROXED  .OHMM  : PROXIMITY RESISTIVITY FROM MICROLOG [DEP ADJ TO SFLED]
RHOBED  .G/C3  : BULK DENSITY FROM DENSITY LOG [DEP ADJ TO GRSED]
SFLED   .OHMM  : SPHERICALLY FOCUSED LOG RESISTIVITY
SPRED   .MV    : SPONTANEOUS POTENTIAL FROM RESISTIVITY LOG [SHIFTS ARE REMOVED]
SPWS    .MV    : SPONTANEOUS POTENTIAL [BASELINE 0 MV] [SPRED][PL. USE W/ RESERVATIONS]
SRESWS  .OHMM  : SHALLOW RESISTIVITY [SFLED]
TENDED  .LBF   : TENSION FROM DENSITY LOG [DEP ADJ TO GRSED]
~Params ----------------------------------------------------
PD  .                     GL : PERMANENT DATUM
EPD .FT                  335 : ELEVATION PERMANENT DATUM
LMF .                     KB : LOG MEASURED FROM
DAPD.FT                   28 : FEET ABOVE PERMANENT DATUM
DMF .                     KB : DRILLING MEASURED FROM
EKB .FT                  363 : KELLY BUSHING
EDF .FT                  362 : DRILLING FLOOR
EGL .FT                  335 : GROUND LEVEL
DATE.               05/22/78 : RUN DATE
RUN .                      4 : RUN NUMBER
DD  .FT                18626 : DEPTH DRILLER
DL  .FT                18642 : DEPTH LOGGER
BLI .FT                18637 : BOTTOM LOG INTERVAL
TLI .FT                17550 : TOP LOG INTERVAL
CS  .IN                    7 : CASING SIZE
CBD .FT                17544 : CASING BOTTOM DRILLER
CBL .FT                17550 : CASING BOTTOM LOGGER
BS  .IN                    6 : BIT SIZE
BSD .FT                18626 : BIT SIZE AT DEPTH
DFT .               INVERMUL : DRILLING FLUID TYPE
DFD .                   17.6 : DRILLING FLUID DENSITY
DFV .                     70 : DRILLING FLUID VISCOSITY
DFL .                      2 : DRILLING FLUID LOSS
LUN .                   7799 : LOGGING UNIT NUMBER
LUL .                  PLEAS : LOGGING UNIT LOCATION
ENGI.             TURBEVILLE : RECORDING ENGINEER
WITN.                JARRELL : WITNESSED BY
CLNT.                A2DTECH : CLIENT CODE
ORIG.            2" 5" PRINT : ORIGIN OF DATA
UWI .         42255305980000 : UNIQUE WELL ID
DICO. A2D Technologies, Inc. : DIGITIZING COMPANY
~Other -----------------------------------------------------
~ASCII -----------------------------------------------------
# ...
 10650.00000   13.26930   10.20980   10.66010   13.26930   50.80090    0.01100    2.70900    0.00340    -999.25    0.00060   19.68470    0.01100   51.75060   51.75060   21.72320    -999.25   22.57940   21.72320   19.68470   19.38040   19.38040    0.02660    -999.25    0.02660    7.19170    2.70900   69.21920  -63.07640  -18.61480   69.21920 9505.37110
 10700.00000   14.03220   10.31520   11.07870   14.03220   49.82560    0.06550    2.65220    0.03430    -999.25    0.03380   20.07000    0.06550   52.71780   52.71780   23.13090    -999.25   25.81910   23.13090   20.07000   14.87860   14.87860    0.04360    -999.25    0.04360    5.87680    2.65220   52.72000  -73.15350  -28.46480   52.72000 9490.04790
 10750.00000   12.57140    9.82430   10.39120   12.57140   52.54890    0.01400    2.61830    0.05330    -999.25    0.05360   19.02990    0.01400   54.22850   54.22850   44.07310    -999.25   41.01760   44.07310   19.02990   26.27220   26.27220    0.03500    -999.25    0.03500  113.93580    2.61830  128.25860 -141.65680  -96.74100  128.25860 9827.93650
 10800.00000   13.02370    9.06020   10.79430   13.02370   46.45890    0.07320    2.41690    0.16570    -999.25    0.17140   21.52440    0.07320   53.80660   53.80660   22.59950    -999.25   27.31910   22.59950   21.52440   22.06580   22.06580    0.08280    -999.25    0.08280    6.77850    2.41690   41.65430 -152.09680 -106.95390   41.65430 9830.82130
 10850.00000   11.79270    9.00170   10.17760   11.79270  151.56340    0.08800    2.49480    0.12420    -999.25    0.12580    6.59790    0.08800   56.19320   56.19320   24.15760    -999.25   28.79490   24.15760    6.59790    8.34990    8.34990    0.15740    -999.25    0.15740   10.88240    2.49480   15.61630 -133.30160  -87.93160   15.61630 9763.29590
 10900.00000   12.22340    8.85370   10.32720   12.22340   70.15230    0.00190    2.62740    0.05390    -999.25    0.04830   14.25470    0.00190   51.25770   51.25770   27.56510    -999.25   32.42280   27.56510   14.25470   21.30210   21.30210    0.06670    -999.25    0.06670    2.63910    2.62740   67.60460 -142.65590  -97.05880   67.60460 9683.73830
 10950.00000   11.53940    8.60770   10.14300   11.53940  104.20250    0.08740    2.44370    0.16550    -999.25    0.15570    9.59670    0.08740   57.36780   57.36780   23.41800    -999.25   25.64980   23.41800    9.59670   18.33150   18.33150    0.12220    -999.25    0.12220    2.62120    2.44370   22.63040 -107.51520  -61.69100   22.63040 9710.61040
 11000.00000   11.50200    8.79250   10.19710   11.50200  165.61500    0.12300    2.55600    0.09280    -999.25    0.09010    6.03810    0.12300   57.65050   57.65050   24.90250    -999.25   29.13820   24.90250    6.03810   12.08690   12.08690    0.08850    -999.25    0.08850   12.45580    2.55600   34.63880 -115.05030  -68.99900   34.63880 9668.48540
 11050.00000   11.84460    8.42540   10.21730   11.84460  180.75340    0.09160    2.56800    0.09310    -999.25    0.08300    5.53240    0.09160   51.15340   51.15340   23.61280    -999.25   22.90000   23.61280    5.53240   10.40680   10.40680    0.08470    -999.25    0.08470    3.07110    2.56800   26.58030 -110.72890  -64.45050   26.58030 9595.21290
 11100.00000   11.70820    8.63660   10.27270   11.70820  260.24040    0.08890    2.54450    0.09440    -999.25    0.09680    3.84260    0.08890   58.56560   58.56560   32.33000    -999.25   35.26530   32.33000    3.84260    7.14690    7.14690    0.09350    -999.25    0.09350    2.09130    2.54450   36.79980 -112.32410  -65.81860   36.79980 9605.45900
 11150.00000   11.58240    8.98400   10.24700   11.58240   99.35320    0.06120    2.56660    0.09160    -999.25    0.08390   10.06510    0.06120   48.35970   48.35970   24.41940    -999.25   23.36030   24.41940   10.06510   24.66920   24.66920    0.09130    -999.25    0.09130   18.48210    2.56660   41.40860 -106.18560  -59.45300   41.40860 9526.55960
 11200.00000   12.04460    9.45690   10.38730   12.04460  151.86260    0.04040    2.64960    0.03650    -999.25    0.03530    6.58490    0.04040   48.47030   48.47030   26.69250    -999.25   32.07240   26.69250    6.58490   11.77010   11.77010    0.05660    -999.25    0.05660    5.56390    2.64960   52.09860  -96.32450  -49.36480   52.09860 9460.43460
 11250.00000   11.65870    9.02380   10.35240   11.65870  345.31580    0.10020    2.50170    0.12340    -999.25    0.12180    2.89590    0.10020   54.78740   54.78740   25.89380    -999.25   27.46700   25.89380    2.89590    4.80210    4.80210    0.09330    -999.25    0.09330   11.93830    2.50170   15.41170 -128.73580  -81.54900   15.41170 9825.61430
 11300.00000   12.28140    9.46370   10.43220   12.28140  101.47440    0.00140    2.70350    0.00550    -999.25    0.00380    9.85470    0.00140   50.91710   50.91710   22.52500    -999.25   23.79390   22.52500    9.85470   15.04000   15.04000    0.04620    -999.25    0.04620   35.53390    2.70350   27.35710  -83.60950  -36.19560   27.35710 9708.38090
 11350.00000   11.84590    8.45890   10.35410   11.84590  164.59010    0.08620    2.56730    0.08100    -999.25    0.08350    6.07570    0.08620   54.63090   54.63090   23.87550    -999.25   20.72680   23.87550    6.07570   10.83700   10.83700    0.08720    -999.25    0.08720    8.06560    2.56730   24.96400 -100.22890  -52.58790   24.96400 9718.17770
 11400.00000   12.52030    9.68890   10.38630   12.52030   72.81410    0.01890    2.72690   -0.01740    -999.25   -0.00990   13.73360    0.01890   51.15630   51.15630   40.31610    -999.25   46.05290   40.31610   13.73360   24.70420   24.70420    0.11170    -999.25    0.11170    8.63240    2.72690   24.95010  -69.76570  -21.89760   24.95010 9681.57810
 11450.00000   12.52030    9.61910   10.41970   12.52030  136.98820    0.01850    2.61210    0.04980    -999.25    0.05730    7.29990    0.01850   52.43550   52.43550   20.20490    -999.25   23.41080   20.20490    7.29990   11.80280   11.80280    0.12950    -999.25    0.12950    4.99120    2.61210   23.15520  -71.08640  -23.34870   23.15520 9603.25290
 11500.00000   12.57220    9.39210   10.44010   12.57220   67.56120    0.00030    2.78680   -0.04380    -999.25   -0.04490   14.80140    0.00030   50.23690   50.23690   27.49260    -999.25   32.31880   27.49260   14.80140   34.47600   34.47600    0.08160    -999.25    0.08160    4.01570    2.78680   46.51970  -71.80250  -25.21270   46.51970 9569.87210
 11550.00000   12.32830    9.36990   10.38530   12.32830   64.47370    0.02390    2.74910   -0.02760    -999.25   -0.02290   15.51020    0.02390   50.85290   50.85290   35.59840    -999.25   39.03760   35.59840   15.51020   29.61960   29.61960    0.06360    -999.25    0.06360   22.66810    2.74910   30.39830  -70.20140  -24.75950   30.39830 9552.45610
 11600.00000   12.21070    9.64920   10.37010   12.21070   96.52140    0.01600    2.67970    0.01810    -999.25    0.01770   10.36040    0.01600   51.75700   51.75700   31.49290    -999.25   33.05890   31.49290   10.36040   19.12550   19.12550    0.04020    -999.25    0.04020   73.89860    2.67970   39.69060 -107.07330  -62.77930   39.69060 9539.69630
 11650.00000   12.19200    9.03180   10.32940   12.19200  207.16800    0.00230    2.63340    0.04280    -999.25    0.04480    4.82700    0.00230   54.84780   54.84780   26.45520    -999.25   23.99410   26.45520    4.82700    7.62910    7.62910    0.06640    -999.25    0.06640    2.08120    2.63340   24.09000 -114.20660  -71.06050   24.09000 9503.72270
 11700.00000   12.11100    9.22560   10.32510   12.11100  135.96010   -0.01220    2.72740   -0.00100    -999.25   -0.01020    7.35510   -0.01220   51.38720   51.38720   30.45060    -999.25   32.03800   30.45060    7.35510   12.79990   12.79990    0.04350    -999.25    0.04350  110.31670    2.72740   36.10680 -130.88140  -88.88320   36.10680 9479.16410
 11750.00000   12.27830    9.15260   10.40300   12.27830  242.47130    0.00390    2.61810    0.06020    -999.25    0.05370    4.12420    0.00390   53.24670   53.24670   25.78830    -999.25   33.42140   25.78830    4.12420    7.22260    7.22260    0.04830    -999.25    0.04830   11.34200    2.61810   18.10640 -128.72750  -87.87720   18.10640 9744.62400
