~Version ---------------------------------------------------
VERS. 2.0 : CWLS log ASCII Standard -VERSION 2.0
WRAP. YES : Multiple lines per depth step
~Well ------------------------------------------------------
STRT.FT                  300.0 : START DEPTH
STOP.FT                24000.0 : STOP DEPTH
STEP.FT               50.00000 : STEP LENGTH
NULL.                  -999.25 : NULL VALUE
COMP.       PLACID OIL COMPANY : COMPANY
WELL.                PEELER #1 : WELL
FLD .                  WILDCAT : FIELD
LOC .                          : LOCATION
CNTY.                MC MULLEN : COUNTY
STAT.                    TEXAS : STATE
CTRY. UNITED STATES OF AMERICA : COUNTRY
SRVC.             Schlumberger : SERVICE COMPANY
DATE.              01-Jan-1984 : LOGDATE
API .           42311317850000 : API NUMBER
UWI .           42311317850000 : UNIQUE WELL ID
SLAT.WGS84       28.5959255047 : SURFACE LATITUDE
SLON.WGS84      -98.4401225914 : SURFACE LONGITUDE
~Curve Information -----------------------------------------
DEPT  .FT    : 
CALDED.IN    : CALIPER FROM DENSITY LOG (ADJ TO RES.)
CALWS .IN    : CALIPER (CALDED)
CILDED.MMHO  : CONDUCTIVITY FROM LOG
CONDWS.MMHO  : CONDUCTIVITY (1000/DRESws)
DCORWS.G/C3  : DENSITY CORRECTION (DRHOED)
DENWS .G/C3  : BULK DENSITY  (FROM DPOws LS)
DPHIED.V/V   : DENSITY POROSITY  (ADJ TO RES.)
DPOWS .V/V   : DENSITY POROSITY (M=2.71 F=1 DPHIED)
DRESWS.OHMM  : DEEP RESISTIVITY (ILDED)
DRHOED.G/C3  : DENSITY CORRECTION (ADJ TO RES.)
DTED  .US/F  : DELTA TIME
DTWS  .US/F  : DELTA TIME  (DTED)
GRWS  .GAPI  : GAMMA RAY (GRRED)
GRRED .GAPI  : GAMMA RAY FROM RESISTIVITY LOG
ILDED .OHMM  : DEEP INDUCTION RESISTIVITY
ILMED .OHMM  : MEDIUM INDUCTION RESISTIVITY
MRESWS.OHMM  : MEDIUM RESISTIVITY (ILMED)
NPHIED.V/V   : NEUTRON POROSITY (ADJ TO RES.)
NPOWS .V/V   : NEUTRON POROSITY LIMESTONE (NPHIED)
RHOBED.G/C3  : BULK DENSITY (ADJ TO RES.)
SFLAED.OHMM  : SPHERICALLY FOCUSED RESISTIVITY
SPWS  .MV    : SPONTANEOUS POTENTIAL BASELINE 0 MV (SPRED)
SPRED .MV    : SPONTANEOUS POTENTIAL FROM RESISTIVITY
SRESWS.OHMM  : SHALLOW RESISTIVITY (SFLAED)
~Params ----------------------------------------------------
PD  .                     GL : PERMANENT DATUM
EPD .F                   336 : ELEVATION PERMANENT DATUM
LMF .                     KB : LOG MEASURED FROM
DMF .                     KB : DRILLING MEASURED FROM
EKB .F                   368 : KELLING BUSHING
EDF .F                   367 : DRILLING FLOOR
EGL .F                   336 : GROUND LEVEL
DATE.               1-1-1984 : RUN DATE
RUN .                      7 : RUN NUMBER
DD  .F                 24031 : DEPTH DRILLER
DL  .F                 24037 : DEPTH LOGGER
BLI .F                 24030 : BOTTOM LOG INTERVAL
TLI .F                 21000 : TOP LOG INTERVAL
CS  .IN                8.625 : CASING SIZE
CBD .F                 19500 : CASING BOTTOM DRILLER
CBL .F                 19500 : CASING BOTTOM LOGGER
BS  .IN                  7.5 : BIT SIZE
BSD .F                 24031 : BIT SIZE AT DEPTH
DFT .               INVERMUL : DRILLING FLUID TYPE
DFV .                     83 : DRILLING FLUID VISCOSITY
TCS .HRS                 800 : TIME CURCULATED STOPPED
TLAB.HRS                 200 : TIME LOGGER AT BOTTOM
LUL .               EDINBURG : LOGGING UNIT LOCATION
ENGI.              NEWMISTER : RECORDING ENGINEER
WITN.                   LONG : WITNESSED BY
CLNT.                A2DTECH : CLIENT CODE
ORIG.            1",5" PRINT : ORIGIN OF DATA
UWI .         42311317850000 : UNIQUE WELL ID
DICO. A2D Technologies, Inc. : DIGITIZING COMPANY
~Other -----------------------------------------------------
~ASCII -----------------------------------------------------
# ...
 19150.00000   11.49300   11.49300  327.18680  322.99740    0.00400    2.61440    0.05590    0.05590    3.09600    0.00400    -999.25    -999.25  196.60270  196.60270    3.09600    -999.25    -999.25    0.14700    0.14700    2.61600    3.17900  -16.09020  -35.85420    3.17900
 19200.00000   11.67700   11.67700  412.90330  358.88600   -0.00100    2.63270    0.04520    0.04520    2.78640   -0.00100    -999.25    -999.25  133.96110  133.96110    2.78640    -999.25    -999.25    0.16200    0.16200    2.63400    2.77780   -7.96880  -23.45790    2.77780
 19250.00000   11.29900   11.29900  450.77520  369.15350    0.00200    2.66570    0.02590    0.02590    2.70890    0.00200    -999.25    -999.25  148.01730  148.01730    2.70890    -999.25    -999.25    0.20800    0.20800    2.66700    2.88590   -6.05400  -17.61680    2.88590
 19300.00000   10.46100   10.46100  104.82720  160.16660   -0.01100    2.61950    0.05290    0.05290    6.24350   -0.01100    -999.25    -999.25   84.44790   84.44790    6.24350    -999.25    -999.25    0.05200    0.05200    2.62300    7.09870  -18.25550  -26.88470    7.09870
 19350.00000   10.03000   10.03000   94.18610  124.59820    0.00400    2.56550    0.08450    0.08450    8.02580    0.00400    -999.25    -999.25   54.00490   54.00490    8.02580    -999.25    -999.25    0.06700    0.06700    2.56900    8.42140  -26.66730  -32.36280    8.42140
 19400.00000   10.38600   10.38600  285.27130  213.25140    0.01300    2.78750   -0.04530   -0.04530    4.68930    0.01300    -999.25    -999.25   92.30170   92.30170    4.68930    -999.25    -999.25    0.12100    0.12100    2.75500    5.67900   -5.46230   -8.22420    5.67900
 19450.00000    9.78500    9.78500  205.03880  295.87550   -0.00700    2.70080    0.00540    0.00540    3.37980   -0.00700    -999.25    -999.25   80.01480   80.01480    3.37980    -999.25    -999.25    0.21500    0.21500    2.70700    4.21320  -11.22060  -11.04880    4.21320
 19500.00000    -999.25    -999.25  497.68360    -999.25    -999.25    -999.25    -999.25    -999.25    -999.25    -999.25   40.00000   40.00000    -999.25   94.47980    -999.25    -999.25    -999.25    0.25900    0.25900    -999.25  135.58640  -21.74240  -21.27730  135.58640
 19550.00000    7.70600    7.70600    -999.25  387.34170    -999.25    2.86490   -0.09060   -0.09060    2.58170    -999.25   61.49560   61.49560  110.57500  110.57500    2.58170    2.78670    2.78670    0.12700    0.12700    2.86400    -999.25    -999.25    -999.25    -999.25
 19600.00000    7.72400    7.72400    -999.25  293.37560    -999.25    2.79570   -0.05010   -0.05010    3.40860    -999.25   67.56650   67.56650  145.61140  145.61140    3.40860    3.18680    3.18680    0.22100    0.22100    2.79200    -999.25    -999.25    -999.25    -999.25
 19650.00000    7.72400    7.72400    -999.25  195.30110    -999.25    2.80300   -0.05440   -0.05440    5.12030    -999.25   64.92190   64.92190  150.93370  150.93370    5.12030    5.05810    5.05810    0.17300    0.17300    2.80400    -999.25    -999.25    -999.25    -999.25
 19700.00000    7.71700    7.71700    -999.25  124.13260    -999.25    2.80300   -0.05440   -0.05440    8.05590    -999.25   59.83050   59.83050   85.84760   85.84760    8.05590    8.74590    8.74590    0.06300    0.06300    2.82700    -999.25    -999.25    -999.25    -999.25
 19750.00000    7.68600    7.68600    -999.25  104.13850    -999.25    2.91620   -0.12060   -0.12060    9.60260    -999.25   55.10900   55.10900   55.05440   55.05440    9.60260    9.31100    9.31100    0.04000    0.04000    2.90300    -999.25    -999.25    -999.25    -999.25
 19800.00000    7.71400    7.71400    -999.25  172.61320    -999.25    2.80820   -0.05740   -0.05740    5.79330    -999.25   63.72920   63.72920  115.60100  115.60100    5.79330    5.44070    5.44070    0.13300    0.13300    2.80500    -999.25    -999.25    -999.25    -999.25
 19850.00000    7.73700    7.73700    -999.25  221.54280    -999.25    2.78490   -0.04380   -0.04380    4.51380    -999.25   70.84160   70.84160  130.87090  130.87090    4.51380    3.99700    3.99700    0.14200    0.14200    2.79300    -999.25    -999.25    -999.25    -999.25
 19900.00000    7.74300    7.74300    -999.25  211.28690    -999.25    2.80970   -0.05830   -0.05830    4.73290    -999.25   57.23170   57.23170   70.68450   70.68450    4.73290    4.29910    4.29910    0.09400    0.09400    2.82100    -999.25    -999.25    -999.25    -999.25
 19950.00000    7.76200    7.76200    -999.25  185.64930    -999.25    2.71800   -0.00470   -0.00470    5.38650    -999.25   70.68540   70.68540  125.97090  125.97090    5.38650    4.90120    4.90120    0.15000    0.15000    2.72500    -999.25    -999.25    -999.25    -999.25
 20000.00000    7.71600    7.71600    -999.25  286.36070    -999.25    2.82950   -0.06990   -0.06990    3.49210    -999.25   66.63550   66.63550   93.31220   93.31220    3.49210    3.26460    3.26460    0.14600    0.14600    2.83600    -999.25    -999.25    -999.25    -999.25
 20050.00000    7.73500    7.73500    -999.25  613.19600    -999.25    2.74730   -0.02180   -0.02180    1.63080    -999.25   77.33880   77.33880  159.33010  159.33010    1.63080    1.79910    1.79910    0.22400    0.22400    2.74800    -999.25    -999.25    -999.25    -999.25
 20100.00000    7.69600    7.69600    -999.25   97.33210    -999.25    2.91200   -0.11810   -0.11810   10.27410    -999.25   56.40700   56.40700   41.52350   41.52350   10.27410   10.83510   10.83510    0.00600    0.00600    2.92700    -999.25    -999.25    -999.25    -999.25
 20150.00000    7.72900    7.72900    -999.25  663.48190    -999.25    2.74520   -0.02060   -0.02060    1.50720    -999.25   67.18720   67.18720  102.78410  102.78410    1.50720    1.62700    1.62700    0.17200    0.17200    2.73200    -999.25    -999.25    -999.25    -999.25
 20200.00000    7.75600    7.75600    -999.25   35.74480    -999.25    2.76400   -0.03160   -0.03160   27.97610    -999.25   50.93800   50.93800   53.04450   53.04450   27.97610   30.79530   30.79530    0.01700    0.01700    2.76600    -999.25    -999.25    -999.25    -999.25
 20250.00000    7.72800    7.72800    -999.25  101.94300    -999.25    2.89110   -0.10590   -0.10590    9.80940    -999.25   55.25300   55.25300   47.01650   47.01650    9.80940   10.20950   10.20950    0.01600    0.01600    2.89400    -999.25    -999.25    -999.25    -999.25
 20300.00000    7.69900    7.69900    -999.25  245.70630    -999.25    2.72850   -0.01080   -0.01080    4.06990    -999.25   63.25890   63.25890   94.94520   94.94520    4.06990    3.97950    3.97950    0.10400    0.10400    2.73800    -999.25    -999.25    -999.25    -999.25
 20350.00000    7.67200    7.67200    -999.25   75.09260    -999.25    2.90310   -0.11290   -0.11290   13.31690    -999.25   54.53050   54.53050   33.82600   33.82600   13.31690   12.81020   12.81020    0.02600    0.02600    2.90300    -999.25    -999.25    -999.25    -999.25
 20400.00000    7.76700    7.76700    -999.25  106.24280    -999.25    2.91690   -0.12100   -0.12100    9.41240    -999.25   59.06250   59.06250   42.92380   42.92380    9.41240    9.91270    9.91270    0.00700    0.00700    2.91800    -999.25    -999.25    -999.25    -999.25
 20450.00000    7.78200    7.78200    -999.25  230.75500    -999.25    2.87890   -0.09880   -0.09880    4.33360    -999.25   59.53050   59.53050   54.12130   54.12130    4.33360    4.56920    4.56920    0.06200    0.06200    2.87400    -999.25    -999.25    -999.25    -999.25
 20500.00000    7.79200    7.79200    -999.25    9.07430    -999.25    2.96650   -0.15000   -0.15000  110.20160    -999.25   50.82300   50.82300   28.46000   28.46000  110.20160  175.09390  175.09390   -0.00100   -0.00100    2.96500    -999.25    -999.25    -999.25    -999.25
 20550.00000    7.76100    7.76100    -999.25   60.71020    -999.25    2.74370   -0.01970   -0.01970   16.47170    -999.25   52.13620   52.13620   40.54130   40.54130   16.47170   20.80370   20.80370    0.01800    0.01800    2.74200    -999.25    -999.25    -999.25    -999.25
