~Version ---------------------------------------------------
VERS. 2.0 : CWLS log ASCII Standard -VERSION 2.0
WRAP.  NO : ONE LINE PER DEPTH STEP
~Well ------------------------------------------------------
STRT.FT                            300.0 : START DEPTH
STOP.FT                          22000.0 : STOP DEPTH
STEP.FT                         50.00000 : STEP LENGTH
NULL.                            -999.25 : NULL VALUE
COMP. PAN AMERICAN PETROLEUM CORPORATION : COMPANY
WELL.                  A. M. FOERSTER #1 : WELL
FLD .                            WILDCAT : FIELD
LOC .                                    : LOCATION
CNTY.                           LA SALLE : COUNTY
STAT.                              TEXAS : STATE
CTRY.           UNITED STATES OF AMERICA : COUNTRY
SRVC.                       Schlumberger : SERVICE COMPANY
DATE.                        20-Aug-1964 : LOGDATE
API .                     42283002040000 : API NUMBER
UWI .                     42283002040000 : UNIQUE WELL ID
SLAT.WGS84                 28.3371650608 : SURFACE LATITUDE
SLON.WGS84                -98.9649233845 : SURFACE LONGITUDE
~Curve Information -----------------------------------------
DEPT  .FT    : DEPTH
CONDWS.MMHO  : CONDUCTIVITY [CILDED] FROM IEL
ILDED .OHMM  : INDUCTION LOG DEEP RESISTIVITY FROM IEL
ASNED .OHMM  : SHORT NORMAL RESISTIVITY 16 INCH FROM IEL
CILDED.MMHO  : CONDUCTIVITY FROM IEL
DRESWS.OHMM  : DEEP RESISTIVITY [ILDED] FROM IEL [IF ILDED < 1 THEN 1000/CILDED]
DTWS  .US/F  : DELTA TIME FROM SONIC LOG
NEUTWS.CU    : NEUTRON FROM GAMMA RAY NEUTRON LOG
GRNED .GAPI  : GAMMA RAY FROM NEUTRON LOG
NEUTED.NAPI  : NEUTRON  FROM GAMMA RAY NEUTRON LOG
SPED  .MV    : SPONTANEOUS POTENTIAL [MECHANICAL SHIFTS REMOVED]
SPWS  .MV    : SPONTANEOUS POTENTIAL [BASELINE 0 MV]
CALSED.IN    : CALIPER FROM SONIC LOG
DTED  .US/F  : DELTA TIME FROM SONIC LOG
SRESWS.OHMM  : SHALLOW RESISTIVITY [ASNED] FROM IEL
GRWS  .GAPI  : GAMMA RAY [GRNED] FROM GAMMA RAY NEUTRON LOG
CALWS .IN    : CALIPER [CALSED] FROM SONIC LOG
SPSED .MV    : SPONTANEOUS POTENTIAL FROM SONIC LOG [MECHANICAL SHIFTS REMOVED]
~Params ----------------------------------------------------
EKB .F                 473.5 : KELLY BUSHING
EGL .F                   445 : ELEVATION GROUND LEVEL
EDF .F                   471 : ELEVATION DERRICK FLOOR
EPD .F                   445 : ELEVATION PERMANENT DATUM
TD  .F               21995.0 : TOTAL DEPTH
DATE.            20-AUG-1964 : DATE LOGGED
CLNT.                A2DTECH : CLIENT CODE
SL  .   1320' FSL & 660' FWL : SURFACE LOCATION
PD  .                     GL : PERMANENT DATUM
LMF .                     KB : LOG MEASURED FROM
DMF .                     KB : DRILLING MEASURED FROM
DAPD.F                  28.5 : FEET ABOVE PERMANENT DATUM
DD  .F                 21995 : DEPTH DRILLER
DL  .F                 21992 : DEPTH LOGGER
BLI .F                 21991 : BOTTOM LOG INTERVAL
TLI .F                 20005 : TOP LOG INTERVAL
CS1 .IN                9.625 : CASING SIZE
CBD1.        9.625" @ 15993' : CASING DRILLER 1
CBL1.F                 15993 : CASING LOGGER 1
BS1 .IN                  8.5 : BIT SIZE
BSD1.F                 21995 : DEPTH DRILLED WITH BIT1
DFT .              XP-20-O.E : TYPE FLUID IN HOLE
DFD .                   18.4 : DENSITY
DFV .                     54 : VISCOSITY
DFPH.                    8.9 : PH
DFL .                      4 : FLUID LOSS
MSS .                MUD/PIT : SOURCE OF SAMPLE
RMS .OHMM               0.15 : RM
RMF .OHMM              0.089 : RMF
RMC .OHMM               0.32 : RMC
MFSS.                   MEAS : SOURCE RMF.
MCSS.                   MEAS : SOURCE RMC.
RMB .OHMM              0.046 : RM. AT BHT
BHT .F                   404 : BHT.
TCS .HRS                  10 : TIME CIRC. STOPPED
LUN .                   4526 : LOGGING UNIT NUMBER
LUL .                    KEN : LOGGING UNIT LOCATION
ENGI.                  HARSH : RECORDED BY
WITN.          FREEMAN/WALSH : WITNESSED BY
ORIG.          1" & 5" PRINT : ORIGIN OF DATA
UWI .         42283002040000 : UNIQUE WELL ID
DICO. A2D TECHNOLOGIES, INC. : DIGITIZING COMPANY
~Other -----------------------------------------------------
~ASCII -----------------------------------------------------
# ...
 2350.00000  166.32100    6.83900    8.35100  166.32100    6.83900  106.31200    -999.25    -999.25    -999.25  -42.89400  -19.25890    -999.25  106.31200    8.35100    -999.25    -999.25  -37.02000
 2400.00000  186.40900    5.89600    7.82800  186.40900    5.89600   96.07400    -999.25    -999.25    -999.25  -34.03000  -10.54800    -999.25   96.07400    7.82800    -999.25    -999.25  -34.69100
 2450.00000  174.12900    6.69500    7.42600  174.12900    6.69500  106.43800    -999.25    -999.25    -999.25  -43.41700  -20.08810    -999.25  106.43800    7.42600    -999.25    -999.25  -37.94400
 2500.00000  122.35900    9.69200   12.35400  122.35900    9.69200  103.36700    -999.25    -999.25    -999.25  -46.33400  -23.15820    -999.25  103.36700   12.35400    -999.25    -999.25  -38.50100
 2550.00000  117.83400   10.09400   12.86900  117.83400   10.09400  100.05700    -999.25    -999.25    -999.25  -46.33000  -23.30730    -999.25  100.05700   12.86900    -999.25    -999.25  -38.35400
 2600.00000  113.90600   10.10400   13.46700  113.90600   10.10400   93.45700    -999.25    -999.25    -999.25  -46.15700  -23.28740    -999.25   93.45700   13.46700    -999.25    -999.25  -38.73400
 2650.00000  133.12300    8.71600   11.98900  133.12300    8.71600  102.27400    -999.25    -999.25    -999.25  -50.57200  -27.85550    -999.25  102.27400   11.98900    -999.25    -999.25  -40.03300
 2700.00000  120.99000    9.67600   13.45800  120.99000    9.67600   96.27000    -999.25    -999.25    -999.25  -49.60800  -27.04470    -999.25   96.27000   13.45800    -999.25    -999.25  -42.45900
 2750.00000  219.27200    4.64100    8.58800  219.27200    4.64100  106.80900    -999.25    -999.25    -999.25  -30.21900   -7.80880    -999.25  106.80900    8.58800    -999.25    -999.25  -30.15200
 2800.00000  285.47100    3.49900    5.43500  285.47100    3.49900  113.33500    -999.25    -999.25    -999.25  -33.47700  -11.21990    -999.25  113.33500    5.43500    -999.25    -999.25  -32.70200
 2850.00000  141.81300    8.26400   12.31600  141.81300    8.26400   95.97400    -999.25    -999.25    -999.25  -56.45100  -34.34700    -999.25   95.97400   12.31600    -999.25    -999.25  -49.72400
 2900.00000  123.49700    9.05500   13.27300  123.49700    9.05500   94.48300    -999.25    -999.25    -999.25  -50.51800  -28.56710    -999.25   94.48300   13.27300    -999.25    -999.25  -40.62800
 2950.00000  321.01100    3.19300    4.63000  321.01100    3.19300  106.28000    -999.25    -999.25    -999.25  -27.96500   -6.16720    -999.25  106.28000    4.63000    -999.25    -999.25  -28.16300
 3000.00000  293.14000    3.47700    5.14600  293.14000    3.47700  103.62800    -999.25    -999.25    -999.25  -30.40700   -8.76230    -999.25  103.62800    5.14600    -999.25    -999.25  -28.09000
 3050.00000  203.93300    5.58200    7.14700  203.93300    5.58200   92.49500    -999.25    -999.25    -999.25  -33.38800  -11.77890    -999.25   92.49500    7.14700    -999.25    -999.25  -31.34000
 3100.00000  539.81500    1.85300    3.08300  539.81500    1.85300  149.25400    -999.25    -999.25    -999.25  -22.79200   -1.13680    -999.25  149.25400    3.08300    -999.25    -999.25  -23.00700
 3150.00000  283.45000    3.51900    4.82400  283.45000    3.51900  132.45500    -999.25    -999.25    -999.25  -23.56000   -1.85870    -999.25  132.45500    4.82400    -999.25    -999.25  -23.99500
 3200.00000  300.46500    2.76000    4.92500  300.46500    2.76000  111.89100    -999.25    -999.25    -999.25  -23.07400   -1.32660    -999.25  111.89100    4.92500    -999.25    -999.25  -24.15700
 3250.00000   92.89100   11.28400   15.15200   92.89100   11.28400   99.65200    -999.25    -999.25    -999.25  -41.07700  -19.28360    -999.25   99.65200   15.15200    -999.25    -999.25  -35.42200
 3300.00000  306.13300    3.39900    5.79900  306.13300    3.39900  118.68500    -999.25    -999.25    -999.25  -22.31500   -0.47550    -999.25  118.68500    5.79900    -999.25    -999.25  -22.02300
 3350.00000   81.20000   13.79800   17.85100   81.20000   13.79800   99.68600    -999.25    -999.25    -999.25  -37.47200  -15.58640    -999.25   99.68600   17.85100    -999.25    -999.25  -24.07400
 3400.00000   71.88300   16.87000    -999.25   71.88300   16.87000  101.93800    -999.25    -999.25    -999.25  -30.12800   -8.19630    -999.25  101.93800    -999.25    -999.25    -999.25  -20.71300
 3450.00000   79.59700   16.66600    -999.25   79.59700   16.66600   97.05900    -999.25    -999.25    -999.25  -31.19200   -9.21420    -999.25   97.05900    -999.25    -999.25    -999.25  -21.93000
 3500.00000   70.92800   18.28900   20.49800   70.92800   18.28900   95.97400    -999.25    -999.25    -999.25  -29.22100   -7.19710    -999.25   95.97400   20.49800    -999.25    -999.25  -18.33800
 3550.00000   84.41300   15.00800   18.33300   84.41300   15.00800   95.81800    -999.25    -999.25    -999.25  -32.96300  -10.89310    -999.25   95.81800   18.33300    -999.25    -999.25  -24.40300
 3600.00000   91.14400   14.44700   18.49300   91.14400   14.44700   88.34800    -999.25    -999.25    -999.25  -31.64700   -9.53100    -999.25   88.34800   18.49300    -999.25    -999.25  -24.25000
 3650.00000   63.61800   26.60900    -999.25   63.61800   26.60900   94.21000    -999.25    -999.25    -999.25  -27.32200   -5.15990    -999.25   94.21000    -999.25    -999.25    -999.25  -14.49200
 3700.00000   68.52200   18.34900   19.93890   68.52200   18.34900   96.91800    -999.25    -999.25    -999.25  -28.18300   -5.97480    -999.25   96.91800   19.93890    -999.25    -999.25  -15.09200
 3750.00000   85.05000   15.64300   19.48300   85.05000   15.64300   95.37800    -999.25    -999.25    -999.25  -30.69000   -8.43570    -999.25   95.37800   19.48300    -999.25    -999.25  -20.80400
 3800.00000  142.37200    8.09100   12.92100  142.37200    8.09100   92.51800    -999.25    -999.25    -999.25  -36.99200  -14.69170    -999.25   92.51800   12.92100    -999.25    -999.25  -30.70300
 3850.00000   76.61700   15.42400   19.49500   76.61700   15.42400   94.28500    -999.25    -999.25    -999.25  -35.33200  -12.98560    -999.25   94.28500   19.49500    -999.25    -999.25  -26.61000
 3900.00000  100.49800   11.88900   17.59100  100.49800   11.88900   94.38600    -999.25    -999.25    -999.25  -33.32800  -10.93550    -999.25   94.38600   17.59100    -999.25    -999.25  -21.56000
 3950.00000  296.51700    3.56400    5.44400  296.51700    3.56400   97.63000    -999.25    -999.25    -999.25  -21.91600    0.52260    -999.25   97.63000    5.44400    -999.25    -999.25  -21.19300
 4000.00000  217.95000    5.03200    7.14600  217.95000    5.03200   94.50700    -999.25    -999.25    -999.25  -25.35200   -2.86730    -999.25   94.50700    7.14600    -999.25    -999.25  -23.76700
 4050.00000  520.10000    1.97200    2.95900  520.10000    1.97200  123.05200    -999.25    -999.25    -999.25  -22.52000    0.01080    -999.25  123.05200    2.95900    -999.25    -999.25  -21.81000
 4100.00000  164.42900    6.68300    8.57300  164.42900    6.68300   84.74200    -999.25    -999.25    -999.25  -32.99500  -10.41820    -999.25   84.74200    8.57300    -999.25    -999.25  -32.25000
 4150.00000  135.89600    8.61900   10.84200  135.89600    8.61900   89.58700    -999.25    -999.25    -999.25  -54.56100  -31.93810    -999.25   89.58700   10.84200    -999.25    -999.25  -46.62100
 4200.00000  167.39500    6.86500    8.68900  167.39500    6.86500   93.95300    -999.25    -999.25    -999.25  -52.19900  -29.53000    -999.25   93.95300    8.68900    -999.25    -999.25  -45.00800
 4250.00000  285.46800    3.60600    5.09400  285.46800    3.60600  128.08200    -999.25    -999.25    -999.25  -34.55600  -11.84090    -999.25  128.08200    5.09400    -999.25    -999.25  -34.21800
 4300.00000  472.26400    2.12000    3.49300  472.26400    2.12000  115.12600    -999.25    -999.25    -999.25  -26.51800   -3.75680    -999.25  115.12600    3.49300    -999.25    -999.25  -28.89600
 4350.00000  194.81500    5.98200    9.82300  194.81500    5.98200   74.50300    -999.25    -999.25    -999.25  -54.38300  -31.57570    -999.25   74.50300    9.82300    -999.25    -999.25  -51.44200
