~Version ---------------------------------------------------
VERS. 2.0 : CWLS log ASCII Standard -VERSION 2.0
WRAP.  NO : ONE LINE PER DEPTH STEP
~Well ------------------------------------------------------
STRT.FT                           3250.0 : START DEPTH
STOP.FT                           8450.0 : STOP DEPTH
STEP.FT                         50.00000 : STEP LENGTH
NULL.                            -999.25 : NULL VALUE
COMP. SANTA FE-WINDSOR PRODUCING COMPANY : COMPANY
WELL.                         KENNETH #1 : WELL
FLD .                           GIDDINGS : FIELD
LOC .                                    : LOCATION
CNTY.                                LEE : COUNTY
STAT.                              TEXAS : STATE
CTRY.           UNITED STATES OF AMERICA : COUNTRY
SRVC.                       Schlumberger : SERVICE COMPANY
DATE.                        18-Aug-1982 : LOGDATE
API .                     42287312830000 : API NUMBER
UWI .                     42287312830000 : UNIQUE WELL ID
SLAT.WGS84                 30.0993785135 : SURFACE LATITUDE
SLON.WGS84                -96.9796408359 : SURFACE LONGITUDE
~Curve Information -----------------------------------------
DEPT  .FT    : DEPTH FEET
NEUTED.CU    : NEUTRON FROM NEUTRON LOG [DEPTH ADJ TO RES LOG]
GRWS  .GAPI  : GAMMA RAY [GRRED]
GRRED .GAPI  : GAMMA RAY FROM RESISTIVITY LOG
SPRED .MV    : SPONTANEOUS POTENTIAL FROM RESISTIVITY LOG
ILDED .OHMM  : INDUCTION LOG DEEP RESISTIVITY
SFLUED.OHMM  : SPHERICALLY FOCUSED LOG RESISTIVITY
ILMED .OHMM  : INDUCTION LOG MEDIUM RESISTIVITY
CALRED.IN    : CALIPER FROM RESISTIVITY LOG
DPHIED.V/V   : DENSITY POROSITY [M=2.71 F=1.0] FROM DENSITY LOG
DRHOED.G/C3  : DENSITY CORRECTION FROM DENSITY LOG
SPWS  .MV    : SPONTANEOUS POTENTIAL [BASELINE 0 MV] [SPRED]
GRNED .GAPI  : GAMMA RAY FROM NEUTRON LOG [DEPTH ADJ TO RES LOG]
CALWS .IN    : CALIPER [CALRED]
DCORWS.G/C3  : DENSITY CORRECTION [DRHOED]
DRESWS.OHMM  : DEEP RESISTIVITY [ILDED]
MRESWS.OHMM  : MEDIUM RESISTIVITY [ILMED]
SRESWS.OHMM  : SHALLOW RESISTIVITY [SFLUED]
CONDWS.MMHO  : CONDUCTIVITY [1000/DRESWS]
NEUTWS.CU    : NEUTRON [NEUTED]
DENWS .G/C3  : BULK DENSITY [M=2.71 F=1.0] [CALCULATED FROM DPHIED]
DPOWS .V/V   : DENSITY POROSITY [M=2.71 F=1] [CALCULATED FROM DENWS]
~Params ----------------------------------------------------
PD  .                     GL : PERMANENT DATUM
EPD .FT                  460 : ELEVATION PERMANENT DATUM
LMF .                     KB : LOG MEASURED FROM
DAPD.FT                   15 : FEET ABOVE PERMANENT DATUM
DMF .                     KB : DRILLING MEASURED FROM
EKB .FT                   75 : KELLY BUSHING
EDF .FT                  474 : DRILLING FLOOR
EGL .FT                  460 : GROUND LEVEL
DATE.               08/18/82 : RUN DATE
RUN .                      1 : RUN NUMBER
DD  .FT                 8505 : DEPTH DRILLER
DL  .FT                 8494 : DEPTH LOGGER
BLI .FT                 8488 : BOTTOM LOG INTERVAL
TLI .FT                 3264 : TOP LOG INTERVAL
CS  .IN                9.625 : CASING SIZE
CBD .FT                 3612 : CASING BOTTOM DRILLER
CBL .FT                 3264 : CASING BOTTOM LOGGER
BS  .IN                 8.75 : BIT SIZE
BSD .FT                 8505 : BIT SIZE AT DEPTH
DFT .                LNS GEL : DRILLING FLUID TYPE
DFD .                    9.4 : DRILLING FLUID DENSITY
DFV .                     43 : DRILLING FLUID VISCOSITY
DFPH.                      9 : DRILLING FLUID PH
DFL .                    7.8 : DRILLING FLUID LOSS
MSS .                   TANK : MUD SAMPLE SOURCE
RMS .OHMM               1.21 : RESISTIVITY MUD SAMPLE
MST .DEGF                104 : MUD SAMPLE TEMPERATURE
RMF .OHMM               0.83 : RESISTIVITY MUD FILTRATE SAMPLE
MFST.DEGF                 77 : MUD FILTRATE SAMPLE TEMPERATURE
RMC .OHMM               1.66 : RESISTIVITY MUD CAKE
MCST.DEGF                 77 : MUD CAKE SAMPLE TEMPERATURE
MFSS.               MEASURED : MUD FILTRATE SAMPLE SOURCE
MCSS.             CALCULATED : MUD CAKE SAMPLE SOURCE
RMB .OHMM              0.685 : RESISTIVITY MUD AT BHT
TCS .HRS                 700 : TIME CIRCULATED STOPPED
TLAB.HRS                1330 : TIME LOGGER AT BOTTOM
LUN .                   8096 : LOGGING UNIT NUMBER
LUL .                BRENHAM : LOGGING UNIT LOCATION
ENGI.                   KENT : RECORDING ENGINEER
WITN.                 EBANKS : WITNESSED BY
CLNT.                A2DTECH : CLIENT CODE
ORIG.            2" 5" PRINT : ORIGIN OF DATA
UWI .         42287312830000 : UNIQUE WELL ID
DICO. A2D Technologies, Inc. : DIGITIZING COMPANY
~Other -----------------------------------------------------
~ASCII -----------------------------------------------------
 3250.00000    -999.25    -999.25    -999.25    -999.25    -999.25    -999.25    -999.25    -999.25    -999.25    -999.25    -999.25    -999.25    -999.25    -999.25    -999.25    -999.25    -999.25    -999.25    -999.25    -999.25    -999.25
 3300.00000    -999.25   83.04140   83.04140  -24.81680    3.07850    3.20650    2.86820    -999.25    -999.25    -999.25   -2.26640    -999.25    -999.25    -999.25    3.07850    2.86820    3.20650  324.83350    -999.25    -999.25    -999.25
 3350.00000    -999.25   25.04510   25.04510  -24.85580   58.42940   54.12860   39.89790    -999.25    -999.25    -999.25   -3.97170    -999.25    -999.25    -999.25   58.42940   39.89790   54.12860   17.11470    -999.25    -999.25    -999.25
 3400.00000    -999.25   57.35710   57.35710  -53.17980    4.93040    5.37220    5.03630    -999.25    -999.25    -999.25  -33.11970    -999.25    -999.25    -999.25    4.93040    5.03630    5.37220  202.82330    -999.25    -999.25    -999.25
 3450.00000    -999.25   90.44640   90.44640  -31.96280    4.57900    5.15040    4.68680    -999.25    -999.25    -999.25  -12.59390    -999.25    -999.25    -999.25    4.57900    4.68680    5.15040  218.38830    -999.25    -999.25    -999.25
 3500.00000    -999.25   56.39290   56.39290  -65.19650    3.31500    5.22390    3.80720    -999.25    -999.25    -999.25  -46.39330    -999.25    -999.25    -999.25    3.31500    3.80720    5.22390  301.65910    -999.25    -999.25    -999.25
 3550.00000    -999.25   66.60150   66.60150  -59.28470    3.31720    5.18900    3.81090    -999.25    -999.25    -999.25  -41.04720    -999.25    -999.25    -999.25    3.31720    3.81090    5.18900  301.45910    -999.25    -999.25    -999.25
 3600.00000    -999.25   90.21220   90.21220  -28.80360    3.05450    3.45120    3.15530    -999.25    -999.25    -999.25  -11.13180    -999.25    -999.25    -999.25    3.05450    3.15530    3.45120  327.38580    -999.25    -999.25    -999.25
 3650.00000    -999.25   51.23520   51.23520  -65.92130    3.31040    5.97710    4.06550    -999.25    -999.25    -999.25  -48.81520    -999.25    -999.25    -999.25    3.31040    4.06550    5.97710  302.07830    -999.25    -999.25    -999.25
 3700.00000    -999.25  105.01750  105.01750  -59.76290    2.59520    5.52130    2.81770    -999.25    -999.25    -999.25  -43.22250    -999.25    -999.25    -999.25    2.59520    2.81770    5.52130  385.32680    -999.25    -999.25    -999.25
 3750.00000    -999.25   36.46700   36.46700  -53.64150    4.43580   10.94020    5.31570    -999.25    -999.25    -999.25  -37.66680    -999.25    -999.25    -999.25    4.43580    5.31570   10.94020  225.43850    -999.25    -999.25    -999.25
 3800.00000    -999.25   56.54610   56.54610  -36.47530    3.31870    5.70050    3.82090    -999.25    -999.25    -999.25  -17.01230    -999.25    -999.25    -999.25    3.31870    3.82090    5.70050  301.32280    -999.25    -999.25    -999.25
 3850.00000    -999.25   89.01770   89.01770  -25.77210    3.49810    2.48700    2.79810    -999.25    -999.25    -999.25   -1.95830    -999.25    -999.25    -999.25    3.49810    2.79810    2.48700  285.86950    -999.25    -999.25    -999.25
 3900.00000    -999.25   96.21340   96.21340  -17.84880    3.19500    4.94890    3.09380    -999.25    -999.25    -999.25   -3.53290    -999.25    -999.25    -999.25    3.19500    3.09380    4.94890  312.98900    -999.25    -999.25    -999.25
 3950.00000    -999.25   37.53020   37.53020  -16.36920    7.04260   42.13240    7.05750    -999.25    -999.25    -999.25   -3.28000    -999.25    -999.25    -999.25    7.04260    7.05750   42.13240  141.99300    -999.25    -999.25    -999.25
 4000.00000    -999.25   39.39780   39.39780  -55.70890    2.53170    5.95040    3.28080    -999.25    -999.25    -999.25  -42.93390    -999.25    -999.25    -999.25    2.53170    3.28080    5.95040  394.99150    -999.25    -999.25    -999.25
 4050.00000    -999.25   33.04400   33.04400  -66.58750    2.12970    5.87020    2.77020    -999.25    -999.25    -999.25  -53.91500    -999.25    -999.25    -999.25    2.12970    2.77020    5.87020  469.54970    -999.25    -999.25    -999.25
 4100.00000    -999.25   73.10740   73.10740  -60.70380    2.34850    6.47530    2.98070    -999.25    -999.25    -999.25  -48.13380    -999.25    -999.25    -999.25    2.34850    2.98070    6.47530  425.80370    -999.25    -999.25    -999.25
 4150.00000    -999.25   52.60210   52.60210  -65.07010    2.33110    7.44940    3.02210    -999.25    -999.25    -999.25  -52.60260    -999.25    -999.25    -999.25    2.33110    3.02210    7.44940  428.98200    -999.25    -999.25    -999.25
 4200.00000    -999.25   37.75850   37.75850  -68.16860    1.60470    5.03610    2.03700    -999.25    -999.25    -999.25  -55.80360    -999.25    -999.25    -999.25    1.60470    2.03700    5.03610  623.16940    -999.25    -999.25    -999.25
 4250.00000    -999.25   53.41750   53.41750  -56.08720    2.22810    5.17300    2.88620    -999.25    -999.25    -999.25  -43.82470    -999.25    -999.25    -999.25    2.22810    2.88620    5.17300  448.81290    -999.25    -999.25    -999.25
 4300.00000    -999.25   86.19090   86.19090   -9.31360    3.88980    5.75600    4.73050    -999.25    -999.25    -999.25   -1.20550    -999.25    -999.25    -999.25    3.88980    4.73050    5.75600  257.08260    -999.25    -999.25    -999.25
 4350.00000    -999.25   64.16800   64.16800   -7.99450    3.53730    3.93650    3.57370    -999.25    -999.25    -999.25   -1.80780    -999.25    -999.25    -999.25    3.53730    3.57370    3.93650  282.70150    -999.25    -999.25    -999.25
 4400.00000    -999.25   40.45800   40.45800  -11.75970    6.54600   19.50090    7.04660    -999.25    -999.25    -999.25   -1.69530    -999.25    -999.25    -999.25    6.54600    7.04660   19.50090  152.76500    -999.25    -999.25    -999.25
 4450.00000    -999.25   81.29220   81.29220  -10.20330    3.05150    3.54370    3.11370    -999.25    -999.25    -999.25   -6.34520    -999.25    -999.25    -999.25    3.05150    3.11370    3.54370  327.70770    -999.25    -999.25    -999.25
 4500.00000    -999.25   45.06800   45.06800  -64.42330    2.78780    8.34760    3.55680    -999.25    -999.25    -999.25  -59.06100    -999.25    -999.25    -999.25    2.78780    3.55680    8.34760  358.70580    -999.25    -999.25    -999.25
 4550.00000    -999.25   52.50090   52.50090  -59.37060    1.81650    6.03390    2.33370    -999.25    -999.25    -999.25  -53.93730    -999.25    -999.25    -999.25    1.81650    2.33370    6.03390  550.50920    -999.25    -999.25    -999.25
 4600.00000    -999.25   80.53010   80.53010  -19.03250    2.76780    5.97710    3.05240    -999.25    -999.25    -999.25  -11.51770    -999.25    -999.25    -999.25    2.76780    3.05240    5.97710  361.29780    -999.25    -999.25    -999.25
 4650.00000    -999.25   56.66800   56.66800  -56.07890    2.59320    6.61960    3.00040    -999.25    -999.25    -999.25  -48.16760    -999.25    -999.25    -999.25    2.59320    3.00040    6.61960  385.62390    -999.25    -999.25    -999.25
 4700.00000    -999.25   96.47690   96.47690  -12.14810    2.55250    3.53520    2.57190    -999.25    -999.25    -999.25   -3.84040    -999.25    -999.25    -999.25    2.55250    2.57190    3.53520  391.77280    -999.25    -999.25    -999.25
 4750.00000    -999.25   61.84420   61.84420  -53.46120    2.16360    4.78420    2.76130    -999.25    -999.25    -999.25  -44.90550    -999.25    -999.25    -999.25    2.16360    2.76130    4.78420  462.19270    -999.25    -999.25    -999.25
 4800.00000    -999.25   95.88080   95.88080  -26.64610    2.42610    4.12380    2.76680    -999.25    -999.25    -999.25  -18.75400    -999.25    -999.25    -999.25    2.42610    2.76680    4.12380  412.18420    -999.25    -999.25    -999.25
 4850.00000    -999.25   60.74340   60.74340  -58.85160    1.92500    5.63520    2.37790    -999.25    -999.25    -999.25  -52.42930    -999.25    -999.25    -999.25    1.92500    2.37790    5.63520  519.48050    -999.25    -999.25    -999.25
