~Version ---------------------------------------------------
VERS.      2.0 : CWLS log ASCII Standard -VERSION 2.0
WRAP.      YES : Multiple lines per depth step
CREA. 01/03/13 : LAS Creation Date
~Well ------------------------------------------------------
STRT.FT                   3950.0 : START DEPTH
STOP.FT                   8600.0 : STOP DEPTH
STEP.FT                 50.00000 : STEP LENGTH
NULL.                    -999.25 : NULL VALUE
COMP. CHAMPLIN PETROLEUM COMPANY : COMPANY
WELL.             L J KOCUREK #1 : WELL
FLD .                   GIDDINGS : FIELD
LOC .                            : LOCATION
CNTY.                   BURLESON : COUNTY
STAT.                      TEXAS : STATE
CTRY.   UNITED STATES OF AMERICA : COUNTRY
SRVC.               Schlumberger : SERVICE COMPANY
DATE.                18-Apr-1980 : LOGDATE
API .             42051306120000 : API NUMBER
UWI .             42051306120000 : UNIQUE WELL ID
SLAT.WGS84         30.3823793957 : SURFACE LATITUDE
SLON.WGS84        -96.7071432424 : SURFACE LONGITUDE
~Curve Information -----------------------------------------
DEPT    .FT    : DEPTH FEET
CALDED  .IN    : CALIPER FROM CNFD LOG [ADJ. TO GRRED]
CALWS   .IN    : CALIPER [CALDED]
CONDWS  .MMHO  : CONDUCTIVITY [1000/DRESWS]
DCORWS  .G/C3  : DENSITY CORRECTION [DRHOED]
DENWS   .G/C3  : FORMATION BULK DENSITY [RHOBED]
DPHILSED.V/V   : DENSITY POROSITY LIMESTONE [M=2.71, F=1.0] FROM CNFD LOG [ADJ. TO GRRED]
DPHISSED.V/V   : DENSITY POROSITY SANDSTONE [M=2.65, F=0.81] FROM CNFD LOG [ADJ. TO GRRED]
DPOWS   .V/V   : DENSITY POROSITY LIMESTONE [DPHISSED CONVERTED TO LIMESTONE (M=2.71, F=1.0), SPL. TO DPHILSED @ 6790.5']
DRESWS  .OHMM  : DEEP RESISTIVITY [ILDED]
DRHOED  .G/C3  : BULK DENSITY CORRECTION FROM CNFD LOG [ADJ. TO GRRED]
DTED    .US/F  : DELTA-T (INTERVAL TRANSIT TIME) FROM DIL-SONIC LOG
DTWS    .US/F  : COMPRESSIONAL  SONIC [DTED]
GRDED   .GAPI  : GAMMA RAY FROM CNFD LOG [ADJ. TO GRRED]
GRRED   .GAPI  : GAMMA RAY FROM DIL-SONIC LOG
GRWS    .GAPI  : GAMMA RAY [GRDED]
ILDED   .OHMM  : DEEP INDUCTION FROM DIL-SONIC LOG
ILMED   .OHMM  : MEDIUM INDUCTION FROM DIL-SONIC LOG
MRESWS  .OHMM  : MEDIUM RESISTIVITY [ILMED]
NPHILSED.V/V   : NEUTRON POROSITY LIMESTONE FROM CNFD LOG [ADJ. TO GRRED]
NPHISSED.V/V   : NEUTRON POROSITY SANDSTONE FROM CNFD LOG [ADJ. TO GRRED]
NPOWS   .V/V   : NEUTRON POROSITY LIMESTONE [NPHISSED MATRIX CONVERTED TO LIMESTONE, SPL. TO NPHILSED @ 6790.5']
RHOBED  .G/C3  : BULK DENSITY FROM CNFD LOG [ADJ. TO GRRED]
SFLUED  .OHMM  : SHALLOW FOCUSED INDUCTION (UNAVERAGED) FROM DIL-SONIC LOG
SPHIED  .V/V   : SONIC POROSITY [DTM=47.5, DTF=189.0] FROM FDC-SONIC LOG
SPOWS   .V/V   : SONIC POROSITY [SPHIED]
SPRED   .MV    : SPONTANEOUS POTENTIAL FROM DIL-SONIC LOG
SPWS    .MV    : SPONTANEOUS POTENTIAL [BASELINE 0 MV, SPRED]
SRESWS  .OHMM  : SHALLOW RESISTIVITY [SFLUED]
~Params ----------------------------------------------------
PD  .                     GL : PERMANENT DATUM
EPD .FT                  328 : ELEVATION PERMANENT DATUM
LMF .                     KB : LOG MEASURED FROM
DAPD.FT                   16 : FEET ABOVE PERMANENT DATUM
DMF .                     KB : DRILLING MEASURED FROM
EKB .FT                  344 : KELLY BUSHING
EDF .FT                  343 : DRILLING FLOOR
EGL .FT                  328 : GROUND LEVEL
DATE.               04/18/80 : RUN DATE
RUN .                      2 : RUN NUMBER
DD  .FT                 8660 : DEPTH DRILLER
DL  .FT                 8613 : DEPTH LOGGER
BLI .FT                 8606 : BOTTOM LOG INTERVAL
TLI .FT                 3932 : TOP LOG INTERVAL
CS  .IN                9.625 : CASING SIZE
CBD .FT                 3987 : CASING BOTTOM DRILLER
CBL .FT                 3932 : CASING BOTTOM LOGGER
BS  .IN                 8.75 : BIT SIZE
BSD .FT                 8660 : BIT SIZE AT DEPTH
DFT .                BENT EX : DRILLING FLUID TYPE
DFD .                    9.6 : DRILLING FLUID DENSITY
DFV .                     43 : DRILLING FLUID VISCOSITY
DFPH.                    8.5 : DRILLING FLUID PH
DFL .                    7.1 : DRILLING FLUID LOSS
MSS .               FLOWLINE : MUD SAMPLE SOURCE
RMS .OHMM               4.13 : RESISTIVITY MUD SAMPLE
MST .DEGF                 75 : MUD SAMPLE TEMPERATURE
RMF .OHMM               3.63 : RESISTIVITY MUD FILTRATE SAMPLE
MFST.DEGF                 75 : MUD FILTRATE SAMPLE TEMPERATURE
RMC .OHMM               6.19 : RESISTIVITY MUD CAKE
MCST.DEGF                 75 : MUD CAKE SAMPLE TEMPERATURE
MFSS.                      M : MUD FILTRATE SAMPLE SOURCE
MCSS.                      C : MUD CAKE SAMPLE SOURCE
RMB .OHMM               1.59 : RESISTIVITY MUD AT BHT
TCS .HRS                1930 : TIME CIRCULATED STOPPED
TLAB.HRS                 230 : TIME LOGGER AT BOTTOM
LUN .                   8176 : LOGGING UNIT NUMBER
LUL .                BRENHAM : LOGGING UNIT LOCATION
ENGI.                   CATE : RECORDING ENGINEER
WITN.           WESLEY DAVIS : WITNESSED BY
CLNT.                A2DTECH : CLIENT CODE
ORIG.            2" 5" PRINT : ORIGIN OF DATA
UWI .         42051306120000 : UNIQUE WELL ID
DICO. A2D Technologies, Inc. : DIGITIZING COMPANY
~Other -----------------------------------------------------
~ASCII -----------------------------------------------------
# ...
 6450.00000   12.76360   12.76360  852.87850    0.07290    2.35740    -999.25    0.17630    0.22480    1.17250    0.07290  100.45650  100.45650   82.74520   98.70970   82.74520    1.17250    1.25290    1.25290    -999.25    0.38000    0.33680    2.35740    1.38130    -999.25    -999.25  -15.03430   -7.38500    1.38130
 6500.00000   11.70350   11.70350  740.24720    0.13340    2.40200    -999.25    0.15050    0.19700    1.35090    0.13340   99.69660   99.69660   96.09930  124.98700   96.09930    1.35090    1.43200    1.43200    -999.25    0.35190    0.30830    2.40200    1.51410    -999.25    -999.25  -10.56610   -2.98030    1.51410
 6550.00000   11.28250   11.28250  592.97910    0.11850    2.50280    -999.25    0.08490    0.12640    1.68640    0.11850   90.86840   90.86840   75.81950  100.36140   75.81950    1.68640    1.77520    1.77520    -999.25    0.27500    0.23100    2.50280    1.86240    -999.25    -999.25  -13.99270   -6.35390    1.86240
 6600.00000   12.70170   12.70170  517.59830    0.16580    2.52390    -999.25    0.07510    0.11590    1.93200    0.16580   92.74800   92.74800   90.00180  141.69260   90.00180    1.93200    2.10020    2.10020    -999.25    0.28580    0.24180    2.52390    2.22000    -999.25    -999.25  -12.71360   -4.93400    2.22000
 6650.00000   12.99030   12.99030  683.94770    0.10550    2.48440    -999.25    0.10030    0.14300    1.46210    0.10550   96.80020   96.80020   81.97430   98.44540   81.97430    1.46210    1.51680    1.51680    -999.25    0.31430    0.27040    2.48440    1.76840    -999.25    -999.25  -13.44960   -5.52910    1.76840
 6700.00000   12.21560   12.21560  579.91190    0.13540    2.56660    -999.25    0.04900    0.08780    1.72440    0.13540   92.03280   92.03280   67.05100   91.99100   67.05100    1.72440    1.83850    1.83850    -999.25    0.27370    0.22970    2.56660    1.98620    -999.25    -999.25  -14.37950   -6.31820    1.98620
 6750.00000   15.65570   15.65570  704.67200    0.20600    2.49950    -999.25    0.08890    0.13070    1.41910    0.20600   97.42260   97.42260   78.29350  100.68020   78.29350    1.41910    1.46710    1.46710    -999.25    0.33080    0.28700    2.49950    1.64550    -999.25    -999.25  -17.74340   -9.54130    1.64550
 6800.00000   15.03090   15.03090  749.62520    0.14900    2.50010    0.08980    -999.25    0.08980    1.33400    0.14900   99.20830   99.20830   86.48920  105.83020   86.48920    1.33400    1.41280    1.41280    0.31990    -999.25    0.31990    2.50010    1.57650    -999.25    -999.25  -13.25230   -4.90930    1.57650
 6850.00000   11.98420   11.98420  538.99640    0.21240    2.66840   -0.00320    -999.25   -0.00320    1.85530    0.21240   87.19730   87.19730   75.08420  104.39830   75.08420    1.85530    1.98700    1.98700    0.22980    -999.25    0.22980    2.66840    2.26380    -999.25    -999.25  -29.27290  -20.78910    2.26380
 6900.00000   11.68420   11.68420  536.73980    0.23040    2.55770    0.09150    -999.25    0.09150    1.86310    0.23040   91.71540   91.71540   65.56750   90.50980   65.56750    1.86310    2.01440    2.01440    0.32530    -999.25    0.32530    2.55770    2.01000    -999.25    -999.25  -26.69140  -18.06680    2.01000
 6950.00000   10.05400   10.05400  308.51820    0.05870    2.62210    0.05060    -999.25    0.05060    3.24130    0.05870   77.93830   77.93830   50.51300   73.76950   50.51300    3.24130    3.28010    3.28010    0.16910    -999.25    0.16910    2.62210    3.39240    -999.25    -999.25  -22.96800  -14.20250    3.39240
 7000.00000   10.03110   10.03110  215.36410    0.08690    2.64490    0.03680    -999.25    0.03680    4.64330    0.08690   68.79090   68.79090   27.65950   52.61070   27.65950    4.64330    4.80420    4.80420    0.12540    -999.25    0.12540    2.64490    4.91710    -999.25    -999.25  -34.52420  -25.61790    4.91710
 7050.00000   10.24160   10.24160  302.34320    0.04490    2.61320    0.05920    -999.25    0.05920    3.30750    0.04490   78.65560   78.65560   68.69490   83.07400   68.69490    3.30750    3.41760    3.41760    0.18440    -999.25    0.18440    2.61320    3.93720    -999.25    -999.25  -20.24620  -11.19900    3.93720
 7100.00000   11.44010   11.44010  489.66800    0.18550    2.57950    0.07670    -999.25    0.07670    2.04220    0.18550   88.26100   88.26100   79.04940  101.78710   79.04940    2.04220    2.14900    2.14900    0.22140    -999.25    0.22140    2.57950    2.28110    -999.25    -999.25  -25.68930  -16.50130    2.28110
 7150.00000   10.54340   10.54340  367.25550    0.04250    2.56550    0.08100    -999.25    0.08100    2.72290    0.04250   82.66000   82.66000   72.08840   92.77480   72.08840    2.72290    2.82500    2.82500    0.20610    -999.25    0.20610    2.56550    3.01080    -999.25    -999.25  -21.90740  -12.57860    3.01080
 7200.00000   10.54160   10.54160  342.57130    0.04230    2.56650    0.08340    -999.25    0.08340    2.91910    0.04230   80.34140   80.34140   66.92590   94.30630   66.92590    2.91910    3.00870    3.00870    0.18630    -999.25    0.18630    2.56650    3.43240    -999.25    -999.25  -20.93030  -11.46060    3.43240
 7250.00000   10.88720   10.88720  389.98520    0.05080    2.58240    0.07470    -999.25    0.07470    2.56420    0.05080   83.65910   83.65910   76.98600  101.21620   76.98600    2.56420    2.64780    2.64780    0.21580    -999.25    0.21580    2.58240    3.04560    -999.25    -999.25  -19.60540   -9.99490    3.04560
 7300.00000   10.71720   10.71720  424.93520    0.05430    2.59590    0.06770    -999.25    0.06770    2.35330    0.05430   85.11720   85.11720   75.83110   94.82630   75.83110    2.35330    2.45680    2.45680    0.21470    -999.25    0.21470    2.59590    2.83050    -999.25    -999.25  -19.43280   -9.68150    2.83050
 7350.00000   10.28260   10.28260  348.08030    0.04670    2.59420    0.06830    -999.25    0.06830    2.87290    0.04670   83.11390   83.11390   71.54300   90.56690   71.54300    2.87290    3.10970    3.10970    0.24910    -999.25    0.24910    2.59420    3.54530    -999.25    -999.25  -17.84250   -7.95030    3.54530
 7400.00000   14.23560   14.23560  742.66620    0.16110    2.56510    0.08680    -999.25    0.08680    1.34650    0.16110   95.49520   95.49520   84.43710  105.51740   84.43710    1.34650    1.47440    1.47440    0.32490    -999.25    0.32490    2.56510    1.72570    -999.25    -999.25  -23.14900  -13.11600    1.72570
 7450.00000   14.44400   14.44400  525.43090    0.19710    2.52920    0.10410    -999.25    0.10410    1.90320    0.19710   92.97270   92.97270   75.13440  102.64900   75.13440    1.90320    1.97560    1.97560    0.36370    -999.25    0.36370    2.52920    2.30910    0.27960    0.27960  -23.90970  -13.73590    2.30910
 7500.00000   13.31710   13.31710  563.98400    0.19120    2.52580    0.10580    -999.25    0.10580    1.77310    0.19120   90.33110   90.33110   74.80860   94.91910   74.80860    1.77310    1.90700    1.90700    0.37340    -999.25    0.37340    2.52580    2.25530    0.25910    0.25910  -27.88420  -17.56950    2.25530
 7550.00000   13.66210   13.66210  461.27590    0.19620    2.59090    0.06800    -999.25    0.06800    2.16790    0.19620   87.57870   87.57870   71.78820   95.70170   71.78820    2.16790    2.28440    2.28440    0.35450    -999.25    0.35450    2.59090    2.76500    0.23690    0.23690  -20.84320  -10.38770    2.76500
 7600.00000   13.51720   13.51720  524.82420    0.22030    2.65310    0.03300    -999.25    0.03300    1.90540    0.22030   89.05450   89.05450   73.85990   92.90000   73.85990    1.90540    2.07100    2.07100    0.32950    -999.25    0.32950    2.65310    2.48320    0.24880    0.24880  -22.52190  -11.92550    2.48320
 7650.00000   12.82110   12.82110  519.39960    0.19540    2.58950    0.07080    -999.25    0.07080    1.92530    0.19540   91.00150   91.00150   77.66890   99.52630   77.66890    1.92530    2.03350    2.03350    0.29400    -999.25    0.29400    2.58950    2.41570    0.26170    0.26170  -22.16110  -11.42390    2.41570
