~Version ---------------------------------------------------
VERS. 2.0 : CWLS log ASCII Standard -VERSION 2.0
WRAP. YES : Multiple lines per depth step
~Well ------------------------------------------------------
STRT.FT                 3300.0 : START DEPTH
STOP.FT                 7900.0 : STOP DEPTH
STEP.FT               50.00000 : STEP LENGTH
NULL.                  -999.25 : NULL VALUE
COMP. AMOCO PRODUCTION COMPANY : COMPANY
WELL.    VINCE COURT UNIT A #1 : WELL
FLD .             CALDWELL, NE : FIELD
LOC .                          : LOCATION
CNTY.                   BRAZOS : COUNTY
STAT.                    TEXAS : STATE
CTRY. UNITED STATES OF AMERICA : COUNTRY
SRVC.                    Welex : SERVICE COMPANY
DATE.              19-Dec-1984 : LOGDATE
API .           42041312500000 : API NUMBER
UWI .           42041312500000 : UNIQUE WELL ID
SLAT.WGS84       30.6670683471 : SURFACE LATITUDE
SLON.WGS84      -96.5218651415 : SURFACE LONGITUDE
~Curve Information -----------------------------------------
DEPT    .FT        : DEPTH
CALDED  .IN        : CALIPER FROM DENSITY LOG (ADJ TO RES.)
CALWS   .IN        : CALIPER (CALDED)
CONDWS  .MMHO      : CONDUCTIVITY (1000/DRESWS)
CORRED  .G/C3      : DENSITY CORRECTION (ADJ TO RES.)
DCORWS  .G/C3      : DENSITY CORRECTION (CORRED)
DENWS   .G/C3      : BULK DENSITY  (RHOBED LS)
DPHILSED.V/V       : DENSITY POROSITY LIMESTONE (ADJ TO RES.)
DPHISSED.V/V       : DENSITY POROSITY  SANDSTONE (ADJ TO RES.)
DPOWS   .V/V       : DENSITY POROSITY (M=2.71 F=1 FROM DENWS)
DRESWS  .OHMM      : DEEP RESISTIVITY (ILDED)
GRDED   .GAPI      : GAMMA RAY FROM DENSITY LOG (ADJ TO RES.)
GRRED   .GAPI      : GAMMA RAY FROM RESISTIVITY LOG
GRTED   .GAPI      : GAMMA RAY TDT LOG (ADJ TO RES.)
GRWS    .GAPI      : GAMMA RAY (GRDED)
ILDED   .OHMM      : DEEP INDUCTION RESISTIVITY
ILMED   .OHMM      : MEDIUM INDUCTION RESISTIVITY
MRESWS  .OHMM      : MEDIUM RESISTIVITY (ILMED)
NPHILSED.V/V       : NEUTRON POROSITY LIMESTONE (ADJ TO RES.)
NPHISSED.V/V       : NEUTRON POROSITY SANDSTONE (ADJ TO RES.)
NPOWS   .V/V       : NEUTRON POROSITY LIMESTONE (NPHISSED CONVERTED TO LIMESTONE/NPHILSED)
RATIOED .UNITLESS  : RATIO (ADJ TO RES.)
RHOBED  .G/C3      : BULK DENSITY (ADJ TO RES.)
SGUARDED.OHMM      : SHORT GUARD LOG RESISTIVITY
SIGMED  .CU        : NEUTRON CAPTURE CROSS SECTION (ADJ TO RES.)
SPRED   .MV        : SPONTANEOUS POTENTIAL FROM RESISTIVITY
SPWS    .MV        : SPONTANEOUS POTENTIAL BASELINE 0 MV (SPRED)
SRESWS  .OHMM      : SHALLOW RESISTIVITY (SGUARDED)
TENDED  .LBF       : TENSION FROM DENSITY LOG (ADJ TO RES.)
TENRED  .LBF       : TENSION FROM RESISTIVITY LOG
TENTED  .LBF       : TENSION TDT LOG (ADJ TO RES.)
~Params ----------------------------------------------------
PD  .                     GL : PERMANENT DATUM
EPD .F                   247 : ELEVATION PERMANENT DATUM
LMF .                    TKB : LOG MEASURED FROM
DAPD.F                    21 : FEET ABOVE PERMANENT DATUM
DMF .                    TKB : DRILLING MEASURED FROM
EKB .F                   268 : KELLING BUSHING
EDF .F                   267 : DRILLING FLOOR
EGL .F                   247 : GROUND LEVEL
DATE.             12-19-1984 : RUN DATE
RUN .                      1 : RUN NUMBER
DD  .F                  7940 : DEPTH DRILLER
DL  .F                  7941 : DEPTH LOGGER
BLI .F                  7939 : BOTTOM LOG INTERVAL
TLI .F                  3279 : TOP LOG INTERVAL
CS  .IN                8.625 : CASING SIZE
CBD .F                  3269 : CASING BOTTOM DRILLER
CBL .F                  3379 : CASING BOTTOM LOGGER
BS  .IN                7.875 : BIT SIZE
BSD .F                  7940 : BIT SIZE AT DEPTH
DFT .            POLYMER MUD : DRILLING FLUID TYPE
DFD .                    9.3 : DRILLING FLUID DENSITY
DFV .                     38 : DRILLING FLUID VISCOSITY
DFPH.                    9.4 : DRILLING FLUID PH
DFL .                    7.8 : DRILLING FLUID LOSS
MSS .               FLOWLINE : MUD SAMPLE SOURCE
RMS .OHMM               3.65 : RESISTIVITY MUD SAMPLE
MST .F                    75 : MUD SAMPLE TEMPERATURE
RMF .OHMM               4.29 : RESISTIVITY MUD FILTRATE SAMPLE
MFST.F                    75 : MUD FILTRATE SAMPLE TEMPERATURE
RMC .OHMM                3.9 : RESISTIVITY MUD CAKE
MCST.F                    75 : MUD CAKE SAMPLE TEMPERATURE
MFSS.                   MEAS : MUD FILTRATE SAMPLE SOURCE
MCSS.                   MEAS : MUD CAKE SAMPLE SOURCE
RMB .OHMM                1.4 : RESISTIVITY MUD AT BHT
TCS .HRS                   3 : TIME CURCULATED STOPPED
TLAB.HRS                2210 : TIME LOGGER AT BOTTOM
LUN .                   1905 : LOGGING UNIT NUMBER
LUL .                  BRYAN : LOGGING UNIT LOCATION
ENGI.                MCENERY : RECORDING ENGINEER
WITN.              BOUCKAERT : WITNESSED BY
CLNT.                A2DTECH : CLIENT CODE
ORIG.               5" PRINT : ORIGIN OF DATA
UWI .         42041312500000 : UNIQUE WELL ID
DICO. A2D Technologies, Inc. : DIGITIZING COMPANY
~Other -----------------------------------------------------
~ASCII -----------------------------------------------------
# ...
 6900.00000   11.23450   11.23450  702.34580    0.06330    0.06330    2.48380    -999.25    0.10900    0.13230    1.42380   85.04350   93.41300    -999.25   85.04350    1.42380    1.55770    1.55770    -999.25    0.30460    0.37050    -999.25    2.48380    1.87420    -999.25  -47.74450  -10.93360    1.87420 2107.36210 1898.53160    -999.25
 6950.00000   10.87500   10.87500  748.50300    0.07270    0.07270    2.43670    -999.25    0.12090    0.15980    1.33600   85.87090   90.42080    -999.25   85.87090    1.33600    1.46140    1.46140    -999.25    0.30820    0.37300    -999.25    2.43670    1.81900    -999.25  -46.28140  -10.40120    1.81900 2134.60860 1941.13530    -999.25
 7000.00000    8.13320    8.13320  653.55210    0.09070    0.09070    2.09600    -999.25    0.31410    0.35910    1.53010   84.76680   94.15270    -999.25   84.76680    1.53010    1.69160    1.69160    -999.25    0.31830    0.38020    -999.25    2.09600    2.12590    -999.25  -43.82650   -8.87710    2.12590 2148.04100 1926.19820    -999.25
 7050.00000   10.70190   10.70190  540.33610    0.08570    0.08570    2.56870    -999.25    0.05610    0.08260    1.85070   83.74130   90.23650  137.77700   83.74130    1.85070    2.05270    2.05270    -999.25    0.32770    0.38640    6.29850    2.56870    2.39430   15.74770  -43.08550   -9.06690    2.39430 2154.86450 1950.09230 1387.94870
 7100.00000    8.82830    8.82830  192.71170   -0.01030   -0.01030    2.64480    0.04250    -999.25    0.03810    5.18910   35.56680   40.24360   54.62030   35.56680    5.18910    6.17000    6.17000    0.13100    -999.25    0.13100    4.97200    2.64480    7.88730   15.57190  -49.78510  -14.11350    7.88730 2173.93730 1965.27340 1383.01090
 7150.00000    9.01280    9.01280  267.07970   -0.00990   -0.00990    2.63320    0.04280    -999.25    0.04490    3.74420   44.96380   49.40390   74.96140   44.96380    3.74420    4.20730    4.20730    0.17890    -999.25    0.17890    5.42540    2.63320    4.99800   17.34850  -42.29690   -4.91950    4.99800 2179.14600 1957.23300 1381.74570
 7200.00000    9.94010    9.94010   88.80050    0.02030    0.02030    1.68220    0.62760    -999.25    0.60110   11.26120   35.15080   51.99900   83.09890   35.15080   11.26120   12.42130   12.42130    0.15960    -999.25    0.15960    5.28520    1.68220   12.82860   14.90360  -78.41430  -39.33110   12.82860 2507.58620 1970.69070 1381.96220
 7250.00000    8.18900    8.18900   42.27690    0.08300    0.08300    2.22500    0.22580    -999.25    0.28360   23.65360   29.56440   30.28950   42.53490   29.56440   23.65360   24.80740   24.80740    0.15830    -999.25    0.15830    4.99390    2.22500   41.35260   13.37750  -71.83090  -31.04200   41.35260 2216.76270 1995.68290 1380.25630
 7300.00000   14.68710   14.68710  849.32900    0.05750    0.05750    2.43370    0.16020    -999.25    0.16160    1.17740   81.10450   92.05070  139.78700   81.10450    1.17740    1.29650    1.29650    0.38970    -999.25    0.38970    6.42580    2.43370    2.14740   14.82700  -51.21030  -10.04450    2.14740 2197.73120 2009.33500 1385.10270
 7350.00000   14.32560   14.32560  889.04700    0.11150    0.11150    2.44320    0.14700    -999.25    0.15600    1.12480   85.77490   91.09030  150.69040   85.77490    1.12480    1.25400    1.25400    0.35110    -999.25    0.35110    6.49510    2.44320    1.60320   14.35770  -47.35710   -9.06780    1.60320 2230.39160 2005.89870 1380.94350
 7400.00000   13.87700   13.87700  817.26050    0.11620    0.11620    2.47800    0.12650    -999.25    0.13570    1.22360  100.66890  114.22230  165.03790  100.66890    1.22360    1.34000    1.34000    0.39740    -999.25    0.39740    6.62750    2.47800    1.73310   13.76740  -41.18920   -5.77630    1.73310 2231.36080 2007.93910 1384.02880
 7450.00000    9.83040    9.83040  436.45250    0.01410    0.01410    2.50140    0.12120    -999.25    0.12200    2.29120   98.95170   97.36490  155.78090   98.95170    2.29120    2.68130    2.68130    0.26400    -999.25    0.26400    6.49980    2.50140    4.09090   15.44000  -34.14960   -1.61320    4.09090 2239.66160 2014.06770 1381.96900
 7500.00000    8.78460    8.78460  357.60260    0.01230    0.01230    2.48710    0.13350    -999.25    0.13040    2.79640   99.04040   94.12690  162.39740   99.04040    2.79640    3.34210    3.34210    0.27040    -999.25    0.27040    6.72740    2.48710    7.36840   16.57850  -36.30490   -6.64500    7.36840 2249.41330 2076.73660 1384.37790
 7550.00000    8.82890    8.82890  249.15290    0.00070    0.00070    2.47090    0.14380    -999.25    0.13980    4.01360  113.92990  114.62770  180.56850  113.92990    4.01360    4.71310    4.71310    0.28350    -999.25    0.28350    6.83610    2.47090    7.55310   15.08370  -32.38350   -5.60010    7.55310 2273.89970 2077.34330 1385.11980
 7600.00000   11.85610   11.85610  509.47630    0.14130    0.14130    2.43110    0.17680    -999.25    0.16310    1.96280   93.79860   87.22380  149.96530   93.79860    1.96280    2.14890    2.14890    0.33360    -999.25    0.33360    6.49750    2.43110    4.18480   14.32410  -41.54060  -15.12450    4.18480 2296.89380 2080.22340 1385.51570
 7650.00000   11.63830   11.63830  352.54710    0.03060    0.03060    2.38820    0.18410    -999.25    0.18820    2.83650  119.18820  116.60370  194.40820  119.18820    2.83650    3.03060    3.03060    0.27150    -999.25    0.27150    6.28170    2.38820    4.89000   14.79990  -39.55900   -9.41610    4.89000 2285.44730 2084.00850 1381.42380
 7700.00000    9.86910    9.86910  131.69510   -0.00150   -0.00150    2.67500    0.01190    -999.25    0.02050    7.59330   38.60440   37.17960   92.40270   38.60440    7.59330    8.83140    8.83140    0.06970    -999.25    0.06970    4.70930    2.67500   10.34650   15.66690  -48.53000  -17.53000   10.34650 2290.93650 2080.29590 1382.53230
 7750.00000    9.26050    9.26050   68.62240    0.02390    0.02390    2.39710    0.16470    -999.25    0.18300   14.57250   22.96850   23.60260   30.72170   22.96850   14.57250   16.54340   16.54340    0.06520    -999.25    0.06520    4.20170    2.39710   14.85800   13.47090  -54.07460  -23.07460   14.85800 2314.97440 2086.25850 1381.88510
 7800.00000    9.09840    9.09840   34.86020    0.11740    0.11740    2.59860    0.06150    -999.25    0.06510   28.68600   18.75430   19.21930   25.09160   18.75430   28.68600   32.05760   32.05760    0.04470    -999.25    0.04470    4.05840    2.59860   26.11330   11.52270 -107.29720  -76.29720   26.11330 2344.70750 2092.07280 1385.55800
 7850.00000    9.42020    9.42020   24.73050    0.06670    0.06670    2.08150    0.38340    -999.25    0.36750   40.43590   19.64840   21.12670   45.67220   19.64840   40.43590   41.97090   41.97090    0.06200    -999.25    0.06200    4.18830    2.08150   47.95330   13.34070  -84.63480  -53.63480   47.95330 2334.23290 2089.49760 1383.82620
 7900.00000    8.15850    8.15850   12.57620    0.02700    0.02700    2.73900   -0.02250    -999.25   -0.01700   79.51540   17.40640   15.26670   22.35780   17.40640   79.51540   74.69240   74.69240    0.04260    -999.25    0.04260    3.81750    2.73900   51.13690   11.04580  -86.04860  -55.04860   51.13690 2378.38820 2092.92020 1382.56700
