~Version ---------------------------------------------------
VERS. 2.0 : CWLS log ASCII Standard -VERSION 2.0
WRAP. YES : Multiple lines per depth step
~Well ------------------------------------------------------
STRT.FT                   4050.0 : START DEPTH
STOP.FT                   9050.0 : STOP DEPTH
STEP.FT                 50.00000 : STEP LENGTH
NULL.                    -999.25 : NULL VALUE
COMP. CHAMPLIN PETROLEUM COMPANY : COMPANY
WELL.         LENWOOD WALLACE #1 : WELL
FLD .                   GIDDINGS : FIELD
LOC .                            : LOCATION
CNTY.                   BURLESON : COUNTY
STAT.                      TEXAS : STATE
CTRY.   UNITED STATES OF AMERICA : COUNTRY
SRVC.               Schlumberger : SERVICE COMPANY
DATE.                17-Dec-1980 : LOGDATE
API .             42051310320000 : API NUMBER
UWI .             42051310320000 : UNIQUE WELL ID
SLAT.WGS84         30.4639863127 : SURFACE LATITUDE
SLON.WGS84        -96.5949985756 : SURFACE LONGITUDE
~Curve Information -----------------------------------------
DEPT    .FT    : DEPTH
CALWS   .IN    : CALIPER (DCALED+8.75)
CONDWS  .MMHO  : CONDUCTIVITY (1000/DRESWS)
DCALED  .IN    : DIFFERENTIAL CALIPER
DCORWS  .G/C3  : DENSITY CORRECTION (DRHOED)
DENWS   .G/C3  : BULK DENSITY  (DPHISSED M=2.65 F=1/DPHILSED M-2.71 F-1)
DPHILSED.V/V   : DENSITY POROSITY LIMESTONE
DPHISSED.V/V   : DENSITY POROSITY SANDSTONE
DPOWS   .V/V   : DENSITY POROSITY (M=2.71 F=1 FROM DENWS)
DRESWS  .OHMM  : DEEP RESISTIVITY (ILDED)
DRHOED  .G/C3  : DENSITY CORRECTION (FILLED MISSING)
GRRED   .GAPI  : GAMMA RAY
GRWS    .GAPI  : GAMMA RAY (GRRED)
ILDED   .OHMM  : DEEP INDUCTION RESISTIVITY
ILMED   .OHMM  : MEDIUM INDUCTION RESISTIVITY
MRESWS  .OHMM  : MEDIUM RESISTIVITY (ILMED)
NPHILSED.V/V   : NEUTRON POROSITY LIMESTONE
NPHISSED.V/V   : NEUTRON POROSITY SANDSTONE
NPOWS   .V/V   : NEUTRON POROSITY LIMESTONE (NPHISSED CONVERTED TO LS/NPHILSED)
SFLUED  .OHMM  : SPHERICALLY FOCUSED RESISTIVITY
SPRED   .MV    : SPONTANEOUS POTENTIAL
SPWS    .MV    : SPONTANEOUS POTENTIAL BASELINE 0 MV (SPRED)
SRESWS  .OHMM  : SHALLOW RESISTIVITY (SFLUED)
~Params ----------------------------------------------------
PD  .                     GL : PERMANENT DATUM
EPD .FT                  325 : ELEVATION PERMANENT DATUM
LMF .                     KB : LOG MEASURED FROM
DAPD.FT                   14 : FEET ABOVE PERMANENT DATUM
DMF .                     KB : DRILLING MEASURED FROM
EKB .FT                  339 : KELLY BUSHING
EDF .FT                  338 : DRILLING FLOOR
EGL .FT                  325 : GROUND LEVEL
DATE.               12/17/80 : RUN DATE
RUN .                      1 : RUN NUMBER
DD  .FT                 9080 : DEPTH DRILLER
DL  .FT                 9076 : DEPTH LOGGER
BLI .FT                 9070 : BOTTOM LOG INTERVAL
TLI .FT                 4046 : TOP LOG INTERVAL
CS  .IN                9.625 : CASING SIZE
CBD .FT                 4045 : CASING BOTTOM DRILLER
CBL .FT                 4046 : CASING BOTTOM LOGGER
BS  .IN                 8.75 : BIT SIZE
BSD .FT                 9080 : BIT SIZE AT DEPTH
DFT .                 BEN EX : DRILLING FLUID TYPE
DFD .                    9.4 : DRILLING FLUID DENSITY
DFV .                     43 : DRILLING FLUID VISCOSITY
DFPH.                    8.5 : DRILLING FLUID PH
DFL .                    7.1 : DRILLING FLUID LOSS
MSS .                   TANK : MUD SAMPLE SOURCE
RMS .OHMM               2.01 : RESISTIVITY MUD SAMPLE
MST .DEGF                 98 : MUD SAMPLE TEMPERATURE
RMF .OHMM                1.5 : RESISTIVITY MUD FILTRATE SAMPLE
MFST.DEGF                 98 : MUD FILTRATE SAMPLE TEMPERATURE
RMC .OHMM               3.01 : RESISTIVITY MUD CAKE
MCST.DEGF                 98 : MUD CAKE SAMPLE TEMPERATURE
MFSS.                      M : MUD FILTRATE SAMPLE SOURCE
MCSS.                      C : MUD CAKE SAMPLE SOURCE
RMB .OHMM               1.06 : RESISTIVITY MUD AT BHT
TCS .HRS                2400 : TIME CIRCULATED STOPPED
TLAB.HRS                 630 : TIME LOGGER AT BOTTOM
LUN .                   8101 : LOGGING UNIT NUMBER
LUL .                BRENHAM : LOGGING UNIT LOCATION
ENGI.                  WYATT : RECORDING ENGINEER
WITN.                 KRAUHS : WITNESSED BY
CLNT.                A2DTECH : CLIENT CODE
ORIG.          1" 2.5" PRINT : ORIGIN OF DATA
UWI .         42051310320000 : UNIQUE WELL ID
DICO. A2D Technologies, Inc. : DIGITIZING COMPANY
~Other -----------------------------------------------------
~ASCII -----------------------------------------------------
# ...
 7250.00000   10.35000  273.03750    1.60000    0.00380    2.58940    0.07050    -999.25    0.07050    3.66250    0.00380   58.41220   58.41220    3.66250    3.97190    3.97190    0.15600    -999.25    0.15600    3.72050  -12.22850  -13.11730    3.72050
 7300.00000   10.31380  303.18650    1.56380    0.01180    2.60020    0.06420    -999.25    0.06420    3.29830    0.01180   70.92060   70.92060    3.29830    3.67800    3.67800    0.17930    -999.25    0.17930    4.04730  -10.97190  -11.71850    4.04730
 7350.00000   10.31640  196.05920    1.56640    0.02060    2.64070    0.04050    -999.25    0.04050    5.10050    0.02060   54.88110   54.88110    5.10050    5.43770    5.43770    0.13160    -999.25    0.13160    5.49580  -10.26270  -10.86710    5.49580
 7400.00000   12.58120  432.17080    3.83120    0.04560    2.50820    0.11800    -999.25    0.11800    2.31390    0.04560   93.85770   93.85770    2.31390    2.50540    2.50540    0.23800    -999.25    0.23800    2.63030   -8.96950   -9.43170    2.63030
 7450.00000   11.30490  314.28750    2.55490    0.00970    2.56350    0.08570    -999.25    0.08570    3.18180    0.00970   86.60590   86.60590    3.18180    3.47190    3.47190    0.18440    -999.25    0.18440    3.29090   -7.32890   -7.64890    3.29090
 7500.00000   11.21930  307.93870    2.46930    0.00370    2.53930    0.09980    -999.25    0.09980    3.24740    0.00370   74.17920   74.17920    3.24740    3.54870    3.54870    0.19490    -999.25    0.19490    3.22550   -9.76750   -9.94530    3.22550
 7550.00000   11.29210  402.49550    2.54210    0.01680    2.55630    0.08990    -999.25    0.08990    2.48450    0.01680   92.38710   92.38710    2.48450    2.57210    2.57210    0.20440    -999.25    0.20440    2.72210   -4.35560   -4.39120    2.72210
 7600.00000   10.66740  413.87300    1.91740    0.02660    2.56480    0.08490    -999.25    0.08490    2.41620    0.02660   91.24280   91.24280    2.41620    2.67790    2.67790    0.19780    -999.25    0.19780    2.85530   -4.87440   -4.76780    2.85530
 7650.00000   10.73920  556.88590    1.98920    0.10100    2.59240    0.06880    -999.25    0.06880    1.79570    0.10100   99.29550   99.29550    1.79570    2.04600    2.04600    0.27800    -999.25    0.27800    2.65680   -6.21880   -5.97000    2.65680
 7700.00000   13.10090  638.44730    4.35090    0.08760    2.52620    0.10750    -999.25    0.10750    1.56630    0.08760  108.58590  108.58590    1.56630    1.75170    1.75170    0.28210    -999.25    0.28210    1.85200   -5.66380   -5.27280    1.85200
 7750.00000   12.16670  520.15610    3.41670    0.10000    2.56090    0.08720    -999.25    0.08720    1.92250    0.10000  105.10780  105.10780    1.92250    2.08970    2.08970    0.26420    -999.25    0.26420    2.17390   -8.45560   -7.92240    2.17390
 7800.00000   11.24200  476.66720    2.49200    0.10000    2.56550    0.08450    -999.25    0.08450    2.09790    0.10000   92.81790   92.81790    2.09790    2.31690    2.31690    0.23720    -999.25    0.23720    2.40030   -6.61540   -5.94000    2.40030
 7850.00000   11.51860  548.15550    2.76860    0.10000    2.49680    0.12470    -999.25    0.12470    1.82430    0.10000  108.76510  108.76510    1.82430    2.02230    2.02230    0.24820    -999.25    0.24820    2.09650   -6.72330   -5.90570    2.09650
 7900.00000   11.24080  570.32060    2.49080    0.10000    2.56090    0.08720    -999.25    0.08720    1.75340    0.10000  106.26720  106.26720    1.75340    1.99020    1.99020    0.24780    -999.25    0.24780    2.01620   -6.68120   -5.72140    2.01620
 7950.00000   11.12720  539.51980    2.37720    0.10000    2.57640    0.07810    -999.25    0.07810    1.85350    0.10000  107.82480  107.82480    1.85350    2.08250    2.08250    0.23170    -999.25    0.23170    2.20380   -5.40510   -4.30320    2.20380
 8000.00000   11.10850  578.60330    2.35850    0.10000    2.58160    0.07510    -999.25    0.07510    1.72830    0.10000  104.94180  104.94180    1.72830    1.92530    1.92530    0.23150    -999.25    0.23150    2.03030   -7.48320   -6.23910    2.03030
 8050.00000   10.51650  546.32870    1.76650    0.09830    2.52960    0.10550    -999.25    0.10550    1.83040    0.09830  105.39160  105.39160    1.83040    2.06770    2.06770    0.25320    -999.25    0.25320    2.10440   -6.21570   -4.82940    2.10440
 8100.00000   10.71080  601.03380    1.96080    0.10000    2.54940    0.09390    -999.25    0.09390    1.66380    0.10000  110.81270  110.81270    1.66380    1.87670    1.87670    0.24420    -999.25    0.24420    1.99580   -6.31600   -4.78750    1.99580
 8150.00000   10.13950  516.52890    1.38950    0.10000    2.55700    0.08950    -999.25    0.08950    1.93600    0.10000  110.01010  110.01010    1.93600    2.12780    2.12780    0.23410    -999.25    0.23410    2.25690   -9.94220   -8.27150    2.25690
 8200.00000    9.72600  499.65020    0.97600    0.09630    2.59850    0.06520    -999.25    0.06520    2.00140    0.09630  106.38210  106.38210    2.00140    2.23430    2.23430    0.22520    -999.25    0.22520    2.37840   -7.21420   -5.40130    2.37840
 8250.00000    9.60550  437.46440    0.85550    0.02500    2.60190    0.06320    -999.25    0.06320    2.28590    0.02500  107.81540  107.81540    2.28590    2.49040    2.49040    0.21140    -999.25    0.21140    2.78410   -5.79950   -3.84440    2.78410
 8300.00000    9.56710  472.38890    0.81710    0.00680    2.58380    0.07380    -999.25    0.07380    2.11690    0.00680  100.93740  100.93740    2.11690    2.37340    2.37340    0.21830    -999.25    0.21830    2.54080   -5.27400   -3.17670    2.54080
 8350.00000    9.72400  478.40020    0.97400    0.00130    2.57010    0.08180    -999.25    0.08180    2.09030    0.00130   92.75770   92.75770    2.09030    2.30960    2.30960    0.22130    -999.25    0.22130    2.25350   -7.53420   -4.64370    2.25350
 8400.00000    9.34000   73.51970    0.59000    0.01220    2.61600    0.05500    -999.25    0.05500   13.60180    0.01220   38.58110   38.58110   13.60180   14.24900   14.24900    0.06930    -999.25    0.06930   13.54960  -24.21610  -17.92830   13.54960
 8450.00000    9.30930   51.36790    0.55930    0.01900    2.57250    0.08040    -999.25    0.08040   19.46740    0.01900   43.70060   43.70060   19.46740   22.57130   22.57130    0.08620    -999.25    0.08620   16.74560  -31.86900  -22.18400   16.74560
 8500.00000    9.42950   14.28200    0.67950    0.10000    2.59180    0.06910    -999.25    0.06910   70.01800    0.10000   26.09910   26.09910   70.01800   38.97540   38.97540    0.06390    -999.25    0.06390   34.47320  -44.30680  -31.22450   34.47320
 8550.00000   14.81200  595.94760    6.06200    0.10000    2.35090    0.21000    -999.25    0.21000    1.67800    0.10000  100.33380  100.33380    1.67800    1.78390    1.78390    0.40380    -999.25    0.40380    1.78330  -20.53740   -8.11330    1.78330
 8600.00000   14.11270  729.50100    5.36270    0.10000    2.45140    0.15120    -999.25    0.15120    1.37080    0.10000  104.19980  104.19980    1.37080    1.48780    1.48780    0.34720    -999.25    0.34720    1.58150  -18.79880   -9.21670    1.58150
 8650.00000   12.65990  611.24690    3.90990    0.10000    2.30590    0.23630    -999.25    0.23630    1.63600    0.10000  103.58010  103.58010    1.63600    1.79280    1.79280    0.37840    -999.25    0.37840    1.73660  -17.31600  -10.57590    1.73660
 8700.00000   11.15850  226.86030    2.40850    0.10000    2.57940    0.07640    -999.25    0.07640    4.40800    0.10000  131.62500  131.62500    4.40800    3.55520    3.55520    0.29910    -999.25    0.29910    5.25980  -19.14220  -15.24400    5.25980
 8750.00000    9.69430   59.92760    0.94430   -0.00070    2.51470    0.11420    -999.25    0.11420   16.68680   -0.00070  173.63000  173.63000   16.68680   15.70110   15.70110    0.21080    -999.25    0.21080   30.27640   -9.33350   -4.14880   30.27640
 8800.00000   10.39190  266.02820    1.64190    0.09270    2.52980    0.10540    -999.25    0.10540    3.75900    0.09270  126.23730  126.23730    3.75900    4.28640    4.28640    0.27280    -999.25    0.27280    6.51310  -13.67120   -5.89620    6.51310
