~Version ---------------------------------------------------
VERS. 2.0 : CWLS log ASCII Standard -VERSION 2.0
WRAP. YES : Multiple lines per depth step
~Well ------------------------------------------------------
STRT.FT                   2500.0 : START DEPTH
STOP.FT                  17250.0 : STOP DEPTH
STEP.FT                 50.00000 : STEP LENGTH
NULL.                    -999.25 : NULL VALUE
COMP. CHAMPLIN PETROLEUM COMPANY : COMPANY
WELL.    FRIAR RANCH GAS UNIT #1 : WELL
FLD .                    WILDCAT : FIELD
LOC .                            : LOCATION
CNTY.                    DE WITT : COUNTY
STAT.                      TEXAS : STATE
CTRY.   UNITED STATES OF AMERICA : COUNTRY
SRVC.                    Unknown : SERVICE COMPANY
DATE.                27-Nov-1979 : LOGDATE
API .             42123309830000 : API NUMBER
UWI .             42123309830000 : UNIQUE WELL ID
SLAT.WGS84           29.12059862 : SURFACE LATITUDE
SLON.WGS84          -97.21043026 : SURFACE LONGITUDE
~Curve Information -----------------------------------------
DEPT    .FT    : DEPTH FEET
ACED    .US/F  : DELTA TIME (ACOUSTIC) FROM SONIC LOG [DEP ADJ TO DTED]
CALDED  .IN    : CALIPER FROM DENSITY LOG [DEP ADJ TO GRRED]
CALRED  .IN    : CALIPER FROM RESISTIVITY LOG
CALWS   .IN    : CALIPER [CALDED]
CONDWS  .MMHO  : CONDUCTIVITY [1000/DRESWS]
CORRED  .G/C3  : DENSITY CORRECTION FROM DENSITY LOG
DCORWS  .G/C3  : DENSITY CORRECTION [CORRED]
DENWS   .G/C3  : BULK DENSITY [M=2.71 F=1.0] [RHOBED]
DPHILSED.V/V   : DENSITY POROSITY [M=2.71 F=1.0] FROM DENSITY LOG [DEP ADJ TO GRRED]
DPHISSED.V/V   : DENSITY POROSITY [M=2.65 F=1.0][7100-10800F M=2.68] FROM DENSITY LOG
DPOLSWS .V/V   : DENSITY POROSITY [M=2.71 F=1.0] [CAL FR DENWS]
DRESWS  .OHMM  : DEEP RESISTIVITY [ILDED]
DTED    .US/F  : DELTA TIME FROM SONIC LOG
DTWS    .US/F  : DELTA TIME [2490 DTED 15878 ACED]
GRDED   .GAPI  : GAMMA RAY FROM DENSITY LOG [DEP ADJ TO GRRED]
GRRED   .GAPI  : GAMMA RAY FROM RESISTIVITY LOG
GRWS    .GAPI  : GAMMA RAY [2490 GRDED 17231 GRRED]
ILDED   .OHMM  : INDUCTION LOG DEEP RESISTIVITY
ILMED   .OHMM  : INDUCTION LOG MEDIUM RESISTIVITY
MRESWS  .OHMM  : MEDIUM RESISTIVITY [ILMED]
NPHILSED.V/V   : NEUTRON POROSITY LIMESTONE FROM DENSITY LOG [DEP ADJ TO GRRED]
NPHISSED.V/V   : NEUTRON POROSITY SANDSTONE FROM DENSITY LOG
NPOLSWS .V/V   : NEUTRON POROSITY LIMESTONE [2490 NPOLSCAL 14943 NPHILSED] [NPHISSED WAS CONVERTED TO NPOLSCAL USING POWERLOG MODULE]
RHOBED  .G/C3  : BULK DENSITY FROM DENSITY LOG [DEP ADJ TO GRRED]
SFLED   .OHMM  : SPHERICALLY FOCUSED LOG RESISTIVITY
SPHILSED.V/V   : SONIC POROSITY FROM SONIC LOG [DEP ADJ TO DTED] [LIMESTONE M=47.5, F=189]
SPOWS   .V/V   : SONIC POROSITY [CAL FR DTWS] [LIMESTONE M=47.5, F=189]
SPRED   .MV    : SPONTANEOUS POTENTIAL FROM RESISTIVITY LOG [SHIFTS ARE REMOVED]
SPWS    .MV    : SPONTANEOUS POTENTIAL [BASELINE 0 MV] [SPRED]
SRESWS  .OHMM  : SHALLOW RESISTIVITY [SFLED]
~Params ----------------------------------------------------
PD  .                     GL : PERMANENT DATUM
EPD .FT                223.8 : ELEVATION PERMANENT DATUM
LMF .                     KB : LOG MEASURED FROM
DAPD.FT                   26 : FEET ABOVE PERMANENT DATUM
DMF .                     KB : DRILLING MEASURED FROM
EKB .FT                249.8 : KELLY BUSHING
EDF .FT                248.8 : DRILLING FLOOR
EGL .FT                223.8 : GROUND LEVEL
DATE.               11/27/79 : RUN DATE
RUN .                      1 : RUN NUMBER
DD  .FT                17252 : DEPTH DRILLER
DL  .FT                17259 : DEPTH LOGGER
BLI .FT                17258 : BOTTOM LOG INTERVAL
TLI .FT                15013 : TOP LOG INTERVAL
CS  .IN                    7 : CASING SIZE
CBD .FT                15015 : CASING BOTTOM DRILLER
CBL .FT                15018 : CASING BOTTOM LOGGER
BS  .IN                5.875 : BIT SIZE
BSD .FT                17252 : BIT SIZE AT DEPTH
DFT .               OIL FAZE : DRILLING FLUID TYPE
DFD .                   12.8 : DRILLING FLUID DENSITY
DFV .                     45 : DRILLING FLUID VISCOSITY
DFL .                   13.6 : DRILLING FLUID LOSS
TCS .HRS                 545 : TIME CIRCULATED STOPPED
TLAB.HRS                1500 : TIME LOGGER AT BOTTOM
LUN .                   8011 : LOGGING UNIT NUMBER
LUL .                   VICT : LOGGING UNIT LOCATION
ENGI.                   SHEA : RECORDING ENGINEER
WITN.            BLANKENSHIP : WITNESSED BY
CLNT.                A2DTECH : CLIENT CODE
ORIG.            1" 5" PRINT : ORIGIN OF DATA
UWI .         42123309830000 : UNIQUE WELL ID
DICO. A2D Technologies, Inc. : DIGITIZING COMPANY
~Other -----------------------------------------------------
~ASCII -----------------------------------------------------
# ...
 8500.00000    -999.25   16.43320    -999.25   16.43320  414.26740    0.11980    0.11980    2.42560    -999.25    0.14610    0.16630    2.41390   86.63810   86.63810   86.74540    -999.25   86.74540    2.41390    2.50030    2.50030    -999.25    0.39390    0.35090    2.42560    2.78660    -999.25    0.27660  -23.48320   -2.33060    2.78660
 8550.00000    -999.25   14.35400    -999.25   14.35400  236.98370   -0.00730   -0.00730    2.56210    -999.25    0.06880    0.08650    4.21970   74.85860   74.85860   79.82780    -999.25   79.82780    4.21970    4.38940    4.38940    -999.25    0.24200    0.19810    2.56210    4.15070    -999.25    0.19330  -33.19790  -12.26890    4.15070
 8600.00000    -999.25   16.98940    -999.25   16.98940  396.58930    0.09340    0.09340    2.39030    -999.25    0.16910    0.18700    2.52150   91.89380   91.89380   88.78370    -999.25   88.78370    2.52150    2.43090    2.43090    -999.25    0.41310    0.37050    2.39030    2.73360    -999.25    0.31370  -23.11500   -2.18600    2.73360
 8650.00000    -999.25   15.45100    -999.25   15.45100  276.24310    0.06340    0.06340    2.43720    -999.25    0.14910    0.15950    3.62000   85.49630   85.49630   91.19970    -999.25   91.19970    3.62000    3.37270    3.37270    -999.25    0.30880    0.26490    2.43720    3.97550    -999.25    0.26850  -27.49110   -6.56210    3.97550
 8700.00000    -999.25   18.43960    -999.25   18.43960  460.15090    0.05760    0.05760    2.36370    -999.25    0.18560    0.20250    2.17320   95.59270   95.59270   88.12780    -999.25   88.12780    2.17320    1.99120    1.99120    -999.25    0.44500    0.40320    2.36370    2.20130    -999.25    0.33990  -24.93030   -4.00130    2.20130
 8750.00000    -999.25   17.73810    -999.25   17.73810  344.13930    0.09760    0.09760    2.42380    -999.25    0.15600    0.16740    2.90580   87.98350   87.98350   85.70750    -999.25   85.70750    2.90580    2.79930    2.79930    -999.25    0.40540    0.36260    2.42380    3.19760    -999.25    0.28610  -28.35900   -7.43000    3.19760
 8800.00000    -999.25   17.95210    -999.25   17.95210  279.00230    0.08090    0.08090    2.46840    -999.25    0.12150    0.14130    3.58420   79.32910   79.32910   77.97250    -999.25   77.97250    3.58420    3.64370    3.64370    -999.25    0.31250    0.26860    2.46840    3.86580    -999.25    0.22490  -30.87380   -9.94480    3.86580
 8850.00000    -999.25   18.39820    -999.25   18.39820  328.37490    0.01900    0.01900    2.49950    -999.25    0.11030    0.12310    3.04530   76.04530   76.04530   81.03150    -999.25   81.03150    3.04530    3.46810    3.46810    -999.25    0.21810    0.17450    2.49950    3.99310    -999.25    0.20170  -53.38320  -32.45420    3.99310
 8900.00000    -999.25   18.32590    -999.25   18.32590  293.38420    0.04240    0.04240    2.48990    -999.25    0.11210    0.12870    3.40850   81.65130   81.65130   90.91110    -999.25   90.91110    3.40850    3.37000    3.37000    -999.25    0.28010    0.23610    2.48990    3.58610    -999.25    0.24140  -27.74500   -6.81600    3.58610
 8950.00000    -999.25   15.83130    -999.25   15.83130  227.77490    0.00250    0.00250    2.52540    -999.25    0.09270    0.10800    4.39030   74.42220   74.42220   59.90170    -999.25   59.90170    4.39030    5.90430    5.90430    -999.25    0.19750    0.15410    2.52540    7.86060    -999.25    0.19030  -43.31620  -22.38720    7.86060
 9000.00000    -999.25   18.73870    -999.25   18.73870  343.96180    0.09690    0.09690    2.37880    -999.25    0.18680    0.19370    2.90730   89.23620   89.23620   85.69230    -999.25   85.69230    2.90730    2.85300    2.85300    -999.25    0.37130    0.32790    2.37880    3.00260    -999.25    0.29500  -23.63650   -2.70750    3.00260
 9050.00000    -999.25   15.52970    -999.25   15.52970  251.61660    0.07530    0.07530    2.57330    -999.25    0.06780    0.07990    3.97430   81.65200   81.65200   85.48710    -999.25   85.48710    3.97430    3.91970    3.91970    -999.25    0.28220    0.23820    2.57330    4.27080    -999.25    0.24140  -26.28260   -5.35360    4.27080
 9100.00000    -999.25   12.41170    -999.25   12.41170  338.53550    0.01780    0.01780    2.40700    -999.25    0.16430    0.17720    2.95390   79.09740   79.09740   54.13920    -999.25   54.13920    2.95390    4.65560    4.65560    -999.25    0.20090    0.15750    2.40700   10.74350    -999.25    0.22330  -99.29030  -78.36130   10.74350
 9150.00000    -999.25   15.71040    -999.25   15.71040  308.83260    0.09340    0.09340    2.44940    -999.25    0.13880    0.15240    3.23800   80.31100   80.31100   90.99740    -999.25   90.99740    3.23800    3.07230    3.07230    -999.25    0.32020    0.27630    2.44940    3.98030    -999.25    0.23190  -22.60040   -1.67140    3.98030
 9200.00000    -999.25   13.69970    -999.25   13.69970  263.73390    0.17300    0.17300    2.52850    -999.25    0.08330    0.10610    3.79170   80.86730   80.86730  103.46480    -999.25  103.46480    3.79170    3.94710    3.94710    -999.25    0.27630    0.23230    2.52850    4.30050    -999.25    0.23580  -25.92590   -4.99690    4.30050
 9250.00000    -999.25   11.78920    -999.25   11.78920  387.71710    0.06090    0.06090    2.38560    -999.25    0.17700    0.18970    2.57920   79.29590   79.29590   45.86210    -999.25   45.86210    2.57920    4.40160    4.40160    -999.25    0.19650    0.15310    2.38560   12.35150    -999.25    0.22470 -109.12310  -88.19410   12.35150
 9300.00000    -999.25   11.87650    -999.25   11.87650  316.58590    0.07320    0.07320    2.42490    -999.25    0.15820    0.16670    3.15870   78.79960   78.79960   53.61880    -999.25   53.61880    3.15870    4.74520    4.74520    -999.25    0.22230    0.17860    2.42490   10.54240    -999.25    0.22120  -89.77290  -68.84390   10.54240
 9350.00000    -999.25   13.84880    -999.25   13.84880  201.50320    0.04200    0.04200    2.45340    -999.25    0.13220    0.15010    4.96270   77.75990   77.75990   77.45530    -999.25   77.45530    4.96270    5.11770    5.11770    -999.25    0.31340    0.26950    2.45340    5.61970    -999.25    0.21390  -29.29730   -8.31380    5.61970
 9400.00000    -999.25   14.79050    -999.25   14.79050  276.73230    0.12330    0.12330    2.41390    -999.25    0.15660    0.17320    3.61360   85.90140   85.90140   81.33050    -999.25   81.33050    3.61360    3.42140    3.42140    -999.25    0.40580    0.36300    2.41390    4.06740    -999.25    0.27140  -25.84790   -4.73130    4.06740
 9450.00000    -999.25   13.40240    -999.25   13.40240  200.57360    0.04680    0.04680    2.56530    -999.25    0.07290    0.08460    4.98570   75.27280   75.27280   84.38770    -999.25   84.38770    4.98570    5.09720    5.09720    -999.25    0.29780    0.25380    2.56530    7.35480    -999.25    0.19630  -29.96080   -8.71120    7.35480
 9500.00000    -999.25   15.25610    -999.25   15.25610  223.30900    0.07270    0.07270    2.49770    -999.25    0.11220    0.12420    4.47810   80.22600   80.22600   78.57180    -999.25   78.57180    4.47810    4.36050    4.36050    -999.25    0.36420    0.32070    2.49770    4.71630    -999.25    0.23130  -24.41840   -3.03570    4.71630
 9550.00000    -999.25   15.54760    -999.25   15.54760  234.12620    0.13820    0.13820    2.37410    -999.25    0.18220    0.19640    4.27120   83.01640   83.01640   83.20410    -999.25   83.20410    4.27120    3.87580    3.87580    -999.25    0.39840    0.35550    2.37410    4.48950    -999.25    0.25100  -25.51050   -3.99470    4.48950
 9600.00000    -999.25   15.36960    -999.25   15.36960  232.96450    0.06170    0.06170    2.46780    -999.25    0.13620    0.14160    4.29250   76.21760   76.21760   67.40810    -999.25   67.40810    4.29250    4.08370    4.08370    -999.25    0.40990    0.36720    2.46780    4.60940    -999.25    0.20300  -29.41060   -7.76180    4.60940
 9650.00000    -999.25   16.26640    -999.25   16.26640  393.12810    0.08570    0.08570    2.17770    -999.25    0.30940    0.31130    2.54370   89.10000   89.10000   82.66010    -999.25   82.66010    2.54370    2.46750    2.46750    -999.25    0.46130    0.41960    2.17770    2.64570    -999.25    0.29400  -24.31180   -2.52990    2.64570
