~Version ---------------------------------------------------
VERS. 2.0 : CWLS log ASCII Standard -VERSION 2.0
WRAP.  NO : ONE LINE PER DEPTH STEP
~Well ------------------------------------------------------
STRT.F                      1050.0 : START DEPTH
STOP.F                     12900.0 : STOP DEPTH
STEP.F                    50.00000 : STEP LENGTH
NULL.                      -999.25 : NULL VALUE
COMP.         MARATHON OIL COMPANY : COMPANY
WELL.                    WILLIS #1 : WELL
FLD . BOB HEND (COTTON VALLEYLIME) : FIELD
LOC .                              : LOCATION
CNTY.                    LIMESTONE : COUNTY
STAT.                        TEXAS : STATE
CTRY.     UNITED STATES OF AMERICA : COUNTRY
SRVC.                              : SERVICE COMPANY
DATE.                              : LOGDATE
API .               42293312300000 : API NUMBER
UWI .               42293312300000 : UNIQUE WELL ID
SLAT.WGS84           31.3874962389 : SURFACE LATITUDE
SLON.WGS84           -96.295097431 : SURFACE LONGITUDE
~Curve Information -----------------------------------------
DEPT.F                 : 
SPR .MV   06 010 01 00 : SPONTANEOUS POTENTIAL
AH20.OHMM 06 120 20 00 : 10-IN. RESISTIVITY, 1-FT RESOLUTION
AH30.OHMM 06 120 30 00 : 30-IN. RESISTIVITY, 2-FT RESOLUTION
AH90.OHMM 06 120 90 00 : 90-IN. RESISTIVITY, 2-FT RESOLUTION
DCAL.IN   06 280 30 00 : DIFFERENTIAL CALIPER
GRR .GAPI 06 310 01 00 : GAMMA RAY FROM RESISTIVITY
DTLN.US/F 60 523 00 00 : ACOUSTIC TRANSIT TIME, LONG SPACED, NEAR ARRAY
PEF .B/E  45 358 01 00 : PHOTOELECTRIC FACTOR
NPHI.DEC  42 890 01 00 : NEUTRON POROSITY LIMESTONE
DPHZ.DEC  45 890 10 00 : DENSITY POROSITY LIMESTONE
DT4P.US/F 60 532 00 00 : COMPRESSIONAL-WAVE INTERVAL TRANSIT TIME ACOUSTIC SLOWNESS, P&S MODE
IMPH.OHMM 07 120 44 00 : INDUCTION MEDIUM PHASOR RES.
IDPH.OHMM 07 120 46 00 : INDUCTION DEEP PHASOR RES
SFL .OHMM 07 220 01 00 : SPHERICALLY FOCUSED LOG UNAVERAGED RESISTIVITY
~Params ----------------------------------------------------
EKB .F                 407.0 : KELLY BUSHING
EGL .F                   376 : ELEVATION GROUND LEVEL
EDF .F                   405 : ELEVATION DERRICK FLOOR
EPD .F                   376 : ELEVATION PERMANENT DATUM
TD  .F               12902.0 : TOTAL DEPTH
DATE.            05-DEC-1997 : DATE LOGGED
CLNT.                A2DTECH : CLIENT CODE
PD  .                     GL : PERMANENT DATUM
LMF .                     KB : LOG MEASURED FROM
DMF .                     KB : DRILLING MEASURED FROM
DAPD.F                    31 : FEET ABOVE PERMANENT DATUM
DD  .F                 12900 : DEPTH DRILLER
DL  .F                 12902 : DEPTH LOGGER
BLI .F                 12986 : BOTTOM LOG INTERVAL
TLI .F                  8600 : TOP LOG INTERVAL
CS1 .IN                9.625 : CASING SIZE
CBD1.         9.625" @ 9480' : CASING DRILLER 1
CBL1.F                  9480 : CASING LOGGER 1
BS1 .IN                12.25 : BIT SIZE
BSD1.F                 12900 : DEPTH DRILLED WITH BIT1
DFT .           LIGNOSULFATE : TYPE FLUID IN HOLE
DFD .                   11.4 : DENSITY
DFV .                     36 : VISCOSITY
DFPH.                     10 : PH
DFL .                    120 : FLUID LOSS
MSS .       CIRCULATION TANK : SOURCE OF SAMPLE
RMS .OHMM               2.76 : RM
RMF .OHMM               2.29 : RMF
RMC .OHMM              3.588 : RMC
MFSS.                   CALC : SOURCE RMF.
MCSS.                   CALC : SOURCE RMC.
RMB .OHMM              0.835 : RM. AT BHT
BHT .F                   260 : BHT.
TCS .HRS                1530 : TIME CIRC. STOPPED
TLAB.HRS                 300 : TIME LOGGER AT BOTTOM
LUN .                   8400 : LOGGING UNIT NUMBER
LUL .                  TYLER : LOGGING UNIT LOCATION
ENGI.        SKRBICH GARDNER : RECORDED BY
WITN.                EW BANK : WITNESSED BY
ORIG.               5" PRINT : ORIGIN OF DATA
UWI .         42293312300000 : UNIQUE WELL ID
DICO. A2D TECHNOLOGIES, INC. : DIGITIZING COMPANY
~Other -----------------------------------------------------
~ASCII -----------------------------------------------------
# ...
 3500.00000   -6.49390    1.87460    1.83550    1.81600    5.77540  100.83430  105.46560    -999.25    -999.25    -999.25    -999.25    -999.25    -999.25    -999.25
 3550.00000   -8.16870    1.83290    2.03580    2.24390    3.71740   99.69510  100.41160    -999.25    -999.25    -999.25    -999.25    -999.25    -999.25    -999.25
 3600.00000   -6.95100    1.39130    1.40840    1.51540    3.81020  116.84710  106.99850    -999.25    -999.25    -999.25    -999.25    -999.25    -999.25    -999.25
 3650.00000   -8.47930    1.32750    1.30770    1.33570    6.45090  113.94070  109.90490    -999.25    -999.25    -999.25    -999.25    -999.25    -999.25    -999.25
 3700.00000   -5.71340    1.07820    1.09210    1.24010   11.20730  127.74260  115.72930    -999.25    -999.25    -999.25    -999.25    -999.25    -999.25    -999.25
 3750.00000   -4.81710    1.03410    1.09240    1.24990   11.85910  126.46380  114.34560    -999.25    -999.25    -999.25    -999.25    -999.25    -999.25    -999.25
 3800.00000   -5.71610    0.93360    1.00390    1.10390   11.24500  119.24270  116.49730    -999.25    -999.25    -999.25    -999.25    -999.25    -999.25    -999.25
 3850.00000   -3.90240    0.99120    1.02330    1.12310    8.23350  120.27800  112.20520    -999.25    -999.25    -999.25    -999.25    -999.25    -999.25    -999.25
 3900.00000   -8.47560    1.02310    1.03600    1.33550    3.88530  102.81740  111.23120    -999.25    -999.25    -999.25    -999.25    -999.25    -999.25    -999.25
 3950.00000   -7.55700    1.87230    1.99780    1.87440    5.53000  111.58540  240.00000    -999.25    -999.25    -999.25    -999.25    -999.25    -999.25    -999.25
 4000.00000   -9.99190    2.24980    4.27460    4.56490    0.79790   55.10670   89.69370    -999.25    -999.25    -999.25    -999.25    -999.25    -999.25    -999.25
 4050.00000   -7.56100    2.34800    2.26010    2.25170    3.34870   93.77880  102.86370    -999.25    -999.25    -999.25    -999.25    -999.25    -999.25    -999.25
 4100.00000   -5.12320    1.61150    1.63320    1.89420    2.42520  100.02160  104.66990    -999.25    -999.25    -999.25    -999.25    -999.25    -999.25    -999.25
 4150.00000   -4.99880    1.79460    1.99870    1.93610    1.16700   82.45020   49.26070    -999.25    -999.25    -999.25    -999.25    -999.25    -999.25    -999.25
 4200.00000   -7.25670    2.65670    2.76850    2.48270    1.95470   71.10460   96.55490    -999.25    -999.25    -999.25    -999.25    -999.25    -999.25    -999.25
 4250.00000  -10.58280    3.27770    3.31770    3.15080    1.13670   50.29850   80.28460    -999.25    -999.25    -999.25    -999.25    -999.25    -999.25    -999.25
 4300.00000  -10.06130    4.11170    3.97640    3.77300    0.49060   41.00430   82.03670    -999.25    -999.25    -999.25    -999.25    -999.25    -999.25    -999.25
 4350.00000   -4.19980    3.39930    2.95570    3.17400    0.49070   54.22000   87.55140    -999.25    -999.25    -999.25    -999.25    -999.25    -999.25    -999.25
 4400.00000   -9.39400    5.48440    3.18390    2.45870    0.30730   43.90250   80.19720    4.77800    0.20810    -999.25    -999.25    -999.25    -999.25    -999.25
 4450.00000   -7.85640    3.69840    3.42870    3.52830    0.61520   57.44820   82.49440    4.83870    0.17790    0.09720    -999.25    -999.25    -999.25    -999.25
 4500.00000  -28.28920    3.25770    3.77210    3.41860    0.46080   49.16160   75.91120    4.83870    0.17960    0.13550    -999.25    -999.25    -999.25    -999.25
 4550.00000  -10.61130    7.58700    3.04540    2.30650    0.49160   68.14120  100.86870    4.71510    0.25170    0.09690    -999.25    -999.25    -999.25    -999.25
 4600.00000  -30.57980    0.90720    0.92210    1.32030    0.97480   27.72610  122.15550    5.02340    0.15410    0.12830    -999.25    -999.25    -999.25    -999.25
 4650.00000   -6.63630    2.59860    2.34820    2.14150    2.94380  102.66770   96.31190    4.31500    0.26610    0.14870    -999.25    -999.25    -999.25    -999.25
 4700.00000   -7.55600    1.95090    2.03350    1.96870    4.74480  130.50580   92.44860    3.30330    0.27170    0.21080    -999.25    -999.25    -999.25    -999.25
 4750.00000  -11.82930    2.05820    2.10800    2.11320    6.63690  129.87810   89.50370    3.79420    0.30900    0.11340    -999.25    -999.25    -999.25    -999.25
 4800.00000   -3.90250    1.19770    1.23090    1.54310    4.51520  135.53240   98.62660    3.29230    0.30110    0.18670    -999.25    -999.25    -999.25    -999.25
 4850.00000   -6.95970    1.01070    1.08980    1.17680    4.51610  129.97640  109.55180    3.21040    0.31150    0.20400    -999.25    -999.25    -999.25    -999.25
 4900.00000   -5.54610    2.46460    2.46930    2.62610    6.54410  138.98210  103.01680    3.48730    0.33910    0.15520    -999.25    -999.25    -999.25    -999.25
 4950.00000   -6.04510    1.49660    1.68240    2.02850    6.11370  140.09190  105.31820    3.73270    0.29930    0.08770    -999.25    -999.25    -999.25    -999.25
 5000.00000   -5.73210    2.79460    2.92590    3.34690    3.34910  129.42410  102.09800    3.79450    0.31290    0.10350    -999.25    -999.25    -999.25    -999.25
 5050.00000   -5.73870    2.12310    2.94320    4.27890    2.22720  142.34030  100.97050    3.91670    0.34000    0.13760    -999.25    -999.25    -999.25    -999.25
 5100.00000   -9.00810    2.36170    2.30760    1.95130    2.28890  111.58540    -999.25    3.79420    0.29480    0.35160    -999.25    -999.25    -999.25    -999.25
 5150.00000   -6.34150    1.79250    2.19780    2.70560    3.13360  112.03630   98.60810    3.18020    0.11370    0.18950    -999.25    -999.25    -999.25    -999.25
 5200.00000  -18.52760    1.72290    1.72870    1.71300   -0.43920   95.19660  107.76420    2.75320    0.17880    0.20500    -999.25    -999.25    -999.25    -999.25
 5250.00000   -5.10630    1.26330    1.42100    1.51260    4.60780  110.70910  107.14690    3.35560    0.34760    0.18110    -999.25    -999.25    -999.25    -999.25
 5300.00000   -4.21730    1.85050    1.83570    1.48100    3.47160  105.02260    -999.25    3.67160    0.31410    0.20380    -999.25    -999.25    -999.25    -999.25
 5350.00000   -3.29270    0.68960    0.70730    0.68260    -999.25  117.07320  104.66810    3.57950    -999.25    0.20340    -999.25    -999.25    -999.25    -999.25
 5400.00000   -4.50320    3.04610    2.06290    2.07990    0.46250   95.35060   91.31380    4.40900    0.25860    0.03910    -999.25    -999.25    -999.25    -999.25
 5450.00000  -10.30060   19.92810   20.29140   10.54820    0.79930   37.73620   71.77170    4.59210    0.03640    0.00880    -999.25    -999.25    -999.25    -999.25
 5500.00000   -4.51650    8.09270    7.27600    6.33640    1.47000   49.61890   71.80900    4.50510    0.09220    0.02370    -999.25    -999.25    -999.25    -999.25
 5550.00000   -4.50760    6.00710    5.75020    5.17660    0.85950   74.31400   67.33310    4.74650    0.12550    0.04280    -999.25    -999.25    -999.25    -999.25
 5600.00000   -6.96030   26.54380   18.66980    9.58580    0.39310   30.75360   49.57120    4.71620    0.04190    0.02640    -999.25    -999.25    -999.25    -999.25
 5650.00000  -10.73910   17.25410   18.49720   16.96390    0.64470   34.75610   52.78500    4.90020    0.05410    0.00770    -999.25    -999.25    -999.25    -999.25
 5700.00000  -20.67070   23.99430   17.38820   16.97220    0.03020   28.13060   59.37210    4.86940    0.02890    0.03630    -999.25    -999.25    -999.25    -999.25
 5750.00000  -16.42440   31.97070   24.35020   19.45800    0.57790   32.84630   56.61090    4.80800    0.02580    0.02100    -999.25    -999.25    -999.25    -999.25
 5800.00000   -7.74270   12.23370   10.74540    8.07520    1.13570   43.90920   66.72280    4.86940    0.13180    0.02640    -999.25    -999.25    -999.25    -999.25
 5850.00000  -13.69360   18.10720   17.30770   13.03590    1.01260   27.66770   30.10650    4.68510    0.02090    0.00910    -999.25    -999.25    -999.25    -999.25
 5900.00000  -11.62310   32.25750   23.78430   17.41160    1.01410   32.70150   25.68410    4.77760    0.01120    0.04330    -999.25    -999.25    -999.25    -999.25
