~Version ---------------------------------------------------
VERS. 2.0 : CWLS log ASCII Standard -VERSION 2.0
WRAP. YES : MULTIPLE LINES PER DEPTH STEP
~Well ------------------------------------------------------
STRT.FT                 2150.0 : START DEPTH
STOP.FT                 9700.0 : STOP DEPTH
STEP.FT               50.00000 : STEP LENGTH
NULL.                  -999.25 : NULL VALUE
COMP.    REATA OIL & GAS CORP. : COMPANY
WELL.           CONWAY M L  #2 : WELL
FLD .          MADISONVILLE, W : FIELD
LOC .                          : LOCATION
CNTY.                  MADISON : COUNTY
STAT.                    TEXAS : STATE
CTRY. UNITED STATES OF AMERICA : COUNTRY
SRVC.                  Unknown : SERVICE COMPANY
DATE.              30-Aug-1983 : LOGDATE
API .           42313304420000 : API NUMBER
UWI .           42313304420000 : UNIQUE WELL ID
SLAT.WGS84       30.8763806633 : SURFACE LATITUDE
SLON.WGS84      -96.0411831718 : SURFACE LONGITUDE
~Curve Information -----------------------------------------
DEPT    .FT    : DEPTH FEET
CALWS   .IN    : CALIPER [DCALED+BITED]
CONDWS  .MMHO  : CONDUCTIVITY [1000/DRESWS]
DCALED  .IN    : DIFFERENTIAL CALIPER FROM DENSITY LOG
DCORWS  .G/C3  : DENSITY CORRECTION [DRHOED]
DENWS   .G/C3  : BULK DENSITY [M=2.71 F=1.0] [CALCULATED FROM DPOLSWS]
DPHILSED.V/V   : DENSITY POROSITY [M=2.71 F=1.0] FROM DENSITY LOG
DPHISSED.V/V   : DENSITY POROSITY [M=2.65 F=1.0] FROM DENSITY LOG
DPOLSWS .V/V   : DENSITY POROSITY [M=2.71 F=1.0] [2128 DPHILSED 8570 DPOCAL_LS 9340.5 DPHILSED]
DRESWS  .OHMM  : DEEP RESISTIVITY [ILDED]
DRHOED  .G/C3  : DENSITY CORRECTION FROM DENSITY LOG
GRED    .GAPI  : GAMMA RAY  [DEP ADJ TO GRRED]
GRRED   .GAPI  : GAMMA RAY FROM RESISTIVITY LOG
GRWS    .GAPI  : GAMMA RAY [GRRED]
ILDED   .OHMM  : INDUCTION LOG DEEP RESISTIVITY
ILMED   .OHMM  : INDUCTION LOG MEDIUM RESISTIVITY
MRESWS  .OHMM  : MEDIUM RESISTIVITY [ILMED]
NPHILSED.V/V   : NEUTRON POROSITY LIMESTONE FROM DENSITY LOG
NPHISSED.V/V   : NEUTRON POROSITY SANDSTONE FROM DENSITY LOG
NPOLSWS .V/V   : NEUTRON POROSITY LIMESTONE [2128 NPHILSED 8570 NPOCAL_LS 9340.5 NPHILSED][NPHISSED IS CONVERTED TO NPOCAL_LS USING POWERLOG MODULE]
SFLUED  .OHMM  : SPHERICALLY FOCUSED LOG RESISTIVITY
SPRED   .MV    : SPONTANEOUS POTENTIAL FROM RESISTIVITY LOG
SPWS    .MV    : SPONTANEOUS POTENTIAL [BASELINE 0 MV] [SPRED]
SRESWS  .OHMM  : SHALLOW RESISTIVITY [SFLUED]
~Params ----------------------------------------------------
DATE.               08/05/83 : RUN DATE
RUN .                      1 : RUN NUMBER
BLI .FT                 9740 : BOTTOM LOG INTERVAL
TLI .FT                 2120 : TOP LOG INTERVAL
CLNT.                A2DTECH : CLIENT CODE
ORIG.            2" 5" PRINT : ORIGIN OF DATA
UWI .         42313304420000 : UNIQUE WELL ID
DICO. A2D Technologies, Inc. : DIGITIZING COMPANY
~Other -----------------------------------------------------
~ASCII -----------------------------------------------------
# ...
 8350.00000   11.68230  154.94990    3.80730    0.04150    2.63290    0.04510    -999.25    0.04510    6.45370    0.04150   38.61700   48.08810   48.08810    6.45370    6.88940    6.88940    0.09330    -999.25    0.09330   10.18790  -19.29310   -4.42620   10.18790
 8400.00000   10.53260  126.72670    2.65760    0.01350    2.63800    0.04210    -999.25    0.04210    7.89100    0.01350   45.55840   51.78460   51.78460    7.89100    8.73130    8.73130    0.08020    -999.25    0.08020   11.45670  -22.04910   -7.32900   11.45670
 8450.00000   13.95640   30.29980    6.08140    -999.25    2.06990    0.37430    -999.25    0.37430   33.00350    -999.25   28.88980   32.78560   32.78560   33.00350   52.53560   52.53560    0.06880    -999.25    0.06880   26.10720  -26.23540  -11.66210   26.10720
 8500.00000   15.54200   42.22010    7.66700    0.09100    1.85600    0.49940    -999.25    0.49940   23.68540    0.09100   24.58380   31.88430   31.88430   23.68540   24.04910   24.04910    0.07800    -999.25    0.07800   24.82670  -36.36240  -21.93590   24.82670
 8550.00000   15.45590   38.19340    7.58090    0.05830    1.74810    0.56250    -999.25    0.56250   26.18250    0.05830   27.13210   34.08030   34.08030   26.18250   27.73330   27.73330    0.09180    -999.25    0.09180   18.57070  -33.00300  -18.73840   18.57070
 8600.00000   13.61280  233.63940    5.73780    -999.25    2.45780    -999.25    0.11650    0.14750    4.28010    -999.25   82.96250   87.17690   87.17690    4.28010    4.04290    4.04290    -999.25    0.19800    0.15460    5.16140  -20.58830   -6.55900    5.16140
 8650.00000   12.85030  220.76520    4.97530    0.01940    2.48500    -999.25    0.10000    0.13160    4.52970    0.01940   63.27350   66.62620   66.62620    4.52970    4.66110    4.66110    -999.25    0.16540    0.12250    4.44650  -21.30390   -7.51000    4.44650
 8700.00000   12.99490  181.96370    5.11990    0.01860    2.49590    -999.25    0.09340    0.12520    5.49560    0.01860   59.19420   65.55500   65.55500    5.49560    5.66260    5.66260    -999.25    0.14670    0.10420    5.87140  -22.93190   -9.37330    5.87140
 8750.00000   11.53800  153.07140    3.66300    0.02040    2.48570    -999.25    0.09960    0.13120    6.53290    0.02040   60.30390   64.36130   64.36130    6.53290    6.65200    6.65200    -999.25    0.11430    0.07220    6.92750  -20.23840   -6.91510    6.92750
 8800.00000   12.99060  325.34080    5.11560    -999.25    2.46690    -999.25    0.11100    0.14220    3.07370    -999.25   87.37820  101.61070  101.61070    3.07370    3.18820    3.18820    -999.25    0.25770    0.21380    3.30630  -15.98310   -2.89520    3.30630
 8850.00000   13.49000  387.25170    5.61500    -999.25    2.40430    -999.25    0.14890    0.17880    2.58230    -999.25   86.56770   90.89180   90.89180    2.58230    2.66410    2.66410    -999.25    0.27790    0.23390    2.84970  -15.71260   -2.86000    2.84970
 8900.00000   11.91540  286.86170    4.04040    0.07020    2.45830    -999.25    0.11620    0.14720    3.48600    0.07020   82.32500   92.97680   92.97680    3.48600    3.83070    3.83070    -999.25    0.21720    0.17360    4.55750  -15.99460   -3.37740    4.55750
 8950.00000   12.56910  328.88240    4.69410    -999.25    2.54090    -999.25    0.06610    0.09890    3.04060    -999.25   83.95460   96.36420   96.36420    3.04060    3.13950    3.13950    -999.25    0.23740    0.19360    3.58840  -14.73910   -2.35720    3.58840
 9000.00000    9.22550  142.15250    1.35050    0.01880    2.49490    -999.25    0.09400    0.12580    7.03470    0.01880   72.72020   80.94640   80.94640    7.03470    6.97070    6.97070    -999.25    0.13110    0.08870   11.33000  -15.15230   -3.00570   11.33000
 9050.00000   12.28770  421.35420    4.41270    -999.25    2.50000    -999.25    0.09090    0.12280    2.37330    -999.25   93.30640  100.60980  100.60980    2.37330    2.48210    2.48210    -999.25    0.28710    0.24310    2.98120  -15.83390   -3.48360    2.98120
 9100.00000   12.07130  379.14690    4.19630    -999.25    2.33720    -999.25    0.18960    0.21800    2.63750    -999.25   90.10650  102.87010  102.87010    2.63750    2.57430    2.57430    -999.25    0.33070    0.28690    3.01300  -16.30750   -3.63670    3.01300
 9150.00000   13.06660  335.79580    5.19160    -999.25    2.35400    -999.25    0.17940    0.20820    2.97800    -999.25   94.92490  101.36950  101.36950    2.97800    2.81770    2.81770    -999.25    0.36850    0.32510    2.87000  -16.32880   -3.33750    2.87000
 9200.00000   11.44330  277.92450    3.56830    0.09400    2.32260    -999.25    0.19840    0.22650    3.59810    0.09400   95.94760  102.06430  102.06430    3.59810    3.47620    3.47620    -999.25    0.33650    0.29270    4.04650  -16.06470   -2.75280    4.04650
 9250.00000   10.18180  350.45910    2.30680    -999.25    2.45050    -999.25    0.12090    0.15170    2.85340    -999.25  118.10550  131.44030  131.44030    2.85340    2.96340    2.96340    -999.25    0.29600    0.25200    3.85110  -15.28080   -1.64840    3.85110
 9300.00000    8.85670  223.72370    0.98170    0.03930    2.42260    -999.25    0.13780    0.16810    4.46980    0.03930  126.06540  133.56330  133.56330    4.46980    4.84910    4.84910    -999.25    0.27720    0.23320    7.36060  -15.13670   -1.34400    7.36060
 9350.00000   12.14200  334.69440    4.26700    -999.25    2.54550    0.09620    -999.25    0.09620    2.98780    -999.25  104.43220  108.90420  108.90420    2.98780    2.93930    2.93930    0.27880    -999.25    0.27880    4.31240  -19.72090   -6.17980    4.31240
 9400.00000    8.76710  295.59560    0.89210    0.04050    2.58310    0.07420    -999.25    0.07420    3.38300    0.04050   61.39070   64.03510   64.03510    3.38300    3.48500    3.48500    0.24930    -999.25    0.24930    3.18020  -17.15770   -3.86810    3.18020
 9450.00000    8.66440   20.43960    0.78940    0.00490    2.67310    0.02160    -999.25    0.02160   48.92460    0.00490   19.24820   21.97330   21.97330   48.92460   53.71210   53.71210    0.01760    -999.25    0.01760   73.14500  -20.04300   -7.00500   73.14500
 9500.00000    8.29870   21.56380    0.42370    0.00420    2.65340    0.03310    -999.25    0.03310   46.37410    0.00420   17.23740   23.90360   23.90360   46.37410   46.59100   46.59100    0.01930    -999.25    0.01930   54.08080  -17.43650   -5.17400   54.08080
 9550.00000    8.31290    8.11710    0.43790   -0.00410    2.65190    0.03400    -999.25    0.03400  123.19660   -0.00410    8.28810   12.66380   12.66380  123.19660  101.43460  101.43460    0.01350    -999.25    0.01350   73.70060  -34.32120  -22.99060   73.70060
 9600.00000    8.09440    4.35310    0.21940    0.00540    2.67900    0.01810    -999.25    0.01810  229.72330    0.00540   12.77120   14.93880   14.93880  229.72330  169.15390  169.15390    0.01110    -999.25    0.01110  168.80340  -19.46380   -9.06510  168.80340
 9650.00000    8.00970   19.87410    0.13470    0.00460    2.67370    0.02120    -999.25    0.02120   50.31670    0.00460   19.02990   26.86560   26.86560   50.31670   40.04750   40.04750    0.01720    -999.25    0.01720   43.91490  -10.64880   -1.18200   43.91490
 9700.00000    7.68430    7.69850   -0.19070    0.00920    2.67030    0.02320    -999.25    0.02320  129.89590    0.00920    -999.25    -999.25    -999.25  129.89590  111.07050  111.07050    -999.25    -999.25    -999.25   99.29590  -29.45720  -26.73300   99.29590
