~Version ---------------------------------------------------
VERS. 2.0 : CWLS log ASCII Standard -VERSION 2.0
WRAP. YES : MULTIPLE LINES PER DEPTH STEP
~Well ------------------------------------------------------
STRT.FT                        1500.0 : START DEPTH
STOP.FT                       11350.0 : STOP DEPTH
STEP.FT                      50.00000 : STEP LENGTH
NULL.                         -999.25 : NULL VALUE
COMP.               DAVIS OIL COMPANY : COMPANY
WELL. JOE L. MOCZYGEMBA ET AL UNIT #1 : WELL
FLD .                              WC : FIELD
LOC .                                 : LOCATION
CNTY.                          KARNES : COUNTY
STAT.                           TEXAS : STATE
CTRY.        UNITED STATES OF AMERICA : COUNTRY
SRVC.                    Schlumberger : SERVICE COMPANY
DATE.                     06-Aug-1979 : LOGDATE
API .                  42255307210000 : API NUMBER
UWI .                  42255307210000 : UNIQUE WELL ID
SLAT.WGS84              28.9245629429 : SURFACE LATITUDE
SLON.WGS84             -98.0279225709 : SURFACE LONGITUDE
~Curve Information -----------------------------------------
DEPT    .FT    : DEPTH FEET
CALDED  .IN    : CALIPER FROM DENSITY LOG [ADJ TO LL8ED]
CALWS   .IN    : CALIPER [CALDED]
CONDWS  .MMHO  : CONDUCTIVITY [1000/DRESWS]
DCORWS  .G/C3  : DENSITY CORRECTION [DRHOED]
DENWS   .G/C3  : BULK DENSITY [RHOBED]
DPHILSED.V/V   : DENSITY POROSITY [M=2.71 F=1.0] FROM DENSITY LOG [ADJ TO LL8ED]
DPHISSED.V/V   : DENSITY POROSITY [M=2.65 F=1.0] FROM DENSITY LOG [ADJ TO LL8ED]
DPOWS   .V/V   : DENSITY POROSITY [M=2.71F=1.0] [CALCULATED FROM DENWS]
DRESWS  .OHMM  : DEEP RESISTIVITY [ILDED]
DRHOED  .G/C3  : DENSITY CORRECTION FROM DENSITY LOG [ADJ TO LL8ED]
DTED    .US/F  : DELTA TIME FROM SONIC LOG
DTWS    .US/F  : DELTA TIME [DTED]
GRDED   .GAPI  : GAMMA RAY FROM DENSITY LOG [ADJ TO LL8ED]
GRWS    .GAPI  : GAMMA RAY [GRDED]
ILDED   .OHMM  : INDUCTION LOG DEEP RESISTIVITY
ILMED   .OHMM  : INDUCTION LOG MEDIUM RESISTIVITY
LL8ED   .OHMM  : 8 INCH LATEROLOG RESISTIVITY
MRESWS  .OHMM  : MEDIUM RESISTIVITY [ILMED]
NPHILSED.V/V   : NEUTRON POROSITY LIMESTONE FROM DENSITY LOG [ADJ TO LL8ED]
NPHISSED.V/V   : NEUTRON POROSITY SANDSTONE FROM DENSITY LOG [ADJ TO LL8ED]
NPOWS   .V/V   : NEUTRON POROSITY LIMESTONE [COMVERTED NPHISSED TO LIMESTONE AND SPL WITH NPHILSED @10082F]
RHOBED  .G/C3  : BULK DENSITY FROM DENSITY LOG [ADJ TO LL8ED]
SPRED   .MV    : SPONTANEOUS POTENTIAL FROM RESISTIVITY LOG
SPWS    .MV    : SPONTANEOUS POTENTIAL [BASELINE 0 MV] [SPRED]
SRESWS  .OHMM  : SHALLOW RESISTIVITY [LL8ED]
TENDED  .LBF   : TENSION FROM DENSITY LOG [ADJ TO LL8ED]
~Params ----------------------------------------------------
PD  .                     GL : PERMANENT DATUM
EPD .FT                  402 : ELEVATION PERMANENT DATUM
LMF .                     KB : LOG MEASURED FROM
DAPD.FT                   11 : FEET ABOVE PERMANENT DATUM
DMF .                     KB : DRILLING MEASURED FROM
EKB .FT                  413 : KELLY BUSHING
EDF .FT                  412 : DRILLING FLOOR
EGL .FT                  402 : GROUND LEVEL
DATE.               08/06/79 : RUN DATE
RUN .                      2 : RUN NUMBER
DD  .FT                11364 : DEPTH DRILLER
DL  .FT                11356 : DEPTH LOGGER
BLI .FT                11350 : BOTTOM LOG INTERVAL
TLI .FT                  200 : TOP LOG INTERVAL
CS  .IN                10.75 : CASING SIZE
CBD .FT                 1507 : CASING BOTTOM DRILLER
CBL .FT                    0 : CASING BOTTOM LOGGER
BS  .IN                 8.75 : BIT SIZE
BSD .FT                11364 : BIT SIZE AT DEPTH
DFT .        LIGNO SULFONATE : DRILLING FLUID TYPE
DFD .                   11.7 : DRILLING FLUID DENSITY
DFV .                     48 : DRILLING FLUID VISCOSITY
DFPH.                     11 : DRILLING FLUID PH
DFL .                    4.8 : DRILLING FLUID LOSS
MSS .                    BIN : MUD SAMPLE SOURCE
RMS .OHMM               0.62 : RESISTIVITY MUD SAMPLE
MST .DEGF                 99 : MUD SAMPLE TEMPERATURE
RMF .OHMM               0.57 : RESISTIVITY MUD FILTRATE SAMPLE
MFST.DEGF                 86 : MUD FILTRATE SAMPLE TEMPERATURE
RMC .OHMM                  0 : RESISTIVITY MUD CAKE
MCST.DEGF                 99 : MUD CAKE SAMPLE TEMPERATURE
MFSS.                        : MUD FILTRATE SAMPLE SOURCE
MCSS.                   CALC : MUD CAKE SAMPLE SOURCE
RMB .OHMM                  0 : RESISTIVITY MUD AT BHT
TCS .HRS                   0 : TIME CIRCULATED STOPPED
TLAB.HRS                 715 : TIME LOGGER AT BOTTOM
LUN .                   7799 : LOGGING UNIT NUMBER
LUL .                  PLAES : LOGGING UNIT LOCATION
ENGI.                        : RECORDING ENGINEER
WITN.                  ARREN : WITNESSED BY
CLNT.                A2DTECH : CLIENT CODE
ORIG.               1" PRINT : ORIGIN OF DATA
UWI .         42255307210000 : UNIQUE WELL ID
DICO. A2D Technologies, Inc. : DIGITIZING COMPANY
OS  .                        : OTHER SERVICES
PWI .                        : PRIMARY WELL IDENTIFIER
R1  .                        : REMARKS 1
R2  .                        : REMARKS 2
LSRV.                        : LOG MNEMONIC
~Other -----------------------------------------------------
~ASCII -----------------------------------------------------
# ...
 2850.00000    -999.25    -999.25  639.83620    -999.25    -999.25    -999.25    -999.25    -999.25    1.56290    -999.25  121.88790  121.88790    -999.25    -999.25    1.56290    1.59100    1.46620    1.59100    -999.25    -999.25    -999.25    -999.25  -27.50910   -6.87150    1.46620    -999.25
 2900.00000    -999.25    -999.25  599.70010    -999.25    -999.25    -999.25    -999.25    -999.25    1.66750    -999.25  113.90940  113.90940    -999.25    -999.25    1.66750    1.88730    2.25990    1.88730    -999.25    -999.25    -999.25    -999.25  -40.50960  -19.62710    2.25990    -999.25
 2950.00000    -999.25    -999.25  561.67150    -999.25    -999.25    -999.25    -999.25    -999.25    1.78040    -999.25  114.63880  114.63880    -999.25    -999.25    1.78040    1.97340    1.76590    1.97340    -999.25    -999.25    -999.25    -999.25  -31.48850  -10.36110    1.76590    -999.25
 3000.00000    -999.25    -999.25  579.34070    -999.25    -999.25    -999.25    -999.25    -999.25    1.72610    -999.25  105.02640  105.02640    -999.25    -999.25    1.72610    2.12320    2.51030    2.12320    -999.25    -999.25    -999.25    -999.25  -59.30010  -37.92780    2.51030    -999.25
 3050.00000    -999.25    -999.25  521.97520    -999.25    -999.25    -999.25    -999.25    -999.25    1.91580    -999.25  106.51080  106.51080    -999.25    -999.25    1.91580    2.27700    2.52980    2.27700    -999.25    -999.25    -999.25    -999.25  -46.89700  -25.27980    2.52980    -999.25
 3100.00000    -999.25    -999.25  547.64510    -999.25    -999.25    -999.25    -999.25    -999.25    1.82600    -999.25  107.23000  107.23000    -999.25    -999.25    1.82600    2.14610    2.35650    2.14610    -999.25    -999.25    -999.25    -999.25  -44.70320  -22.84110    2.35650    -999.25
 3150.00000    -999.25    -999.25  545.79190    -999.25    -999.25    -999.25    -999.25    -999.25    1.83220    -999.25  104.78740  104.78740    -999.25    -999.25    1.83220    2.35790    2.82730    2.35790    -999.25    -999.25    -999.25    -999.25  -59.83500  -37.72800    2.82730    -999.25
 3200.00000    -999.25    -999.25  631.27330    -999.25    -999.25    -999.25    -999.25    -999.25    1.58410    -999.25  113.16720  113.16720    -999.25    -999.25    1.58410    1.76750    1.52840    1.76750    -999.25    -999.25    -999.25    -999.25  -34.13810  -11.78620    1.52840    -999.25
 3250.00000    -999.25    -999.25  542.27000    -999.25    -999.25    -999.25    -999.25    -999.25    1.84410    -999.25  113.75130  113.75130    -999.25    -999.25    1.84410    2.08920    2.37830    2.08920    -999.25    -999.25    -999.25    -999.25  -42.33180  -19.73500    2.37830    -999.25
 3300.00000    -999.25    -999.25  587.92410    -999.25    -999.25    -999.25    -999.25    -999.25    1.70090    -999.25  104.87000  104.87000    -999.25    -999.25    1.70090    1.90170    1.78020    1.90170    -999.25    -999.25    -999.25    -999.25  -37.88470  -15.04300    1.78020    -999.25
 3350.00000    -999.25    -999.25  533.93130    -999.25    -999.25    -999.25    -999.25    -999.25    1.87290    -999.25  107.37320  107.37320    -999.25    -999.25    1.87290    2.02980    2.12590    2.02980    -999.25    -999.25    -999.25    -999.25  -39.16610  -16.07950    2.12590    -999.25
 3400.00000    -999.25    -999.25  485.13070    -999.25    -999.25    -999.25    -999.25    -999.25    2.06130    -999.25  108.25910  108.25910    -999.25    -999.25    2.06130    2.31060    2.40290    2.31060    -999.25    -999.25    -999.25    -999.25  -39.80440  -16.47300    2.40290    -999.25
 3450.00000    -999.25    -999.25  539.22890    -999.25    -999.25    -999.25    -999.25    -999.25    1.85450    -999.25  110.51420  110.51420    -999.25    -999.25    1.85450    1.97830    2.32760    1.97830    -999.25    -999.25    -999.25    -999.25  -40.61460  -17.03830    2.32760    -999.25
 3500.00000    -999.25    -999.25  655.73770    -999.25    -999.25    -999.25    -999.25    -999.25    1.52500    -999.25  106.74180  106.74180    -999.25    -999.25    1.52500    1.46150    1.34610    1.46150    -999.25    -999.25    -999.25    -999.25  -29.38690   -5.56570    1.34610    -999.25
 3550.00000    -999.25    -999.25  692.95270    -999.25    -999.25    -999.25    -999.25    -999.25    1.44310    -999.25  127.52750  127.52750    -999.25    -999.25    1.44310    1.42620    1.64980    1.42620    -999.25    -999.25    -999.25    -999.25  -28.51280   -4.44670    1.64980    -999.25
 3600.00000   11.34460   11.34460  803.85850    0.02690    2.15450    -999.25    0.30680    0.32490    1.24400    0.02690  129.46890  129.46890   61.11940   61.11940    1.24400    1.16440    1.11600    1.16440    -999.25    0.41600    0.37350    2.15450  -26.16260   -1.93720    1.11600 2416.45730
 3650.00000   10.98070   10.98070  658.11120    0.02860    2.22070    -999.25    0.24480    0.28610    1.51950    0.02860  130.28720  130.28720   72.51050   72.51050    1.51950    1.43510    1.65160    1.43510    -999.25    0.49440    0.45270    2.22070  -26.94370   -2.84580    1.65160 2440.10990
 3700.00000    9.90940    9.90940  936.68040    0.02280    2.10610    -999.25    0.33100    0.35320    1.06760    0.02280  133.47030  133.47030   75.78150   75.78150    1.06760    1.13610    1.27010    1.13610    -999.25    0.46750    0.42580    2.10610  -25.67930   -1.70890    1.27010 2487.42460
 3750.00000    9.40900    9.40900  594.35360    0.05700    2.26070    -999.25    0.22940    0.26270    1.68250    0.05700  112.11230  112.11230   70.15220   70.15220    1.68250    1.62850    1.64550    1.62850    -999.25    0.40820    0.36550    2.26070  -28.86510   -5.02220    1.64550 2474.26070
 3800.00000    9.35810    9.35810  271.31890    0.04600    2.33660    -999.25    0.15700    0.21840    3.68570    0.04600  108.36540  108.36540   38.86270   38.86270    3.68570    4.47250    7.45720    4.47250    -999.25    0.40880    0.36610    2.33660  -28.36220   -4.64680    7.45720 2524.34840
 3850.00000    9.38890    9.38890  124.35180    0.01340    2.24250    -999.25    0.24700    0.27340    8.04170    0.01340   90.23060   90.23060   32.54270   32.54270    8.04170    7.29170    6.43020    7.29170    -999.25    0.30680    0.26280    2.24250  -28.40110   -4.81320    6.43020 2476.75070
 3900.00000    9.17050    9.17050  183.58060    0.01270    2.27790    -999.25    0.20540    0.25270    5.44720    0.01270  101.50430  101.50430   69.66900   69.66900    5.44720    5.26680    4.84490    5.26680    -999.25    0.34400    0.30030    2.27790  -31.60160   -8.14130    4.84490 2490.19630
 3950.00000    8.96730    8.96730  124.03870    0.00660    2.19840    -999.25    0.26350    0.29920    8.06200    0.00660  100.69420  100.69420   44.24940   44.24940    8.06200    7.14150    6.33400    7.14150    -999.25    0.30230    0.25830    2.19840  -26.68330   -3.35050    6.33400 2488.20170
 4000.00000    9.31450    9.31450  121.08440    0.00140    2.16460    -999.25    0.28150    0.31890    8.25870    0.00140  102.64620  102.64620   36.14110   36.14110    8.25870    6.23080    5.73980    6.23080    -999.25    0.29400    0.25000    2.16460  -20.41270    2.79260    5.73980 2515.41990
 4050.00000   10.83480   10.83480  225.35210    0.01970    2.47340    -999.25    0.09120    0.13840    4.43750    0.01970  115.16260  115.16260   77.32110   77.32110    4.43750    4.21580    5.27350    4.21580    -999.25    0.43280    0.39070    2.47340  -26.62790   -3.54910    5.27350 2563.54030
 4100.00000    8.97790    8.97790   60.12610    0.00490    2.21040    -999.25    0.26260    0.29220   16.63170    0.00490   97.60590   97.60590   36.79330   36.79330   16.63170   11.41080   10.43260   11.41080    -999.25    0.29410    0.25010    2.21040  -11.05390   11.90390   10.43260 2559.71580
 4150.00000    9.22480    9.22480   76.72600    0.01700    2.21560    -999.25    0.25090    0.28910   13.03340    0.01700   99.99170   99.99170   32.16720   32.16720   13.03340    8.53900    8.10930    8.53900    -999.25    0.33830    0.29450    2.21560  -14.91210    7.92460    8.10930 2586.12990
