~Version ---------------------------------------------------
VERS. 2.0 : CWLS log ASCII Standard -VERSION 2.0
WRAP. YES : MULTIPLE LINES PER DEPTH STEP
~Well ------------------------------------------------------
STRT.FT                  300.0 : START DEPTH
STOP.FT                14400.0 : STOP DEPTH
STEP.FT               50.00000 : STEP LENGTH
NULL.                  -999.25 : NULL VALUE
COMP.              CONOCO INC. : COMPANY
WELL.       JACQUELYN WOODS #1 : WELL
FLD .                  WILDCAT : FIELD
LOC .                          : LOCATION
CNTY.                ROBERTSON : COUNTY
STAT.                    TEXAS : STATE
CTRY. UNITED STATES OF AMERICA : COUNTRY
SRVC.                          : SERVICE COMPANY
DATE.                          : LOGDATE
API .           42395302880000 : API NUMBER
UWI .           42395302880000 : UNIQUE WELL ID
SLAT.WGS84       31.0997639251 : SURFACE LATITUDE
SLON.WGS84      -96.4923364329 : SURFACE LONGITUDE
~Curve Information -----------------------------------------
DEPT  .FT    : DEPTH
ACED  .US/F  : DELTA TIME
CALRED.IN    : CALIPER FROM RESISTIVITY LOG
RILMED.OHMM  : MEDIUM INDUCTION RESISTIVITY
RFOCED.OHMM  : SHALLOW FOCUSED RESISTIVITY
RILDED.OHMM  : DEEP INDUCTION RESISTIVITY
GRRED .GAPI  : GAMMA RAY FROM RESISTIVITY LOG
TENRED.LBS   : TENSION FROM RESISTIVITY LOG
SFLUED.OHMM  : SPHERICALLY FOCUSED RESISTIVITY
GRDED .GAPI  : GAMMA RAY FROM DENSITY LOG
CALDED.IN    : CALIPER FROM DENSITY LOG
DRHOED.G/C3  : DENSITY CORRECTION
NPHIED.V/V   : NEUTRON POROSITY
RHOBED.G/C3  : BULK DENSITY
TENDED.LBS   : TENSION FROM DENSITY LOG
SRESWS.OHMM  : SHALLOW RESISTIVITY (RFOC+SFLU)
CALWS .IN    : CALIPER
SPED  .MV    : SPONTANEOUS POTENTIAL (BASELINE -10 MV)
SPWS  .MV    : SPONTANEOUS POTENTIAL (BASELINE -10 MV)
DCORWS.G/C3  : DENSITY CORRECTION
GRWS  .GAPI  : GAMMA RAY
DRESWS.OHMM  : DEEP RESISTIVITY (RILD)
MRESWS.OHMM  : MEDIUM RESISTIVITY (RILM)
CONDWS.MMHO  : CONDUCTIVITY FROM DEEP RESISTIVITY
DENWS .G/C3  : BULK DENSITY
DPOWS .V/V   : DENSITY POROSITY (M=2.71 F=1)
NPOWS .V/V   : NEUTRON POROSITY
DTWS  .V/V   : DELTA TIME
~Params ----------------------------------------------------
EKB .F                 513.38 : KELLY BUSHING
EGL .F                 483.38 : ELEVATION GROUND LEVEL
EDF .F                 512.38 : ELEVATION DERRICK FLOOR
EPD .F                 483.38 : ELEVATION PERMANENT DATUM
TD  .F                12197.0 : TOTAL DEPTH
DATE.             17-MAR-1984 : DATE LOGGED
CLNT.                 A2DTECH : CLIENT CODE
SL  . 3400' FNEL & 3500' FNWL : SURFACE LOCATION
PD  .                      GL : PERMANENT DATUM
LMF .                      KB : LOG MEASURED FROM
DMF .                      KB : DRILLING MEASURED FROM
DAPD.F                     30 : FEET ABOVE PERMANENT DATUM
DD  .F                  12195 : DEPTH DRILLER
DL  .F                  12197 : DEPTH LOGGER
BLI .F                  12195 : BOTTOM LOG INTERVAL
TLI .F                  11950 : TOP LOG INTERVAL
CS1 .IN                13.375 : CASING SIZE
CBD1.         13.375" @ 5096' : CASING DRILLER 1
BS1 .IN                 12.25 : BIT SIZE
BSD1.F                  12195 : DEPTH DRILLED WITH BIT1
DFT .             GEL/CAUSTIC : TYPE FLUID IN HOLE
DFD .                     9.8 : DENSITY
DFV .                      44 : VISCOSITY
DFPH.                      11 : PH
DFL .                    11.2 : FLUID LOSS
MSS .                    TANK : SOURCE OF SAMPLE
RMS .OHMM                1.95 : RM
RMF .OHMM                1.35 : RMF
RMC .OHMM                2.53 : RMC
MFSS.                    MEAS : SOURCE RMF.
MCSS.                    MEAS : SOURCE RMC.
RMB .OHMM                0.59 : RM. AT BHT
BHT .F                    246 : BHT.
TCS .HRS                    6 : TIME CIRC. STOPPED
TLAB.HRS                    - : TIME LOGGER AT BOTTOM
LUN .                 HL 6304 : LOGGING UNIT NUMBER
LUL .                   BRYAN : LOGGING UNIT LOCATION
ENGI.               R.R. KIRK : RECORDED BY
WITN.            GALE CLAYTOR : WITNESSED BY
ORIG.                5" PRINT : ORIGIN OF DATA
UWI .          42395302880000 : UNIQUE WELL ID
DICO.  A2D TECHNOLOGIES, INC. : DIGITIZING COMPANY
~Other -----------------------------------------------------
# NPHI 890 01 (LIMESTONE)
~ASCII -----------------------------------------------------
# ...
 6800.00000   60.02900   14.59900   14.12400   15.08900   13.15000   36.36500    0.00000    -999.25   50.94600   15.35100   -0.03300    0.15300    2.63900    1.05370   15.08900   15.35100  -19.38790  -19.38790   -0.03300   36.36500   13.15000   14.12400   76.04560    2.63900    0.04150    0.15300   60.02900
 6850.00000   59.70700   14.71400   11.56300   14.11700    9.33600   28.38100    0.00000    -999.25   42.08800   15.48600   -0.03700    0.13900    2.63200    1.13380   14.11700   15.48600  -20.44600  -20.44600   -0.03700   28.38100    9.33600   11.56300  107.11230    2.63200    0.04560    0.13900   59.70700
 6900.00000   59.43700   15.05200    6.64000    8.94000    5.58400   31.92800    0.00000    -999.25   48.62700   15.38400   -0.04900    0.14600    2.41100    1.21400    8.94000   15.38400  -18.89220  -18.89220   -0.04900   31.92800    5.58400    6.64000  179.08310    2.41100    0.17490    0.14600   59.43700
 6950.00000   61.10700   14.47500    9.33700   10.43000    8.94000   34.16100    0.00000    -999.25   52.69400   15.21500   -0.03000    0.09900    2.61800    1.29410   10.43000   15.21500  -19.66840  -19.66840   -0.03000   34.16100    8.94000    9.33700  111.85680    2.61800    0.05380    0.09900   61.10700
 7000.00000   55.73100   14.43000   22.44600   21.38400   19.68000   27.03500    0.00000    -999.25   38.91900   14.94200   -0.02000    0.05300    2.62500    1.37430   21.38400   14.94200  -25.14750  -25.14750   -0.02000   27.03500   19.68000   22.44600   50.81300    2.62500    0.04970    0.05300   55.73100
 7050.00000   63.05400   14.40200   12.06900   15.89200    7.89300   21.26900    0.00000    -999.25   34.79700   15.08100    0.00900    0.13800    2.51300    1.45450   15.89200   15.08100  -93.36770  -93.36770    0.00900   21.26900    7.89300   12.06900  126.69450    2.51300    0.11520    0.13800   63.05400
 7100.00000   58.17500   14.40200   17.61700   12.29200   16.66800   29.80500    0.00000    -999.25   42.11800   15.06000   -0.02600    0.08300    2.63600    1.53460   12.29200   15.06000  -25.15490  -25.15490   -0.02600   29.80500   16.66800   17.61700   59.99520    2.63600    0.04330    0.08300   58.17500
 7150.00000   60.83500   14.93700    2.81300    3.84300    2.67100   38.52100    0.00000    -999.25   50.42500   15.44400   -0.09400    0.32200    1.79600    1.61480    3.84300   15.44400  -21.64400  -21.64400   -0.09400   38.52100    2.67100    2.81300  374.39160    1.79600    0.53450    0.32200   60.83500
 7200.00000   64.54900   14.19200    9.89900    8.22700    8.82800   29.37100    0.00000    -999.25   42.77600   14.64300    0.00800    0.12500    2.60100    1.69490    8.22700   14.64300  -19.45120  -19.45120    0.00800   29.37100    8.82800    9.89900  113.27590    2.60100    0.06370    0.12500   64.54900
 7250.00000   61.55700   15.03600    3.43200    3.73700    2.79500   46.60200    0.00000    -999.25   60.22000   16.69000   -0.00800    0.31900    2.19500    1.77510    3.73700   16.69000  -18.62630  -18.62630   -0.00800   46.60200    2.79500    3.43200  357.78170    2.19500    0.30120    0.31900   61.55700
 7300.00000   59.61600   14.44600   11.18400    9.58100   10.70300   30.10400    0.00000    -999.25   41.61000   14.85900   -0.03600    0.07600    2.63400    1.85520    9.58100   14.85900  -22.76650  -22.76650   -0.03600   30.10400   10.70300   11.18400   93.43170    2.63400    0.04440    0.07600   59.61600
 7350.00000   52.68100   14.67900   24.12200   34.70600   27.37200   17.96500    0.00000    -999.25   31.64800   15.02000   -0.02060    0.04400    2.62980    1.93540   34.70600   15.02000  -32.13170  -32.13170   -0.02060   17.96500   27.37200   24.12200   36.53370    2.62980    0.04690    0.04400   52.68100
 7400.00000   58.62700   14.85600    7.46700   12.82400    6.56300   29.49400    0.00000    -999.25   41.47900   15.24200    0.10100    0.12800    2.60450    2.01790   12.82400   15.24200  -27.19380  -27.19380    0.10100   29.49400    6.56300    7.46700  152.36930    2.60450    0.06170    0.12800   58.62700
 7450.00000   50.72100   14.53500   29.59400   40.90000   28.88300   22.42300    0.00000    -999.25   36.89100   14.41600   -0.01730    0.05100    2.64770    2.10050   40.90000   14.41600  -35.29300  -35.29300   -0.01730   22.42300   28.88300   29.59400   34.62240    2.64770    0.03640    0.05100   50.72100
 7500.00000   50.98300   14.37800   34.23700   50.44700   30.86200   19.87500    0.00000    -999.25   23.61600   14.88100    0.08180    0.10700    2.64700    2.18150   50.44700   14.88100  -35.39320  -35.39320    0.08180   19.87500   30.86200   34.23700   32.40230    2.64700    0.03680    0.10700   50.98300
 7550.00000   54.08600   14.70800   27.05800   36.18600   30.82600   22.92300    1.96100    -999.25   26.82500   13.92100    0.02540    0.08800    2.61620    2.26240   36.18600   13.92100  -53.85430  -53.85430    0.02540   22.92300   30.82600   27.05800   32.44010    2.61620    0.05490    0.08800   54.08600
 7600.00000   58.63700   14.93400   10.65800   21.36300    7.63100   17.33900    0.00000    -999.25   17.18200   14.11100    0.10110    0.30500    2.57700    2.34100   21.36300   14.11100 -102.57950 -102.57950    0.10110   17.33900    7.63100   10.65800  131.04440    2.57700    0.07780    0.30500   58.63700
 7650.00000   52.72500   14.23000   15.99000   29.90000   10.26700   21.60100    0.00000    -999.25   25.73100   13.97000   -0.05500    0.20300    2.60600    2.41950   29.90000   13.97000  -84.95460  -84.95460   -0.05500   21.60100   10.26700   15.99000   97.39940    2.60600    0.06080    0.20300   52.72500
 7700.00000   52.62500   14.17700   19.93200   34.31600   20.23200   25.00900    0.00000    -999.25   37.93700   14.27200   -0.00200    0.15400    2.53300    2.49890   34.31600   14.27200  -28.93380  -28.93380   -0.00200   25.00900   20.23200   19.93200   49.42670    2.53300    0.10350    0.15400   52.62500
 7750.00000   51.92600   14.12000   37.20200   47.58900   39.86800   28.20600    0.00000    -999.25   40.81500   14.52200    0.00600    0.07100    2.65700    2.57820   47.58900   14.52200  -56.95700  -56.95700    0.00600   28.20600   39.86800   37.20200   25.08280    2.65700    0.03100    0.07100   51.92600
 7800.00000   58.29900   13.75300   18.15500   15.99000   13.82500   30.69700    0.00000    -999.25   42.83500   14.30600   -0.00600    0.07500    2.67900    2.65840   15.99000   14.30600  -27.40810  -27.40810   -0.00600   30.69700   13.82500   18.15500   72.33270    2.67900    0.01810    0.07500   58.29900
 7850.00000   56.50600   13.65600   25.60000   24.63900   17.87800   34.85700    0.00000    -999.25   46.44500   15.00200    0.00900    0.05600    2.67700    2.73770   24.63900   15.00200  -26.28230  -26.28230    0.00900   34.85700   17.87800   25.60000   55.93470    2.67700    0.01930    0.05600   56.50600
 7900.00000   60.77900   14.15900    8.51300   11.74400    8.60300   34.09400    0.00000    -999.25   57.35290   15.52870    0.01650    0.11200    2.67450    2.81790   11.74400   15.52870  -20.11150  -20.11150    0.01650   34.09400    8.60300    8.51300  116.23850    2.67450    0.02080    0.11200   60.77900
 7950.00000   59.94200   14.31900   11.02300   11.00400   10.70300   35.26700    0.00000    -999.25   48.06560   16.32930   -0.00180    0.09300    2.67220    2.89800   11.00400   16.32930  -20.68860  -20.68860   -0.00180   35.26700   10.70300   11.02300   93.43170    2.67220    0.02210    0.09300   59.94200
 8000.00000   68.54900   15.15500    5.82000    6.07800    5.06800   37.58700    0.00000    -999.25   54.16550   17.43270   -0.04140    0.17400    2.36930    2.97820    6.07800   17.43270  -20.31780  -20.31780   -0.04140   37.58700    5.06800    5.82000  197.31650    2.36930    0.19920    0.17400   68.54900
 8050.00000   88.04600   15.12300    3.10300    4.35200    4.56600   50.69300    0.00000    -999.25   71.35460   20.04460    0.00450    0.47600    1.99310    3.05830    4.35200   20.04460  -17.35290  -17.35290    0.00450   50.69300    4.56600    3.10300  219.01010    1.99310    0.41920    0.47600   88.04600
