~Version ---------------------------------------------------
VERS. 2.0 : CWLS log ASCII Standard -VERSION 2.0
WRAP.  NO : ONE LINE PER DEPTH STEP
~Well ------------------------------------------------------
STRT.F                  1850.0 : START DEPTH
STOP.F                 10750.0 : STOP DEPTH
STEP.F                50.00000 : STEP LENGTH
NULL.                  -999.25 : NULL VALUE
COMP.     GULF OIL CORPORATION : COMPANY
WELL.      W T HURT ET AL #3-R : WELL
FLD .                  FASHING : FIELD
LOC .                          : LOCATION
CNTY.                 ATASCOSA : COUNTY
STAT.                    TEXAS : STATE
CTRY. UNITED STATES OF AMERICA : COUNTRY
SRVC.            Dresser Atlas : SERVICE COMPANY
DATE.              28-Jun-1972 : LOGDATE
API .           42013301930000 : API NUMBER
UWI .           42013301930000 : UNIQUE WELL ID
SLAT.WGS84       28.7802385159 : SURFACE LATITUDE
SLON.WGS84      -98.2085261172 : SURFACE LONGITUDE
~Curve Information -----------------------------------------
DEPT.F                 : 
GRT .GAPI 51 310 00 00 : THEORETICAL GAMMA RAY VALUE TDT
SPR .MV   05 010 01 00 : SPONTANEOUS POTENTIAL FROM RESISTIVITY LOG
ASN .OHMM 05 041 16 00 : AMPLIFIED SHORT NORMAL RESISTIVITY
IL  .OHMM 05 120 45 00 : INDUCTION LOG RESISTIVITY
CIL .MMHO 05 110 45 00 : INDUCTION CONDUCTIVITY
CALD.IN   45 280 60 00 : CALIPER FROM DENSITY LOG
RHOB.G/C3 45 350 01 00 : BULK DENSITY
NEUT.NAPI 42 330 01 00 : NEUTRON
CORR.G/C3 45 356 01 00 : DENSITY CORRECTION
AC  .US/F 60 500 32 00 : ACOUSTIC
~Params ----------------------------------------------------
PD  .                     GL : PERMANENT DATUM
EPD .F                363.46 : ELEVATION PERMANENT DATUM
LMF .                     KB : LOG MEASURED FROM
DAPD.F                 15.54 : FEET ABOVE PERMANENT DATUM
DMF .                     KB : DRILLING MEASURED FROM
EKB .F                   379 : KELLING BUSHING
EGL .F                363.46 : GROUND LEVEL
DATE.               06/28/72 : RUN DATE
RUN .                      1 : RUN NUMBER
DD  .F                 10775 : DEPTH DRILLER
DL  .F                 10760 : DEPTH LOGGER
BLI .F                 10755 : BOTTOM LOG INTERVAL
TLI .F                  1817 : TOP LOG INTERVAL
CS  .IN                9.875 : CASING SIZE
CBD .F                  1817 : CASING BOTTOM DRILLER
CBL .F                  1817 : CASING BOTTOM LOGGER
BS  .IN                 8.75 : BIT SIZE
BSD .F                 10775 : BIT SIZE AT DEPTH
DFT .         LIGNOSULFONATE : DRILLING FLUID TYPE
DFD .                   10.6 : DRILLING FLUID DENSITY
DFV .                     43 : DRILLING FLUID VISCOSITY
DFPH.                     10 : DRILLING FLUID PH
DFL .                    4.8 : DRILLING FLUID LOSS
MSS .               FLOWLINE : MUD SAMPLE SOURCE
RMS .OHMM               0.85 : RESISTIVITY MUD SAMPLE
MST .F                    90 : MUD SAMPLE TEMPERATURE
RMF .OHMM               0.68 : RESISTIVITY MUD FILTRATE SAMPLE
MFST.F                    90 : MUD FILTRATE SAMPLE TEMPERATURE
RMC .OHMM               1.06 : RESISTIVITY MUD CAKE
MCST.F                    90 : MUD CAKE SAMPLE TEMPERATURE
MFSS.                   MEAS : MUD FILTRATE SAMPLE SOURCE
MCSS.                   MEAS : MUD CAKE SAMPLE SOURCE
RMB .OHMM               0.33 : RESISTIVITY MUD AT BHT
TCS .HRS                  11 : TIME CURCULATED STOPPED
LUN .                   6068 : LOGGING UNIT NUMBER
LUL .                    VIC : LOGGING UNIT LOCATION
ENGI.               MC MAHON : RECORDING ENGINEER
WITN.                JENKINS : WITNESSED BY
CLNT.                A2DTECH : CLIENT CODE
ORIG.            1" 5" PRINT : ORIGIN OF DATA
UWI .         42013301930000 : UNIQUE WELL ID
DICO. A2D Technologies, Inc. : DIGITIZING COMPANY
~Other -----------------------------------------------------
~ASCII -----------------------------------------------------
# ...
 5150.00000    -999.25  -21.12590    3.78510    3.80940  276.50790    8.92600    2.30470  554.65090    0.05910  100.66860
 5200.00000    -999.25  -19.24910    3.87620    3.48100  296.00000    8.58490    2.35350  464.15710    0.08930   99.99500
 5250.00000    -999.25  -21.03190    2.99850    2.47930  421.47170    8.81660    2.34690  527.25050    0.09380  112.43780
 5300.00000    -999.25  -20.61250    3.44250    2.98260  354.87710    9.03060    2.31910  524.15380    0.02730  105.95020
 5350.00000    -999.25  -24.29670    4.02880    3.51500  281.07820    9.21390    2.41720  607.03990   -0.01820  105.96570
 5400.00000    -999.25  -19.95420    2.84480    2.13960  502.77390    9.40750    2.27130  458.17540    0.15870  108.20650
 5450.00000    -999.25  -21.08400    2.80090    2.35280  477.78000    9.53690    2.36300  521.00450    0.10030  106.66670
 5500.00000    -999.25  -20.45090    3.28320    2.83050  400.13160    9.47870    2.28410  494.77520    0.11760  100.39950
 5550.00000    -999.25  -26.49810    4.28480    3.66990  286.49330    8.64350    2.36900  580.51720    0.07180   96.69630
 5600.00000    -999.25  -67.05470    7.72770    3.15200  347.84550    7.48170    2.23210  629.28490   -0.02190   94.20750
 5650.00000    -999.25  -29.67750    4.47390    4.12520  262.92060    8.51210    2.24050  534.20860    0.07680   99.80100
 5700.00000    -999.25  -26.05550    4.40320    4.33880  231.00000    8.19280    2.33590  610.24250   -0.06280   97.58600
 5750.00000    -999.25  -24.52430    3.96370    3.28070  333.05890    7.58390    2.34390  568.26140   -0.00070   99.65420
 5800.00000    -999.25  -57.81410    6.54210    3.81570  287.10530    7.44060    2.27210  662.47940   -0.03100   96.32100
 5850.00000    -999.25  -24.27090    4.04780    4.55670  230.77780    7.95020    2.37900  594.17080    0.06390   92.01910
 5900.00000    -999.25  -21.05440    2.82570    2.55690  411.27900    8.52590    2.36230  456.12430    0.18020  108.92610
 5950.00000    -999.25  -52.79480    6.53730    4.18930  256.50690    7.44260    2.28850  625.07170   -0.05980   94.08110
 6000.00000    -999.25  -21.25960    2.71460    2.49760  468.22840    8.72690    2.29200  449.02480    0.14340  105.87700
 6050.00000    -999.25  -75.39990    6.90240    2.35520  453.00000    7.23960    2.20460  650.96850   -0.01320   94.08760
 6100.00000    -999.25  -40.01780    5.64810    4.29570  231.03470    7.15770    2.34910  571.62060   -0.00700   94.50580
 6150.00000    -999.25  -23.79650    3.17970    2.53370  407.87080    6.77280    2.34410  560.31720   -0.01280  100.49540
 6200.00000    -999.25  -22.41210    2.60460    2.23480  477.00000    9.15120    2.39870  499.77030    0.01850  106.24210
 6250.00000    -999.25  -21.84260    2.28860    1.98010  575.14290   10.09710    2.37750  591.07530    0.08560  113.67930
 6300.00000    -999.25  -31.67460    3.66640    2.68970  413.26770    9.47600    2.35230  634.18550    0.00840   97.11440
 6350.00000    -999.25  -21.28900    2.42940    1.76820  650.10630    8.84920    2.29660  479.44490    0.14450  102.88330
 6400.00000    -999.25  -20.40000    1.57010    1.56810  812.00000    7.69410    2.27290  471.10740    0.05900  115.62190
 6450.00000    -999.25  -76.55760    6.97870    2.48670  442.11590    6.80540    2.23950  692.86510   -0.03570   93.85480
 6500.00000    -999.25  -20.50000    1.64880    1.18730 1153.20890    8.23530    2.24370  447.21330    0.00120  117.65120
 6550.00000    -999.25  -19.92910    2.09080    1.58940  720.27440    8.67360    2.48650  450.62190    0.21990  107.59570
 6600.00000    -999.25  -20.73280    1.74420    1.49900  810.84200    9.14610    2.35610  467.15930    0.06430  104.42700
 6650.00000    -999.25  -21.27170    1.66380    1.61390  793.79060    9.33350    2.40690  415.58540    0.04570  109.28080
 6700.00000    -999.25  -20.18880    1.82990    1.60460  691.39340    9.21340    2.45150  445.45140    0.01470  101.63680
 6750.00000    -999.25  -27.04790    3.47230    3.22550  339.01490    7.42090    2.40000  645.33920   -0.03600   89.86850
 6800.00000    -999.25  -20.80380    1.57880    1.38990  819.49680    9.27400    2.33890  413.47250    0.13650  102.28600
 6850.00000    -999.25  -19.15080    1.87640    1.49510  785.89720    9.29810    2.46200  409.74630    0.27490  103.48260
 6900.00000    -999.25  -20.16020    1.68650    1.43600  749.82530    9.23930    2.55640  394.68510    0.27680   98.90550
 6950.00000    -999.25  -19.70130    2.01250    1.80550  632.25380    8.98680    2.51810  401.94370    0.27500  102.78530
 7000.00000    -999.25  -24.31340    3.03600    2.79760  375.49780    7.64280    2.45160  686.16440   -0.02080   90.39970
 7050.00000    -999.25  -21.08090    3.03570    2.72510  389.02760    7.59150    2.40930  676.64440   -0.01770   87.56220
 7100.00000    -999.25  -20.53330    2.48610    2.18030  494.03650    7.78230    2.40040  509.15510    0.20250   92.73040
 7150.00000    -999.25  -22.91400    3.31020    2.90510  398.00000    7.98260    2.45020  642.09470    0.05980   83.21970
 7200.00000    -999.25  -20.72610    2.71960    2.44860  453.15880    8.20420    2.43850  540.52060    0.15540   90.62690
 7250.00000    -999.25  -19.56350    2.33930    2.24200  494.93280    8.91340    2.42420  548.41650    0.09670   93.13430
 7300.00000    -999.25  -21.47180    2.70240    2.31780  464.16770    9.46290    2.43520  495.38920    0.13200   98.44270
 7350.00000    -999.25  -21.78580    2.20660    1.91230  566.66220   11.11610    2.44260  531.02670    0.09860   96.96230
 7400.00000    -999.25  -22.30850    2.00640    1.91570  605.95950   11.43540    2.42520  507.97040    0.07350   97.48210
 7450.00000    -999.25  -22.08340    2.45780    2.03370  536.12290   10.24920    2.44370  563.13840    0.08680   88.55970
 7500.00000    -999.25  -23.35820    2.23780    2.05340  556.08520    9.11490    2.41780  500.90160    0.12800   98.39590
 7550.00000    -999.25  -24.22220    1.84460    1.64950  705.59950    9.46280    2.41240  456.84700    0.10460  100.99500
 7600.00000    -999.25  -22.43350    1.78270    1.58570  747.70260    9.62100    2.38170  445.79520    0.13690   99.11470
 7650.00000    -999.25  -21.26730    2.04390    1.70120  607.00000    9.81860    2.44800  449.33450    0.07320   94.58570
 7700.00000    -999.25  -23.76860    2.48140    2.07640  571.00000    9.99210    2.50150  462.64230    0.10630   95.92040
 7750.00000    -999.25  -19.04880    3.42510    3.22500  325.34380    9.62110    2.52340  695.23330    0.06630   91.60040
 7800.00000    -999.25  -21.12020    2.63650    2.60200  443.01570   10.65970    2.50250  551.14970    0.10000   87.96020
 7850.00000    -999.25  -22.29450    1.98320    1.87220  634.91910   10.46960    2.45270  499.63090    0.17460   98.58110
 7900.00000    -999.25  -23.02420    2.33440    2.37610  476.33990   10.04350    2.56180  515.56600    0.20880   90.05070
 7950.00000    -999.25  -22.57370    3.50820    3.44120  306.00740    8.81220    2.57170  734.48820    0.09470   85.28930
 8000.00000    -999.25  -23.07650    2.17500    2.01180  548.87880   10.31740    2.48410  471.00000    0.15900   98.37610
 8050.00000    -999.25  -22.64690    2.00300    2.00420  585.59280   10.82560    2.49330  476.82970    0.19870   97.81380
 8100.00000    -999.25  -23.34010    1.48980    1.48810  809.00000   10.35100    2.44490  424.17810    0.12870  105.81720
 8150.00000    -999.25  -22.64840    2.44700    2.48010  458.19730    9.58510    2.47490  499.94110    0.15570   91.93090
 8200.00000    -999.25  -22.07320    2.56470    2.40740  444.10640    9.30720    2.47480  484.20650    0.16820   96.53970
 8250.00000    -999.25  -21.16430    2.62030    2.38270  458.74750    9.32650    2.49250  486.51390    0.14280   94.42790
 8300.00000    -999.25  -23.82530    2.71830    2.81800  417.08990    8.97530    2.52750  525.56560    0.11490   91.66830
 8350.00000    -999.25  -22.07300    2.95850    2.74980  390.32960    8.20520    2.55290  611.40120    0.11540   92.34240
 8400.00000    -999.25  -21.24840    4.93800    4.69580  221.83820    7.75240    2.59150  850.31500   -0.03840   81.99010
