~Version ---------------------------------------------------
VERS. 2.0 : CWLS log ASCII Standard -VERSION 2.0
WRAP. YES : MULTIPLE LINES PER DEPTH STEP
~Well ------------------------------------------------------
STRT.FT                      2550.0 : START DEPTH
STOP.FT                      7550.0 : STOP DEPTH
STEP.FT                    50.00000 : STEP LENGTH
NULL.                       -999.25 : NULL VALUE
COMP. ROBINSON BROTHERS DRILLING CO : COMPANY
WELL.                 LESTER J B #1 : WELL
FLD .                          COST : FIELD
LOC .                               : LOCATION
CNTY.                      GONZALES : COUNTY
STAT.                         TEXAS : STATE
CTRY.      UNITED STATES OF AMERICA : COUNTRY
SRVC.                      Gearhart : SERVICE COMPANY
DATE.                   06-Dec-1980 : LOGDATE
API .                42177306900000 : API NUMBER
UWI .                42177306900000 : UNIQUE WELL ID
SLAT.WGS84            29.4106594536 : SURFACE LATITUDE
SLON.WGS84           -97.5279511295 : SURFACE LONGITUDE
~Curve Information -----------------------------------------
DEPT   .FT    : DEPTH FEET
CALWS  .IN    : CALIPER [CALXRED]
CALXED .IN    : CALIPER X FROM DENSITY LOG
CALXRED.IN    : CALIPER X FROM RESISTIVITY LOG
CALYED .IN    : CALIPER Y FROM DENSITY LOG
CDLLSED.V/V   : DENSITY POROSITY LIMESTONE FROM DENSITY LOG
CNCLSED.V/V   : NEUTRON POROSITY LIMESTONE FROM DENSITY LOG
CONDWS .MMHO  : CONDUCTIVITY [1000/DRESWS]
DCORWS .G/C3  : DENSITY CORRECTION [DRHOED]
DENWS  .G/C3  : BULK DENSITY [M=2.71 F=1.0] [CALCULATED FROM DPOWS]
DPOWS  .V/V   : DENSITY POROSITY [M=2.71 F=1.0] [CDLLSED]
DRESWS .OHMM  : DEEP RESISTIVITY [RILDED]
DRHOED .G/C3  : DENSITY CORRECTION FROM DENSITY LOG
DTED   .US/F  : DELTA TIME FROM DIL/BHC LOG
DTWS   .US/F  : DELTA TIME [DTED]
GRDED  .GAPI  : GAMMA RAY FROM DENSITY LOG [DEPTH ADJ TO GRR]
GRED   .GAPI  : GAMMA RAY FROM GR LOG [DEPTH ADJ TO GRR]
GRRED  .GAPI  : GAMMA RAY FROM RESISTIVITY LOG
GRWS   .GAPI  : GAMMA RAY [MERGED GRED/GRRED AT 6014]
MRESWS .OHMM  : MEDIUM RESISTIVITY [RILMED]
NPOWS  .V/V   : NEUTRON POROSITY SANDSTONE [CNCLSED]
RILDED .OHMM  : INDUCTION LOG DEEP RESISTIVITY
RILMED .OHMM  : INDUCTION LOG MEDIUM RESISTIVITY
RLLED  .OHMM  : LATEROLOG RESISTIVITY
SPRED  .MV    : SPONTANEOUS POTENTIAL FROM RESISTIVITY LOG
SPWS   .MV    : SPONTANEOUS POTENTIAL [BASELINE 0 MV] [SPRED]
SRESWS .OHMM  : SHALLOW RESISTIVITY [RLLED]
~Params ----------------------------------------------------
EKB .F                 324.7 : Kelly bushing
EGL .F                 311.0 : Ground level
EDF .F                 323.7 : Drilling floor
EPD .F                 311.0 : Permanent datum
TD  .F                7584.0 : Total depth
CLNT.                A2DTECH : Client Code
PD  .                     GL : Permanent Datum
LMF .                     KB : Log Measured From
DMF .                     KB : Drilling Measured From
DAPD.F                  13.7 : Feet Above Permanent Datum
DATE.            06-DEC-1980 : Date Logged [DD-MMM-YYYY]
DD  .F                  7584 : Depth driller
DL  .F                  7553 : Depth logger
BLI .F                  7552 : Bottom log interval
TLI .F                  2525 : Top log interval
CS1 .IN                8.625 : Casing size
CBD1.         8.625" @ 2524' : Casing driller 1
CBL1.F                  2525 : Casing logger 1
BS1 .IN                7.875 : Bit size
BSD1.F                  7584 : Depth drilled with bit1
DFT .                   CHEM : Type fluid in hole
DFD .                    9.4 : Density
DFV .                     38 : Viscosity
DFPH.                    9.5 : pH
DFL .                    5.8 : Fluid loss
MSS .               FLOWLINE : Source of sample
RMS .OHMM                2.8 : Rm
RMF .OHMM                2.2 : Rmf
MFSS.                   CALC : Source Rmf.
RMC .OHMM                3.6 : Rmc
MCSS.                   CALC : Source Rmc.
RMB .OHMM                115 : Rm. at BHT
BHT .F                   182 : BHT.
TCS .HRS                 300 : Time Circ. stopped
TLAB.HRS                1015 : Time logger at bottom
LUN .                   7561 : Logging unit number
LUL .                   VICT : Logging unit location
ENGI.                 CURRIN : Recorded By
WITN.                   HOCH : Witnessed by
ORIG.          2.5" 5" PRINT : Origin of data
UWI .         42177306900000 : Unique Well ID
DICO. A2D TECHNOLOGIES, INC. : Digitizing Company
SL  .  499' FSEL & 490' FNWL : Surface Location
~Other -----------------------------------------------------
~ASCII -----------------------------------------------------
# ...
 6600.00000   12.23210    -999.25   12.23210    -999.25    -999.25    -999.25  769.46750    -999.25    -999.25    -999.25    1.29960    -999.25   93.53620   93.53620    -999.25   66.18680   75.94210   75.94210    1.32560    -999.25    1.29960    1.32560    1.71340   72.62410   -3.98500    1.71340
 6650.00000   13.04720    -999.25   13.04720    -999.25    -999.25    -999.25  920.21720    -999.25    -999.25    -999.25    1.08670    -999.25   96.40740   96.40740    -999.25   72.10250   71.51900   71.51900    1.13600    -999.25    1.08670    1.13600    1.35760   69.60380   -7.09920    1.35760
 6700.00000   13.71970   13.08750   13.71970   12.56440    0.16360    0.32490  994.23350    0.13910    2.43020    0.16360    1.00580    0.13910  115.25880  115.25880   87.82770   75.13590   88.64230   88.64230    1.05400    0.32490    1.00580    1.05400    1.26560   72.74020   -4.05680    1.26560
 6750.00000   14.77630   13.89240   14.77630   12.84750    0.13550    0.30910  860.36310    0.15200    2.47830    0.13550    1.16230    0.15200  126.32250  126.32250   75.88730   73.27170   72.35390   72.35390    1.21360    0.30910    1.16230    1.21360    1.37220   70.24980   -6.64120    1.37220
 6800.00000   15.73350   14.73470   15.73350   13.60510    0.13220    0.26950  900.49530    0.16460    2.48390    0.13220    1.11050    0.16460  113.67950  113.67950   78.16020   79.13990   75.58180   75.58180    1.14530    0.26950    1.11050    1.14530    1.17330   69.66180   -7.32320    1.17330
 6850.00000   15.16420   14.58520   15.16420   12.32760    0.14130    0.25170 1438.43490    0.17200    2.46840    0.14130    0.69520    0.17200   97.87930   97.87930   93.05300   77.18720   88.06830   88.06830    1.23220    0.25170    0.69520    1.23220    1.20250   69.14080   -7.93820    1.20250
 6900.00000   11.61900   11.27940   11.61900   10.48300    0.06340    0.10810  267.30820    0.04380    2.60160    0.06340    3.74100    0.04380   73.94250   73.94250   41.13780   49.51700   38.69460   38.69460    3.22430    0.10810    3.74100    3.22430    4.22780   69.28640   -7.88650    4.22780
 6950.00000   11.12580   10.75640   11.12580   11.60600    0.06190    0.11860  353.03250    0.05520    2.60420    0.06190    2.83260    0.05520   81.10430   81.10430   48.30740   56.07970   43.33750   43.33750    2.93760    0.11860    2.83260    2.93760    3.22690   73.46630   -4.02980    3.22690
 7000.00000   10.03890   11.46290   10.03890   11.50440    0.02410    0.09900  367.86340    0.12460    2.66880    0.02410    2.71840    0.12460  105.25910  105.25910   62.33530   67.48840   63.60400   63.60400    2.31290    0.09900    2.71840    2.31290    2.98570   71.88420   -6.03810    2.98570
 7050.00000    9.31180    9.59430    9.31180    9.47410    0.02120    0.05990  100.68670    0.08300    2.67370    0.02120    9.93180    0.08300   59.09300   59.09300   34.85130   48.44970   33.92270   33.92270    7.21920    0.05990    9.93180    7.21920   14.38880   64.97400  -13.37450   14.38880
 7100.00000   10.50510    9.92320   10.50510    9.78980    0.05440    0.07430  371.08510    0.09100    2.61700    0.05440    2.69480    0.09100   58.79180   58.79180   49.28850   66.14860   45.13930   45.13930    5.27120    0.07430    2.69480    5.27120    8.96350   72.05390   -6.72080    8.96350
 7150.00000    9.96640    9.63430    9.96640    9.11240    0.03760    0.05560   94.94600    0.07420    2.64570    0.03760   10.53230    0.07420   69.85970   69.85970   30.49850   52.78840   29.71570   29.71570    9.40240    0.05560   10.53230    9.40240   14.05730   67.96740  -11.23350   14.05730
 7200.00000    9.90050    9.71530    9.90050    9.59950    0.38110    0.06190   90.95710    0.16070    2.05830    0.38110   10.99420    0.16070   68.07640   68.07640   28.69290   44.53000   25.21470   25.21470    7.83140    0.06190   10.99420    7.83140   13.99900   61.30240  -18.32470   13.99900
 7250.00000    9.38550    9.38700    9.38550    9.27770    0.05520    0.06890  196.48680    0.03660    2.61560    0.05520    5.08940    0.03660   65.64920   65.64920   30.41350   49.96360   33.44330   33.44330    4.54570    0.06890    5.08940    4.54570    8.46400   71.73320   -8.32010    8.46400
 7300.00000    9.54070    9.39160    9.54070    9.43370    0.03550    0.04870  103.80770    0.03460    2.64930    0.03550    9.63320    0.03460   57.63290   57.63290   27.94930   47.72000   25.98710   25.98710    8.28500    0.04870    9.63320    8.28500   14.86300   70.10140  -10.37810   14.86300
 7350.00000    9.38850    9.42960    9.38850    9.35340    0.04610    0.08640   93.85970    0.03650    2.63120    0.04610   10.65420    0.03650   78.11230   78.11230   60.98100   68.88380   60.63230   60.63230    8.17290    0.08640   10.65420    8.17290   17.19430   79.90310   -1.06010   17.19430
 7400.00000    9.96940    8.99380    9.96940    9.79430    0.08420    0.14870   39.89070    0.05640    2.56600    0.08420   25.06850    0.05640   75.39750   75.39750   93.43540  104.33660   92.84800   92.84800   14.13850    0.14870   25.06850   14.13850   57.92880   75.74770   -5.96100   57.92880
 7450.00000    8.61960    8.41820    8.61960    8.87290    0.00290    0.02500   52.70590    0.03830    2.70500    0.00290   18.97320    0.03830   55.12590   55.12590   28.81950   46.49250   26.65940   26.65940   11.01110    0.02500   18.97320   11.01110   30.89280   68.22760  -14.22660   30.89280
 7500.00000    8.24760    8.20560    8.24760    8.30920   -0.00080    0.04930   67.73870    0.03530    2.71140   -0.00080   14.76260    0.03530   57.01620   57.01620   43.49110    -999.25   36.73550   36.73550    9.64130    0.04930   14.76260    9.64130   21.47340   74.51990   -8.67990   21.47340
 7550.00000    -999.25    -999.25    -999.25    -999.25    -999.25    -999.25    -999.25    -999.25    -999.25    -999.25    -999.25    -999.25    -999.25    -999.25    -999.25    -999.25    -999.25    -999.25    -999.25    -999.25    -999.25    -999.25   58.49390   14.75490  -69.18290   58.49390
