~Version ---------------------------------------------------
VERS. 2.0 : CWLS log ASCII Standard -VERSION 2.0
WRAP.  NO : ONE LINE PER DEPTH STEP
~Well ------------------------------------------------------
STRT.F                  2550.0 : START DEPTH
STOP.F                 10800.0 : STOP DEPTH
STEP.F                50.00000 : STEP LENGTH
NULL.                  -999.25 : NULL VALUE
COMP.            PRIMARY FUELS : COMPANY
WELL. SOUTH TEXAS SYNDICATE #1 : WELL
FLD .                  WILDCAT : FIELD
LOC .                          : LOCATION
CNTY.                 LA SALLE : COUNTY
STAT.                    TEXAS : STATE
CTRY. UNITED STATES OF AMERICA : COUNTRY
SRVC.                  Unknown : SERVICE COMPANY
DATE.              07-Nov-1982 : LOGDATE
API .           42283309180000 : API NUMBER
UWI .           42283309180000 : UNIQUE WELL ID
SLAT.WGS84       28.3767041542 : SURFACE LATITUDE
SLON.WGS84       -98.818900961 : SURFACE LONGITUDE
~Curve Information -----------------------------------------
DEPT.F                 : 
GRR .GAPI 07 310 01 00 : GAMMA RAY
ILM .OHMM 07 120 44 00 : INDUCTION LOG MEDIUM RESISTIVITY
ILD .OHMM 07 120 46 00 : DEEP INDUCTION RESISTIVITY
SFL .OHMM 07 220 01 00 : SHALLOW FOCUSED LOG RESISTIVITY
DRHO.G/C3 45 356 01 00 : DENSITY CORRECTION
SPR .MV   07 010 01 00 : SPONTANEOUS POTENTIAL
CALR.IN   07 280 01 00 : CALIPER FROM RESISTIVITY
DPHI.DEC  45 890 00 00 : DENSITY POROSITY
NPHI.DEC  42 890 00 00 : NEUTRON POROSITY
~Params ----------------------------------------------------
EKB .F                   0.0 : KELLY BUSHING
EGL .F                   406 : ELEVATION GROUND LEVEL
EDF .F                   0.0 : DRILLING FLOOR
EPD .F                   406 : ELEVATION PERMANENT DATUM
TD  .F               10810.0 : TOTAL DEPTH
DATE.            06-NOV-1982 : DATE LOGGED
CLNT.                A2DTECH : CLIENT CODE
SL  .   800' FNL & 1115' FEL : SURFACE LOCATION
PD  .                     GL : PERMANENT DATUM
LMF .                     KB : LOG MEASURED FROM
DMF .                     KB : DRILLING MEASURED FROM
DAPD.F                    16 : FEET ABOVE PERMANENT DATUM
DD  .F                 10800 : DEPTH DRILLER
DL  .F                 10810 : DEPTH LOGGER
BLI .F                 10804 : BOTTOM LOG INTERVAL
TLI .F                  2526 : TOP LOG INTERVAL
CS1 .IN                9.625 : CASING SIZE
CBD1.         9.625" @ 2512' : CASING DRILLER 1
CBL1.F                  2526 : CASING LOGGER 1
BS1 .IN                 8.75 : BIT SIZE
BSD1.F                 10800 : DEPTH DRILLED WITH BIT1
DFT .         LIGNOSULFONATE : TYPE FLUID IN HOLE
DFD .                   10.5 : DENSITY
DFV .                     40 : VISCOSITY
DFPH.                     11 : PH
DFL .                    4.4 : FLUID LOSS
MSS .              CIRC TANK : SOURCE OF SAMPLE
MFST.F                    75 : RMF MEAS. TEMP.
MFSS.                   MEAS : SOURCE RMF.
MCSS.                   CALC : SOURCE RMC.
RMB .OHMM               0.45 : RM. AT BHT
BHT .F                   225 : BHT.
TCS .HRS                 700 : TIME CIRC. STOPPED
TLAB.HRS                1830 : TIME LOGGER AT BOTTOM
LUN .                   8180 : LOGGING UNIT NUMBER
LUL .                 LAREDO : LOGGING UNIT LOCATION
ENGI.               D. MARTZ : RECORDED BY
WITN. MEYER GUAJARDO/LAMMERS : WITNESSED BY
ORIG.               5" PRINT : ORIGIN OF DATA
UWI .         42283309180000 : UNIQUE WELL ID
DICO. A2D TECHNOLOGIES, INC. : DIGITIZING COMPANY
~Other -----------------------------------------------------
~ASCII -----------------------------------------------------
 2550.00000   44.40640    8.64140   10.65280    6.73340   -0.00350   -7.96600   10.83800    0.18700    0.15100
 2600.00000   57.64840    8.17040    9.44170    6.60770   -0.00050  -14.97600   11.09600    0.16900    0.16800
 2650.00000   63.58410    7.85130    8.21590    6.97640    0.01790  -16.96300   11.17600    0.12300    0.17900
 2700.00000   42.35230    8.88620   10.28610    6.70110   -0.00030  -15.85700   11.43600    0.16200    0.11900
 2750.00000   43.05030    7.51310    8.82630    5.92700    0.02830  -16.16900   11.36400    0.15100    0.13500
 2800.00000   55.96680    7.72630    8.94330    6.00070    0.00220  -18.06900   11.04300    0.19000    0.15700
 2850.00000   41.71730    8.75170    9.39210    6.65440    0.03530  -20.40700   11.09500    0.13900    0.13300
 2900.00000   76.36810    2.35660    2.53730    2.02110    0.03990  -14.09200   11.89400    0.07800    0.19800
 2950.00000   70.66890    8.17090    9.96480    6.51610    0.00790  -17.81100   10.97400    0.15300    0.16000
 3000.00000   64.97040    8.88610   10.35890    7.13770    0.01070  -16.45700   11.17200    0.13900    0.14100
 3050.00000   80.01410    1.20250    1.26020    1.22070    0.03530  -13.27000   12.23000    0.14500    0.30900
 3100.00000   76.82650    1.54370    1.71450    1.43010    0.05280  -12.85600   13.47000    0.12500    0.22000
 3150.00000   77.28310    2.13010    2.20590    1.99300    0.09550  -12.56100   15.66600    0.09400    0.17700
 3200.00000   73.17300    3.35690    3.55030    2.99370    0.10000  -14.17600   15.82700    0.02200    0.17600
 3250.00000   86.39820    1.18320    1.20830    1.23740    0.02840  -11.21600   13.92600    0.14100    0.29800
 3300.00000   64.05550    8.75720    8.81860    7.54910    0.00950  -20.84400   11.70800    0.06400    0.10200
 3350.00000   48.28770   10.14330   13.32720    8.86970    0.04920  -14.56500    9.96300    0.09800    0.12800
 3400.00000   60.70220    6.21500    6.95110    6.65520    0.02830  -14.99300   10.39400    0.06500    0.14700
 3450.00000   68.61550    8.39730    9.32660    6.69920    0.01400  -14.47000   10.33200    0.11600    0.13500
 3500.00000   31.16440   11.34570   14.89420    8.94230    0.01010   -2.28400   10.68500    0.16800    0.12000
 3550.00000   62.36910    4.83040    5.41950    3.47660   -0.01990   -8.24700   13.22200    0.44600    0.44300
 3600.00000   67.70360    6.17190    6.48140    5.20130    0.04440  -13.33100   11.58100    0.04100    0.12600
 3650.00000   88.15980    6.70110    6.80680    6.02680    0.02670  -10.22500   10.89900    0.04300    0.15800
 3700.00000   41.03360   14.69260   15.54470   11.49090    0.01630   -9.45700    9.98100    0.12200    0.12200
 3750.00000   58.81420   12.33140   13.67320    9.19940    0.04750   -8.27800    9.82200    0.09200    0.13100
 3800.00000   50.60490    9.12160    9.66900    7.60290    0.03580   -3.73000    9.87900    0.14900    0.15900
 3850.00000   41.25990   15.00500   16.55360   11.10000    0.02010    0.34400    9.26200    0.15600    0.14100
 3900.00000   41.11840   12.93110   16.21230   10.86430    0.00640   -1.68900    9.88500    0.15200    0.11100
 3950.00000   64.74160   11.02760   13.14240    8.53880    0.05050  -13.65300   11.29800    0.10800    0.10000
 4000.00000   45.90910   11.03680   12.33970    9.02580    0.02600   -9.73900   10.59940    0.12300    0.08200
 4050.00000   77.95270    4.89960    3.94280    2.40840    0.01030  -15.19600   11.87540    0.10200    0.21600
 4100.00000   93.46760    7.14800    7.88390    6.62500    0.03320  -21.23600   12.50900    0.01800    0.11300
 4150.00000   84.57710    3.42830    3.60010    3.41850    0.07370  -13.01400   11.37800    0.04200    0.14100
 4200.00000   80.02500    5.03810    3.91710    3.78220    0.01600  -18.98400   10.96800    0.12300    0.21700
 4250.00000   47.37330    7.61410    7.04920   11.25900    0.00790  -18.31600    9.24400    0.11400    0.10700
 4300.00000   52.62500    9.65850    9.00590    7.86890    0.02340  -26.42300    9.31000    0.11900    0.18300
 4350.00000   44.12540    7.93990    6.80660    7.37570    0.03490  -31.44400    9.54200    0.13300    0.13000
 4400.00000   73.85660    6.43620    5.67450    5.94830    0.03250  -33.05900    9.38100    0.09600    0.13800
 4450.00000   53.31010    6.61920    5.44110    6.51560    0.06120  -33.24400    9.01600    0.11400    0.12400
 4500.00000   70.20700    5.83560    5.29080    5.09140    0.03030  -27.72000    9.74500    0.02500    0.15100
 4550.00000   89.15530    1.76800    1.94480    1.63370    0.09920  -10.69600   11.20400    0.17300    0.18000
 4600.00000   89.83960    2.22520    1.91780    1.43590    0.03770  -12.64200   13.99400    0.34700    0.26200
 4650.00000   89.61190    2.87790    2.66470    2.81150    0.01700  -12.92500   13.28000    0.28600    0.17500
 4700.00000   96.17410    3.23050    3.22850    3.20390    0.06880  -11.27700   11.86100    0.06200    0.13400
 4750.00000   79.10880    6.42380    5.21730    6.30110    0.04900  -27.62900   10.20000    0.07000    0.12100
 4800.00000  101.93990    4.02700    3.50100    3.02760    0.10000  -19.43600   10.83500   -0.01200    0.20500
 4850.00000  101.55030    3.19650    2.93910    3.39120    0.02330  -10.60600   10.76600   -0.04200    0.19100
 4900.00000   86.87210    3.26440    3.00140    2.58840    0.07490  -10.12000   10.68100    0.04000    0.15200
 4950.00000   96.00490    4.41190    3.75530    3.02600    0.05020  -27.12800   11.58300   -0.00700    0.16300
 5000.00000   94.16650    3.01090    3.13080    3.05630    0.10000   -9.73300   10.98800   -0.00500    0.13600
 5050.00000   89.94270    2.55500    2.50190    2.84920    0.10000   -9.76800   10.02200    0.11500    0.20200
 5100.00000   98.71090    1.98010    1.97220    2.02110    0.09930   -8.77200   10.43600    0.09300    0.22100
 5150.00000   91.66670    2.99700    3.08660    3.39520    0.02360  -11.16500   11.10300   -0.01000    0.10700
 5200.00000   50.00000    7.26180    6.57280   14.28690    0.02850  -29.90200    9.82100    0.07800    0.06300
 5250.00000  104.77200    1.90100    1.93120    1.77980    0.06500   -8.76600   11.08900    0.01000    0.24500
 5300.00000   47.72760    4.69230    3.19660    7.19820    0.04400  -55.91400    9.69800    0.08300    0.07300
 5350.00000   68.63650    4.82560    3.45240    5.71860    0.06860  -46.12600   10.03700    0.09800    0.11200
 5400.00000   90.22730    2.44600    2.40300    2.44770    0.10000   -7.93000   11.35500    0.04700    0.19000
 5450.00000   84.54580    4.46790    4.23420    4.99220    0.04440  -14.88200   11.16200   -0.01100    0.06000
 5500.00000   91.41300    2.17160    2.33790    2.06410    0.04550   -7.93500   12.27500   -0.01700    0.17200
 5550.00000   95.51670    3.64110    3.45230    3.42310    0.03410  -17.38000   11.95500   -0.02200    0.10300
 5600.00000   91.47530    1.92780    1.95850    1.95330    0.09920   -6.22100   14.90800    0.04100    0.23700
 5650.00000   91.81840    1.58450    1.57650    2.04960    0.09920   -7.14000   13.43700    0.00800    0.20700
 5700.00000   85.55000    2.84320    2.79860    3.04940    0.02920   -9.73800   12.84700   -0.01800    0.10100
 5750.00000   95.68200    1.10040    1.10330    1.11800    0.04440   -7.09400   14.16000    0.07900    0.26700
 5800.00000   67.14900    2.60530    2.91850    2.75710    0.05510  -14.09400   13.39500   -0.00500    0.10800
 5850.00000   92.78120    1.11440    1.11100    1.14560    0.03140   -6.62700   12.64400    0.08900    0.26500
 5900.00000   88.22040    1.33940    1.29590    1.40140    0.09850   -6.90700   12.80600    0.07700    0.24400
 5950.00000   96.96300    1.93120    1.91780    1.83000    0.09920   -7.92600   12.65900    0.02500    0.20900
 6000.00000   99.85700    1.62120    1.67900    1.53320    0.07700   -7.57800   12.54700    0.14700    0.33800
 6050.00000   93.40910    2.20580    2.22140    2.15270    0.10000   -6.47000   12.14600    0.09500    0.18500
 6100.00000   94.31820    2.32080    2.31670    2.06580    0.07330   -9.08000   10.99200    0.00500    0.15500
 6150.00000   87.95420    2.44730    2.46730    2.45060    0.06070   -9.03800   11.67000   -0.01300    0.16100
