~Version ---------------------------------------------------
VERS. 2.0 : CWLS log ASCII Standard -VERSION 2.0
WRAP. YES : MULTIPLE LINES PER DEPTH STEP
~Well ------------------------------------------------------
STRT.FT                                1300.0 : START DEPTH
STOP.FT                               10950.0 : STOP DEPTH
STEP.FT                              50.00000 : STEP LENGTH
NULL.                                 -999.25 : NULL VALUE
COMP. GULF EXPLORATION AND PRODUCTION COMPANY : COMPANY
WELL.                HENDERSON GAS UNIT II #2 : WELL
FLD .                                 FASHING : FIELD
LOC .                                         : LOCATION
CNTY.                                ATASCOSA : COUNTY
STAT.                                   TEXAS : STATE
CTRY.                UNITED STATES OF AMERICA : COUNTRY
SRVC.                                 Unknown : SERVICE COMPANY
DATE.                             06-Jun-1981 : LOGDATE
API .                          42013311740000 : API NUMBER
UWI .                          42013311740000 : UNIQUE WELL ID
SLAT.WGS84                      28.8192769779 : SURFACE LATITUDE
SLON.WGS84                      -98.151364978 : SURFACE LONGITUDE
~Curve Information -----------------------------------------
DEPT    .FT                         : DEPTH FEET
CALDED  .IN                         : CALIPER FROM DENSITY LOG [DEPTH SHIFTED TO RES.]
CALWS   .IN                         : CALIPER [CALDED]
CONDWS  .MMHO                       : CONDUCTIVITY [1000/DRESWS]
DCORWS  .G/C3                       : DENSITY CORRECTION [DRHOED]
DENWS   .G/C3                       : BULK DENSITY [M=2.71 F=1.0] [CALCULATED FROM DPOWS]
DPHILSED.V/V                        : DENSITY POROSITY LIMESTONE FROM DENSITY LOG [DEPTH SHIFTED TO RES.]
DPOWS   .V/V                        : DENSITY POROSITY [M=2.71 F=1.0] [DPHILSED]
DRESWS  .OHMM                       : DEEP RESISTIVITY [ILDED]
DRHOED  .G/C3                       : DENSITY CORRECTION FROM DENSITY LOG [DEPTH SHIFTED TO RES.]
DTED    .US/F                       : DELTA TIME FROM SONIC LOG
DTWS    .US/F                       : DELTA TIME [DTED]
GRDED   .GAPI                       : GAMMA RAY FROM DENSITY LOG [DEPTH SHIFTED TO RES.]
GRNED   .CPS                        : GAMMA RAY FROM NEUTRON LOG [DEPTH SHIFTED TO RES.]
GRRED   .GAPI                       : GAMMA RAY FROM RESISTIVITY LOG
GRWS    .GAPI :   GAMMA RAY [SPLICE : 1294 GRNED 2010 GRRED 9954 GRDED. CASED ABOVE 2020]
ILDED   .OHMM                       : INDUCTION LOG DEEP RESISTIVITY
ILMED   .OHMM                       : INDUCTION LOG MEDIUM RESISTIVITY
MRESWS  .OHMM                       : MEDIUM RESISTIVITY [ILMED]
NEUTED  .CPS                        : NEUTRON FROM CASED HOLE NEUTRON LOG [DEPTH SHIFTED TO RES.]
NEUTWS  .CPS                        : NEUTRON [NEUTED]
NPHILSED.V/V                        : NEUTRON POROSITY LIMESTONE [DEPTH SHIFTED TO RES.]
NPOWS   .V/V                        : NEUTRON POROSITY LIMESTONE [NPHILSED]
RHOBED  .G/C3                       : BULK DENSITY FROM DENSITY LOG [DEPTH SHIFTED TO RES.]
SFLUED  .OHMM                       : SPHERICALLY FOCUSED LOG RESISTIVITY
SPRED   .MV                         : SPONTANEOUS POTENTIAL FROM RESISTIVITY LOG
SPWS    .MV                         : SPONTANEOUS POTENTIAL [BASELINE 0 MV] [SPRED]
SRESWS  .OHMM                       : SHALLOW RESISTIVITY [SFLUED]
TENDED  .LBF                        : TENSION FROM DENSITY LOG
~Params ----------------------------------------------------
DATE.               06/06/81 : RUN DATE
RUN .                      1 : RUN NUMBER
CLNT.                A2DTECH : CLIENT CODE
ORIG.               5" PRINT : ORIGIN OF DATA
UWI .         42013311740000 : UNIQUE WELL ID
DICO. A2D Technologies, Inc. : DIGITIZING COMPANY
~Other -----------------------------------------------------
1. NEUTED AND NPHILSED WERE THE PRIMARY DEPTH SHIFTED CURVES FOR THEIR REPRESENTATIVE LOGS; THEY WERE BOTH DEPTH SHIFTED TO SFLUED AND DTED AS THE PRIMARY DEPTH CONTROL CURVES.
2. GRWS IS COMPRISED OF GRNED DOWN TO 2010.
~ASCII -----------------------------------------------------
# ...
 2550.00000   10.28600   10.28600  550.99450    -999.25    -999.25    -999.25    -999.25    1.81490    -999.25  130.47870  130.47870    -999.25   56.52810   72.31580   72.31580    1.81490    1.91390    1.91390  540.50680  540.50680    -999.25    -999.25    -999.25    1.90480  -13.68920  -14.77440    1.90480    -999.25
 2600.00000   15.01220   15.01220  376.13780    -999.25    -999.25    -999.25    -999.25    2.65860    -999.25  119.45390  119.45390    -999.25   56.10690   64.07080   64.07080    2.65860    2.81070    2.81070  464.49880  464.49880    -999.25    -999.25    -999.25    4.36370   -9.61510  -10.66730    4.36370    -999.25
 2650.00000   14.42560   14.42560  756.77310    -999.25    -999.25    -999.25    -999.25    1.32140    -999.25  148.51970  148.51970    -999.25   63.88920   85.85120   85.85120    1.32140    1.36770    1.36770  431.86360  431.86360    -999.25    -999.25    -999.25    1.26010   -1.57560   -2.60500    1.26010    -999.25
 2700.00000   12.97810   12.97810 1105.46090    -999.25    -999.25    -999.25    -999.25    0.90460    -999.25  154.15180  154.15180    -999.25   65.53680   88.20140   88.20140    0.90460    0.94060    0.94060  429.04930  429.04930    -999.25    -999.25    -999.25    1.03680    0.69010   -0.33930    1.03680    -999.25
 2750.00000   12.12780   12.12780  611.39640    -999.25    -999.25    -999.25    -999.25    1.63560    -999.25  125.40120  125.40120    -999.25   75.24460  100.63900  100.63900    1.63560    1.92730    1.92730  510.13640  510.13640    -999.25    -999.25    -999.25    2.08260  -21.15090  -22.04300    2.08260    -999.25
 2800.00000   10.88700   10.88700  689.41740    -999.25    -999.25    -999.25    -999.25    1.45050    -999.25  140.00550  140.00550    -999.25   59.32270   67.30240   67.30240    1.45050    1.49650    1.49650  441.78690  441.78690    -999.25    -999.25    -999.25    1.46630   -4.16230   -4.89300    1.46630    -999.25
 2850.00000    9.05060    9.05060  424.23210    -999.25    -999.25    -999.25    -999.25    2.35720    -999.25  105.28870  105.28870    -999.25   50.43640   64.20240   64.20240    2.35720    2.79320    2.79320  645.98640  645.98640    -999.25    -999.25    -999.25    2.99830  -26.88000  -27.44920    2.99830    -999.25
 2900.00000    9.45580    9.45580  415.28240    -999.25    -999.25    -999.25    -999.25    2.40800    -999.25  114.01350  114.01350    -999.25   87.65590  105.29320  105.29320    2.40800    2.92380    2.92380  587.87150  587.87150    -999.25    -999.25    -999.25    3.33050  -28.54160  -28.94930    3.33050    -999.25
 2950.00000    9.55570    9.55570  424.77280    -999.25    -999.25    -999.25    -999.25    2.35420    -999.25  120.30550  120.30550    -999.25   48.38240   67.57920   67.57920    2.35420    2.43810    2.43810  500.20940  500.20940    -999.25    -999.25    -999.25    2.66390  -10.04480  -10.29100    2.66390    -999.25
 3000.00000    8.34730    8.34730  566.02700    -999.25    -999.25    -999.25    -999.25    1.76670    -999.25  122.17150  122.17150    -999.25   73.18630   82.06400   82.06400    1.76670    1.82280    1.82280  528.08770  528.08770    -999.25    -999.25    -999.25    1.82650  -11.68260  -11.76730    1.82650    -999.25
 3050.00000    8.78920    8.78920  573.69060    -999.25    -999.25    -999.25    -999.25    1.74310    -999.25  124.46600  124.46600    -999.25   76.40560   85.43320   85.43320    1.74310    1.83790    1.83790  540.87540  540.87540    -999.25    -999.25    -999.25    1.77810  -11.31310  -11.23630    1.77810    -999.25
 3100.00000    8.65390    8.65390  417.85060    -999.25    -999.25    -999.25    -999.25    2.39320    -999.25  116.18960  116.18960    -999.25   61.66010   76.73730   76.73730    2.39320    2.62560    2.62560  584.70150  584.70150    -999.25    -999.25    -999.25    2.57580  -21.36370  -21.12550    2.57580    -999.25
 3150.00000    8.15390    8.15390  479.70830    -999.25    -999.25    -999.25    -999.25    2.08460    -999.25  115.12540  115.12540    -999.25   39.35830   47.79180   47.79180    2.08460    2.51640    2.51640  607.19060  607.19060    -999.25    -999.25    -999.25    3.34130  -39.05780  -38.65810    3.34130    -999.25
 3200.00000    8.34590    8.34590  458.25310    -999.25    -999.25    -999.25    -999.25    2.18220    -999.25  114.91800  114.91800    -999.25   56.71340   75.96070   75.96070    2.18220    2.46210    2.46210  596.49790  596.49790    -999.25    -999.25    -999.25    2.76710  -16.78860  -16.22740    2.76710    -999.25
 3250.00000    8.57160    8.57160  414.35320    -999.25    -999.25    -999.25    -999.25    2.41340    -999.25  116.83790  116.83790    -999.25   64.34480   77.81070   77.81070    2.41340    2.63720    2.63720  605.95530  605.95530    -999.25    -999.25    -999.25    3.06170  -23.24350  -22.52080    3.06170    -999.25
 3300.00000    8.12090    8.12090 1010.30510    -999.25    -999.25    -999.25    -999.25    0.98980    -999.25  150.46240  150.46240    -999.25   54.87220   87.04900   87.04900    0.98980    1.09580    1.09580  461.81660  461.81660    -999.25    -999.25    -999.25    0.90860  -16.73830  -15.85410    0.90860    -999.25
 3350.00000    8.35120    8.35120  509.96990    -999.25    -999.25    -999.25    -999.25    1.96090    -999.25  114.51310  114.51310    -999.25   50.30570   62.15120   62.15120    1.96090    2.30950    2.30950  652.33230  652.33230    -999.25    -999.25    -999.25    3.09240  -39.96720  -38.92150    3.09240    -999.25
 3400.00000    8.48350    8.48350  798.02090    -999.25    -999.25    -999.25    -999.25    1.25310    -999.25  134.22500  134.22500    -999.25   68.61150   85.39760   85.39760    1.25310    1.29530    1.29530  490.25690  490.25690    -999.25    -999.25    -999.25    1.26330   -5.87430   -4.66710    1.26330    -999.25
 3450.00000    8.74800    8.74800  645.41110    -999.25    -999.25    -999.25    -999.25    1.54940    -999.25  118.76890  118.76890    -999.25   63.95090   68.02840   68.02840    1.54940    1.64020    1.64020  534.76670  534.76670    -999.25    -999.25    -999.25    1.80270  -12.27380  -10.90520    1.80270    -999.25
 3500.00000    8.37140    8.37140  590.91180    -999.25    -999.25    -999.25    -999.25    1.69230    -999.25  121.49600  121.49600    -999.25   63.82500   85.59430   85.59430    1.69230    1.78300    1.78300  559.00010  559.00010    -999.25    -999.25    -999.25    2.07630  -15.38170  -13.85160    2.07630    -999.25
 3550.00000    8.47490    8.47490  517.17000    -999.25    -999.25    -999.25    -999.25    1.93360    -999.25  122.84210  122.84210    -999.25   60.33480   71.79230   71.79230    1.93360    1.99480    1.99480  543.12990  543.12990    -999.25    -999.25    -999.25    2.12980  -14.18430  -12.49270    2.12980    -999.25
 3600.00000    8.42620    8.42620 1010.30510    -999.25    -999.25    -999.25    -999.25    0.98980    -999.25  144.50620  144.50620    -999.25   64.21000   82.71580   82.71580    0.98980    1.06310    1.06310  479.61730  479.61730    -999.25    -999.25    -999.25    1.11620   -4.67260   -2.81950    1.11620    -999.25
 3650.00000    8.35580    8.35580  689.89310    -999.25    -999.25    -999.25    -999.25    1.44950    -999.25  135.35590  135.35590    -999.25   69.74420   73.11730   73.11730    1.44950    1.48350    1.48350  512.96350  512.96350    -999.25    -999.25    -999.25    1.03980   -6.08010   -4.06550    1.03980    -999.25
 3700.00000    9.29590    9.29590  697.10700    -999.25    -999.25    -999.25    -999.25    1.43450    -999.25  131.96200  131.96200    -999.25   63.43210   79.95100   79.95100    1.43450    1.52080    1.52080  494.86210  494.86210    -999.25    -999.25    -999.25    1.25490   -4.12640   -1.95030    1.25490    -999.25
 3750.00000   11.00920   11.00920  588.40840    -999.25    -999.25    -999.25    -999.25    1.69950    -999.25  122.19090  122.19090    -999.25   64.90130   77.79610   77.79610    1.69950    1.83610    1.83610  562.40190  562.40190    -999.25    -999.25    -999.25    2.24510   -9.70250   -8.21890    2.24510    -999.25
