~Version ---------------------------------------------------
VERS. 2.0 : CWLS log ASCII Standard -VERSION 2.0
WRAP.  NO : ONE LINE PER DEPTH STEP
~Well ------------------------------------------------------
STRT.F                         1050.0 : START DEPTH
STOP.F                         8100.0 : STOP DEPTH
STEP.F                       50.00000 : STEP LENGTH
NULL.                         -999.25 : NULL VALUE
COMP. UNION PACIFIC RESOURCES COMPANY : COMPANY
WELL.            PRESTON RUFFINO B #2 : WELL
FLD .                          KURTEN : FIELD
LOC .                                 : LOCATION
CNTY.                          BRAZOS : COUNTY
STAT.                           TEXAS : STATE
CTRY.        UNITED STATES OF AMERICA : COUNTRY
SRVC.                    Schlumberger : SERVICE COMPANY
DATE.                     12-Feb-1990 : LOGDATE
API .                  42041314550000 : API NUMBER
UWI .                  42041314550000 : UNIQUE WELL ID
SLAT.WGS84              30.7793740987 : SURFACE LATITUDE
SLON.WGS84             -96.4235123476 : SURFACE LONGITUDE
~Curve Information -----------------------------------------
DEPT   .F                 : 
GRR    .GAPI 07 310 01 00 : GAMMA RAY FROM RESISTIVITY LOG
ILD    .OHMM 07 120 46 00 : INDUCTION DEEP RESISTIVITY
ILM    .OHMM 07 120 44 00 : INDUCTION MEDIUM RESISTIVITY
DCAL   .IN   07 280 01 00 : DIFFERENTIAL CALIPER
SFLU   .OHMM 07 220 01 00 : SHALLOW FOCUSED RESISTIVITY (UNAVERAGED)
SPR    .MV   07 010 01 00 : SPONTANEOUS POTENTIAL FROM RESISTIVITY LOG
DPHI_LS.DEC  45 890 10 00 : DENSITY POROSITY LIMESTONE
NPHI_LS.DEC  42 890 01 00 : NEUTRON POROSITY LIMESTONE
DRHO   .G/C3 45 356 01 00 : BULK DENSITY CORRECTION
RHOB   .G/C3 45 350 01 00 : BULK DENSITY
CALD   .IN   45 280 60 00 : CALIPER FROM DENSITY LOG
~Params ----------------------------------------------------
PD  .                     GL : PERMANENT DATUM
EPD .FT                  264 : ELEVATION PERMANENT DATUM
LMF .                     KB : LOG MEASURED FROM
DAPD.FT                   21 : FEET ABOVE PERMANENT DATUM
DMF .                     KB : DRILLING MEASURED FROM
EKB .FT                  385 : KELLY BUSHING
EDF .FT                  384 : DRILLING FLOOR
EGL .FT                  364 : GROUND LEVEL
DATE.               02/12/90 : RUN DATE
RUN .                      1 : RUN NUMBER
DD  .FT                 8180 : DEPTH DRILLER
DL  .FT                 8120 : DEPTH LOGGER
BLI .FT                 8114 : BOTTOM LOG INTERVAL
TLI .FT                 1040 : TOP LOG INTERVAL
CS  .IN                9.625 : CASING SIZE
CBD .FT                 1043 : CASING BOTTOM DRILLER
CBL .FT                 1040 : CASING BOTTOM LOGGER
BS  .IN                 8.75 : BIT SIZE
BSD .FT                 8180 : BIT SIZE AT DEPTH
DFT .                  BENEX : DRILLING FLUID TYPE
DFD .                    8.7 : DRILLING FLUID DENSITY
DFV .                     42 : DRILLING FLUID VISCOSITY
DFPH.                    8.2 : DRILLING FLUID PH
DFL .                    7.6 : DRILLING FLUID LOSS
MSS .               MUD TANK : MUD SAMPLE SOURCE
RMS .OHMM               4.39 : RESISTIVITY MUD SAMPLE
MST .DEGF                 93 : MUD SAMPLE TEMPERATURE
RMF .OHMM               7.15 : RESISTIVITY MUD FILTRATE SAMPLE
MFST.DEGF                 70 : MUD FILTRATE SAMPLE TEMPERATURE
RMC .OHMM               6.59 : RESISTIVITY MUD CAKE
MCST.DEGF                 93 : MUD CAKE SAMPLE TEMPERATURE
MFSS.                   MEAS : MUD FILTRATE SAMPLE SOURCE
MCSS.                   CALC : MUD CAKE SAMPLE SOURCE
RMB .OHMM              2.373 : RESISTIVITY MUD AT BHT
TCS .HRS                1600 : TIME CIRCULATED STOPPED
TLAB.HRS                2100 : TIME LOGGER AT BOTTOM
LUN .                   8235 : LOGGING UNIT NUMBER
LUL .           BREHAM DEPOT : LOGGING UNIT LOCATION
ENGI.               BARDFORD : RECORDING ENGINEER
WITN.       MCGINNIS BLANCHL : WITNESSED BY
CLNT.                A2DTECH : CLIENT CODE
ORIG.            2" 5" PRINT : ORIGIN OF DATA
UWI .         42041314550000 : UNIQUE WELL ID
DICO. A2D Technologies, Inc. : DIGITIZING COMPANY
~Other -----------------------------------------------------
~ASCII -----------------------------------------------------
 1050.00000   58.56000    3.17870    3.13860    3.38590    3.65110  -14.28140    -999.25    -999.25    -999.25    -999.25    -999.25
 1100.00000   49.94940    4.61160    5.01950    5.09720    4.17500  -25.30110    -999.25    -999.25    -999.25    -999.25    -999.25
 1150.00000   29.60970    8.60300   11.31050    3.81460   16.24780  -51.89590    -999.25    -999.25    -999.25    -999.25    -999.25
 1200.00000   16.14870    7.81350    9.85340    4.56430   14.42430  -48.28190    -999.25    -999.25    -999.25    -999.25    -999.25
 1250.00000   47.16370    7.80350    9.22620    2.78060   11.46390  -38.16970    -999.25    -999.25    -999.25    -999.25    -999.25
 1300.00000   34.59650    7.43000    8.77360    3.35840   11.08670  -43.28930    -999.25    -999.25    -999.25    -999.25    -999.25
 1350.00000   81.41410    2.96480    3.09100    4.27150    3.13620  -14.16330    -999.25    -999.25    -999.25    -999.25    -999.25
 1400.00000   63.40470    4.86760    5.32690    3.35620    6.02820  -21.88620    -999.25    -999.25    -999.25    -999.25    -999.25
 1450.00000   57.02090    5.19230    6.02520    3.16110    9.40100  -27.47700    -999.25    -999.25    -999.25    -999.25    -999.25
 1500.00000   70.01080    5.03140    5.23820    3.52310    5.24660  -20.58710    -999.25    -999.25    -999.25    -999.25    -999.25
 1550.00000   71.18910    4.38220    4.48310    3.81710    4.40980  -17.72860    -999.25    -999.25    -999.25    -999.25    -999.25
 1600.00000   70.63540    6.11550    6.31290    5.27280    7.57440  -17.98990    -999.25    -999.25    -999.25    -999.25    -999.25
 1650.00000   69.66240    6.35500    6.69590    5.04870    6.93200  -20.94000    -999.25    -999.25    -999.25    -999.25    -999.25
 1700.00000   64.22440    6.27840    6.57690    4.48760    6.09190  -14.23580    -999.25    -999.25    -999.25    -999.25    -999.25
 1750.00000   54.80130    6.93800    7.98110    1.70560   10.77460  -19.51210    -999.25    -999.25    -999.25    -999.25    -999.25
 1800.00000   55.80050    5.40500    5.49590    2.20120    6.38690  -17.85110    -999.25    -999.25    -999.25    -999.25    -999.25
 1850.00000   59.73510    6.07820    7.01110    1.69820   10.85790  -25.99630    -999.25    -999.25    -999.25    -999.25    -999.25
 1900.00000   62.30500    7.85640    8.40090    1.57100    8.58390  -27.36790    -999.25    -999.25    -999.25    -999.25    -999.25
 1950.00000   53.45600    8.69560    9.93520    2.97610   12.70330  -29.58870    -999.25    -999.25    -999.25    -999.25    -999.25
 2000.00000   64.53560    6.72480    7.42780    3.09260    9.25390  -25.81880    -999.25    -999.25    -999.25    -999.25    -999.25
 2050.00000   43.49670    7.72500    9.82790    3.76160   13.89280  -37.29640    -999.25    -999.25    -999.25    -999.25    -999.25
 2100.00000   77.44720    4.50220    4.97040    4.04470    6.34680  -18.65140    -999.25    -999.25    -999.25    -999.25    -999.25
 2150.00000   72.71770    7.25900    8.36830    2.55690   12.52720  -27.29950    -999.25    -999.25    -999.25    -999.25    -999.25
 2200.00000   68.87080    5.03130    5.64010    2.70510    8.75500  -19.74280    -999.25    -999.25    -999.25    -999.25    -999.25
 2250.00000   76.75350    3.46880    3.70420    2.00490    3.55560  -11.73750    -999.25    -999.25    -999.25    -999.25    -999.25
 2300.00000   72.32930    6.35100    6.87820    1.73400    7.82890  -18.00400    -999.25    -999.25    -999.25    -999.25    -999.25
 2350.00000   53.91830   13.01500   15.46500    2.23790   19.76760  -19.57180    -999.25    -999.25    -999.25    -999.25    -999.25
 2400.00000   50.16960   14.30070   17.58600    2.44470   22.97100  -21.92750    -999.25    -999.25    -999.25    -999.25    -999.25
 2450.00000   37.64120   12.18370   12.68760    5.24700   14.24150  -22.37160    -999.25    -999.25    -999.25    -999.25    -999.25
 2500.00000   49.75470   11.40940   13.89850    2.63800   21.54910  -20.72290    -999.25    -999.25    -999.25    -999.25    -999.25
 2550.00000   45.85700   14.18340   17.09590    1.37180   24.60050  -23.15170    -999.25    -999.25    -999.25    -999.25    -999.25
 2600.00000   52.36810   14.17750   16.72300    1.07460   24.42630  -23.14300    -999.25    -999.25    -999.25    -999.25    -999.25
 2650.00000   56.23340   11.01490   15.65780    1.67730   22.77010  -18.52750    -999.25    -999.25    -999.25    -999.25    -999.25
 2700.00000   34.15310   18.60370   21.68880    1.61510   29.60730  -22.35900    -999.25    -999.25    -999.25    -999.25    -999.25
 2750.00000   49.70960   14.83490   17.37230    0.90890   23.37580  -25.93430    -999.25    -999.25    -999.25    -999.25    -999.25
 2800.00000   47.13180   13.73210   16.57190    0.66980   23.85570  -23.03920    -999.25    -999.25    -999.25    -999.25    -999.25
 2850.00000  110.62480    3.40050    3.62050    1.38390    2.95840   -5.63290    -999.25    -999.25    -999.25    -999.25    -999.25
 2900.00000   47.26250   14.84920   16.37560    1.80030   19.79000  -24.53560    -999.25    -999.25    -999.25    -999.25    -999.25
 2950.00000   50.17550   13.31350   15.68090    0.64730   19.15790  -23.48410    -999.25    -999.25    -999.25    -999.25    -999.25
 3000.00000   99.13250    2.59780    2.77130    1.48500    2.33950   -3.22220    -999.25    -999.25    -999.25    -999.25    -999.25
 3050.00000   67.08470    7.77440    9.73200    1.09250   18.56160  -22.69600    -999.25    -999.25    -999.25    -999.25    -999.25
 3100.00000   48.62480    9.23240   11.53660    0.58750   16.35740  -32.00140    -999.25    -999.25    -999.25    -999.25    -999.25
 3150.00000   87.89230    4.87690    4.35980    1.23600    5.30120  -10.45450    -999.25    -999.25    -999.25    -999.25    -999.25
 3200.00000   89.93730    3.83380    4.19990    0.79170    4.36800  -12.50740    -999.25    -999.25    -999.25    -999.25    -999.25
 3250.00000   94.23560    5.06930    6.01670    0.63120    8.24700  -22.18760    -999.25    -999.25    -999.25    -999.25    -999.25
 3300.00000   58.42400    4.26420    5.36570    0.22420   14.48550  -53.94830    -999.25    -999.25    -999.25    -999.25    -999.25
 3350.00000   44.96870    4.56200    5.40990    0.31940   11.47230  -46.72060    -999.25    -999.25    -999.25    -999.25    -999.25
 3400.00000   90.31680    2.74690    3.11310    0.46920    3.01940   -5.86460    -999.25    -999.25    -999.25    -999.25    -999.25
 3450.00000   93.26780    2.43170    2.61630    0.49030    3.58570   -6.48070    -999.25    -999.25    -999.25    -999.25    -999.25
 3500.00000   63.75820    3.44520    4.46110    0.14720   12.29240  -65.17050    -999.25    -999.25    -999.25    -999.25    -999.25
 3550.00000   65.97210    3.32980    4.26050    0.39070   11.40030  -46.26340    -999.25    -999.25    -999.25    -999.25    -999.25
 3600.00000   90.53210    1.98390    2.08200    2.17770    2.28180   -4.27020    -999.25    -999.25    -999.25    -999.25    -999.25
 3650.00000   83.75920    2.93450    3.15890    2.64320    4.43330   -9.20300    -999.25    -999.25    -999.25    -999.25    -999.25
 3700.00000   79.59360    1.95680    2.03150    2.97530    2.19550   -4.22840    -999.25    -999.25    -999.25    -999.25    -999.25
 3750.00000   77.71860    2.46480    2.55060    1.52010    2.85740   -5.67610    -999.25    -999.25    -999.25    -999.25    -999.25
 3800.00000   80.55430    2.17010    2.30870    1.10360    2.58940   -5.75840    -999.25    -999.25    -999.25    -999.25    -999.25
 3850.00000   66.00790    3.74740    4.12940    1.21010    8.06730   -7.50620    -999.25    -999.25    -999.25    -999.25    -999.25
 3900.00000   87.56120    2.32390    2.40830    3.79280    2.51660  -10.13950    -999.25    -999.25    -999.25    -999.25    -999.25
 3950.00000   86.53970    2.23840    2.29150    5.23050    2.25070  -11.11500    -999.25    -999.25    -999.25    -999.25    -999.25
 4000.00000   84.04930    1.65740    1.69980    3.88010    1.88130  -10.77270    -999.25    -999.25    -999.25    -999.25    -999.25
 4050.00000   85.00750    2.01040    2.05490    4.04970    2.26300  -12.55820    -999.25    -999.25    -999.25    -999.25    -999.25
