~Version ---------------------------------------------------
VERS. 2.0 : CWLS log ASCII Standard -VERSION 2.0
WRAP.  NO : ONE LINE PER DEPTH STEP
~Well ------------------------------------------------------
STRT.F                          3500.0 : START DEPTH
STOP.F                          8400.0 : STOP DEPTH
STEP.F                        50.00000 : STEP LENGTH
NULL.                          -999.25 : NULL VALUE
COMP. HILL INTERNATIONAL PRODUCTION CO : COMPANY
WELL.                      WILCOX W #1 : WELL
FLD .                           KURTEN : FIELD
LOC .                                  : LOCATION
CNTY.                           BRAZOS : COUNTY
STAT.                            TEXAS : STATE
CTRY.         UNITED STATES OF AMERICA : COUNTRY
SRVC.                    Dresser Atlas : SERVICE COMPANY
DATE.                      03-Jan-1983 : LOGDATE
API .                   42041308840000 : API NUMBER
UWI .                   42041308840000 : UNIQUE WELL ID
SLAT.WGS84                   30.784112 : SURFACE LATITUDE
SLON.WGS84                  -96.367919 : SURFACE LONGITUDE
~Curve Information -----------------------------------------
DEPT.F                 : 
CNC .DEC  42 890 03 00 : NEUTRON POROSITY SANDSTONE
GRR .GAPI 07 310 01 00 : GAMMA RAY FROM RES. LOG.
PORD.DEC  45 890 12 00 : POROSITY DENSITY SANDSTONE
DEN .G/C3 45 350 01 00 : COMPENSATED BULK DENSTIY
CALR.IN   07 280 01 00 : CALIPER FROM RESISTIVITY
RFOC.OHMM 07 220 04 00 : RESISTIVITY FOCUSED LOG
RILD.OHMM 07 120 46 00 : INDUCTION LOG DEEP RESISTIVITY
RILM.OHMM 07 120 44 00 : INDUCTION LOG MEDIUM RESISTIVITY
SPR .MV   07 010 01 00 : SPONTANEOUS POTENTIAL FROM RES.
~Params ----------------------------------------------------
PD  .                     GL : PERMANENT DATUM
EPD .FT               338.83 : ELEVATION PERMANENT DATUM
LMF .                     KB : LOG MEASURED FROM
DAPD.FT                   16 : FEET ABOVE PERMANENT DATUM
DMF .                     KB : DRILLING MEASURED FROM
EKB .FT               354.83 : KELLY BUSHING
EDF .FT               353.83 : DRILLING FLOOR
EGL .FT               338.83 : GROUND LEVEL
DATE.               01/03/83 : RUN DATE
RUN .                      1 : RUN NUMBER
DD  .FT                 8450 : DEPTH DRILLER
DL  .FT                 8437 : DEPTH LOGGER
BLI .FT                 8435 : BOTTOM LOG INTERVAL
TLI .FT                 3512 : TOP LOG INTERVAL
CS  .IN                8.625 : CASING SIZE
CBD .FT                 3519 : CASING BOTTOM DRILLER
CBL .FT                 3512 : CASING BOTTOM LOGGER
BS  .IN                7.875 : BIT SIZE
BSD .FT                 8450 : BIT SIZE AT DEPTH
DFT .                  BENEX : DRILLING FLUID TYPE
DFD .                    9.5 : DRILLING FLUID DENSITY
DFV .                     48 : DRILLING FLUID VISCOSITY
DFPH.                      8 : DRILLING FLUID PH
DFL .                      8 : DRILLING FLUID LOSS
MSS .               FLOWLINE : MUD SAMPLE SOURCE
RMS .OHMM               2.61 : RESISTIVITY MUD SAMPLE
MST .DEGF                 75 : MUD SAMPLE TEMPERATURE
RMF .OHMM               1.96 : RESISTIVITY MUD FILTRATE SAMPLE
MFST.DEGF                 75 : MUD FILTRATE SAMPLE TEMPERATURE
RMC .OHMM               3.26 : RESISTIVITY MUD CAKE
MCST.DEGF                 75 : MUD CAKE SAMPLE TEMPERATURE
MFSS.                   CALC : MUD FILTRATE SAMPLE SOURCE
MCSS.                   CALC : MUD CAKE SAMPLE SOURCE
RMB .OHMM               1.17 : RESISTIVITY MUD AT BHT
TCS .HRS                  11 : TIME CIRCULATED STOPPED
LUN .                   6304 : LOGGING UNIT NUMBER
LUL .                  BRYAN : LOGGING UNIT LOCATION
ENGI.                   KIRK : RECORDING ENGINEER
WITN.                PERKOLA : WITNESSED BY
CLNT.                A2DTECH : CLIENT CODE
ORIG.               5" PRINT : ORIGIN OF DATA
UWI .         42041308840000 : UNIQUE WELL ID
DICO. A2D Technologies, Inc. : DIGITIZING COMPANY
~Other -----------------------------------------------------
~ASCII -----------------------------------------------------
 3500.00000    0.23950   48.63660    -999.25    -999.25    -999.25    -999.25    -999.25    -999.25    -999.25
 3550.00000    0.34680   81.10700    0.16250    2.36410   12.46630    3.84270    4.36240    4.65460   -7.62440
 3600.00000    0.17210   49.53720    0.01100    2.61590    9.95710   31.12020   13.80240   25.04370  -28.52940
 3650.00000    0.28200   69.85070    0.24930    2.22830    9.36960    6.30570    4.89720    5.69580  -21.88600
 3700.00000    0.36130   84.50260    0.20350    2.30510   11.18640    3.10910    2.35350    2.75220   -4.07910
 3750.00000    0.30510   60.87340    0.27720    2.18280    9.21340    8.93780    3.98580    5.98590  -43.31050
 3800.00000    0.36870   83.53240    0.18510    2.33600   10.18100    2.80980    1.98720    2.10490   11.31060
 3850.00000    0.28890   71.47230    0.16360    2.37200    8.54380    3.65790    3.01370    3.44950  -14.91230
 3900.00000    0.32130   83.10280    0.18120    2.34260    9.88780    2.60320    2.28080    2.40700    4.53430
 3950.00000    0.28090   73.56710    0.15590    2.38500    8.78670    3.58280    2.85590    2.99190  -13.00550
 4000.00000    0.29640   74.36640    0.13750    2.41470    9.65210    2.61710    2.31080    2.44130    5.10570
 4050.00000    0.30310   78.91650    0.12420    2.43540   10.79450    2.48760    2.15240    2.27220    3.78120
 4100.00000    0.31840   83.54480    0.10660    2.45680   10.56710    2.48220    2.07230    2.19320    4.72500
 4150.00000    -999.25   81.29960    -999.25    -999.25    -999.25    2.60170    2.44850    2.59230   -0.18320
 4200.00000    -999.25   75.79770    -999.25    -999.25    -999.25    2.12960    1.77720    1.87110    6.40030
 4250.00000    -999.25   77.59410    -999.25    -999.25    -999.25    2.17040    1.56780    1.65540    6.88240
 4300.00000    -999.25   86.47030    -999.25    -999.25    -999.25    1.91850    1.41030    1.42340    7.27850
 4350.00000    -999.25   88.49590    -999.25    -999.25    -999.25    1.94070    1.48360    1.50710    6.79240
 4400.00000    -999.25   84.37320    -999.25    -999.25    -999.25    1.81860    1.26700    1.31260    7.59880
 4450.00000    -999.25   94.00920    -999.25    -999.25    -999.25    2.03910    1.62760    1.71740    7.28070
 4500.00000    -999.25   98.72970    -999.25    -999.25    -999.25    2.18940    1.67750    1.77380    3.74120
 4550.00000    -999.25   91.24280    -999.25    -999.25    -999.25    2.00410    1.62310    1.71260    5.12830
 4600.00000    -999.25   74.03200    -999.25    -999.25    -999.25    1.65560    1.02860    1.10260    9.24240
 4650.00000    -999.25   79.48050    -999.25    -999.25    -999.25    1.89160    1.42380    1.50220    7.42990
 4700.00000    -999.25   83.02340    -999.25    -999.25    -999.25    1.59700    1.05070    1.09300    7.52450
 4750.00000    -999.25   79.60490    -999.25    -999.25    -999.25    1.72110    1.37920    1.45520    5.84780
 4800.00000    -999.25   85.18620    -999.25    -999.25    -999.25    1.62500    1.22720    1.30140    5.83910
 4850.00000    -999.25   81.84170    -999.25    -999.25    -999.25    1.48680    0.91750    0.96810    7.55080
 4900.00000    -999.25   81.07910    -999.25    -999.25    -999.25    1.95920    1.67910    1.78690   -1.88990
 4950.00000    -999.25   85.55090    -999.25    -999.25    -999.25    1.67200    1.19350    1.26230    3.04140
 5000.00000    -999.25   90.52800    -999.25    -999.25    -999.25    1.59040    1.00560    1.06040    6.53330
 5050.00000    -999.25   80.62430    -999.25    -999.25    -999.25    1.61990    1.12710    1.18640    1.58330
 5100.00000    -999.25   75.58690    -999.25    -999.25    -999.25    1.58130    0.98440    1.03870    3.27100
 5150.00000    -999.25   83.34670    -999.25    -999.25    -999.25    1.61500    1.02220    1.05870    4.27880
 5200.00000    -999.25   81.73420    -999.25    -999.25    -999.25    1.61000    1.10380    1.14280    7.39720
 5250.00000    -999.25   76.21460    -999.25    -999.25    -999.25    2.02520    1.59050    1.67840    2.92120
 5300.00000    -999.25   81.30700    -999.25    -999.25    -999.25    2.12930    1.65170    1.74280    1.75810
 5350.00000    -999.25   77.37380    -999.25    -999.25    -999.25    2.12650    1.65210    1.74380    2.13890
 5400.00000    -999.25   53.49570    -999.25    -999.25    -999.25    3.38760    3.05020    3.22060   -2.77130
 5450.00000    -999.25   77.49600    -999.25    -999.25    -999.25    1.73410    1.28880    1.36050   11.19930
 5500.00000    -999.25   89.18390    -999.25    -999.25    -999.25    1.45920    1.01620    1.07420   13.12780
 5550.00000    -999.25   84.24250    -999.25    -999.25    -999.25    1.59770    1.21500    1.28190   12.83430
 5600.00000    -999.25   90.63540    -999.25    -999.25    -999.25    1.57320    1.15190    1.22050   13.83290
 5650.00000    -999.25   89.92830    -999.25    -999.25    -999.25    1.71920    1.27500    1.34540   13.80260
 5700.00000    -999.25   85.22590    -999.25    -999.25    -999.25    1.54070    1.12390    1.18600   15.02040
 5750.00000    -999.25   90.53280    -999.25    -999.25    -999.25    1.51570    1.04970    1.10820   10.65460
 5800.00000    -999.25   83.04580    -999.25    -999.25    -999.25    1.44020    0.96320    1.01620   12.09700
 5850.00000    -999.25   82.85050    -999.25    -999.25    -999.25    1.45320    0.98930    1.04400   12.32730
 5900.00000    -999.25   94.80860    -999.25    -999.25    -999.25    1.43370    0.94240    0.99430   15.67930
 5950.00000    -999.25   96.11260    -999.25    -999.25    -999.25    1.41410    0.94130    1.00660   16.13170
 6000.00000    -999.25   90.54890    -999.25    -999.25    -999.25    1.80820    1.41810    1.49670   10.35570
 6050.00000    -999.25  102.77160    -999.25    -999.25    -999.25    1.77020    1.28530    1.35680   12.29700
 6100.00000    -999.25   82.72020    -999.25    -999.25    -999.25    2.00910    1.61150    1.70210   11.83120
 6150.00000    -999.25  102.94950    -999.25    -999.25    -999.25    2.12740    1.79510    1.89490   12.75440
 6200.00000    -999.25   92.74100    -999.25    -999.25    -999.25    1.93600    1.49430    1.57660   12.17530
 6250.00000    -999.25   84.29760    -999.25    -999.25    -999.25    1.92850    1.76550    1.86580   14.26460
 6300.00000    -999.25   93.79770    -999.25    -999.25    -999.25    1.81690    1.28350    1.37900   14.14850
 6350.00000    -999.25   91.75640    -999.25    -999.25    -999.25    1.75020    1.22710    1.29630   15.11040
 6400.00000    -999.25   85.34800    -999.25    -999.25    -999.25    1.81700    1.26700    1.33680   12.66850
 6450.00000    -999.25   82.88610    -999.25    -999.25    -999.25    1.84070    1.29920    1.37180   13.52020
 6500.00000    -999.25   80.19060    -999.25    -999.25    -999.25    1.88210    1.29700    1.39190   14.16720
 6550.00000    -999.25   84.20330    -999.25    -999.25    -999.25    1.99460    1.37510    1.46190   13.24700
 6600.00000    -999.25   70.75240    -999.25    -999.25    -999.25    2.61770    2.16170    2.28670   13.21620
 6650.00000    -999.25   84.66010    -999.25    -999.25    -999.25    1.99440    1.39690    1.50300   14.06150
 6700.00000    -999.25   88.12950    -999.25    -999.25    -999.25    1.88370    1.32490    1.39840   14.53090
 6750.00000    -999.25   88.33330    -999.25    -999.25    -999.25    2.05540    1.51100    1.59870   13.28750
 6800.00000    -999.25   78.92740    -999.25    -999.25    -999.25    2.08850    1.54350    1.63200   16.12930
 6850.00000    -999.25   84.18670    -999.25    -999.25    -999.25    2.12580    1.58990    1.67770   13.05750
 6900.00000    -999.25   81.01150    -999.25    -999.25    -999.25    1.92660    1.34690    1.42100   15.42620
 6950.00000    -999.25   81.51560    -999.25    -999.25    -999.25    2.04150    1.44590    1.52550   17.08720
 7000.00000    -999.25   84.17780    -999.25    -999.25   12.73620    1.87030    1.30110    1.37350   17.23820
 7050.00000    0.20080   77.51020    0.11660    2.50800   12.59410    1.92960    1.26270    1.33240   18.74040
 7100.00000    0.22270   82.90680    0.11150    2.52070   11.13250    2.04520    1.46360    1.61810   18.68250
