~Version ---------------------------------------------------
VERS. 2.0 : CWLS log ASCII Standard -VERSION 2.0
WRAP.  NO : ONE LINE PER DEPTH STEP
~Well ------------------------------------------------------
STRT.F                         1500.0 : START DEPTH
STOP.F                         8950.0 : STOP DEPTH
STEP.F                       50.00000 : STEP LENGTH
NULL.                         -999.25 : NULL VALUE
COMP.        AMOCO PRODUCTION COMPANY : COMPANY
WELL. FRANK L. PATRANELLA UNIT B #1-U : WELL
FLD .                        BRYAN, N : FIELD
LOC .                                 : LOCATION
CNTY.                          BRAZOS : COUNTY
STAT.                           TEXAS : STATE
CTRY.        UNITED STATES OF AMERICA : COUNTRY
SRVC.                    Schlumberger : SERVICE COMPANY
DATE.                     27-Mar-1982 : LOGDATE
API .                  42041307560000 : API NUMBER
UWI .                  42041307560000 : UNIQUE WELL ID
SLAT.WGS84              30.7198358858 : SURFACE LATITUDE
SLON.WGS84             -96.3523405481 : SURFACE LONGITUDE
~Curve Information -----------------------------------------
DEPT   .F    0   1   0  0 : 1 MEASURED DEPTH
NPHI_SS.DEC  42 890 03 00 : NEUTRON POROSITY SANDSTONE
DPHI_SS.DEC  45 890 12 00 : DENSITY POROSITY SANDSTONE
NPHI_LS.DEC  42 890 01 00 : NEUTRON POROSITY LIMESTONE
DPHI_LS.DEC  45 890 10 00 : DENSITY POROSITY LIMESTONE
RHOB   .G/C3 45 350 01 00 : BULK DENSITY
DRHO   .G/C3 45 356 01 00 : BULK DENSITY CORRECTION
CALD   .IN   45 280 60 00 : CALIPER FROM DENSITY LOG
GRR    .GAPI 07 310 01 00 : GAMMA RAY FROM RESISTIVITY LOG
ILD    .OHMM 07 120 46 00 : INDUCTION DEEP RESISTIVITY
ILM    .OHMM 07 120 44 00 : INDUCTION MEDIUM RESISTIVITY
SFLU   .OHMM 07 220 01 00 : SHALLOW FOCUSED RESISTIVITY (UNAVERAGED)
SPR    .MV   07 010 01 00 : SPONTANEOUS POTENTIAL FROM RESISTIVITY LOG
~Params ----------------------------------------------------
PD  .                     GL : PERMANENT DATUM
EPD .FT                346.3 : ELEVATION PERMANENT DATUM
LMF .                     KB : LOG MEASURED FROM
DAPD.FT                 18.3 : FEET ABOVE PERMANENT DATUM
DMF .                     KB : DRILLING MEASURED FROM
EKB .FT                364.6 : KELLY BUSHING
EDF .FT                363.6 : DRILLING FLOOR
EGL .FT                346.3 : GROUND LEVEL
DATE.               03/27/82 : RUN DATE
RUN .                      1 : RUN NUMBER
DD  .FT                 8988 : DEPTH DRILLER
DL  .FT                 8989 : DEPTH LOGGER
BLI .FT                 8983 : BOTTOM LOG INTERVAL
TLI .FT                 1488 : TOP LOG INTERVAL
CS  .IN                9.625 : CASING SIZE
CBD .FT                 1523 : CASING BOTTOM DRILLER
CBL .FT                 1488 : CASING BOTTOM LOGGER
BS  .IN                 8.75 : BIT SIZE
BSD .FT                 8988 : BIT SIZE AT DEPTH
DFT .      GEL LIGNO CAUSTIC : DRILLING FLUID TYPE
DFD .                    9.7 : DRILLING FLUID DENSITY
DFV .                     42 : DRILLING FLUID VISCOSITY
DFPH.                    9.2 : DRILLING FLUID PH
DFL .                    7.5 : DRILLING FLUID LOSS
MSS .               FLOWLINE : MUD SAMPLE SOURCE
RMS .OHMM               3.21 : RESISTIVITY MUD SAMPLE
MST .DEGF                 70 : MUD SAMPLE TEMPERATURE
RMF .OHMM               3.39 : RESISTIVITY MUD FILTRATE SAMPLE
MFST.DEGF                 66 : MUD FILTRATE SAMPLE TEMPERATURE
RMC .OHMM               1.78 : RESISTIVITY MUD CAKE
MCST.DEGF                 66 : MUD CAKE SAMPLE TEMPERATURE
MFSS.                  PRESS : MUD FILTRATE SAMPLE SOURCE
MCSS.               MEASURED : MUD CAKE SAMPLE SOURCE
RMB .OHMM              1.229 : RESISTIVITY MUD AT BHT
TCS .HRS                1200 : TIME CIRCULATED STOPPED
TLAB.HRS                1900 : TIME LOGGER AT BOTTOM
LUN .                   8176 : LOGGING UNIT NUMBER
LUL .                BRENHAM : LOGGING UNIT LOCATION
ENGI.                MARANUK : RECORDING ENGINEER
WITN.                MINSHEW : WITNESSED BY
CLNT.                A2DTECH : CLIENT CODE
ORIG.            2" 5" PRINT : ORIGIN OF DATA
UWI .         42041307560000 : UNIQUE WELL ID
DICO. A2D Technologies, Inc. : DIGITIZING COMPANY
~Other -----------------------------------------------------
~ASCII -----------------------------------------------------
# ...
 4300.00000    0.33810    0.19340    -999.25    -999.25    2.33160    0.02190    8.94560   89.30830    3.01400    3.09340    3.99900   -8.66500
 4350.00000    0.38600    0.16340    -999.25    -999.25    2.37860    0.06520    9.43430   89.26840    2.17230    2.10790    2.35720   -6.00820
 4400.00000    0.34200    0.17600    -999.25    -999.25    2.35730    0.03590   10.21490   87.63990    2.15630    2.21910    2.26020   -5.10250
 4450.00000    0.34660    0.14570    -999.25    -999.25    2.41030    0.06170    9.94670   90.86700    2.00900    2.06280    2.06600   -6.28180
 4500.00000    0.35530    0.11330    -999.25    -999.25    2.45410    0.04580    9.15590   78.58220    2.36720    2.43180    2.58550   -7.30620
 4550.00000    0.35140    0.18640    -999.25    -999.25    2.34010    0.04440    9.56930   87.80960    2.33240    2.39820    2.47080   -9.25370
 4600.00000    0.35490    0.16750    -999.25    -999.25    2.36820    0.06690   10.05710   87.81910    2.07640    2.13080    2.20710   -7.74680
 4650.00000    0.33090    0.16180    -999.25    -999.25    2.37490    0.07760   11.10380   82.99410    2.31740    2.37850    2.26710   -8.77010
 4700.00000    0.42760    0.22190    -999.25    -999.25    2.29610    0.10020    8.64350   88.57320    1.61180    1.65380    1.76100   -6.77480
 4750.00000    0.39290    0.15720    -999.25    -999.25    2.39510    0.08340    8.70810   89.42060    1.74190    1.78820    1.89960   -6.95110
 4800.00000    0.38670    0.14420    -999.25    -999.25    2.41680    0.07210    8.92340   90.47910    1.60010    1.64210    1.76230   -5.98210
 4850.00000    0.40260    0.19140    -999.25    -999.25    2.33260    0.03840    8.87900   87.91630    1.45990    1.49620    1.64520   -7.37130
 4900.00000    0.41000    0.17940    -999.25    -999.25    2.34880    0.06360    9.53510   98.65680    1.26490    1.30820    1.43700   -8.66930
 4950.00000    0.37480    0.15130    -999.25    -999.25    2.40190    0.03420    9.79670  109.31980    1.51650    1.55860    1.56870   -6.92830
 5000.00000    0.35770    0.12060    -999.25    -999.25    2.44990    0.06220   10.00440  112.68500    1.79640    1.84430    1.88960   -7.59730
 5050.00000    0.32720    0.12420    -999.25    -999.25    2.44410    0.05880   10.23290  100.88760    1.74960    1.83480    1.88280   -8.76330
 5100.00000    0.36270    0.17000    -999.25    -999.25    2.37320    0.05760    9.84380   90.68530    1.40720    1.45630    1.52660   -6.79520
 5150.00000    0.30050    0.13740    -999.25    -999.25    2.42780    0.08580    9.67250   76.17910    1.68190    1.76590    1.86600   -8.09250
 5200.00000    0.33150    0.19910    -999.25    -999.25    2.32220    0.07470    9.43120   79.43050    1.29700    1.33890    1.42460   -5.88070
 5250.00000    0.38940    0.21440    -999.25    -999.25    2.29310    0.08270    8.92280   86.20720    0.91050    0.97780    1.01500   -4.55930
 5300.00000    0.35660    0.18490    -999.25    -999.25    2.35520    0.04360    8.99520   89.35780    1.10820    1.15690    1.24370   -6.13070
 5350.00000    0.33500    0.12040    -999.25    -999.25    2.45740    0.04460    9.97830   85.87420    1.17790    1.22950    1.33690   -5.72070
 5400.00000    0.36910    0.16060    -999.25    -999.25    2.38530    0.01210   10.38330   95.81390    0.97330    1.04240    0.99880   -5.05980
 5450.00000    0.31850    0.08370    -999.25    -999.25    2.50900    0.03720   10.08820   74.06760    1.62110    1.69220    2.20750  -13.88060
 5500.00000    0.36900    0.13890    -999.25    -999.25    2.42030    0.00760   10.87560   90.63440    1.21960    1.27770    1.34490  -13.69520
 5550.00000    0.40050    0.13410    -999.25    -999.25    2.43080    0.04140   10.25900   90.52550    1.06520    1.13460    1.17320  -11.44320
 5600.00000    0.40600    0.13770    -999.25    -999.25    2.42170    0.04640   10.27390   94.57010    0.99500    1.08420    1.13650   -9.54100
 5650.00000    0.40790    0.15800    -999.25    -999.25    2.38480    0.03850   10.06480   83.76690    0.99390    1.05790    1.17010  -11.03110
 5700.00000    0.40990    0.16260    -999.25    -999.25    2.38360    0.08410    8.97850   93.80340    1.00280    1.06800    1.12630   -6.26920
 5750.00000    0.37810    0.16780    -999.25    -999.25    2.37020    0.15750   10.67350   84.91380    1.12750    1.19450    1.30310   -7.75020
 5800.00000    0.33060    0.10450    -999.25    -999.25    2.47980    0.03770    9.88260   87.74630    1.63420    1.77160    1.79930   -8.93700
 5850.00000    0.37050    0.08060    -999.25    -999.25    2.53940    0.10580    9.39090   80.06310    1.67380    1.76760    1.97600   -9.15430
 5900.00000    0.30860    0.09690    -999.25    -999.25    2.49020   -0.00300    9.26940   77.78690    1.79740    1.90000    2.08870   -7.93110
 5950.00000    0.23350    0.07100    -999.25    -999.25    2.53310    0.00400    9.17310   54.70070    3.00380    3.10200    3.32770  -11.41870
 6000.00000    0.25920    0.07510    -999.25    -999.25    2.52140    0.00660    9.67720   71.61760    2.39390    2.46010    2.56420   -9.62230
 6050.00000    0.25900    0.12910    -999.25    -999.25    2.43820    0.03250   10.71340   93.37890    1.12490    1.15460    1.21380   -9.20000
 6100.00000    0.29050    0.12470    -999.25    -999.25    2.44520    0.08630   10.99880   96.14340    1.18830    1.23460    1.17800  -16.06660
 6150.00000    0.29280    0.12350    -999.25    -999.25    2.44930    0.04720   11.18320   96.11540    1.20790    1.25260    1.28280  -11.43990
 6200.00000    0.29710    0.11970    -999.25    -999.25    2.45110    0.05150   10.86080   97.38430    1.31620    1.36750    1.38730   -9.79750
 6250.00000    0.27130    0.14730    -999.25    -999.25    2.40750    0.03610   10.64470  115.95410    1.13380    1.11390    1.10440  -14.17200
 6300.00000    0.30160    0.11470    -999.25    -999.25    2.45350    0.05610   10.91540   93.60620    1.30870    1.35370    1.34390  -10.66390
 6350.00000    0.32670    0.13340    -999.25    -999.25    2.42870    0.07690   10.67260   85.94480    1.11440    1.19010    1.15050  -16.09460
 6400.00000    0.31460    0.12260    -999.25    -999.25    2.41710    0.03680   10.55350   80.31970    1.21400    1.29030    1.34240  -14.16640
 6450.00000    0.35070    0.18320    -999.25    -999.25    2.35160    0.05540    9.88490   96.64030    0.98680    1.02950    1.07480  -20.38120
 6500.00000    0.33650    0.13020    -999.25    -999.25    2.43590    0.08820    9.64630   98.30980    1.14870    1.21680    1.24890  -16.60690
 6550.00000    0.32920    0.13540    -999.25    -999.25    2.42100    0.02920   10.40570  106.48450    1.22470    1.28040    1.33310  -17.25360
 6600.00000    0.26830    0.09240    -999.25    -999.25    2.49890    0.05600   10.41750  108.70400    1.42910    1.54030    1.55340  -16.75610
 6650.00000    0.29050    0.14880    -999.25    -999.25    2.41330    0.01640   10.28550   98.97220    1.35290    1.44410    1.57770  -18.02380
 6700.00000    0.24330    0.08610    -999.25    -999.25    2.50650    0.04230   10.57430   99.93900    1.75670    1.83400    1.88280  -18.03030
 6750.00000    0.26770    0.11170    -999.25    -999.25    2.46790    0.05130   10.75320   95.38160    1.54230    1.64280    1.77190  -17.20830
 6800.00000    0.23110    0.09010    -999.25    -999.25    2.50310    0.03550   10.97120   98.35430    1.76000    1.83710    1.82030  -15.42910
 6850.00000    0.24640    0.10830    -999.25    -999.25    2.47240    0.04500   11.40600  103.68890    1.57720    1.66400    1.73170  -17.04840
 6900.00000    0.27460    0.14120    -999.25    -999.25    2.41890    0.05620   10.92340  107.88820    1.27540    1.37530    1.47950  -16.10840
 6950.00000    0.21920    0.07960    -999.25    -999.25    2.52100    0.06310    9.57800   90.77980    1.74730    1.96830    2.42580  -11.75500
 7000.00000    0.29380    0.11520    -999.25    -999.25    2.44280    0.06050   10.57190   91.84530    1.21400    1.29770    1.39540  -15.66210
 7050.00000    0.27200    0.10070    -999.25    -999.25    2.48540    0.04210   10.58330   83.06130    1.47790    1.58870    1.75560  -14.39340
