~Version ---------------------------------------------------
VERS. 2.0 : CWLS log ASCII Standard -VERSION 2.0
WRAP.  NO : ONE LINE PER DEPTH STEP
~Well ------------------------------------------------------
STRT.FT                   3250.0 : START DEPTH
STOP.FT                   7500.0 : STOP DEPTH
STEP.FT                 50.00000 : STEP LENGTH
NULL.                    -999.25 : NULL VALUE
COMP. CHAMPLIN EXPLORATION, INC. : COMPANY
WELL.        URNER-ELIAS UNIT #1 : WELL
FLD .                   GIDDINGS : FIELD
LOC .                            : LOCATION
CNTY.                    FAYETTE : COUNTY
STAT.                      TEXAS : STATE
CTRY.   UNITED STATES OF AMERICA : COUNTRY
SRVC.               Schlumberger : SERVICE COMPANY
DATE.                08-Jan-1981 : LOGDATE
API .             42149307960000 : API NUMBER
UWI .             42149307960000 : UNIQUE WELL ID
SLAT.WGS84         29.9677724595 : SURFACE LATITUDE
SLON.WGS84        -97.1114740856 : SURFACE LONGITUDE
~Curve Information -----------------------------------------
DEPT  .FT    : DEPTH FEET
DRHOED.G/C3  : DENSITY CORRECTION FROM DENSITY LOG
RHOBED.G/C3  : BULK DENSITY FROM DENSITY LOG
SPWS  .MV    : SPONTANEOUS POTENTIAL [BASELINE 0 MV] [SPRED]
GRWS  .GAPI  : GAMMA RAY [GRRED]
GRRED .GAPI  : GAMMA RAY FROM RESISTIVITY LOG
SPRED .MV    : SPONTANEOUS POTENTIAL FROM RESISTIVITY LOG
SFLUED.OHMM  : SPHERICALLY FOCUSED LOG RESISTIVITY
ILDED .OHMM  : INDUCTION LOG DEEP RESISTIVITY
ILMED .OHMM  : INDUCTION LOG MEDIUM RESISTIVITY
DCALED.IN    : DIFFERENTIAL CALIPER FROM DENSITY LOG
NPHIED.V/V   : NEUTRON POROSITY LIMESTONE FROM DENSITY LOG [DEPTH ADJ TO RES LOG]
DPHIED.V/V   : DENSITY POROSITY [M=2.71 F=1.0] FROM DENSITY LOG
CALRED.IN    : CALIPER FROM RESISTIVITY LOG
CALWS .IN    : CALIPER [CALRED]
DCORWS.G/C3  : DENSITY CORRECTION [DRHOED]
DRESWS.OHMM  : DEEP RESISTIVITY [ILDED]
MRESWS.OHMM  : MEDIUM RESISTIVITY [ILMED]
SRESWS.OHMM  : SHALLOW RESISTIVITY [SFLUED]
CONDWS.MMHO  : CONDUCTIVITY [1000/DRESWS]
NPOWS .V/V   : NEUTRON POROSITY [NPHIED]
DENWS .G/C3  : BULK DENSITY [M=2.71 F=1] [CALCULATED FROM DPHIED]
DPOWS .V/V   : DENSITY POROSITY [M=2.71 F=1] [CALCULATED FROM DENWS]
~Params ----------------------------------------------------
PD  .                     GL : PERMANENT DATUM
EPD .FT                  302 : ELEVATION PERMANENT DATUM
LMF .                    RKB : LOG MEASURED FROM
DAPD.FT                   15 : FEET ABOVE PERMANENT DATUM
DMF .                    RKB : DRILLING MEASURED FROM
EKB .FT                  317 : KELLY BUSHING
EDF .FT                  316 : DRILLING FLOOR
EGL .FT                  302 : GROUND LEVEL
DATE.               01/08/81 : RUN DATE
RUN .                      1 : RUN NUMBER
DD  .FT                 7528 : DEPTH DRILLER
DL  .FT                 7532 : DEPTH LOGGER
BLI .FT                 7526 : BOTTOM LOG INTERVAL
TLI .FT                 3242 : TOP LOG INTERVAL
CS  .IN                8.625 : CASING SIZE
CBD .FT                 3250 : CASING BOTTOM DRILLER
CBL .FT                 3242 : CASING BOTTOM LOGGER
BS  .IN                7.875 : BIT SIZE
BSD .FT                 7528 : BIT SIZE AT DEPTH
DFT .         LIGNOSULFONATE : DRILLING FLUID TYPE
DFD .                    9.2 : DRILLING FLUID DENSITY
DFV .                     29 : DRILLING FLUID VISCOSITY
DFPH.                     10 : DRILLING FLUID PH
DFL .                    6.5 : DRILLING FLUID LOSS
MSS .               CIRC PIT : MUD SAMPLE SOURCE
RMS .OHMM               2.12 : RESISTIVITY MUD SAMPLE
MST .DEGF                 65 : MUD SAMPLE TEMPERATURE
RMF .OHMM               2.26 : RESISTIVITY MUD FILTRATE SAMPLE
MFST.DEGF                 65 : MUD FILTRATE SAMPLE TEMPERATURE
RMC .OHMM               1.45 : RESISTIVITY MUD CAKE
MCST.DEGF                 65 : MUD CAKE SAMPLE TEMPERATURE
MFSS.                   MEAS : MUD FILTRATE SAMPLE SOURCE
MCSS.                   CALC : MUD CAKE SAMPLE SOURCE
RMB .OHMM               0.78 : RESISTIVITY MUD AT BHT
TCS .HRS                 600 : TIME CIRCULATED STOPPED
TLAB.HRS                1230 : TIME LOGGER AT BOTTOM
LUN .                   8102 : LOGGING UNIT NUMBER
LUL .               CARTHAGE : LOGGING UNIT LOCATION
ENGI.                 MCSHAN : RECORDING ENGINEER
WITN.                BECKHAM : WITNESSED BY
CLNT.                A2DTECH : CLIENT CODE
ORIG.            2" 5" PRINT : ORIGIN OF DATA
UWI .         42149307960000 : UNIQUE WELL ID
DICO. A2D Technologies, Inc. : DIGITIZING COMPANY
~Other -----------------------------------------------------
ALL LOGS RUN IN COMBO
~ASCII -----------------------------------------------------
 3250.00000    -999.25    -999.25  -10.35330   44.09320   44.09320  -33.42030    7.12450    4.33210    6.01020    2.69150    -999.25    -999.25   10.56650   10.56650    -999.25    4.33210    6.01020    7.12450  230.83490    -999.25    -999.25    -999.25
 3300.00000    -999.25    -999.25   -3.28190   80.02880   80.02880  -16.64540    2.00350    2.02620    2.05730    2.12980    -999.25    -999.25   10.00480   10.00480    -999.25    2.02620    2.05730    2.00350  493.53470    -999.25    -999.25    -999.25
 3350.00000    -999.25    -999.25  -19.27060   57.95590   57.95590  -33.82250    5.18300    3.99240    4.60560    2.36030    -999.25    -999.25   10.23530   10.23530    -999.25    3.99240    4.60560    5.18300  250.47590    -999.25    -999.25    -999.25
 3400.00000    -999.25    -999.25  -42.66520   30.16880   30.16880  -58.23310    7.85320    4.19010    5.55850    3.08410    -999.25    -999.25   10.95910   10.95910    -999.25    4.19010    5.55850    7.85320  238.65780    -999.25    -999.25    -999.25
 3450.00000    -999.25    -999.25  -48.14840   30.18730   30.18730  -62.80040    6.75190    3.16250    4.05090    1.99200    -999.25    -999.25    9.86700    9.86700    -999.25    3.16250    4.05090    6.75190  316.20550    -999.25    -999.25    -999.25
 3500.00000    -999.25    -999.25  -47.03000   40.15040   40.15040  -60.76620    7.61520    3.19440    4.31100    1.92010    -999.25    -999.25    9.79510    9.79510    -999.25    3.19440    4.31100    7.61520  313.04780    -999.25    -999.25    -999.25
 3550.00000    -999.25    -999.25  -19.35580   86.97430   86.97430  -32.45380    7.62230    4.72970    5.48010    2.03770    -999.25    -999.25    9.91270    9.91270    -999.25    4.72970    5.48010    7.62230  211.42990    -999.25    -999.25    -999.25
 3600.00000    -999.25    -999.25  -46.12690   65.35240   65.35240  -59.12570    8.11470    3.41130    4.85040    0.52940    -999.25    -999.25    8.40440    8.40440    -999.25    3.41130    4.85040    8.11470  293.14340    -999.25    -999.25    -999.25
 3650.00000    -999.25    -999.25  -29.02910   64.83070   64.83070  -41.92870    6.08190    3.73670    4.48580    2.26540    -999.25    -999.25   10.14040   10.14040    -999.25    3.73670    4.48580    6.08190  267.61580    -999.25    -999.25    -999.25
 3700.00000    -999.25    -999.25  -11.25290   77.59080   77.59080  -24.05340    4.18600    3.54850    3.80580    1.95640    -999.25    -999.25    9.83140    9.83140    -999.25    3.54850    3.80580    4.18600  281.80920    -999.25    -999.25    -999.25
 3750.00000    -999.25    -999.25  -21.82740   73.87870   73.87870  -34.52870    3.83420    2.94080    3.48550    1.27910    -999.25    -999.25    9.15410    9.15410    -999.25    2.94080    3.48550    3.83420  340.04350    -999.25    -999.25    -999.25
 3800.00000    -999.25    -999.25  -21.56080   70.99400   70.99400  -34.16290    4.58810    3.43780    3.89100    1.48820    -999.25    -999.25    9.36320    9.36320    -999.25    3.43780    3.89100    4.58810  290.88370    -999.25    -999.25    -999.25
 3850.00000    -999.25    -999.25  -49.92060   53.52280   53.52280  -62.42350    7.33280    2.89460    3.99810    1.18060    -999.25    -999.25    9.05560    9.05560    -999.25    2.89460    3.99810    7.33280  345.47090    -999.25    -999.25    -999.25
 3900.00000    -999.25    -999.25  -58.24960   50.30830   50.30830  -70.65330    6.88260    2.50960    3.31960    0.58290    -999.25    -999.25    8.45790    8.45790    -999.25    2.50960    3.31960    6.88260  398.46990    -999.25    -999.25    -999.25
 3950.00000    -999.25    -999.25  -46.43360   69.68760   69.68760  -58.73810    6.97530    2.82170    3.45470    0.58480    -999.25    -999.25    8.45980    8.45980    -999.25    2.82170    3.45470    6.97530  354.39630    -999.25    -999.25    -999.25
 4000.00000    -999.25    -999.25  -44.56490   61.11230   61.11230  -56.94050   18.43820    4.46630    6.02360    0.39890    -999.25    -999.25    8.27390    8.27390    -999.25    4.46630    6.02360   18.43820  223.89900    -999.25    -999.25    -999.25
 4050.00000    -999.25    -999.25  -39.39600   85.41320   85.41320  -51.94270    5.86830    2.54040    3.00980    0.01170    -999.25    -999.25    7.88670    7.88670    -999.25    2.54040    3.00980    5.86830  393.63880    -999.25    -999.25    -999.25
 4100.00000    -999.25    -999.25  -56.44340   67.43480   67.43480  -69.16110    5.54620    1.99410    2.34240   -0.37180    -999.25    -999.25    7.50320    7.50320    -999.25    1.99410    2.34240    5.54620  501.47940    -999.25    -999.25    -999.25
 4150.00000    -999.25    -999.25  -10.53440  102.93290  102.93290  -23.42320    3.70160    2.92130    3.05600   -0.07380    -999.25    -999.25    7.80120    7.80120    -999.25    2.92130    3.05600    3.70160  342.31340    -999.25    -999.25    -999.25
 4200.00000    -999.25    -999.25   -9.27050   79.47750   79.47750  -22.33040    6.00690    3.85240    4.30220    0.04510    -999.25    -999.25    7.92010    7.92010    -999.25    3.85240    4.30220    6.00690  259.57840    -999.25    -999.25    -999.25
 4250.00000    -999.25    -999.25  -26.45330   82.41080   82.41080  -39.19960    6.83750    3.12200    3.43740    0.28680    -999.25    -999.25    8.16180    8.16180    -999.25    3.12200    3.43740    6.83750  320.30750    -999.25    -999.25    -999.25
 4300.00000    -999.25    -999.25   -9.41620   90.00980   90.00980  -21.49790    3.99130    3.23740    3.37580    0.76830    -999.25    -999.25    8.64330    8.64330    -999.25    3.23740    3.37580    3.99130  308.88980    -999.25    -999.25    -999.25
 4350.00000    -999.25    -999.25  -13.41630   94.57590   94.57590  -24.88440    4.55140    3.05240    3.30000    0.28000    -999.25    -999.25    8.15500    8.15500    -999.25    3.05240    3.30000    4.55140  327.61110    -999.25    -999.25    -999.25
 4400.00000    -999.25    -999.25   -0.07040   87.93420   87.93420  -10.95480    2.89550    2.59230    2.69730    0.74930    -999.25    -999.25    8.62430    8.62430    -999.25    2.59230    2.69730    2.89550  385.75780    -999.25    -999.25    -999.25
 4450.00000    -999.25    -999.25   -0.99850   88.89150   88.89150  -11.29500    2.52870    2.29960    2.35130    1.12790    -999.25    -999.25    9.00290    9.00290    -999.25    2.29960    2.35130    2.52870  434.85820    -999.25    -999.25    -999.25
 4500.00000    -999.25    -999.25   -1.00930   88.70740   88.70740  -10.71200    3.01380    2.50240    2.57270    1.40480    -999.25    -999.25    9.27980    9.27980    -999.25    2.50240    2.57270    3.01380  399.61640    -999.25    -999.25    -999.25
 4550.00000    -999.25    -999.25   -1.42890   90.18440   90.18440  -10.53790    2.17820    1.78970    1.85290    1.53740    -999.25    -999.25    9.41240    9.41240    -999.25    1.78970    1.85290    2.17820  558.75290    -999.25    -999.25    -999.25
 4600.00000    -999.25    -999.25   -0.57940   92.27930   92.27930  -14.57510    2.33900    2.07600    2.13870    1.32000    -999.25    -999.25    9.19500    9.19500    -999.25    2.07600    2.13870    2.33900  481.69560    -999.25    -999.25    -999.25
 4650.00000    -999.25    -999.25   -1.26220   99.57500   99.57500  -15.25790    1.80480    1.48740    1.54690    1.58400    -999.25    -999.25    9.45900    9.45900    -999.25    1.48740    1.54690    1.80480  672.31410    -999.25    -999.25    -999.25
 4700.00000    -999.25    -999.25   -0.68410  100.77030  100.77030  -19.72980    1.81880    1.50830    1.57500    2.22910    -999.25    -999.25   10.10410   10.10410    -999.25    1.50830    1.57500    1.81880  662.99810    -999.25    -999.25    -999.25
 4750.00000    -999.25    -999.25   -1.06560   96.01300   96.01300  -18.98870    1.74730    1.45740    1.50300    2.38950    -999.25    -999.25   10.26450   10.26450    -999.25    1.45740    1.50300    1.74730  686.15340    -999.25    -999.25    -999.25
 4800.00000    -999.25    -999.25   -1.46260   89.77920   89.77920  -19.69090    1.80210    1.50890    1.56370    2.12220    -999.25    -999.25    9.99720    9.99720    -999.25    1.50890    1.56370    1.80210  662.73440    -999.25    -999.25    -999.25
