~Version ---------------------------------------------------
VERS. 2.0 : CWLS log ASCII Standard -VERSION 2.0
WRAP.  NO : ONE LINE PER DEPTH STEP
~Well ------------------------------------------------------
STRT.F                  2050.0 : START DEPTH
STOP.F                 11000.0 : STOP DEPTH
STEP.F                50.00000 : STEP LENGTH
NULL.                  -999.25 : NULL VALUE
COMP.     GULF OIL CORPORATION : COMPANY
WELL. WEGNER ET AL GAS UNIT #2 : WELL
FLD .                  FASHING : FIELD
LOC .                          : LOCATION
CNTY.                 ATASCOSA : COUNTY
STAT.                    TEXAS : STATE
CTRY. UNITED STATES OF AMERICA : COUNTRY
SRVC.                    Welex : SERVICE COMPANY
DATE.              25-Jun-1984 : LOGDATE
API .           42013326640000 : API NUMBER
UWI .           42013326640000 : UNIQUE WELL ID
SLAT.WGS84       28.8259967076 : SURFACE LATITUDE
SLON.WGS84      -98.1487949406 : SURFACE LONGITUDE
~Curve Information -----------------------------------------
DEPT.F                 : 
GURD.OHMM 07 220 05 00 : GUARD RESISITIVITY
ILD .OHMM 07 120 46 00 : INDUCTION DEEP RESISTIVITY
ILM .OHMM 07 120 44 00 : INDUCTION MEDIUM RESISTIVITY
SPR .MV   07 010 01 00 : SPONTANEOUS POTENTIAL FROM RESISTIVITY LOG
CALR.IN   07 280 01 00 : CALIPER FROM RESISTIVITY LOG
DT  .US/F 60 500 00 00 : DELTA-T (INTERVAL TRANSIT TIME)
GRD .GAPI 45 310 01 00 : GAMMA RAY FROM DENSITY LOG
RHOB.G/C3 45 350 01 00 : BULK DENSITY
CORR.G/C3 45 356 01 00 : DENSITY CORRECTION
NPOR.DEC  42 890 01 00 : ENHANCED THERMAL NEUTRON POROSITY IN SELECTED LITHOLOGY
DPOR.DEC  45 890 10 00 : DENSITY POROSITY
~Params ----------------------------------------------------
PD  .                     GL : PERMANENT DATUM
EPD .FT                584.9 : ELEVATION PERMANENT DATUM
LMF .                     KB : LOG MEASURED FROM
DAPD.FT                 18.5 : FEET ABOVE PERMANENT DATUM
DMF .                     KB : DRILLING MEASURED FROM
EKB .FT                523.4 : KELLY BUSHING
EDF .FT                522.4 : DRILLING FLOOR
EGL .FT                504.9 : GROUND LEVEL
DATE.               08/25/84 : RUN DATE
RUN .                      1 : RUN NUMBER
DD  .FT                11010 : DEPTH DRILLER
DL  .FT                11029 : DEPTH LOGGER
BLI .FT                11028 : BOTTOM LOG INTERVAL
TLI .FT                 2029 : TOP LOG INTERVAL
CS  .IN                9.625 : CASING SIZE
CBD .FT                 2020 : CASING BOTTOM DRILLER
CBL .FT                 2023 : CASING BOTTOM LOGGER
BS  .IN                  8.5 : BIT SIZE
BSD .FT                11010 : BIT SIZE AT DEPTH
DFT .              BENEX MUD : DRILLING FLUID TYPE
DFD .                    1.2 : DRILLING FLUID DENSITY
DFV .                     42 : DRILLING FLUID VISCOSITY
DFPH.                   10.8 : DRILLING FLUID PH
DFL .                    3.8 : DRILLING FLUID LOSS
MSS .                    PIT : MUD SAMPLE SOURCE
RMS .OHMM               2.06 : RESISTIVITY MUD SAMPLE
MST .DEGF                 75 : MUD SAMPLE TEMPERATURE
RMF .OHMM               2.55 : RESISTIVITY MUD FILTRATE SAMPLE
MFST.DEGF                 75 : MUD FILTRATE SAMPLE TEMPERATURE
RMC .OHMM               2.49 : RESISTIVITY MUD CAKE
MCST.DEGF                 75 : MUD CAKE SAMPLE TEMPERATURE
MFSS.               MEASURED : MUD FILTRATE SAMPLE SOURCE
MCSS.               MEASURED : MUD CAKE SAMPLE SOURCE
RMB .OHMM               0.92 : RESISTIVITY MUD AT BHT
TCS .HRS                  14 : TIME CIRCULATED STOPPED
TLAB.HRS                1300 : TIME LOGGER AT BOTTOM
LUN .                   2903 : LOGGING UNIT NUMBER
LUL .                  BRYAN : LOGGING UNIT LOCATION
ENGI.                  SHARP : RECORDING ENGINEER
WITN.  ZDENEK TEPPER CALLENS : WITNESSED BY
CLNT.                A2DTECH : CLIENT CODE
ORIG.            2" 5" PRINT : ORIGIN OF DATA
UWI .         42013326640000 : UNIQUE WELL ID
DICO. A2D Technologies, Inc. : DIGITIZING COMPANY
~Other -----------------------------------------------------
~ASCII -----------------------------------------------------
# ...
 8150.00000    7.38430    5.67660    5.57110  -27.72680    9.60130    -999.25    -999.25    -999.25    -999.25    -999.25    -999.25
 8200.00000    8.41100    6.82180    6.69870  -25.48460    9.57240    -999.25    -999.25    -999.25    -999.25    -999.25    -999.25
 8250.00000    6.80700    5.36920    5.25470  -25.37820   10.35400    -999.25    -999.25    -999.25    -999.25    -999.25    -999.25
 8300.00000    6.80100    5.40030    5.24900  -25.18920   10.25290    -999.25    -999.25    -999.25    -999.25    -999.25    -999.25
 8350.00000    6.85850    5.30090    5.19400  -25.05580    9.27220    -999.25    -999.25    -999.25    -999.25    -999.25    -999.25
 8400.00000    7.55370    6.13110    5.96860  -25.30880    8.89740    -999.25    -999.25    -999.25    -999.25    -999.25    -999.25
 8450.00000    7.62230    6.45630    6.04440  -25.20220    8.85980    -999.25    -999.25    -999.25    -999.25    -999.25    -999.25
 8500.00000    7.53510    5.98940    5.81690  -25.01730    9.13530    -999.25    -999.25    -999.25    -999.25    -999.25    -999.25
 8550.00000    7.52680    6.05860    5.97550  -24.76370    9.16710    -999.25    -999.25    -999.25    -999.25    -999.25    -999.25
 8600.00000    7.88090    6.18000    5.93400  -23.17870    9.42670    -999.25    -999.25    -999.25    -999.25    -999.25    -999.25
 8650.00000    9.91280    8.12920    7.98910  -19.89280    8.98920    -999.25    -999.25    -999.25    -999.25    -999.25    -999.25
 8700.00000   10.27000    8.18130    8.03010  -20.14870    8.80620    -999.25    -999.25    -999.25    -999.25    -999.25    -999.25
 8750.00000    8.38920    6.68270    6.59890  -20.56770    9.18250    -999.25    -999.25    -999.25    -999.25    -999.25    -999.25
 8800.00000    9.02490    7.06380    6.93480  -19.73280    9.09550    -999.25    -999.25    -999.25    -999.25    -999.25    -999.25
 8850.00000    8.47640    6.92030    6.73620  -22.16760    9.75140    -999.25    -999.25    -999.25    -999.25    -999.25    -999.25
 8900.00000    8.35650    6.99360    6.89470  -20.97220    9.61570    -999.25    -999.25    -999.25    -999.25    -999.25    -999.25
 8950.00000    8.69660    7.05330    6.93010  -20.28100    9.62230    -999.25    -999.25    -999.25    -999.25    -999.25    -999.25
 9000.00000    8.24540    6.77720    6.62230  -20.57280    9.66700    -999.25    -999.25    -999.25    -999.25    -999.25    -999.25
 9050.00000    8.18390    6.90640    6.76730  -19.67880    9.73120    -999.25    -999.25    -999.25    -999.25    -999.25    -999.25
 9100.00000    8.30360    6.88470    6.80200  -20.08410   10.19920    -999.25    -999.25    -999.25    -999.25    -999.25    -999.25
 9150.00000    8.20940    6.87960    6.77470  -20.23630   10.29020   83.76860   92.72030    2.42460    0.04700    0.22750    0.16620
 9200.00000    8.51180    7.03950    6.90880  -18.66480   10.88580   80.41930   93.10920    2.52190    0.05970    0.21080    0.11100
 9250.00000    7.98740    6.48460    6.36270  -16.70460   10.75100   88.23220  109.68680    2.40290    0.05660    0.23090    0.17630
 9300.00000    8.05490    6.69380    6.59010  -19.42950   11.67050   81.25350   92.80490    2.35920    0.08930    0.22780    0.20570
 9350.00000    8.17670    6.82290    6.65670  -18.60200   12.13990   79.86280   90.59500    2.36940    0.12580    0.23450    0.19780
 9400.00000    7.64870    6.58060    6.41060  -17.67960   12.91530   80.01100   86.20130    2.37090    0.13380    0.22880    0.19780
 9450.00000    7.87790    6.65880    6.49600  -16.57770   13.10630   80.93610  164.35180    2.35250    0.09910    0.22370    0.20940
 9500.00000    7.90930    6.62710    6.47440  -15.61730   12.81250   83.24260  100.67270    2.19640    0.11100    0.24460    0.29990
 9550.00000    7.73820    6.54750    6.40290  -15.40900   13.47530   89.35390   74.15060    2.09730    0.12160    0.25460    0.35840
 9600.00000    8.63210    7.10210    6.96850  -15.51990   12.21910   90.14570   82.04010    2.21720    0.14600    0.23230    0.28150
 9650.00000    8.54570    7.06250    6.99490  -15.64080   12.55190   77.72670   87.29280    2.33850    0.15550    0.23150    0.21410
 9700.00000    8.22860    6.77720    6.71450  -15.22110   11.57720   78.18820   97.27910    2.40550    0.12470    0.22140    0.17730
 9750.00000    8.55190    7.04190    6.97670  -14.74800   11.30510   80.60960   93.24780    2.44730    0.09720    0.22130    0.15360
 9800.00000    8.61740    7.09560    7.02910  -14.09150   11.80270   81.75620   92.17660    2.41550    0.10660    0.22400    0.17230
 9850.00000    8.36390    6.99650    6.93160  -14.43640   12.48530   85.43230   97.25660    2.29390    0.14300    0.23320    0.24220
 9900.00000    8.25300    6.79470    6.73020  -14.27940   11.25310   81.28590   96.54410    2.30620    0.11940    0.23010    0.23850
 9950.00000   10.06640    8.41000    8.52110  -15.39680   11.58950   71.34830   78.78450    2.46010    0.09990    0.17400    0.14310
 10000.00000   12.58340   10.33690   10.52440  -15.63960    9.95420   71.29430   76.02810    2.60990    0.01250    0.09250    0.06030
 10050.00000   12.12550    9.37680    9.52660  -15.01300   10.78830   72.61520   77.60260    2.55380    0.00860    0.19220    0.09490
 10100.00000   12.52530   10.68460   11.07110  -20.94750   10.76350   68.37790   45.17000    2.58070    0.04100    0.08720    0.07040
 10150.00000   12.96300   10.15590   10.26940  -21.25080   10.50080   74.75870   52.65600    2.38830   -0.02650    0.09990    0.19480
 10200.00000   12.77540   12.06460   12.90070  -31.89710    9.59740   58.56450   21.83920    2.61730    0.02170    0.03420    0.03910
 10250.00000   17.84980   15.48860   15.87490  -35.50740   10.32340   61.50220   45.04180    2.59340   -0.00880    0.05510    0.06830
 10300.00000   23.10020   15.40430   16.15790  -32.32260   10.00280   72.51070   45.69930    2.47470   -0.04020    0.13570    0.13300
 10350.00000   23.46930   20.55890   21.15290  -52.95490   10.54280   78.68640   85.41410    2.43970    0.03960    0.19460    0.16190
 10400.00000   31.28450   24.71790   25.83090  -63.80790   10.60940   71.35450   65.00470    2.40990    0.03410    0.17980    0.17520
 10450.00000   53.83450   29.60800   30.44310  -87.67180   10.23290   52.69210   22.93320    2.60090    0.11230    0.02360    0.06250
 10500.00000   23.06060   17.99520   17.70160  -49.18990   10.84910   58.71850   50.98800    2.53800    0.12660    0.07170    0.10020
 10550.00000   98.25140   35.41050   39.44760 -115.60050   10.14500   49.91860   18.68870    2.58340    0.06570    0.01290    0.07470
 10600.00000   34.29720   22.84170   24.32330  -66.00190    9.26860   52.79480   25.35450    2.63080   -0.00340    0.02620    0.04610
 10650.00000   43.51430   28.13990   29.63930  -57.20420    8.62510   50.56670   32.12960    2.65490    0.02720    0.02020    0.03540
 10700.00000  200.08820   51.36770   78.39690 -171.08470    7.77280   55.64080   23.26730    2.43500    0.10200    0.05070    0.15990
 10750.00000  154.92590   71.21310   56.29370 -164.90520    7.88620   61.36790   36.09470    2.43970    0.09160    0.10700    0.16190
 10800.00000   85.54870   50.05720   56.93930 -147.42350    7.80270   59.74540   20.60210    2.39600    0.05550    0.09210    0.18530
 10850.00000   30.78310   14.56020   20.19870 -134.39770    8.04740   59.22990   31.32880    2.48210    0.10000    0.12330    0.13900
 10900.00000   45.69980   18.68720   22.96700 -124.06060    7.94640   55.34710   28.57600    2.58560    0.02690    0.02650    0.06140
 10950.00000   45.27100   22.61010   23.59020 -122.97930    8.12510   53.47190   28.83730    2.62690    0.03630    0.01760    0.05000
 11000.00000   46.59000   23.47980   19.56930 -122.80240    8.07140   53.96860    -999.25    2.43080    0.10750    -999.25    0.15990
