~Version ---------------------------------------------------
VERS.      2.0 : CWLS log ASCII Standard -VERSION 2.0
WRAP.      YES : Multiple lines per depth step
CREA. 01/03/18 : LAS Creation Date
~Well ------------------------------------------------------
STRT.FT                         300.0 : START DEPTH
STOP.FT                        9400.0 : STOP DEPTH
STEP.FT                      50.00000 : STEP LENGTH
NULL.                         -999.25 : NULL VALUE
COMP. UNION PACIFIC RESOURCES COMPANY : COMPANY
WELL.         TILICEK-TILICEK UNIT #1 : WELL
FLD .                        GIDDINGS : FIELD
LOC .                                 : LOCATION
CNTY.                         FAYETTE : COUNTY
STAT.                           TEXAS : STATE
CTRY.        UNITED STATES OF AMERICA : COUNTRY
SRVC.                    Schlumberger : SERVICE COMPANY
DATE.                     03-Sep-1991 : LOGDATE
API .                  42149324840000 : API NUMBER
UWI .                  42149324840000 : UNIQUE WELL ID
SLAT.WGS84              29.8012186187 : SURFACE LATITUDE
SLON.WGS84             -97.0895436393 : SURFACE LONGITUDE
~Curve Information -----------------------------------------
DEPT    .FT    : DEPTH FEET
CALWS   .IN    : CALIPER [DCALRED+BIT]
CONDWS  .MMHO  : CONDUCTIVITY [1000/DRESWS]
DCALRED .IN    : DIFFERENTIAL CALIPER FROM PI-SFL-DENSITY-NEUTRON-GR LOG
DCORWS  .G/C3  : DENSITY CORRECTION [DRHOED]
DENWS   .G/C3  : FORMATION BULK DENSITY [CALC. FROM DPOSSWS M=2.65,F=1.0]
DPHISSED.V/V   : DENSITY POROSITY SANDSTONE [M=2.65,F=1.0] FROM PI-SFL-DENSITY-NEUTRON-GR LOG
DPOSSWS .V/V   : DENSITY POROSITY SANDSTONE [DPHISSED]
DRESWS  .OHMM  : DEEP RESISTIVITY [TOP ILDED 8695' IDPHED]
DRHOED  .G/C3  : DENSITY CORRECTION FROM PI-SFL-DENSITY-NEUTRON-GR LOG
GRRED   .GAPI  : GAMMA RAY FROM DIL-SFL-GR <8692'> PI-SFL-DENSITY-NEUTRON-GR LOG
GRWS    .GAPI  : GAMMA RAY [GRRED]
IDPHED  .OHMM  : DEEP RESISTIVITY FROM PI-SFL-DENSITY-NEUTRON-GR LOG
ILDED   .OHMM  : DEEP RESISTIVITY FROM DIL-SFL-GR LOG
ILMED   .OHMM  : MEDIUM INDUCTION FROM DIL-SFL-GR LOG
IMPHED  .OHMM  : MEDIUM INDUCTION FROM PI-SFL-DENSITY-NEUTRON-GR LOG
MRESWS  .OHMM  : MEDIUM RESISTIVITY [TOP ILMED 8695' IMPHED]
NPHISSED.V/V   : NEUTRON POROSITY SANDSTONE FROM PI-SFL-DENSITY-NEUTRON-GR LOG
NPOSSWS .V/V   : NEUTRON POROSITY SANDSTONE [NPHISSED]
SFLED   .OHMM  : SPHERICALLY FOCUSED LOG UNAVERAGED RESISTIVITY FROM PI-SFL-DENSITY-NEUTRON-GR LOG
SFLUED  .OHMM  : SPHERICALLY FOCUSED LOG UNAVERAGED RESISTIVITY FROM DIL-SFL-GR LOG
SPRED   .MV    : SPONTANEOUS POTENTIAL FROM DIL-SFL-GR <8692'> PI-SFL-DENSITY-NEUTRON-GR LOG
SPWS    .MV    : SPONTANEOUS POTENTIAL [BASELINE 0 MV, SPRED]
SRESWS  .OHMM  : SHALLOW RESISTIVITY [TOP SFLUED 8692' SFLED]
TENRED  .LBF   : TENSION FROM DIL-SFL-GR <8692'> PI-SFL-DENSITY-NEUTRON-GR LOG
~Params ----------------------------------------------------
PD  .                     GL : PERMANENT DATUM
EPD .F                   381 : ELEVATION PERMANENT DATUM
LMF .                    RKB : LOG MEASURED FROM
DAPD.F                    25 : FEET ABOVE PERMANENT DATUM
DMF .                    RKB : DRILLING MEASURED FROM
EKB .F                   406 : KELLING BUSHING
EDF .F                   405 : DRILLING FLOOR
EGL .F                   381 : GROUND LEVEL
DATE.               09/03/91 : RUN DATE
RUN .                      2 : RUN NUMBER
DD  .F                  9445 : DEPTH DRILLER
DL  .F                  9442 : DEPTH LOGGER
BLI .F                  9436 : BOTTOM LOG INTERVAL
TLI .F                  8692 : TOP LOG INTERVAL
CS  .IN                7.625 : CASING SIZE
CBD .F                  8700 : CASING BOTTOM DRILLER
CBL .F                  8692 : CASING BOTTOM LOGGER
BS  .IN                 6.75 : BIT SIZE
BSD .F                  9445 : BIT SIZE AT DEPTH
DFT .             GEL  BENEX : DRILLING FLUID TYPE
DFD .                    9.5 : DRILLING FLUID DENSITY
DFV .                     39 : DRILLING FLUID VISCOSITY
DFPH.                      7 : DRILLING FLUID PH
DFL .                     10 : DRILLING FLUID LOSS
MSS .                MUD PIT : MUD SAMPLE SOURCE
RMS .OHMM               2.07 : RESISTIVITY MUD SAMPLE
MST .F                    75 : MUD SAMPLE TEMPERATURE
RMF .OHMM               1.68 : RESISTIVITY MUD FILTRATE SAMPLE
MFST.F                    75 : MUD FILTRATE SAMPLE TEMPERATURE
RMC .OHMM               2.48 : RESISTIVITY MUD CAKE
MCST.F                    75 : MUD CAKE SAMPLE TEMPERATURE
MFSS.                   MEAS : MUD FILTRATE SAMPLE SOURCE
MCSS.                   CALC : MUD CAKE SAMPLE SOURCE
RMB .OHMM              0.781 : RESISTIVITY MUD AT BHT
TCS .HRS                1400 : TIME CURCULATED STOPPED
TLAB.HRS                1800 : TIME LOGGER AT BOTTOM
LUN .                   2908 : LOGGING UNIT NUMBER
LUL .                  LIBER : LOGGING UNIT LOCATION
ENGI.        RILEY  HAMILTON : RECORDING ENGINEER
WITN.                SCHULZE : WITNESSED BY
CLNT.                A2DTECH : CLIENT CODE
ORIG.               5" PRINT : ORIGIN OF DATA
UWI .         42149324840000 : UNIQUE WELL ID
DICO. A2D Technologies, Inc. : DIGITIZING COMPANY
~Other -----------------------------------------------------
DIL-PI-SFL-DENSITY-NEUTRON-GR LOG RUN
~ASCII -----------------------------------------------------
# ...
 7550.00000    -999.25  911.82640    -999.25    -999.25    -999.25    -999.25    -999.25    1.09670    -999.25   92.02290   92.02290    -999.25    1.09670    1.16510    -999.25    1.16510    -999.25    -999.25    -999.25    1.31070  -37.84520  -10.20230    1.31070 2569.31100
 7600.00000    -999.25  749.23200    -999.25    -999.25    -999.25    -999.25    -999.25    1.33470    -999.25  102.05360  102.05360    -999.25    1.33470    1.39640    -999.25    1.39640    -999.25    -999.25    -999.25    1.43360  -29.94130   -3.08970    1.43360 2539.02390
 7650.00000    -999.25  843.73950    -999.25    -999.25    -999.25    -999.25    -999.25    1.18520    -999.25   91.17070   91.17070    -999.25    1.18520    1.26770    -999.25    1.26770    -999.25    -999.25    -999.25    1.46120  -40.32370  -14.00410    1.46120 2547.71900
 7700.00000    -999.25  612.03260    -999.25    -999.25    -999.25    -999.25    -999.25    1.63390    -999.25   96.04410   96.04410    -999.25    1.63390    1.71790    -999.25    1.71790    -999.25    -999.25    -999.25    1.73390  -33.19020   -7.29670    1.73390 2570.90800
 7750.00000    -999.25  757.69060    -999.25    -999.25    -999.25    -999.25    -999.25    1.31980    -999.25  109.72540  109.72540    -999.25    1.31980    1.35780    -999.25    1.35780    -999.25    -999.25    -999.25    1.52770  -34.23650   -8.76920    1.52770 2594.09690
 7800.00000    -999.25  732.76180    -999.25    -999.25    -999.25    -999.25    -999.25    1.36470    -999.25  121.25640  121.25640    -999.25    1.36470    1.43170    -999.25    1.43170    -999.25    -999.25    -999.25    1.63730  -29.29660   -4.25540    1.63730 2618.70190
 7850.00000    -999.25  810.89850    -999.25    -999.25    -999.25    -999.25    -999.25    1.23320    -999.25   91.64600   91.64600    -999.25    1.23320    1.31260    -999.25    1.31260    -999.25    -999.25    -999.25    1.49370  -32.03450   -7.44910    1.49370 2646.61890
 7900.00000    -999.25  799.29660    -999.25    -999.25    -999.25    -999.25    -999.25    1.25110    -999.25   94.93260   94.93260    -999.25    1.25110    1.31430    -999.25    1.31430    -999.25    -999.25    -999.25    1.51020  -33.77910   -9.67390    1.51020 2674.53590
 7950.00000    -999.25  647.37490    -999.25    -999.25    -999.25    -999.25    -999.25    1.54470    -999.25  157.01120  157.01120    -999.25    1.54470    1.64610    -999.25    1.64610    -999.25    -999.25    -999.25    1.62570  -34.46470  -10.83970    1.62570 2693.66600
 8000.00000    -999.25  693.81810    -999.25    -999.25    -999.25    -999.25    -999.25    1.44130    -999.25  101.66790  101.66790    -999.25    1.44130    1.49580    -999.25    1.49580    -999.25    -999.25    -999.25    1.62230  -36.47360  -13.32880    1.62230 2702.10300
 8050.00000    -999.25  397.15640    -999.25    -999.25    -999.25    -999.25    -999.25    2.51790    -999.25   87.47240   87.47240    -999.25    2.51790    2.59990    -999.25    2.59990    -999.25    -999.25    -999.25    3.42790  -28.02650   -5.36190    3.42790 2710.54000
 8100.00000    -999.25  560.31830    -999.25    -999.25    -999.25    -999.25    -999.25    1.78470    -999.25   89.22710   89.22710    -999.25    1.78470    1.88370    -999.25    1.88370    -999.25    -999.25    -999.25    2.06550  -36.78490  -14.60050    2.06550 2718.97710
 8150.00000    -999.25  590.98160    -999.25    -999.25    -999.25    -999.25    -999.25    1.69210    -999.25   97.81140   97.81140    -999.25    1.69210    1.78900    -999.25    1.78900    -999.25    -999.25    -999.25    1.98240  -43.61090  -21.90660    1.98240 2727.41410
 8200.00000    -999.25  680.73520    -999.25    -999.25    -999.25    -999.25    -999.25    1.46900    -999.25  105.30420  105.30420    -999.25    1.46900    1.55530    -999.25    1.55530    -999.25    -999.25    -999.25    1.76620  -47.42260  -26.19850    1.76620 2763.32400
 8250.00000    -999.25  215.36410    -999.25    -999.25    -999.25    -999.25    -999.25    4.64330    -999.25   50.81600   50.81600    -999.25    4.64330    4.81140    -999.25    4.81140    -999.25    -999.25    -999.25    4.86440  -36.26170  -15.51780    4.86440 2808.97510
 8300.00000    -999.25  453.51470    -999.25    -999.25    -999.25    -999.25    -999.25    2.20500    -999.25   97.06880   97.06880    -999.25    2.20500    2.22350    -999.25    2.22350    -999.25    -999.25    -999.25    2.56540  -32.46020  -12.19650    2.56540 2854.62600
 8350.00000    -999.25  293.01450    -999.25    -999.25    -999.25    -999.25    -999.25    3.41280    -999.25   74.49060   74.49060    -999.25    3.41280    3.59000    -999.25    3.59000    -999.25    -999.25    -999.25    4.00060  -32.54900  -12.76550    4.00060 2900.27810
 8400.00000    -999.25  350.72950    -999.25    -999.25    -999.25    -999.25    -999.25    2.85120    -999.25   84.32270   84.32270    -999.25    2.85120    3.01580    -999.25    3.01580    -999.25    -999.25    -999.25    3.34660  -29.36530  -10.06190    3.34660 2919.09200
 8450.00000    -999.25  482.36940    -999.25    -999.25    -999.25    -999.25    -999.25    2.07310    -999.25   86.74430   86.74430    -999.25    2.07310    2.18300    -999.25    2.18300    -999.25    -999.25    -999.25    2.74210  -29.27590  -10.45270    2.74210 2894.73390
 8500.00000    -999.25  225.40800    -999.25    -999.25    -999.25    -999.25    -999.25    4.43640    -999.25   47.91510   47.91510    -999.25    4.43640    4.30920    -999.25    4.30920    -999.25    -999.25    -999.25    3.62290  -29.71850  -12.13770    3.62290 2870.37500
 8550.00000    -999.25  123.49190    -999.25    -999.25    -999.25    -999.25    -999.25    8.09770    -999.25   26.06290   26.06290    -999.25    8.09770    8.89230    -999.25    8.89230    0.15640    0.15640    -999.25   13.28020  -33.80880  -17.91790   13.28020 2858.83010
 8600.00000    -999.25   72.10790    -999.25    -999.25    -999.25    -999.25    -999.25   13.86810    -999.25   24.54470   24.54470    -999.25   13.86810   13.79170    -999.25   13.79170    0.14310    0.14310    -999.25   15.95990  -40.39080  -26.18990   15.95990 2928.42900
 8650.00000    -999.25  165.17460    -999.25    -999.25    -999.25    -999.25    -999.25    6.05420    -999.25   11.59520   11.59520    -999.25    6.05420    8.29920    -999.25    8.29920    0.17150    0.17150    -999.25    8.93370  -33.92920  -21.41830    8.93370 2928.42900
 8700.00000    9.06490   92.45050    1.43990    0.00580    2.33350    0.19180    0.19180   10.81660    0.00580   20.92900   20.92900   10.81660    -999.25    -999.25   33.37910   33.37910    0.12210    0.12210   19.63900    -999.25  -18.82750   -8.00650   19.63900 3623.97090
 8750.00000   10.63490  415.69670    3.00990    0.09520    2.20750    0.26820    0.26820    2.40560    0.09520   57.90660   57.90660    2.40560    -999.25    -999.25    2.03240    2.03240    0.20730    0.20730    1.53040    -999.25  -11.20080   -2.06450    1.53040 3613.54590
 8800.00000    9.53430  169.83700    1.90930   -0.00350    2.64800    0.00120    0.00120    5.88800   -0.00350   27.16120   27.16120    5.88800    -999.25    -999.25    5.86030    5.86030    0.12270    0.12270    6.85190    -999.25  -18.32130  -10.86910    6.85190 3653.38600
 8850.00000    9.66030  164.18740    2.03530    0.02780    2.61950    0.01850    0.01850    6.09060    0.02780   32.52210   32.52210    6.09060    -999.25    -999.25    6.36820    6.36820    0.11530    0.11530    7.91890    -999.25  -16.55360  -10.78560    7.91890 3694.16990
 8900.00000    9.63400  152.76500    2.00900    0.04150    2.65690   -0.00420   -0.00420    6.54600    0.04150   30.25800   30.25800    6.54600    -999.25    -999.25    6.69920    6.69920    0.11770    0.11770    7.60300    -999.25  -11.64010   -7.55620    7.60300 3708.35300
 8950.00000    9.31820  180.79590    1.69320    0.00160    2.57410    0.04600    0.04600    5.53110    0.00160   44.65530   44.65530    5.53110    -999.25    -999.25    5.78670    5.78670    0.15060    0.15060    4.58940    -999.25  -15.77240  -12.31460    4.58940 3800.87300
