~Version ---------------------------------------------------
VERS. 2.0 : CWLS log ASCII Standard -VERSION 2.0
WRAP.  NO : ONE LINE PER DEPTH STEP
~Well ------------------------------------------------------
STRT.F                  2500.0 : START DEPTH
STOP.F                 14650.0 : STOP DEPTH
STEP.F                50.00000 : STEP LENGTH
NULL.                  -999.25 : NULL VALUE
COMP.     MARATHON OIL COMPANY : COMPANY
WELL.           BROUNKOWSKI #1 : WELL
FLD .                  WILDCAT : FIELD
LOC .                          : LOCATION
CNTY.                ROBERTSON : COUNTY
STAT.                    TEXAS : STATE
CTRY. UNITED STATES OF AMERICA : COUNTRY
SRVC.             Schlumberger : SERVICE COMPANY
DATE.              02-Oct-1995 : LOGDATE
API .           42395304350000 : API NUMBER
UWI .           42395304350000 : UNIQUE WELL ID
SLAT.WGS84       31.2546896053 : SURFACE LATITUDE
SLON.WGS84      -96.3452160282 : SURFACE LONGITUDE
~Curve Information -----------------------------------------
DEPT.F                 : 
SPR .MV   06 010 01 00 : SPONTANEOUS POTENTIAL
AO20.OHMM 06 120 20 00 : 20-IN. RESISTIVITY, 1-FT RESOLUTION
AO30.OHMM 06 120 30 00 : 30-IN. RESISTIVITY, 1-FT RESOLUTION
AO90.OHMM 06 120 90 00 : 90-IN. RESISTIVITY, 1-FT RESOLUTION
IMPH.OHMM 06 120 44 00 : INDUCTION MEDIUM PHASOR RES.
IDPH.OHMM 06 120 46 00 : INDUCTION DEEP PHASOR RES.
SFLU.OHMM 06 220 01 00 : SPHERICALLY FOCUSED LOG RESISTIVITY
DCAL.IN   06 280 30 00 : DIFFERENTIAL CALIPER
GRR .GAPI 06 310 01 00 : GAMMA RAY
DTLN.US/F 60 523 00 00 : ACOUSTIC TRANSIT TIME, LONG SPACED, NEAR ARRAY
NPHI.DEC  42 890 01 00 : NEUTRON POROSITY LIMESTONE
DPHI.DEC  45 890 10 00 : DENSITY POROSITY LIMESTONE
PEF .B/E  45 358 01 00 : PHOTOELECTRIC FACTOR
DRHO.G/C3 45 356 01 00 : DENSITY CORRECTION
TEND.LB   45 635 01 00 : TENSION FROM DENSITY LOG
AO60.OHMM 06 120 60 00 : 60-IN. RESISTIVITY, 1-FT RESOLUTION
DTLF.US/F 60 523 00 00 : ACOUSTIC TRANSIT TIME, LONG SPACED, FAR ARRAY
~Params ----------------------------------------------------
EKB .F                    414.0 : Kelly bushing
EGL .F                    383.0 : Ground level
EDF .F                    413.0 : Drilling floor
EPD .F                    383.0 : Permanent datum
TD  .F                  14691.0 : Total depth
DATE.               02-OCT-1995 : DATE LOGGED
CLNT.                   A2DTECH : CLIENT CODE
SL  . 17650' FNWL & 22170' FNEL : SURFACE LOCATION
PD  .                        GL : PERMANENT DATUM
LMF .                       RKB : LOG MEASURED FROM
DMF .                       RKB : DRILLING MEASURED FROM
DL  .F                    14691 : DEPTH LOGGER
BLI .F                    14685 : BOTTOM LOG INTERVAL
CS1 .IN                       7 : CASING SIZE
CBD1.                7" @ 3340' : CASING DRILLER 1
BS1 .IN                   5.875 : BIT SIZE
DFT .                   THERMEX : TYPE FLUID IN HOLE
DFD .                      16.7 : DENSITY
DFV .                        44 : VISCOSITY
DFPH.                       9.1 : PH
DFL .                         3 : FLUID LOSS
MSS .                  FLOWLINE : SOURCE OF SAMPLE
RMS .OHMM                 1.665 : RM
RMF .OHMM                 0.856 : RMF
RMC .OHMM                 1.875 : RMC
MFSS.                      MEAS : SOURCE RMF.
MCSS.                      CALC : SOURCE RMC.
RMB .OHMM                 0.494 : RM. AT BHT
BHT .F                      323 : BHT.
TCS .HRS                    200 : TIME CIRC. STOPPED
TLAB.                      1530 : TIME LOGGER AT BOTTOM
LUN .                      2019 : LOGGING UNIT NUMBER
LUL .                     TYLER : LOGGING UNIT LOCATION
ENGI.                   GARDNER : RECORDED BY
WITN.              EICHELBERGER : WITNESSED BY
ORIG.                  5" PRINT : ORIGIN OF DATA
UWI .            42395304350000 : UNIQUE WELL ID
DICO.    A2D TECHNOLOGIES, INC. : DIGITIZING COMPANY
DD  .F                    14706 : Depth driller
TLI .F                    10122 : Top log interval
CBL1.F                    10322 : Casing logger 1
BSD1.F                    14706 : Depth drilled with bit1
~Other -----------------------------------------------------
~ASCII -----------------------------------------------------
 2500.00000    -999.25    -999.25    -999.25    -999.25    -999.25    -999.25    -999.25    -999.25   32.99220    -999.25    -999.25    -999.25    -999.25    -999.25    -999.25    -999.25    -999.25
 2550.00000  -34.82330    0.75560    1.48590    1.41000    -999.25    -999.25    -999.25    6.70310   35.60040  134.30350    -999.25    -999.25    -999.25    -999.25    -999.25    3.69610  134.39140
 2600.00000  -39.76190    0.91500    1.41410    0.87840    -999.25    -999.25    -999.25    4.07760   37.66150  113.01080    -999.25    -999.25    -999.25    -999.25    -999.25    0.90720  111.07450
 2650.00000  -38.21210    1.74220    2.43270    1.73550    -999.25    -999.25    -999.25    5.52900   36.84910  126.46150    -999.25    -999.25    -999.25    -999.25    -999.25    1.52070  124.53190
 2700.00000  -39.71130   20.67000    6.04900    5.36980    -999.25    -999.25    -999.25    4.69510   34.18380   90.72290    -999.25    -999.25    -999.25    -999.25    -999.25    5.19440   91.38320
 2750.00000  -39.40760    0.91980    1.51130    1.80500    -999.25    -999.25    -999.25    6.79610   42.03760  115.84800    -999.25    -999.25    -999.25    -999.25    -999.25    1.00050  115.71000
 2800.00000  -39.87380    1.46400    1.41910    1.13530    -999.25    -999.25    -999.25    5.93010   39.24010  111.43730    -999.25    -999.25    -999.25    -999.25    -999.25    0.67360  146.94880
 2850.00000  -40.18530    1.01870    1.22610    1.25910    -999.25    -999.25    -999.25    6.94980   37.26910  113.84840    -999.25    -999.25    -999.25    -999.25    -999.25    1.20800  112.12260
 2900.00000  -41.11830    1.28970    1.40710    1.69930    -999.25    -999.25    -999.25    9.74480   39.11700  114.26690    -999.25    -999.25    -999.25    -999.25    -999.25    1.55150  214.21270
 2950.00000  -41.11700    1.12650    1.50490    1.94480    -999.25    -999.25    -999.25    7.05340   40.21760  164.61540    -999.25    -999.25    -999.25    -999.25    -999.25    1.94180  224.52660
 3000.00000  -40.39230    1.66060    1.93290    2.13790    -999.25    -999.25    -999.25    9.74450   37.96800  112.46010    -999.25    -999.25    -999.25    -999.25    -999.25    1.84380    0.79610
 3050.00000  -38.63190    1.75740    1.66750    2.04480    -999.25    -999.25    -999.25    9.80690   37.39330  128.92460    -999.25    -999.25    -999.25    -999.25    -999.25    1.87740  165.33530
 3100.00000  -39.56520    1.23190    1.26990    1.25480    -999.25    -999.25    -999.25    9.74500   40.74740  119.93180    -999.25    -999.25    -999.25    -999.25    -999.25    1.24290  115.26200
 3150.00000  -40.50260    0.87690    1.16020    1.73100    -999.25    -999.25    -999.25    8.60050   37.98040  123.62660    -999.25    -999.25    -999.25    -999.25    -999.25    1.74420  118.55080
 3200.00000  -41.42860    1.59520    1.87080    2.09080    -999.25    -999.25    -999.25    9.71420   36.22540  111.79560    -999.25    -999.25    -999.25    -999.25    -999.25    2.02440  109.87900
 3250.00000  -41.79560    0.76730    0.72210    1.14880    -999.25    -999.25    -999.25    9.80740   34.57130  124.57950    -999.25    -999.25    -999.25    -999.25    -999.25    1.09730  177.14600
 3300.00000  -41.31900    0.78070    1.22850    2.35760    -999.25    -999.25    -999.25    9.74510   29.62960  240.00000    -999.25    -999.25    -999.25    -999.25    -999.25    1.91180  230.59570
 3350.00000  -38.01140    0.58860    0.69000    0.72680    -999.25    -999.25    -999.25    2.10430   63.89340  137.08020    -999.25    -999.25    -999.25    -999.25    -999.25    0.58870    -999.25
 3400.00000  -38.94460    1.25980    1.33480    1.31150    -999.25    -999.25    -999.25    9.77570   38.73030  109.76920    -999.25    -999.25    -999.25    -999.25    -999.25    1.52980  109.73300
 3450.00000  -39.45120    1.75350    2.21900    2.88960    -999.25    -999.25    -999.25   10.02320   40.90980  119.06490    -999.25    -999.25    -999.25    -999.25    -999.25    3.03490   90.75920
 3500.00000  -38.44230    1.88830    1.42890    1.13490    -999.25    -999.25    -999.25    7.08490   38.66510  117.26370    -999.25    -999.25    -999.25    -999.25    -999.25    1.82650  117.50540
 3550.00000  -39.25670    1.08420    1.29170    1.47180    -999.25    -999.25    -999.25    8.94040   41.69880  115.69230    -999.25    -999.25    -999.25    -999.25    -999.25    1.28220  115.76470
 3600.00000  -38.32500    1.77600    1.47930    1.47230    -999.25    -999.25    -999.25    9.55920   34.10250  111.91140    -999.25    -999.25    -999.25    -999.25    -999.25    1.57820  112.12260
 3650.00000  -37.47390    2.05670    1.55980    1.11230    -999.25    -999.25    -999.25    9.31200   34.78260  113.76840    -999.25    -999.25    -999.25    -999.25    -999.25    1.28220  115.11210
 3700.00000  -37.08170    0.80320    1.05770    1.18890    -999.25    -999.25    -999.25    9.43540   34.89280  115.61580    -999.25    -999.25    -999.25    -999.25    -999.25    1.05270  116.15970
 3750.00000  -34.29640    0.53840    0.81260    0.75770    -999.25    -999.25    -999.25    9.46640   37.03550  119.68940    -999.25    -999.25    -999.25    -999.25    -999.25    0.63010  130.20740
 3800.00000  -35.26260    1.90850    1.51330    1.20580    -999.25    -999.25    -999.25    2.25830   42.80070  102.76750    -999.25    -999.25    -999.25    -999.25    -999.25    1.75430  102.10820
 3850.00000  -36.31450    3.58530    2.56870    2.54930    -999.25    -999.25    -999.25    4.05200   47.44470   96.61690    -999.25    -999.25    -999.25    -999.25    -999.25    2.49110   96.12860
 3900.00000  -36.60230    4.25320    1.95910    1.05680    -999.25    -999.25    -999.25    7.20870   46.58220  104.15340    -999.25    -999.25    -999.25    -999.25    -999.25    1.73550  102.64580
 3950.00000  -35.93980    4.68370    2.67300    2.71050    -999.25    -999.25    -999.25    7.30120   45.32460  103.60380    -999.25    -999.25    -999.25    -999.25    -999.25    2.36540  103.15400
 4000.00000  -35.75290    1.32080    1.23300    1.21380    -999.25    -999.25    -999.25    8.22940   39.76040  114.02830    -999.25    -999.25    -999.25    -999.25    -999.25    1.17290  114.16560
 4050.00000  -36.14810    1.49100    1.19810    1.23150    -999.25    -999.25    -999.25    9.18050   45.42450  115.38460    -999.25    -999.25    -999.25    -999.25    -999.25    1.10150  115.90990
 4100.00000  -37.39450    1.68100    1.35810    1.65030    -999.25    -999.25    -999.25    9.42920   40.24900  117.07890    -999.25    -999.25    -999.25    -999.25    -999.25    1.42840  116.06740
 4150.00000  -37.47850    0.86450    0.85340    0.86090    -999.25    -999.25    -999.25    8.29060   43.08630  110.46480    -999.25    -999.25    -999.25    -999.25    -999.25    0.71700  111.37520
 4200.00000  -39.80490    3.75290    2.47770    1.42640    -999.25    -999.25    -999.25    5.01820   48.43910   95.85040    -999.25    -999.25    -999.25    -999.25    -999.25    1.29550   94.63510
 4250.00000  -38.12780    1.92640    1.35630    1.23290    -999.25    -999.25    -999.25    6.46080   45.78740  107.84590    -999.25    -999.25    -999.25    -999.25    -999.25    1.33670  107.19260
 4300.00000  -38.63400    1.48080    2.12210    1.75330    -999.25    -999.25    -999.25    5.44690   48.35870  100.90530    -999.25    -999.25    -999.25    -999.25    -999.25    1.75120  101.65790
 4350.00000  -38.94410    4.19300    3.24580    3.08200    -999.25    -999.25    -999.25    2.53220   41.45960   90.30770    -999.25    -999.25    -999.25    -999.25    -999.25    2.82920   88.35880
 4400.00000  -37.70290    1.43870    1.89070    1.48970    -999.25    -999.25    -999.25    2.16700   38.76510   94.79880    -999.25    -999.25    -999.25    -999.25    -999.25    1.10900   95.23170
 4450.00000  -37.80430    0.70660    0.84830    1.36560    -999.25    -999.25    -999.25    4.24410   40.52830   94.79680    -999.25    -999.25    -999.25    -999.25    -999.25    0.92250   95.18630
 4500.00000  -36.17860    2.91750    2.98080    3.10170    -999.25    -999.25    -999.25    1.20900   36.46680   85.48590    -999.25    -999.25    -999.25    -999.25    -999.25    3.09890   85.53380
