~Version ---------------------------------------------------
VERS. 2.0 : CWLS log ASCII Standard -VERSION 2.0
WRAP.  NO : ONE LINE PER DEPTH STEP
~Well ------------------------------------------------------
STRT.F                     3500.0 : START DEPTH
STOP.F                     9300.0 : STOP DEPTH
STEP.F                   50.00000 : STEP LENGTH
NULL.                     -999.25 : NULL VALUE
COMP. MITCHELL ENERGY CORPORATION : COMPANY
WELL.         LEAH G. BARNES A #1 : WELL
FLD .               ALABAMA FERRY : FIELD
LOC .                             : LOCATION
CNTY.                        LEON : COUNTY
STAT.                       TEXAS : STATE
CTRY.    UNITED STATES OF AMERICA : COUNTRY
SRVC.                Schlumberger : SERVICE COMPANY
DATE.                 19-May-1988 : LOGDATE
API .              42289309850000 : API NUMBER
UWI .              42289309850000 : UNIQUE WELL ID
SLAT.WGS84          31.2253718237 : SURFACE LATITUDE
SLON.WGS84          -95.886243373 : SURFACE LONGITUDE
~Curve Information -----------------------------------------
DEPT   .F    0   1   0  0 : 1 MEASURED DEPTH
CALD   .IN   45 280 60 00 : CALIPER FROM DENSITY LOG
DPHI_LS.DEC  45 890 10 00 : DENSITY POROSITY LIMESTONE
DRHO   .G/C3 45 356 01 00 : BULK DENSITY CORRECTION
GRR    .GAPI 07 310 01 00 : GAMMA RAY FROM RESISTIVITY LOG
DT     .US/F 60 500 00 00 : DELTA-T (INTERVAL TRANSIT TIME)
ILD    .OHMM 07 120 46 00 : INDUCTION DEEP RESISTIVITY
ILM    .OHMM 07 120 44 00 : INDUCTION MEDIUM RESISTIVITY
SFLU   .OHMM 07 220 06 00 : SHALLOW FOCUSED RESISTIVITY (UNAVERAGED)
SPR    .MV   07 010 01 00 : SPONTANEOUS POTENTIAL FROM RESISTIVITY LOG
DCAL   .IN   07 280 01 00 : DIFFERENTIAL CALIPER
~Params ----------------------------------------------------
PD  .                     GL : PERMANENT DATUM
EPD .FT                  309 : ELEVATION PERMANENT DATUM
LMF .                     KB : LOG MEASURED FROM
DAPD.FT                   16 : FEET ABOVE PERMANENT DATUM
DMF .                     KB : DRILLING MEASURED FROM
EKB .FT                  325 : KELLY BUSHING
EDF .FT                  324 : DRILLING FLOOR
EGL .FT                  309 : GROUND LEVEL
DATE.               05/19/88 : RUN DATE
RUN .                      1 : RUN NUMBER
DD  .FT                 9335 : DEPTH DRILLER
DL  .FT                 9335 : DEPTH LOGGER
BLI .FT                 9332 : BOTTOM LOG INTERVAL
TLI .FT                 6360 : TOP LOG INTERVAL
CS  .IN                8.625 : CASING SIZE
CBD .FT                 3486 : CASING BOTTOM DRILLER
CBL .FT                 3486 : CASING BOTTOM LOGGER
BS  .IN                7.875 : BIT SIZE
BSD .FT                 9335 : BIT SIZE AT DEPTH
DFT .                  BENEX : DRILLING FLUID TYPE
DFD .                    9.9 : DRILLING FLUID DENSITY
DFV .                     43 : DRILLING FLUID VISCOSITY
DFPH.                      9 : DRILLING FLUID PH
DFL .                    8.4 : DRILLING FLUID LOSS
MSS .               FLOWLINE : MUD SAMPLE SOURCE
RMS .OHMM               1.95 : RESISTIVITY MUD SAMPLE
MST .DEGF                108 : MUD SAMPLE TEMPERATURE
RMF .OHMM               2.54 : RESISTIVITY MUD FILTRATE SAMPLE
MFST.DEGF                 80 : MUD FILTRATE SAMPLE TEMPERATURE
RMC .OHMM               2.59 : RESISTIVITY MUD CAKE
MCST.DEGF                 80 : MUD CAKE SAMPLE TEMPERATURE
MFSS.                   MEAS : MUD FILTRATE SAMPLE SOURCE
MCSS.                   CALC : MUD CAKE SAMPLE SOURCE
RMB .OHMM              1.038 : RESISTIVITY MUD AT BHT
TCS .HRS                1700 : TIME CIRCULATED STOPPED
TLAB.HRS                2130 : TIME LOGGER AT BOTTOM
LUN .                   8407 : LOGGING UNIT NUMBER
LUL .               TYLER OH : LOGGING UNIT LOCATION
ENGI.                  RICKS : RECORDING ENGINEER
WITN.       THOMPSON BULLARD : WITNESSED BY
CLNT.                A2DTECH : CLIENT CODE
ORIG.           5" 25" PRINT : ORIGIN OF DATA
UWI .         42289309850000 : UNIQUE WELL ID
DICO. A2D Technologies, Inc. : DIGITIZING COMPANY
~Other -----------------------------------------------------
~ASCII -----------------------------------------------------
# ...
 6800.00000   13.08200    0.25750    0.05590   85.25140  105.26370    1.19900    1.23910    1.49270  -25.19560    3.45600
 6850.00000   13.08490    0.23130    0.00990   86.25470  103.23130    1.40660    1.45690    1.64630  -26.03060    3.44900
 6900.00000    8.74380    0.14360   -0.02310   52.09500   80.31770    3.69730    3.87030    4.62540  -52.67500    0.50970
 6950.00000   12.57700    0.22130    0.10000   84.80930   96.60100    1.82330    1.91090    2.28000  -25.60210    3.68780
 7000.00000   11.41470    0.23420    0.07820   84.79830  101.92910    2.15360    2.24440    2.74210  -24.15590    2.63180
 7050.00000   11.26740    0.37910    0.07870   79.87590   90.69480    1.84440    1.92280    2.32550  -30.31680    2.16020
 7100.00000    9.97030    0.09110   -0.01370   64.39580   76.38920    3.53630    3.80890    4.49660  -28.97610    1.64180
 7150.00000   13.12890    0.20410    0.04720   80.51880   85.86870    1.92710    2.02580    2.44360  -29.42020    3.95300
 7200.00000   13.81520    0.24900   -0.00080   72.94240   97.03720    1.52510    1.58030    1.80800  -25.50480    4.81760
 7250.00000    9.43120    0.12210    0.00030   42.95510   67.27310    4.30430    4.77180   14.04960  -32.10880    1.60570
 7300.00000   12.64150    0.23950    0.09770   80.21640   87.30920    1.93900    2.11030    3.12720  -27.34970    3.53500
 7350.00000   15.34620    0.29900    0.09390   72.69770   91.96640    1.71020    1.79720    2.23190  -28.04920    5.17970
 7400.00000   16.87110    0.27290    0.04670   72.61500  102.12460    1.45690    1.51270    1.87590  -39.11720    6.52900
 7450.00000   14.68790    0.32110    0.05120   67.44280  106.42640    2.01030    1.65490    2.45590  -33.03320    6.38380
 7500.00000   11.58070    0.20200    0.06120   66.34700   91.74280    1.75650    1.94220    2.04090  -33.59760    3.11430
 7550.00000    9.79900    0.05060   -0.01550   11.98450   56.99540   14.02950   15.23240   15.83810  -56.97850    1.74730
 7600.00000    9.86380    0.11810   -0.01140   46.21220   67.36540    5.62580    6.26780    8.66320  -27.72480    2.44910
 7650.00000   10.11900    0.03900   -0.02380   16.41480   56.46680   15.04480   17.98390   19.14350  -40.17640    2.23760
 7700.00000   10.11590    0.08920   -0.02190   17.53160   55.99740   16.40120   17.22940   17.74610  -52.89670    2.36590
 7750.00000   10.56350    0.04740   -0.00880   15.70730   54.54210   23.68270   25.70960   27.77390  -51.86210    2.63550
 7800.00000   10.33140    0.05210   -0.01320   12.01200   52.63360   31.52750   36.97930   47.50000  -59.03930    2.33840
 7850.00000   10.26130    0.02190   -0.02050   15.41310   55.75460   18.51150   19.18540   19.65150  -54.24430    2.01940
 7900.00000    9.67390    0.05050   -0.01110   14.32160   54.41580   28.68300   31.80430   31.99350  -53.98080    1.93280
 7950.00000   10.01090    0.05030   -0.02090   16.87440   53.25960   20.78320   26.24730   43.90200  -40.80690    1.86620
 8000.00000   10.26990    0.05030    0.00300   14.29900   52.83460   33.85980   38.81740   40.77100  -65.24750    1.77810
 8050.00000    9.45970    0.03370   -0.01830   35.85090   56.42260   12.85240   14.75740   22.67030  -23.16960    1.48270
 8100.00000   11.52450    0.11250   -0.00680   58.07300   74.49900    2.97110    3.59690    6.14810  -27.75380    3.07920
 8150.00000   10.28650    0.03110   -0.02680   36.62640   54.99240   15.76080   21.92480   26.80380  -23.73060    2.00530
 8200.00000    9.52100    0.04600   -0.02530   34.73760   53.11140   39.13540   52.67440   58.78140  -46.22800    1.67050
 8250.00000   10.18810    0.06520   -0.00980   60.56020   70.26900    4.79120    5.16140    5.51010  -18.95700    2.11630
 8300.00000   12.77700    0.30910    0.09850   70.70440   86.53010    1.89660    1.99970    1.69290  -25.94620    3.99800
 8350.00000   10.48710    0.11090    -999.25   53.96350   78.88800    1.99360    2.24960    2.95310  -20.80730    2.29460
 8400.00000   11.72400    0.09420    0.00710   54.33090   82.16520    2.73060    3.23010    4.07470  -54.67140    3.09740
 8450.00000    9.02110    0.02720   -0.01350   39.72980   54.92880   21.06050   23.83020   33.03980  -54.03650    1.29190
 8500.00000    8.96690    0.02010   -0.01280   32.79540   56.40820   22.05740   25.39300   25.08160  -62.12120    1.10130
 8550.00000   10.24550    0.11600    0.10090   51.31100   74.31390    2.66500    2.78440    3.45050  -51.79620    1.74410
 8600.00000   13.72670    0.38680    0.07070   48.23340   81.00110    1.40130    1.54780    2.60660  -57.75480    3.03050
 8650.00000   14.50290    0.29960    0.09850   52.52950   93.50390    1.34150    1.38870    2.30370  -55.05640    3.26760
 8700.00000   12.55970    0.32460    0.09840   63.59200   98.07020    1.45170    1.59450    1.92670  -58.27010    3.62620
 8750.00000    8.87710    0.04470   -0.02570   35.39050   56.54640    8.10880    9.86620   22.11450  -56.83010    0.84440
 8800.00000   10.33720    0.14240    0.05040   46.08800   73.93820    2.98980    3.13090    3.98610  -53.13860    2.31490
 8850.00000    8.76740    0.02630   -0.01760   34.32670   57.13740   12.14660   11.20540   12.46590  -50.45060    1.08650
 8900.00000    8.61350    0.01890   -0.01940   31.40360   57.32070   12.75440   13.75110   17.30720  -45.52260    0.84240
 8950.00000    8.75600    0.03810   -0.01440   30.42730   62.13090    7.20200    7.63900    9.33340  -44.18800    0.97770
 9000.00000    8.84980    0.04420   -0.03170   38.93010   65.77450    5.77010    6.22320    8.07690  -41.41240    1.06550
 9050.00000    8.64100    0.01730   -0.02390   35.50360   57.60210   10.97290   15.18850   29.72920  -44.74430    0.96360
 9100.00000    8.94820    0.07450    0.02500   74.69630   79.61750    3.66910    3.83320    4.13210  -33.91560    1.01640
 9150.00000    8.16000    0.01470   -0.01200   26.97550   51.32020   26.51270   37.52890  104.26520  -41.56700    0.39720
 9200.00000    8.16730    0.03800   -0.01640   41.79320   63.81210    8.21050    8.59620   10.55300  -29.88660    0.43030
 9250.00000    8.00480    0.04400   -0.01310   55.21010   70.27050    4.45130    4.76080    5.02530  -11.33860    0.39760
 9300.00000    7.73380    0.02050   -0.00400   73.12190    -999.25   20.47920   23.67510   30.80110  -15.90590    0.01030
