~Version ---------------------------------------------------
VERS. 2.0 : CWLS log ASCII Standard -VERSION 2.0
WRAP. YES : MULTIPLE LINES PER DEPTH STEP
~Well ------------------------------------------------------
STRT.FT                    550.0 : START DEPTH
STOP.FT                   7500.0 : STOP DEPTH
STEP.FT                 50.00000 : STEP LENGTH
NULL.                    -999.25 : NULL VALUE
COMP. CONVEST ENERGY CORPORATION : COMPANY
WELL.             MATTIE GISE #1 : WELL
FLD .                    WILDCAT : FIELD
LOC .                            : LOCATION
CNTY.                     DIMMIT : COUNTY
STAT.                      TEXAS : STATE
CTRY.   UNITED STATES OF AMERICA : COUNTRY
SRVC.               Schlumberger : SERVICE COMPANY
DATE.                16-Aug-1977 : LOGDATE
API .             42127315410000 : API NUMBER
UWI .             42127315410000 : UNIQUE WELL ID
SLAT.WGS84         28.5693608094 : SURFACE LATITUDE
SLON.WGS84        -99.4381683951 : SURFACE LONGITUDE
~Curve Information -----------------------------------------
DEPT    .FT    : DEPTH FEET
CALDED  .IN    : CALIPER FROM DENSITY LOG [SPL TO SPRED]
CALWS   .IN    : CALIPER [CALDED]
CONDWS  .MMHO  : CONDUCTIVITY [1000/DRESWS]
CORRED  .G/C3  : DENSITY CORRECTION FROM DENSITY LOG [SPL TO SPRED]
DCORWS  .G/C3  : DENSITY CORRECTION [CORRED]
DENWS   .G/C3  : BULK DENSITY [RHOBED]
DPHILSED.V/V   : DENSITY POROSITY [M=2.71 F=1.0] FROM DENSITY LOG [SPL TO SPRED]
DPHISSED.V/V   : DENSITY POROSITY [M=2.68 F=1.0] FROM DENSITY LOG [SPL TO SPRED]
DPOWS   .V/V   : DENSITY POROSITY [M=2.71 F=1.0] [CALCULATED FROM DENWS]
DRESWS  .OHMM  : DEEP RESISTIVITY [ILDED]
DTED    .US/F  : DELTA TIME FROM SONIC LOG
DTWS    .US/F  : DELTA TIME [DTED]
GRDED   .GAPI  : GAMMA RAY FROM DENSITY LOG [SPL TO SPRED]
GRNED   .GAPI  : GAMMA RAY FROM NEUTRON LOG [SPL TO GRDED]
GRWS    .GAPI  : GAMMA RAY [SPL GRDED <5995F> GRNED <3000F> GRDED, CASED HOLE DATA FROM 5995F-6333F]
ILDED   .OHMM  : INDUCTION LOG DEEP RESISTIVITY
ILMED   .OHMM  : INDUCTION LOG MEDIUM RESISTIVITY
LL8ED   .OHMM  : 8 INCH LATEROLOG RESISTIVITY
MRESWS  .OHMM  : MEDIUM RESISTIVITY [ILMED]
NEUTED  .NAPI  : NEUTRON FROM NEUTRON LOG [SPL TO GRDED]
NEUTWS  .NAPI  : NEUTRON [NEUTED]
NPHILSED.V/V   : NEUTRON POROSITY LIMESTONE FROM DENSITY LOG [SPL TO SPRED]
NPHISSED.V/V   : NEUTRON POROSITY SANDSTONE FROM DENSITY LOG [SPL TO SPRED]
NPOWS   .V/V   : NEUTRON POROSITY LIMESTONE [CONVERTED NPHISSED TO LIMESTONE AND SPL WITH NPHILSED @6300F]
RHOBED  .G/C3  : BULK DENSITY FROM DENSITY LOG [SPL TO SPRED]
SPRED   .MV    : SPONTANEOUS POTENTIAL FROM RESISTIVITY LOG
SPWS    .MV    : SPONTANEOUS POTENTIAL [BASELINE 0 MV] [SPRED]
SRESWS  .OHMM  : SHALLOW RESISTIVITY [LL8ED]
~Params ----------------------------------------------------
PD  .                     GL : PERMANENT DATUM
EPD .F                 513.9 : ELEVATION PERMANENT DATUM
LMF .                     KB : LOG MEASURED FROM
DAPD.F                    11 : FEET ABOVE PERMANENT DATUM
DMF .                     KB : DRILLING MEASURED FROM
EKB .F                 524.9 : KELLING BUSHING
EDF .F                 523.9 : DRILLING FLOOR
EGL .F                 513.9 : GROUND LEVEL
DATE.               08/16/77 : RUN DATE
RUN .                      1 : RUN NUMBER
DD  .F                  7522 : DEPTH DRILLER
DL  .F                  7532 : DEPTH LOGGER
BLI .F                  7531 : BOTTOM LOG INTERVAL
CS  .IN                8.625 : CASING SIZE
CBD .F                   518 : CASING BOTTOM DRILLER
CBL .F                   520 : CASING BOTTOM LOGGER
BS  .IN                7.875 : BIT SIZE
BSD .F                  7522 : BIT SIZE AT DEPTH
DFT .              DISPERSED : DRILLING FLUID TYPE
DFD .                    9.4 : DRILLING FLUID DENSITY
DFV .                     58 : DRILLING FLUID VISCOSITY
DFPH.                     10 : DRILLING FLUID PH
DFL .                    5.8 : DRILLING FLUID LOSS
MSS .             CIRC. TANK : MUD SAMPLE SOURCE
RMS .OHMM               1.43 : RESISTIVITY MUD SAMPLE
MST .F                    81 : MUD SAMPLE TEMPERATURE
RMF .OHMM               1.34 : RESISTIVITY MUD FILTRATE SAMPLE
MFST.F                    81 : MUD FILTRATE SAMPLE TEMPERATURE
RMC .OHMM               1.15 : RESISTIVITY MUD CAKE
MCST.F                    81 : MUD CAKE SAMPLE TEMPERATURE
MFSS.                      M : MUD FILTRATE SAMPLE SOURCE
MCSS.                      C : MUD CAKE SAMPLE SOURCE
RMB .OHMM               0.65 : RESISTIVITY MUD AT BHT
TCS .HRS                2000 : TIME CURCULATED STOPPED
TLAB.HRS                1100 : TIME LOGGER AT BOTTOM
LUN .                   7769 : LOGGING UNIT NUMBER
LUL .                 LARDEO : LOGGING UNIT LOCATION
ENGI.                 SPAETH : RECORDING ENGINEER
WITN.     MR CLARK / MR HEAD : WITNESSED BY
CLNT.                A2DTECH : CLIENT CODE
ORIG.               5" PRINT : ORIGIN OF DATA
UWI .         42127315410000 : UNIQUE WELL ID
DICO. A2D Technologies, Inc. : DIGITIZING COMPANY
~Other -----------------------------------------------------
~ASCII -----------------------------------------------------
# ...
 6800.00000    8.37450    8.37450   67.15100    0.04040    0.04040    2.66140    0.01160    -999.25    0.02840   14.89180   63.74270   63.74270   35.44580   39.65320   35.44580   14.89180   16.93510   12.92440   16.93510 1209.81100 1209.81100    0.09210    -999.25    0.09210    2.66140  -54.92210  -16.59320   12.92440
 6850.00000    8.46210    8.46210   34.53640    0.01650    0.01650    2.64000    0.04350    -999.25    0.04090   28.95500   57.06050   57.06050   19.42660   25.50090   19.42660   28.95500   30.13120   20.74120   30.13120 1113.28770 1113.28770    0.05850    -999.25    0.05850    2.64000  -56.00730  -18.17840   20.74120
 6900.00000    8.37400    8.37400   69.62960   -0.00890   -0.00890    2.59580    0.06330    -999.25    0.06680   14.36170   62.23640   62.23640   25.96300   31.04460   25.96300   14.36170   14.90350   15.13610   14.90350 1168.03710 1168.03710    0.07310    -999.25    0.07310    2.59580  -51.04950  -13.72050   15.13610
 6950.00000    8.69170    8.69170   52.65600   -0.00740   -0.00740    2.63260    0.04440    -999.25    0.04530   18.99120   58.89860   58.89860   27.69800   17.22500   27.69800   18.99120   19.96400   24.95460   19.96400 1054.62760 1054.62760    0.06090    -999.25    0.06090    2.63260  -48.37800  -11.54900   24.95460
 7000.00000    8.54520    8.54520   26.41620    0.00360    0.00360    2.57330    0.08110    -999.25    0.07990   37.85560   66.04680   66.04680   61.29630   61.66900   61.29630   37.85560   42.26780   45.79860   42.26780  791.81410  791.81410    0.10350    -999.25    0.10350    2.57330  -52.60750  -16.27850   45.79860
 7050.00000    8.14620    8.14620   46.46370   -0.00490   -0.00490    2.64560    0.03360    -999.25    0.03770   21.52220   61.65790   61.65790   25.36130   40.85420   25.36130   21.52220   23.22340   26.84580   23.22340  907.17130  907.17130    0.06640    -999.25    0.06640    2.64560  -53.58570  -17.75670   26.84580
 7100.00000    8.11930    8.11930   50.18850   -0.00360   -0.00360    2.63250    0.04430    -999.25    0.04530   19.92490   65.60150   65.60150   38.22200   50.99600   38.22200   19.92490   20.59220   19.25200   20.59220  796.17520  796.17520    0.08690    -999.25    0.08690    2.63250  -45.87190  -10.54290   19.25200
 7150.00000    8.01690    8.01690   20.78150   -0.02330   -0.02330    2.55150    0.09000    -999.25    0.09270   48.11970   59.89530   59.89530   36.97830   51.55100   36.97830   48.11970   56.21770  108.46310   56.21770  841.75460  841.75460    0.07870    -999.25    0.07870    2.55150  -50.66190  -15.83290  108.46310
 7200.00000    8.10430    8.10430   21.17320   -0.00050   -0.00050    2.58110    0.07430    -999.25    0.07540   47.22960   65.79750   65.79750   45.19040   65.14990   45.19040   47.22960   51.11540   90.46210   51.11540  716.65180  716.65180    0.13600    -999.25    0.13600    2.58110  -35.31200   -1.04210   90.46210
 7250.00000    8.23430    8.23430   27.39430   -0.01010   -0.01010    2.55970    0.08980    -999.25    0.08790   36.50390   70.59000   70.59000   50.74370   61.60310   50.74370   36.50390   42.01180   61.60590   42.01180  685.66250  685.66250    0.14720    -999.25    0.14720    2.55970  -45.20130  -13.40370   61.60590
 7300.00000    8.77050    8.77050   24.61840   -0.00840   -0.00840    2.47830    0.13100    -999.25    0.13550   40.62000   75.83640   75.83640   83.75420   93.97060   83.75420   40.62000   42.64670   70.43240   42.64670  559.22170  559.22170    0.19610    -999.25    0.19610    2.47830  -41.40140  -12.07620   70.43240
 7350.00000    8.37550    8.37550   15.38490    0.00800    0.00800    2.52870    0.10540    -999.25    0.10600   64.99890   75.66350   75.66350   79.00740   84.01350   79.00740   64.99890   69.06490   73.10770   69.06490  565.25730  565.25730    0.19000    -999.25    0.19000    2.52870  -41.06140  -14.20850   73.10770
 7400.00000    7.76820    7.76820    7.50090   -0.00420   -0.00420    2.65620    0.03360    -999.25    0.03150  133.31660   54.57380   54.57380   14.09530   31.45220   14.09530  133.31660  228.29600  217.84340  228.29600 1057.13150 1057.13150    0.02500    -999.25    0.02500    2.65620  -50.83330  -26.45270  217.84340
 7450.00000    7.65870    7.65870    6.30460    0.00600    0.00600    2.67060    0.01860    -999.25    0.02300  158.61550   52.06100   52.06100   17.27530   37.09010   17.27530  158.61550  176.93720  174.41560  176.93720 1094.02250 1094.02250    0.02770    -999.25    0.02770    2.67060  -63.47650  -41.56820  174.41560
 7500.00000    7.61930    7.61930   19.13130   -0.00550   -0.00550    2.67260    0.01780    -999.25    0.02190   52.27050   51.32120   51.32120   49.67720    -999.25   49.67720   52.27050   84.35120  140.34200   84.35120    -999.25    -999.25    0.07100    -999.25    0.07100    2.67260  -29.50240  -10.06640  140.34200
