~Version ---------------------------------------------------
VERS. 2.0 : CWLS log ASCII Standard -VERSION 2.0
WRAP. YES : Multiple lines per depth step
~Well ------------------------------------------------------
STRT.FT                   4000.0 : START DEPTH
STOP.FT                   8600.0 : STOP DEPTH
STEP.FT                 50.00000 : STEP LENGTH
NULL.                    -999.25 : NULL VALUE
COMP. CHAMPLIN PETROLEUM COMPANY : COMPANY
WELL.           JOE J MAREK #A-1 : WELL
FLD .                   GIDDINGS : FIELD
LOC .                            : LOCATION
CNTY.                   BURLESON : COUNTY
STAT.                      TEXAS : STATE
CTRY.   UNITED STATES OF AMERICA : COUNTRY
SRVC.               Schlumberger : SERVICE COMPANY
DATE.                23-Sep-1980 : LOGDATE
API .             42051309940000 : API NUMBER
UWI .             42051309940000 : UNIQUE WELL ID
SLAT.WGS84             30.425386 : SURFACE LATITUDE
SLON.WGS84            -96.678468 : SURFACE LONGITUDE
~Curve Information -----------------------------------------
DEPT    .FT    : DEPTH FEET
CALWS   .IN    : CALIPER [DCALED + BITS]
CONDWS  .MMHO  : CONDUCTIVITY [1000/DRESWS]
DCALED  .IN    : DIFFERENTIAL CALIPER FROM DISFL-CNFD LOG
DCORWS  .G/C3  : DENSITY CORRECTION [DRHOED]
DENWS   .G/C3  : FORMATION BULK DENSITY [CALCULATED FROM DPOWS, M=2.71, F=1.0]
DPHILSED.V/V   : DENSITY POROSITY LIMESTONE [M=2.71, F=1.0] FROM DISFL-CNFD LOG
DPHISSED.V/V   : DENSITY POROSITY SANDSTONE [M=2.65, F=1.0] FROM DISFL-CNFD LOG
DPOWS   .V/V   : DENSITY POROSITY LIMESTONE [DPHISSED CONVERTED TO LIMESTONE ([M=2.71, F=1.0) & SPLICED WITH DPHILSED @ 6774']
DRESWS  .OHMM  : DEEP RESISTIVITY [ILDED]
DRHOED  .G/C3  : BULK DENSITY CORRECTION FROM DISFL-CNFD LOG
GRRED   .GAPI  : GAMMA RAY FROM DISFL-CNFD LOG
GRWS    .GAPI  : GAMMA RAY [GRRED]
ILDED   .OHMM  : DEEP INDUCTION FROM DISFL-CNFD LOG
ILMED   .OHMM  : MEDIUM INDUCTION FROM DISFL-CNFD LOG
MRESWS  .OHMM  : MEDIUM RESISTIVITY [ILMED]
NPHILSED.V/V   : NEUTRON POROSITY LIMESTONE FROM DISFL-CNFD LOG
NPHISSED.V/V   : NEUTRON POROSITY SANDSTONE FROM DISFL-CNFD LOG
NPOWS   .V/V   : NEUTRON POROSITY LIMESTONE [NPHISSED CONVERTED TO LIMESTONE MATRIX & SPLICED WITH NPHILSED @ 6769']
SFLUED  .OHMM  : SHALLOW FOCUSED INDUCTION (UNAVERAGED) FROM DISFL-CNFD LOG
SPRED   .MV    : SPONTANEOUS POTENTIAL FROM DISFL-CNFD LOG
SPWS    .MV    : SPONTANEOUS POTENTIAL [BASELINE 0 MV, SPRED]
SRESWS  .OHMM  : SHALLOW RESISTIVITY [SFLUED]
~Params ----------------------------------------------------
PD  .                     GL : PERMANENT DATUM
EPD .FT                  348 : ELEVATION PERMANENT DATUM
LMF .                     KB : LOG MEASURED FROM
DAPD.FT                   18 : FEET ABOVE PERMANENT DATUM
DMF .                     KB : DRILLING MEASURED FROM
EKB .FT                  348 : KELLY BUSHING
EDF .FT                  347 : DRILLING FLOOR
EGL .FT                  330 : GROUND LEVEL
DATE.               09/23/80 : RUN DATE
RUN .                      1 : RUN NUMBER
DD  .FT                 8621 : DEPTH DRILLER
DL  .FT                 8617 : DEPTH LOGGER
BLI .FT                 8611 : BOTTOM LOG INTERVAL
TLI .FT                 4018 : TOP LOG INTERVAL
CS  .IN                9.625 : CASING SIZE
CBD .FT                 4021 : CASING BOTTOM DRILLER
CBL .FT                 4018 : CASING BOTTOM LOGGER
BS  .IN                 8.75 : BIT SIZE
BSD .FT                 8621 : BIT SIZE AT DEPTH
DFT .                  BENEX : DRILLING FLUID TYPE
DFD .                    9.5 : DRILLING FLUID DENSITY
DFV .                     40 : DRILLING FLUID VISCOSITY
DFPH.                    9.5 : DRILLING FLUID PH
DFL .                      7 : DRILLING FLUID LOSS
MSS .                   TANK : MUD SAMPLE SOURCE
RMS .OHMM                1.7 : RESISTIVITY MUD SAMPLE
MST .DEGF                110 : MUD SAMPLE TEMPERATURE
RMF .OHMM               1.28 : RESISTIVITY MUD FILTRATE SAMPLE
MFST.DEGF                110 : MUD FILTRATE SAMPLE TEMPERATURE
RMC .OHMM               2.56 : RESISTIVITY MUD CAKE
MCST.DEGF                110 : MUD CAKE SAMPLE TEMPERATURE
MFSS.                      M : MUD FILTRATE SAMPLE SOURCE
MCSS.                      C : MUD CAKE SAMPLE SOURCE
RMB .OHMM               0.91 : RESISTIVITY MUD AT BHT
TCS .HRS                2000 : TIME CIRCULATED STOPPED
TLAB.HRS                 100 : TIME LOGGER AT BOTTOM
LUN .                   8141 : LOGGING UNIT NUMBER
LUL .                LRENHAM : LOGGING UNIT LOCATION
ENGI.              GILLILAND : RECORDING ENGINEER
WITN.                 SCHELL : WITNESSED BY
CLNT.                A2DTECH : CLIENT CODE
ORIG.          1" 2.5" PRINT : ORIGIN OF DATA
UWI .         42051309940000 : UNIQUE WELL ID
DICO. A2D Technologies, Inc. : DIGITIZING COMPANY
~Other -----------------------------------------------------
~ASCII -----------------------------------------------------
 4000.00000    -999.25    -999.25    -999.25    -999.25    -999.25    -999.25    -999.25    -999.25    -999.25    -999.25   51.52230   51.52230    -999.25    -999.25    -999.25    -999.25    0.47910    0.43740    -999.25    -999.25    -999.25    -999.25
 4050.00000   12.32290  146.92700    3.57290    0.03580    2.31040    -999.25    0.20580    0.23370    6.80610    0.03580   89.77700   89.77700    6.80610    6.53600    6.53600    -999.25    0.30730    0.26330    9.88540  -33.82390  -23.38910    9.88540
 4100.00000   11.95190  172.70260    3.20190    0.03330    2.29990    -999.25    0.21220    0.23980    5.79030    0.03330   68.66160   68.66160    5.79030    7.09190    7.09190    -999.25    0.33650    0.29270   10.16400  -47.12220  -36.68740   10.16400
 4150.00000   12.19160  169.40830    3.44160    0.02530    2.28060    -999.25    0.22390    0.25110    5.90290    0.02530   70.87440   70.87440    5.90290    7.24780    7.24780    -999.25    0.31280    0.26890    9.99950  -46.00120  -35.56640    9.99950
 4200.00000   11.73440  204.03580    2.98440    0.01980    2.25250    -999.25    0.24090    0.26750    4.90110    0.01980   69.45030   69.45030    4.90110    6.60950    6.60950    -999.25    0.35070    0.30710    9.47820  -56.62340  -46.18860    9.47820
 4250.00000   13.41910  182.54840    4.66910    0.03790    2.23930    -999.25    0.24890    0.27530    5.47800    0.03790   74.77010   74.77010    5.47800    7.16370    7.16370    -999.25    0.32590    0.28200   11.35760  -51.17730  -40.74250   11.35760
 4300.00000   13.40880  239.62430    4.65880    0.02790    2.20830    -999.25    0.26770    0.29340    4.17320    0.02790   74.00280   74.00280    4.17320    5.18590    5.18590    -999.25    0.36560    0.32220    7.96260  -38.78830  -28.35350    7.96260
 4350.00000   13.38180  207.51190    4.63180    0.07470    2.30860    -999.25    0.20690    0.23470    4.81900    0.07470   69.39110   69.39110    4.81900    6.04570    6.04570    -999.25    0.34950    0.30590    8.28710  -40.65710  -30.22230    8.28710
 4400.00000   11.80950  245.41680    3.05950    0.03180    2.15980    -999.25    0.29710    0.32180    4.07470    0.03180   77.55650   77.55650    4.07470    5.30270    5.30270    -999.25    0.31600    0.27210    9.56390  -46.95760  -36.52280    9.56390
 4450.00000   11.90350  213.59310    3.15350    0.06110    2.22810    -999.25    0.25570    0.28180    4.68180    0.06110   80.82010   80.82010    4.68180    6.16030    6.16030    -999.25    0.35380    0.31020    8.83980  -47.22280  -36.32520    8.83980
 4500.00000   11.86120  277.80860    3.11120    0.08320    2.29710    -999.25    0.21390    0.24150    3.59960    0.08320   85.38010   85.38010    3.59960    3.92190    3.92190    -999.25    0.31330    0.26940    5.80240  -36.58830  -24.58860    5.80240
 4550.00000   13.24040  422.61850    4.49040    0.06790    2.42680    -999.25    0.13530    0.16560    2.36620    0.06790   99.30750   99.30750    2.36620    2.41750    2.41750    -999.25    0.39860    0.35570    2.62170  -13.66910   -1.88370    2.62170
 4600.00000   11.28040  463.58540    2.53040    0.06090    2.31410    -999.25    0.20360    0.23150    2.15710    0.06090   92.57170   92.57170    2.15710    2.44480    2.44480    -999.25    0.37580    0.33250    2.24640  -23.77840  -11.98690    2.24640
 4650.00000   13.14340  460.63840    4.39340    0.07650    2.35910    -999.25    0.17630    0.20520    2.17090    0.07650  102.43640  102.43640    2.17090    2.21950    2.21950    -999.25    0.36250    0.31900    2.51660  -15.25260   -2.71010    2.51660
 4700.00000   12.01490  419.42790    3.26490    0.09260    2.43580    -999.25    0.12980    0.16030    2.38420    0.09260  105.59850  105.59850    2.38420    2.43790    2.43790    -999.25    0.30040    0.25640    3.00280  -18.79280   -5.49930    3.00280
 4750.00000   11.50020  394.61740    2.75020    0.04240    2.42440    -999.25    0.13670    0.16700    2.53410    0.04240  113.16440  113.16440    2.53410    2.59640    2.59640    -999.25    0.32860    0.28480    2.75450  -19.32970   -5.28520    2.75450
 4800.00000   11.67530  444.08920    2.92530    0.03030    2.46900    -999.25    0.10970    0.14090    2.25180    0.03030  120.39830  120.39830    2.25180    2.30100    2.30100    -999.25    0.30090    0.25690    2.71180  -16.67200   -2.65360    2.71180
 4850.00000   11.95470  495.93330    3.20470    0.05650    2.50460    -999.25    0.08810    0.12010    2.01640    0.05650  120.29710  120.29710    2.01640    2.06050    2.06050    -999.25    0.29660    0.25260    2.30360  -15.38550   -1.72620    2.30360
 4900.00000   13.03480  661.98860    4.28480    0.05240    2.51160    -999.25    0.08390    0.11600    1.51060    0.05240  119.87460  119.87460    1.51060    1.54360    1.54360    -999.25    0.32960    0.28580    1.90630  -15.14540   -1.84510    1.90630
 4950.00000   12.68150  678.33400    3.93150    0.04350    2.52280    -999.25    0.07710    0.10950    1.47420    0.04350  115.48020  115.48020    1.47420    1.50720    1.50720    -999.25    0.33760    0.29380    1.81890  -14.70320   -1.76200    1.81890
 5000.00000   11.11780  575.34090    2.36780    0.08690    2.51640    -999.25    0.08100    0.11320    1.73810    0.08690  105.36160  105.36160    1.73810    1.77600    1.77600    -999.25    0.31980    0.27590    2.14550  -15.69300   -3.11090    2.14550
 5050.00000    9.98070  646.37060    1.23070    -999.25    2.43950    -999.25    0.12760    0.15820    1.54710    -999.25  102.79110  102.79110    1.54710    1.58110    1.58110    -999.25    0.34930    0.30570    2.02130  -14.80320   -2.58020    2.02130
 5100.00000    9.88250  694.97530    1.13250    -999.25    2.43980    -999.25    0.12740    0.15800    1.43890    -999.25  119.77330  119.77330    1.43890    1.47060    1.47060    -999.25    0.37940    0.33620    1.86070  -13.21340   -1.34950    1.86070
 5150.00000   10.00810  755.05890    1.25810    -999.25    2.45600    -999.25    0.11760    0.14860    1.32440    -999.25  115.62880  115.62880    1.32440    1.39130    1.39130    -999.25    0.38690    0.34380    1.73530  -13.35520   -1.85040    1.73530
 5200.00000   10.91990  603.20910    2.16990    0.02090    2.52050    -999.25    0.07850    0.11080    1.65780    0.02090  119.86270  119.86270    1.65780    1.69410    1.69410    -999.25    0.30810    0.26410    2.05470  -14.99740   -3.77530    2.05470
 5250.00000   11.93840  779.30170    3.18840    0.05730    2.48450    -999.25    0.10030    0.13190    1.28320    0.05730  127.23250  127.23250    1.28320    1.31200    1.31200    -999.25    0.40280    0.36000    1.60530  -14.35680   -3.38300    1.60530
 5300.00000   11.98610  929.28170    3.23610    0.05070    2.43350    -999.25    0.13120    0.16170    1.07610    0.05070  109.79770  109.79770    1.07610    1.09970    1.09970    -999.25    0.35760    0.31410    1.35200  -12.84260   -2.11720    1.35200
 5350.00000   12.07970 1435.13200    3.32970    0.04330    2.36470    -999.25    0.17290    0.20190    0.69680    0.04330  110.06530  110.06530    0.69680    0.74080    0.74080    -999.25    0.38990    0.34680    0.94240  -11.12610   -0.64910    0.94240
 5400.00000   11.36320  725.37360    2.61320    0.03690    2.47840    -999.25    0.10400    0.13540    1.37860    0.03690  101.37660  101.37660    1.37860    1.40890    1.40890    -999.25    0.30380    0.25980    1.71490  -15.89210   -4.25160    1.71490
 5450.00000   11.66830  890.70990    2.91830    0.02450    2.46650    -999.25    0.11120    0.14240    1.12270    0.02450  116.07990  116.07990    1.12270    1.18460    1.18460    -999.25    0.37740    0.33410    1.46480  -14.14100   -1.04790    1.46480
 5500.00000   12.39660  894.45440    3.64660    0.06380    2.46070    -999.25    0.11470    0.14580    1.11800    0.06380   98.56110   98.56110    1.11800    1.16190    1.16190    -999.25    0.32650    0.28260    1.22460  -19.44070   -4.89490    1.22460
 5550.00000   12.83250  838.85580    4.08250    0.05810    2.47990    -999.25    0.10310    0.13460    1.19210    0.05810  107.99130  107.99130    1.19210    1.22220    1.22220    -999.25    0.36190    0.31840    1.50500  -15.74590   -1.53770    1.50500
