~Version ---------------------------------------------------
VERS. 2.0 : CWLS log ASCII Standard -VERSION 2.0
WRAP. YES : MULTIPLE LINES PER DEPTH STEP
~Well ------------------------------------------------------
STRT.FT                       2050.0 : START DEPTH
STOP.FT                      10550.0 : STOP DEPTH
STEP.FT                     50.00000 : STEP LENGTH
NULL.                        -999.25 : NULL VALUE
COMP. QUINTANA PETROLEUM CORPORATION : COMPANY
WELL.                       HARLE #1 : WELL
FLD .                        BUCKLEY : FIELD
LOC .                                : LOCATION
CNTY.                       LA SALLE : COUNTY
STAT.                          TEXAS : STATE
CTRY.       UNITED STATES OF AMERICA : COUNTRY
SRVC.    HALLIBURTON Sperry Drilling : SERVICE COMPANY
DATE.                    12-Nov-1991 : LOGDATE
API .                 42283314640000 : API NUMBER
UWI .                 42283314640000 : UNIQUE WELL ID
SLAT.WGS84             28.3427642272 : SURFACE LATITUDE
SLON.WGS84            -99.0284847769 : SURFACE LONGITUDE
~Curve Information -----------------------------------------
DEPT    .FT    : DEPTH FEET
CALRED  .IN    : CALIPER FROM RESISTIVITY LOG
CALWS   .IN    : CALIPER [DCALRED+8.75]
CONDWS  .MMHO  : CONDUCTIVITY [1000/DRESWS]
DCALRED .IN    : DIFFERENTIAL CALIPER FROM RESISTIVITY LOG
DCORWS  .G/C3  : DENSITY CORRECTION [DRHOED]
DENWS   .G/C3  : BULK DENSITY  [CALCULATED FROM DPOWS][M=2.65 F=1.0]<9190>[M=2.71 F=1.0]
DFLED   .OHMM  : DIGITALLY FOCUSED LATEROLOG
DPHILSED.V/V   : DENSITY POROSITY [M=2.71 F=1.0] FROM DENSITY LOG
DPHISSED.V/V   : DENSITY POROSITY [M=2.65 F=1.0] FROM DENSITY LOG
DPOWS   .V/V   : DENSITY POROSITY [DPHISSED]<9190>DPHILSED
DRESWS  .OHMM  : DEEP RESISTIVITY [HDRSED]
DRHOED  .G/C3  : DENSITY CORRECTION FROM RES. LOG, DEPTH ADJUSTED WITH [GRRED]
DTED    .US/F  : DELTA TIME FROM SONIC LOG
DTWS    .US/F  : DELTA TIME [DTED]
GRKTED  .GAPI  : GAMMA RAY KT FROM SPECTRAL LOG, DEPTH ADJUSTED WITH [GRRED]
GRKUTED .GAPI  : GAMMA RAY KUT FROM SPECTRAL LOG, DEPTH ADJUSTED WITH [GRRED]
GRR1ED  .GAPI  : GAMMA RAY FROM INDUCTION [ILDED] LOG, DEPTH ADJUSTED WITH [GRRED]
GRRED   .GAPI  : GAMMA RAY FROM RESISTIVITY LOG
GRTHED  .GAPI  : GAMMA RAY TH FROM SPECTRAL LOG, DEPTH ADJUSTED WITH [GRRED]
GRWS    .GAPI  : GAMMA RAY [GRRED]
GUARDED .OHMM  : GUARD LOG RESISTIVITY
HDRSED  .OHMM  : HRI DEEP RESISTIVITY
HMRSED  .OHMM  : HRI MEDIUM RESISTIVITY
ILDED   .OHMM  : INDUCTION LOG DEEP RESISTIVITY , DEPTH ADJUSTED WITH [GRRED]
ILMED   .OHMM  : INDUCTION LOG MEDIUM RESISTIVITY, DEPTH ADJUSTED WITH [GRRED]
MRESWS  .OHMM  : MEDIUM RESISTIVITY [HMRSED]
NPHILSED.V/V   : NEUTRON POROSITY LIMESTONE FROM DENSITY LOG
NPHISSED.V/V   : NEUTRON POROSITY SANDSTONE FROM DENSITY LOG
NPOWS   .V/V   : NEUTRON POROSITY SANDSTONE [NPHISSED]<9190>LIMESTONE [NPHILSED]
SFLED   .OHMM  : SPHERICALLY FOCUSED LOG RESISTIVITY
SPRED   .MV    : SPONTANEOUS POTENTIAL FROM RESISTIVITY LOG
SPWS    .MV    : SPONTANEOUS POTENTIAL [BASELINE 0 MV] [SPRED]
SRESWS  .OHMM  : SHALLOW RESISTIVITY [DFLED]
TENRED  .LBF   : TENSION FROM RESISTIVITY LOG
~Params ----------------------------------------------------
PD  .                     GL : PERMANENT DATUM
EPD .F                 379.7 : ELEVATION PERMANENT DATUM
LMF .                    TKB : LOG MEASURED FROM
DAPD.F                    19 : FEET ABOVE PERMANENT DATUM
DMF .                    TKB : DRILLING MEASURED FROM
EKB .F                 398.7 : KELLING BUSHING
EDF .F                 397.7 : DRILLING FLOOR
EGL .F                 379.7 : GROUND LEVEL
DATE.             11-12-1991 : RUN DATE
RUN .                      1 : RUN NUMBER
DD  .F                 10615 : DEPTH DRILLER
DL  .F                 10568 : DEPTH LOGGER
BLI .F                 10566 : BOTTOM LOG INTERVAL
TLI .F                  2010 : TOP LOG INTERVAL
CS  .IN                9.625 : CASING SIZE
CBD .F                  2012 : CASING BOTTOM DRILLER
CBL .F                  2010 : CASING BOTTOM LOGGER
BS  .IN                 8.75 : BIT SIZE
BSD .F                 10615 : BIT SIZE AT DEPTH
DFT .              LIGNO-HFI : DRILLING FLUID TYPE
DFD .                   10.3 : DRILLING FLUID DENSITY
DFV .                     42 : DRILLING FLUID VISCOSITY
DFPH.                   10.5 : DRILLING FLUID PH
DFL .                    5.7 : DRILLING FLUID LOSS
MSS .               FLOWLINE : MUD SAMPLE SOURCE
RMS .OHMM               1.31 : RESISTIVITY MUD SAMPLE
MST .F                    75 : MUD SAMPLE TEMPERATURE
RMF .OHMM               1.04 : RESISTIVITY MUD FILTRATE SAMPLE
MFST.F                    75 : MUD FILTRATE SAMPLE TEMPERATURE
RMC .OHMM                2.6 : RESISTIVITY MUD CAKE
MCST.F                    75 : MUD CAKE SAMPLE TEMPERATURE
MFSS.                   MEAS : MUD FILTRATE SAMPLE SOURCE
MCSS.                   MEAS : MUD CAKE SAMPLE SOURCE
RMB .OHMM               0.43 : RESISTIVITY MUD AT BHT
TCS .HRS                16.5 : TIME CURCULATED STOPPED
TLAB.HRS                1200 : TIME LOGGER AT BOTTOM
LUN .                  51561 : LOGGING UNIT NUMBER
LUL .                  ALICE : LOGGING UNIT LOCATION
ENGI.                MERRELL : RECORDING ENGINEER
WITN.  MR. EVANS/MR. DUCKETT : WITNESSED BY
CLNT.                A2DTECH : CLIENT CODE
ORIG.               5" PRINT : ORIGIN OF DATA
UWI .         42283314640000 : UNIQUE WELL ID
DICO. A2D Technologies, Inc. : DIGITIZING COMPANY
~Other -----------------------------------------------------
~ASCII -----------------------------------------------------
 2050.00000    -999.25   10.70280  163.95050    1.95280    0.04940    2.13850    5.98080    -999.25    0.31000    0.31000    6.09940    0.04940  104.56370  104.56370    -999.25    -999.25   61.86490   56.01950    -999.25   56.01950    5.35620    6.09940    6.68030    5.95990    6.22650    6.68030    -999.25    0.37700    0.37700    7.80860  -44.67770  -22.80930    5.98080 1694.28550
 2100.00000    -999.25   12.44140  414.86890    3.69140    0.07060    2.19950    2.22130    -999.25    0.27300    0.27300    2.41040    0.07060  107.41670  107.41670    -999.25    -999.25   64.15160   70.40590    -999.25   70.40590    4.74080    2.41040    2.32220    4.79380    4.62040    2.32220    -999.25    0.35950    0.35950    6.10610  -31.78410   -9.40310    2.22130 1709.58450
 2150.00000    -999.25   11.19680  134.20120    2.44680    0.03800    2.22360    6.23260    -999.25    0.25840    0.25840    7.45150    0.03800   97.65810   97.65810    -999.25    -999.25   46.05470   58.81210    -999.25   58.81210    2.59190    7.45150    7.12890    3.15680    2.78510    7.12890    -999.25    0.35880    0.35880    2.64270  -32.52410   -9.63060    6.23260 1709.65580
 2200.00000    -999.25   10.59960  117.88140    1.84960    0.04690    2.35560    8.77640    -999.25    0.17840    0.17840    8.48310    0.04690   90.45020   90.45020    -999.25    -999.25   65.24410   64.51190    -999.25   64.51190    7.01930    8.48310    8.68470    7.04810    7.42670    8.68470    -999.25    0.28540    0.28540    6.88580  -37.07610  -13.67000    8.77640 1735.32390
 2250.00000    -999.25   10.99220  166.96720    2.24220    0.02300    2.20960    6.07080    -999.25    0.26690    0.26690    5.98920    0.02300  100.51050  100.51050    -999.25    -999.25   68.61780   64.48910    -999.25   64.48910    6.20340    5.98920    7.08060    4.74730    4.14690    7.08060    -999.25    0.36170    0.36170    4.60130  -37.35470  -13.43600    6.07080 1718.00160
 2300.00000    -999.25   11.22540  161.82800    2.47540    0.06790    2.30680    4.98350    -999.25    0.20800    0.20800    6.17940    0.06790   95.25450   95.25450    -999.25    -999.25  152.72860  165.81470    -999.25  165.81470    6.20240    6.17940    4.92290    5.21230    5.09300    4.92290    -999.25    0.40740    0.40740    6.91380  -42.00630  -17.57500    4.98350 1776.23730
 2350.00000    -999.25    9.79520   68.15380    1.04520    0.03200    2.26060   13.08460    -999.25    0.23600    0.23600   14.67270    0.03200   90.30030   90.30030    -999.25    -999.25   70.19890   76.18680    -999.25   76.18680   10.67200   14.67270   13.20610    8.66070    8.46060   13.20610    -999.25    0.36110    0.36110    8.15280  -45.27740  -20.33360   13.08460 1783.30790
 2400.00000    -999.25   12.68730   62.54650    3.93730    0.04410    2.06110   11.31010    -999.25    0.35690    0.35690   15.98810    0.04410   96.30480   96.30480    -999.25    -999.25   47.70880   49.57810    -999.25   49.57810   10.31690   15.98810   12.77570   14.42990   11.73580   12.77570    -999.25    0.44690    0.44690   10.51580  -50.97380  -25.51740   11.31010 1780.61060
 2450.00000    -999.25   12.03120  147.96620    3.28120    0.07100    2.27970    6.15260    -999.25    0.22440    0.22440    6.75830    0.07100   98.40730   98.40730    -999.25    -999.25   64.81900   69.85750    -999.25   69.85750    6.73880    6.75830    6.56730    6.54280    6.49540    6.56730    -999.25    0.39470    0.39470    5.97910  -44.67770  -18.70870    6.15260 1787.50680
 2500.00000    -999.25   10.00320   53.74990    1.25320    0.04400    2.20400   13.45070    -999.25    0.27030    0.27030   18.60470    0.04400   93.90500   93.90500    -999.25    -999.25   54.77450   56.64700    -999.25   56.64700   11.83100   18.60470   16.07310   13.90840   13.77200   16.07310    -999.25    0.33670    0.33670   12.26610  -46.19410  -19.71250   13.45070 1818.40210
 2550.00000    -999.25   11.25550   64.73750    2.50550    0.01710    2.18590   11.51040    -999.25    0.28130    0.28130   15.44700    0.01710   96.30570   96.30570    -999.25    -999.25   49.22650   53.70940    -999.25   53.70940   10.74740   15.44700   13.25070   13.62620   12.17150   13.25070    -999.25    0.39210    0.39210   11.03160  -50.67470  -23.68060   11.51040 1843.20530
 2600.00000    -999.25    9.85610   74.81050    1.10610    0.03810    2.21520   13.08460    -999.25    0.26350    0.26350   13.36710    0.03810   95.85710   95.85710    -999.25    -999.25   64.32790   64.87640    -999.25   64.87640   11.09700   13.36710   13.31630   11.12410   12.00500   13.31630    -999.25    0.33680    0.33680   10.40370  -44.86730  -17.36060   13.08460 1833.64730
 2650.00000    -999.25   10.15200   60.42880    1.40200    0.02590    2.22940   12.57220    -999.25    0.25490    0.25490   16.54840    0.02590   96.75510   96.75510    -999.25    -999.25   60.39850   59.91770    -999.25   59.91770   11.99330   16.54840   14.46480   14.79110   13.04970   14.46480    -999.25    0.36700    0.36700   12.66730  -53.64820  -25.62890   12.57220 1852.44810
 2700.00000    -999.25    9.52680   53.38460    0.77680    0.04980    2.23780   14.87930    -999.25    0.24980    0.24980   18.73200    0.04980   90.30030   90.30030    -999.25    -999.25   50.70110   53.75260    -999.25   53.75260   14.04510   18.73200   17.54450   16.28540   15.90130   17.54450    -999.25    0.31680    0.31680   14.09710  -51.59960  -23.06770   14.87930 1892.66370
 2750.00000    -999.25   10.39210   59.60040    1.64210    0.05000    2.25760   15.22890    -999.25    0.23780    0.23780   16.77840    0.05000   90.00000   90.00000    -999.25    -999.25   74.66440   70.33880    -999.25   70.33880   12.44460   16.77840   16.48910   10.71750   11.52100   16.48910    -999.25    0.32380    0.32380   12.93760  -49.17540  -20.13100   15.22890 1883.37490
 2800.00000    -999.25   11.72480  276.90860    2.97480    0.11300    2.31410    3.11560    -999.25    0.20360    0.20360    3.61130    0.11300  102.16220  102.16220    -999.25    -999.25   73.74260   74.17130    -999.25   74.17130    4.24310    3.61130    3.64340    3.93360    3.63920    3.64340    -999.25    0.38480    0.38480    4.50490  -40.49580  -10.93880    3.11560 1941.28190
 2850.00000    -999.25   10.36210   60.84610    1.61210    0.05600    2.28020   13.43470    -999.25    0.22410    0.22410   16.43490    0.05600   85.64530   85.64530    -999.25    -999.25   67.99830   74.50980    -999.25   74.50980   11.99450   16.43490   14.46480   12.98430   13.50110   14.46480    -999.25    0.31230    0.31230   12.04470  -50.37380  -20.30420   13.43470 1901.28940
 2900.00000    -999.25   11.91240  120.34270    3.16240    0.06180    2.38240    6.52910    -999.25    0.16220    0.16220    8.30960    0.06180   86.39540   86.39540    -999.25    -999.25   65.12250   64.38530    -999.25   64.38530    6.24440    8.30960    9.83280    6.44670    5.68570    9.83280    -999.25    0.32900    0.32900    9.41270  -39.87960   -9.29740    6.52910 1938.36630
 2950.00000    -999.25   10.72040   87.05800    1.97040    0.05580    2.39260   10.17410    -999.25    0.15600    0.15600   11.48660    0.05580   86.09610   86.09610    -999.25    -999.25   76.02570   79.91020    -999.25   79.91020    7.99710   11.48660   10.38940    6.14590    7.84590   10.38940    -999.25    0.32820    0.32820    7.19780  -35.89580   -4.79400   10.17410 1993.90890
 3000.00000    -999.25   10.80720  179.44940    2.05720    0.11570    2.33320    4.39870    -999.25    0.19200    0.19200    5.57260    0.11570   99.90820   99.90820    -999.25    -999.25   72.77640   72.14160    -999.25   72.14160    5.11740    5.57260    4.73470    7.70620    6.04520    4.73470    -999.25    0.37710    0.37710   10.01600  -47.13200  -15.50380    4.39870 2027.80990
 3050.00000    -999.25    9.25850   27.36430    0.50850    0.05570    2.28170   23.68230    -999.25    0.22320    0.22320   36.54390    0.05570   87.29580   87.29580    -999.25    -999.25   41.75420   45.18670    -999.25   45.18670   20.49190   36.54390   26.71980   23.75630   19.27000   26.71980    -999.25    0.31820    0.31820   20.55130  -51.57370  -19.41910   23.68230    -999.25
