~Version ---------------------------------------------------
VERS.      2.0 : CWLS log ASCII Standard -VERSION 2.0
WRAP.      YES : Multiple lines per depth step
CREA. 08/30/12 : LAS Creation Date
~Well ------------------------------------------------------
STRT.FT                   3750.0 : START DEPTH
STOP.FT                   8250.0 : STOP DEPTH
STEP.FT                 50.00000 : STEP LENGTH
NULL.                    -999.25 : NULL VALUE
COMP. CHAMPLIN PETROLEUM COMPANY : COMPANY
WELL.    EBERHARDT WILLIE F.  #1 : WELL
FLD .                   GIDDINGS : FIELD
LOC .                            : LOCATION
CNTY.                   BURLESON : COUNTY
STAT.                      TEXAS : STATE
CTRY.   UNITED STATES OF AMERICA : COUNTRY
SRVC.               Schlumberger : SERVICE COMPANY
DATE.                17-Sep-1980 : LOGDATE
API .             42051309370000 : API NUMBER
UWI .             42051309370000 : UNIQUE WELL ID
SLAT.WGS84         30.4181083894 : SURFACE LATITUDE
SLON.WGS84        -96.7334542825 : SURFACE LONGITUDE
~Curve Information -----------------------------------------
DEPT    .FT                                                                                  : DEPTH FEET
CALWS   .IN                                                                                  : CALIPER [DCALED+BITS]
CONDWS  .MMHO                                                                                : CONDUCTIVITY [1000/DRESWS]
DCALED  .IN                                                                                  : DIFFERENTIAL CALIPER FROM DIL-SFL-CNFD LOG
DCORWS  .G/C3                                                                                : DENSITY CORRECTION [DRHOED]
DENWS   .G/C3                    :   FORMATION BULK DENSITY [CALCULATED FROM DPOWS, M:2.71,F : 1.0]
DPHILSED.V/V                                        :   DENSITY POROSITY LIMESTONE [M:2.71,F : 1.0]FROM DIL-SFL-CNFD LOG
DPHISSED.V/V                                        :   DENSITY POROSITY SANDSTONE [M:2.65,F : 1.0] FROM DIL-SFL-CNFD LOG
DPOWS   .V/V :   DENSITY POROSITY LIMESTONE[DPHISSED CONVERTED TO LIMESTONE MATRIX, M:2.71,F : 1.0, SPL TO DPHILSED @ 6475']
DRESWS  .OHMM                                                                                : DEEP RESISTIVITY [ILDED]
DRHOED  .G/C3                                                                                : DENSITY CORRECTION FROM DIL-SFL-CNFD LOG
GRRED   .GAPI                                                                                : GAMMA RAY FROM DIL-SFL-CNFD LOG
GRWS    .GAPI                                                                                : GAMMA RAY [GRRED]
ILDED   .OHMM                                                                                : INDUCTION LOG DEEP FROM DIL-SFL-CNFD LOG
ILMED   .OHMM                                                                                : INDUCTION LOG MEDIUM FROM DIL-SFL-CNFD LOG
MRESWS  .OHMM                                                                                : MEDIUM RESISTIVITY [ILMED]
NPHILSED.V/V                                                                                 : NEUTRON POROSITY LIMESTONE FROM DIL-SFL-CNFD LOG
NPHISSED.V/V                                                                                 : NEUTRON POROSITY SANDSTONE FROM DIL-SFL-CNFD LOG
NPOWS   .V/V                                                                                 : NEUTRON POROSITY LIMESTONE[NPHISSED MATRIX CONVERSION FOR LIMESTONE, SPL. TO NPHILSED @ 6475']
SFLUED  .OHMM                                                                                : SPHERICALLY FOCUSED LOG UNAVERAGED RESISTIVITY FROM DIL-SFL-CNFD LOG
SPRED   .MV                                                                                  : SPONTANEOUS POTENTIAL FROM DIL-SFL-CNFD LOG
SPWS    .MV                                                                                  : SPONTANEOUS POTENTIAL [BASELINE, 0 MV, SPRED]
SRESWS  .OHMM                                                                                : SHALLOW RESISTIVITY [SFLUED]
~Params ----------------------------------------------------
PD  .                     GL : PERMANENT DATUM
EPD .FT                  392 : ELEVATION PERMANENT DATUM
LMF .                     KB : LOG MEASURED FROM
DAPD.FT                   14 : FEET ABOVE PERMANENT DATUM
DMF .                     KB : DRILLING MEASURED FROM
EKB .FT                  406 : KELLY BUSHING
EDF .FT                  405 : DRILLING FLOOR
EGL .FT                  392 : GROUND LEVEL
DATE.               09/17/80 : RUN DATE
RUN .                      1 : RUN NUMBER
DD  .FT                 8233 : DEPTH DRILLER
DL  .FT                 8271 : DEPTH LOGGER
BLI .FT                 8265 : BOTTOM LOG INTERVAL
TLI .FT                 3747 : TOP LOG INTERVAL
CS  .IN                9.625 : CASING SIZE
CBD .FT                 3749 : CASING BOTTOM DRILLER
CBL .FT                 3747 : CASING BOTTOM LOGGER
BS  .IN                 8.75 : BIT SIZE
BSD .FT                 8233 : BIT SIZE AT DEPTH
DFT .                  BENEX : DRILLING FLUID TYPE
DFD .                    9.4 : DRILLING FLUID DENSITY
DFV .                     45 : DRILLING FLUID VISCOSITY
DFPH.                      9 : DRILLING FLUID PH
DFL .                    6.4 : DRILLING FLUID LOSS
MSS .                   TANK : MUD SAMPLE SOURCE
RMS .OHMM               1.38 : RESISTIVITY MUD SAMPLE
MST .DEGF                104 : MUD SAMPLE TEMPERATURE
RMF .OHMM               1.04 : RESISTIVITY MUD FILTRATE SAMPLE
MFST.DEGF                104 : MUD FILTRATE SAMPLE TEMPERATURE
RMC .OHMM               2.08 : RESISTIVITY MUD CAKE
MCST.DEGF                104 : MUD CAKE SAMPLE TEMPERATURE
MFSS.                      M : MUD FILTRATE SAMPLE SOURCE
MCSS.                      C : MUD CAKE SAMPLE SOURCE
RMB .OHMM               0.73 : RESISTIVITY MUD AT BHT
TCS .HRS                2300 : TIME CIRCULATED STOPPED
TLAB.HRS                 630 : TIME LOGGER AT BOTTOM
LUN .                   8101 : LOGGING UNIT NUMBER
LUL .                BRENHAM : LOGGING UNIT LOCATION
ENGI.        WYATT GILLILAND : RECORDING ENGINEER
WITN.                CAMERON : WITNESSED BY
CLNT.                A2DTECH : CLIENT CODE
ORIG.            2" 5" PRINT : ORIGIN OF DATA
UWI .         42051309370000 : UNIQUE WELL ID
DICO. A2D Technologies, Inc. : DIGITIZING COMPANY
~Other -----------------------------------------------------
~ASCII -----------------------------------------------------
# ...
 5350.00000   10.95020  513.39970    2.20020    0.13010    2.53900    -999.25    0.06730    0.10000    1.94780    0.13010   97.75550   97.75550    1.94780    1.85410    1.85410    -999.25    0.31040    0.26650    1.88860  -11.00000   -8.08510    1.88860
 5400.00000   10.15900  456.39180    1.40900    0.04590    2.44380    -999.25    0.12500    0.15570    2.19110    0.04590   77.82520   77.82520    2.19110    2.16150    2.16150    -999.25    0.27110    0.22710    2.45000  -15.94050  -13.48570    2.45000
 5450.00000   11.79290  976.27650    3.04290    0.06790    2.36830    -999.25    0.17070    0.19980    1.02430    0.06790  100.36390  100.36390    1.02430    0.99740    0.99740    -999.25    0.39250    0.34950    1.18230  -12.60000  -10.60530    1.18230
 5500.00000   12.10060  758.78290    3.35060    0.04820    2.41730    -999.25    0.14100    0.17110    1.31790    0.04820   95.20130   95.20130    1.31790    1.28070    1.28070    -999.25    0.33960    0.29590    1.41740  -11.26600   -9.69470    1.41740
 5550.00000   12.63810  862.29200    3.88810    0.04950    2.44890    -999.25    0.12190    0.15270    1.15970    0.04950  110.55000  110.55000    1.15970    1.13690    1.13690    -999.25    0.37430    0.33100    1.30440  -11.90970  -10.73610    1.30440
 5600.00000   10.09900  359.98420    1.34900    0.03390    2.55260    -999.25    0.05900    0.09200    2.77790    0.03390   73.50620   73.50620    2.77790    2.69160    2.69160    -999.25    0.26570    0.22170    2.80010   -6.27670   -5.50090    2.80010
 5650.00000   10.41500  648.50840    1.66500    0.03400    2.41980    -999.25    0.13950    0.16970    1.54200    0.03400   92.85000   92.85000    1.54200    1.52420    1.52420    -999.25    0.30660    0.26260    1.67450   -9.47060   -9.09250    1.67450
 5700.00000    9.98850  809.97890    1.23850    0.05190    2.33620    -999.25    0.19020    0.21860    1.23460    0.05190  118.84690  118.84690    1.23460    1.19560    1.19560    -999.25    0.34930    0.30570    1.25060   -4.32560   -4.34530    1.25060
 5750.00000   10.02620  506.58560    1.27620    0.01900    2.49420    -999.25    0.09440    0.12620    1.97400    0.01900   94.95000   94.95000    1.97400    1.91760    1.91760    -999.25    0.25860    0.21470    2.00130   -8.57300   -8.99040    2.00130
 5800.00000   10.83920  704.72160    2.08920    0.06450    2.46020    -999.25    0.11500    0.14610    1.41900    0.06450  114.53920  114.53920    1.41900    1.43450    1.43450    -999.25    0.34040    0.29670    1.48260   -5.44100   -6.25610    1.48260
 5850.00000   11.30230  750.80710    2.55230    0.07690    2.42690    -999.25    0.13520    0.16550    1.33190    0.07690  120.78410  120.78410    1.33190    1.36370    1.36370    -999.25    0.30840    0.26450    1.43630   -3.06700   -4.27990    1.43630
 5900.00000   11.46650  771.60490    2.71650    0.05580    2.41880    -999.25    0.14010    0.17030    1.29600    0.05580  142.35000  142.35000    1.29600    1.26080    1.26080    -999.25    0.34630    0.30260    1.33240   -3.31620   -4.92680    1.33240
 5950.00000   12.52510  778.75550    3.77510    0.12780    2.35070    -999.25    0.18140    0.21010    1.28410    0.12780  111.74680  111.74680    1.28410    1.26720    1.26720    -999.25    0.36100    0.31750    1.32300   -6.58020   -8.58860    1.32300
 6000.00000   10.11910  918.69550    1.36910    0.04400    2.33200    -999.25    0.19270    0.22100    1.08850    0.04400  139.93640  139.93640    1.08850    1.09610    1.09610    -999.25    0.37150    0.32810    1.13350   -1.16420   -3.57030    1.13350
 6050.00000   10.10690  935.71630    1.35690    0.12380    2.38020    -999.25    0.16350    0.19290    1.06870    0.12380  126.75000  126.75000    1.06870    1.08900    1.08900    -999.25    0.39790    0.35500    1.20850    0.30350   -2.50040    1.20850
 6100.00000    9.87260  550.26690    1.12260    0.11580    2.48170    -999.25    0.10200    0.13350    1.81730    0.11580  110.76600  110.76600    1.81730    1.87320    1.87320    -999.25    0.32670    0.28290    1.88420   -4.14750   -7.34910    1.88420
 6150.00000   10.68800  512.16390    1.93800    0.06890    2.50880    -999.25    0.08560    0.11770    1.95250    0.06890   93.77140   93.77140    1.95250    1.98840    1.98840    -999.25    0.29010    0.24610    2.18730   -0.20000   -3.79940    2.18730
 6200.00000   11.78250  604.74120    3.03250    0.09880    2.41780    -999.25    0.14070    0.17090    1.65360    0.09880  101.72950  101.72950    1.65360    1.69860    1.69860    -999.25    0.33130    0.28750    1.77980   -3.29150   -7.28860    1.77980
 6250.00000   11.33970  522.93050    2.58970    0.15170    2.53240    -999.25    0.07130    0.10390    1.91230    0.15170   97.42370   97.42370    1.91230    1.95000    1.95000    -999.25    0.29200    0.24800    2.12790    1.63240   -2.76250    2.12790
 6300.00000   13.50940  746.71450    4.75940    0.10680    2.26870    -999.25    0.23110    0.25810    1.33920    0.10680  108.42000  108.42000    1.33920    1.35550    1.35550    -999.25    0.38150    0.33830    1.48740   -1.00000   -5.79260    1.48740
 6350.00000   14.69220  711.84510    5.94220    0.11480    2.26640    -999.25    0.23250    0.25940    1.40480    0.11480  102.28630  102.28630    1.40480    1.43370    1.43370    -999.25    0.45130    0.40960    1.50110   -6.42580  -11.61620    1.50110
 6400.00000   13.91600  729.55420    5.16600    0.11770    2.34870    -999.25    0.18260    0.21130    1.37070    0.11770   99.36890   99.36890    1.37070    1.39650    1.39650    -999.25    0.42850    0.38630    1.50330   -4.75690  -10.34500    1.50330
 6450.00000   12.29380  672.04300    3.54380    0.08210    2.40710    -999.25    0.14720    0.17710    1.48800    0.08210  114.20670  114.20670    1.48800    1.51230    1.51230    -999.25    0.32950    0.28570    1.59570   -0.96610   -6.95200    1.59570
 6500.00000   11.99890  753.46590    3.24890    0.15250    2.54140    0.09860    -999.25    0.09860    1.32720    0.15250   95.43420   95.43420    1.32720    1.35690    1.35690    0.34400    -999.25    0.34400    1.47380   -3.51680   -9.90040    1.47380
 6550.00000    9.81870  322.60150    1.06870    0.01310    2.59030    0.07000    -999.25    0.07000    3.09980    0.01310   47.92160   47.92160    3.09980    3.02080    3.02080    0.14040    -999.25    0.14040    3.56890  -12.10000  -18.88130    3.56890
 6600.00000   10.23140  350.20140    1.48140    0.00200    2.55390    0.09130    -999.25    0.09130    2.85550    0.00200   53.66640   53.66640    2.85550    2.84400    2.84400    0.11340    -999.25    0.11340    3.04430  -15.83310  -23.01220    3.04430
 6650.00000   11.44190  579.07230    2.69190    0.08910    2.49690    0.12460    -999.25    0.12460    1.72690    0.08910  107.24690  107.24690    1.72690    1.85010    1.85010    0.26400    -999.25    0.26400    2.05110   -6.95580  -14.53260    2.05110
 6700.00000   10.78390  476.14510    2.03390    0.03190    2.51900    0.11170    -999.25    0.11170    2.10020    0.03190  106.22900  106.22900    2.10020    2.11180    2.11180    0.20480    -999.25    0.20480    2.36900   -4.97410  -12.94870    2.36900
 6750.00000   11.04310  372.07920    2.29310    0.00770    2.52620    0.10750    -999.25    0.10750    2.68760    0.00770  103.31590  103.31590    2.68760    2.71690    2.71690    0.15490    -999.25    0.15490    3.01010   -3.40640  -11.77870    3.01010
 6800.00000   11.04620  405.00590    2.29620    0.02400    2.55850    0.08860    -999.25    0.08860    2.46910    0.02400  105.95430  105.95430    2.46910    2.53490    2.53490    0.18550    -999.25    0.18550    2.76240   -2.35130  -11.12140    2.76240
 6850.00000   11.05110  392.89640    2.30110    0.01300    2.58160    0.07510    -999.25    0.07510    2.54520    0.01300   86.85000   86.85000    2.54520    2.55520    2.55520    0.16670    -999.25    0.16670    2.84150   -0.50000   -9.66780    2.84150
 6900.00000   10.52900  297.95600    1.77900    0.01800    2.61580    0.05510    -999.25    0.05510    3.35620    0.01800   83.07940   83.07940    3.35620    3.43030    3.43030    0.14370    -999.25    0.14370    4.23920   -1.14850  -10.71410    4.23920
