~Version ---------------------------------------------------
VERS. 2.0 : CWLS log ASCII Standard -VERSION 2.0
WRAP.  NO : ONE LINE PER DEPTH STEP
~Well ------------------------------------------------------
STRT.F                   300.0 : START DEPTH
STOP.F                  7150.0 : STOP DEPTH
STEP.F                50.00000 : STEP LENGTH
NULL.                  -999.25 : NULL VALUE
COMP.        EASON OIL COMPANY : COMPANY
WELL.      FLOWERS AND WARD #1 : WELL
FLD .                  WILDCAT : FIELD
LOC .                          : LOCATION
CNTY.                   ZAVALA : COUNTY
STAT.                    TEXAS : STATE
CTRY. UNITED STATES OF AMERICA : COUNTRY
SRVC.             Schlumberger : SERVICE COMPANY
DATE.              04-Feb-1980 : LOGDATE
API .           42507312960000 : API NUMBER
UWI .           42507312960000 : UNIQUE WELL ID
SLAT.WGS84        29.077013402 : SURFACE LATITUDE
SLON.WGS84     -100.0065409806 : SURFACE LONGITUDE
~Curve Information -----------------------------------------
DEPT   .F    0   1   0  0 : 1 MEASURED DEPTH
NPHI_SS.DEC  42 890 03 00 : NEUTRON POROSITY SANDSTONE
GRD    .GAPI 45 310 01 00 : GAMMA RAY FROM DENSITY LOG
DPHI_SS.DEC  45 890 12 00 : DENSITY POROSITY SANDSTONE
CALD   .IN   45 280 60 00 : CALIPER FROM DENSITY LOG
NPHI_LS.DEC  42 890 01 00 : NEUTRON POROSITY LIMESTONE
DPHI_LS.DEC  45 890 10 00 : DENSITY POROSITY LIMESTONE
CORR   .G/C3 45 356 01 00 : DENSITY CORRECTION
RHOB   .G/C3 45 350 01 00 : BULK DENSITY
DT     .MS/F 60 500 00 00 : DELTA-T (INTERVAL TRANSIT TIME)
ILD    .OHMM 07 120 46 00 : INDUCTION DEEP RESISTIVITY
ILM    .OHMM 07 120 44 00 : INDUCTION MEDIUM RESISTIVITY
SFL    .OHMM 07 220 01 00 : SPHERICALLY FOCUSED LOG
SPR    .MV   07 010 01 00 : SPONTANEOUS POTENTIAL FROM RESISTIVITY LOG
~Params ----------------------------------------------------
PD  .                     GL : PERMANENT DATUM
EPD .FT               808.45 : ELEVATION PERMANENT DATUM
LMF .                     KB : LOG MEASURED FROM
DAPD.FT                   13 : FEET ABOVE PERMANENT DATUM
DMF .                     KB : DRILLING MEASURED FROM
EKB .FT               821.45 : KELLY BUSHING
EDF .FT               820.45 : DRILLING FLOOR
EGL .FT               808.45 : GROUND LEVEL
DATE.               02/04/80 : RUN DATE
RUN .                      1 : RUN NUMBER
DD  .FT                 7151 : DEPTH DRILLER
DL  .FT                 7191 : DEPTH LOGGER
BLI .FT                 7188 : BOTTOM LOG INTERVAL
TLI .FT                  513 : TOP LOG INTERVAL
CS  .IN                8.625 : CASING SIZE
CBD .FT                  516 : CASING BOTTOM DRILLER
CBL .FT                  513 : CASING BOTTOM LOGGER
BS  .IN                7.875 : BIT SIZE
BSD .FT                 7151 : BIT SIZE AT DEPTH
DFT .         LIGNOSULFONATE : DRILLING FLUID TYPE
DFD .                    9.3 : DRILLING FLUID DENSITY
DFV .                     44 : DRILLING FLUID VISCOSITY
DFPH.                   10.7 : DRILLING FLUID PH
DFL .                    7.7 : DRILLING FLUID LOSS
MSS .                    PIT : MUD SAMPLE SOURCE
RMS .OHMM               1.32 : RESISTIVITY MUD SAMPLE
MST .DEGF                 73 : MUD SAMPLE TEMPERATURE
RMF .OHMM               0.99 : RESISTIVITY MUD FILTRATE SAMPLE
MFST.DEGF                 73 : MUD FILTRATE SAMPLE TEMPERATURE
RMC .OHMM               1.98 : RESISTIVITY MUD CAKE
MCST.DEGF                 73 : MUD CAKE SAMPLE TEMPERATURE
MFSS.                  CHART : MUD FILTRATE SAMPLE SOURCE
MCSS.                  CHART : MUD CAKE SAMPLE SOURCE
RMB .OHMM               0.63 : RESISTIVITY MUD AT BHT
TCS .HRS                 530 : TIME CIRCULATED STOPPED
TLAB.HRS                1430 : TIME LOGGER AT BOTTOM
LUN .                   8145 : LOGGING UNIT NUMBER
LUL .                  PLEAS : LOGGING UNIT LOCATION
ENGI.                   FAIR : RECORDING ENGINEER
WITN.                 LONDON : WITNESSED BY
CLNT.                A2DTECH : CLIENT CODE
ORIG.               5" PRINT : ORIGIN OF DATA
UWI .         42507312960000 : UNIQUE WELL ID
DICO. A2D Technologies, Inc. : DIGITIZING COMPANY
~Other -----------------------------------------------------
~ASCII -----------------------------------------------------
# ...
 5500.00000    -999.25   65.16400    -999.25    8.74830    0.15080    0.02020   -0.00670    2.67200   65.78480   56.94800   52.50900   49.91210  -32.56200
 5550.00000    -999.25   28.60360    -999.25    8.51040    0.13870    0.14910   -0.01700    2.47850   64.41660   44.86210   38.25100   50.30430  -42.05910
 5600.00000    -999.25   64.39010    -999.25    8.29950    0.13990    0.06570    0.00130    2.59740   68.67100   69.15110   62.39060   58.35490  -30.73060
 5650.00000    -999.25   99.79930    -999.25   10.82850    0.25380    0.05120    0.03500    2.60580   76.49160   34.48750   38.31910   28.78540  -27.70210
 5700.00000    -999.25   72.82000    -999.25    8.21520    0.12870    0.07180   -0.00110    2.59220   71.81230   54.81210   41.47320   50.80620  -37.69280
 5750.00000    -999.25   28.17530    -999.25    7.93730    0.16590    0.16660    0.01160    2.43360   74.38170   31.86320   21.85960   25.13020  -51.10500
 5800.00000    -999.25   20.36520    -999.25    8.10720    0.12130    0.14300   -0.00450    2.46810   67.40850   57.79190   43.81350   34.04760  -46.31200
 5850.00000    -999.25   24.68060    -999.25    7.96690    0.16680    0.17160    0.01090    2.41150   71.98650   30.17250   23.46450   20.49610  -46.67280
 5900.00000    -999.25   20.20400    -999.25    8.33480    0.08860    0.10410   -0.00920    2.53520   60.10130   97.36140   59.93460   61.19340  -44.52240
 5950.00000    -999.25   29.87600    -999.25    8.04310    0.14640    0.14790    0.01530    2.45570   71.40940   30.11670   24.35940   20.09480  -42.22290
 6000.00000    -999.25   75.31650    -999.25    8.10420    0.19610    0.13450    0.01870    2.48150   75.82100   22.17640   21.06030   22.70250  -47.02440
 6050.00000    -999.25   26.43540    -999.25    8.76910    0.09650    0.09350   -0.00460    2.56190   62.84010   27.92690   28.70910   35.84450  -43.65750
 6100.00000    -999.25   15.85260    -999.25    8.04650    0.14880    0.19820   -0.00390    2.37490   69.29820    9.93280   11.92820   15.58290  -66.73250
 6150.00000    -999.25   19.13870    -999.25    8.39750    0.14450    0.18630    0.01510    2.38400   72.16140    9.21420   11.39690   14.11190  -60.66180
 6200.00000    -999.25   40.91180    -999.25    8.53790    0.13350    0.08360    0.01960    2.57030   67.94670   10.28870   13.19430   21.06880  -63.66980
 6250.00000    -999.25   19.35040    -999.25    8.65570    0.11990    0.14600    0.02040    2.46100   69.90340   14.37220   16.21170   20.84720  -64.29780
 6300.00000    -999.25   18.60030    -999.25    8.16340    0.17110    0.18330    0.01830    2.39540   72.86200    4.07590    5.86610   10.53940  -85.84060
 6350.00000    -999.25   12.08770    -999.25    8.19060    0.08440    0.14280   -0.00020    2.47080   65.66050    9.19130   11.73770   29.10150  -71.99560
 6400.00000    -999.25   38.78580    -999.25    8.27790    0.10660    0.08250    0.02430    2.56930   69.06580    6.22970    7.69440   11.05760  -69.12720
 6450.00000    -999.25   28.14780    -999.25    8.11180    0.17390    0.17610    0.01430    2.40520   74.11200    3.49470    4.74860    8.97020  -75.34450
 6500.00000    -999.25   33.64210    -999.25   10.43450    0.09980    0.01980    0.00310    2.67180   57.64710   13.66740   13.96280   19.46880  -28.36410
 6550.00000    -999.25   13.05230    -999.25    8.02910    0.05500    0.11330   -0.00420    2.51640   64.45330    4.53830    6.87400   23.57570  -87.19430
 6600.00000    -999.25   16.47160    -999.25    8.14860    0.13350    0.18080    0.00480    2.40380   70.97560    1.82280    2.84720   11.11300  -93.72470
 6650.00000    -999.25   13.04360    -999.25    7.93620    0.10450    0.16000    0.00620    2.43720   68.49760    2.20300    3.19480   12.42350  -97.76390
 6700.00000    -999.25   39.95330    -999.25   10.62980    0.11030    0.08230   -0.00500    2.56780   68.81210    7.63700    7.77570    6.68000  -26.49430
 6750.00000    -999.25   17.03280    -999.25    7.96670    0.08920    0.12530    0.00460    2.49580   67.32840    4.08210    6.12070   21.36260  -84.69100
 6800.00000    -999.25   13.88670    -999.25    8.33920    0.13040    0.19970   -0.00130    2.36780   75.77500    1.09870    1.63870    6.18080  -98.25550
 6850.00000    -999.25   58.54220    -999.25    8.93510    0.11070    0.06530    0.00530    2.59590   67.12000    6.94830    7.87800    8.90560  -26.47940
 6900.00000    -999.25   15.80220    -999.25    8.22000    0.04240    0.08530   -0.00720    2.56290   62.86310    7.36310    9.87840   26.80120  -80.79510
 6950.00000    -999.25   49.77010    -999.25    8.88240    0.06440    0.04840    0.00680    2.62700   65.18660   12.03470    9.65170   11.79250  -35.21780
 7000.00000    -999.25   94.88970    -999.25    8.67230    0.11420    0.04000   -0.00630    2.64470   65.56100   15.58610   16.25030   16.52710  -15.55980
 7050.00000    -999.25   89.69960    -999.25    8.76800    0.12450    0.01770    0.01020    2.67690   65.49680   17.77990   17.23110   18.63660  -14.67090
 7100.00000    -999.25   55.70290    -999.25    8.78060    0.11270    0.05610    0.00790    2.61430   66.14900    6.60990    7.21320    7.57990  -42.67420
 7150.00000    -999.25   48.10800    -999.25    8.13560    0.18730   -0.03540   -0.00910    2.76870   57.01780  294.35530  130.08650  277.04060  -27.02410
