~Version ---------------------------------------------------
VERS. 2.0 : CWLS log ASCII Standard -VERSION 2.0
WRAP.  NO : One line per depth step
~Well ------------------------------------------------------
STRT.FT                                1700.0 : START DEPTH
STOP.FT                                7850.0 : STOP DEPTH
STEP.FT                              50.00000 : STEP LENGTH
NULL.                                 -999.25 : NULL VALUE
COMP. MGF OIL CORPORATION & J. FRANK STRINGER : COMPANY
WELL.                             N C KING #6 : WELL
FLD .                                 EDWARDS : FIELD
LOC .                                         : LOCATION
CNTY.                                  DIMMIT : COUNTY
STAT.                                   TEXAS : STATE
CTRY.                UNITED STATES OF AMERICA : COUNTRY
SRVC.                                         : SERVICE COMPANY
DATE.                                         : LOGDATE
API .                          42127309400000 : API NUMBER
UWI .                          42127309400000 : UNIQUE WELL ID
SLAT.WGS84                      28.4912534265 : SURFACE LATITUDE
SLON.WGS84                     -99.6338349296 : SURFACE LONGITUDE
~Curve Information -----------------------------------------
DEPT  .FT    : DEPTH
ILDED .OHMM  : DEEP INDUCTION RESISTIVITY
SNED  .OHMM  : SHORT NORMAL 16 IN.
GRWS  .GAPI  : GAMMA RAY [GRSED]
SPWS  .MV    : SPONTANEOUS POTENTIAL  BASELINE 0 MV
GRSED .GAPI  : GAMMA RAY FROM SONIC LOG
CALSED.IN    : CALIPER FROM SONIC LOG
DTED  .US/F  : DELTA TIME
CILDED.MMHO  : CONDUCTIVITY FROM LOG
CALWS .IN    : CALIPER
GRNED .GAPI  : GRN
NEUTED.NAPI  : NEUTRON
SPED  .MV    : SPONTANEOUS POTENTIAL
DRESWS.OHMM  : DEEP RESISTIVITY [ILDED]
SRESWS.OHMM  : SHALLOW RESISTIVITY [SNED]
CONDWS.MMHO  : CONDUCTIVITY FROM DEEP RESISTIVITY
DTWS  .US/F  : DELTA TIME
NEUTWS.CU    : NEUTRON
~Params ----------------------------------------------------
EKB .F                 491.0 : Kelly bushing
EGL .F                 481.0 : Ground level
EDF .F                 490.0 : Drilling floor
EPD .F                 481.0 : Permanent datum
TD  .F                7874.0 : Total depth
DATE.            22-SEP-1975 : DATE LOGGED
CLNT.                A2DTECH : CLIENT CODE
PD  .                     GL : PERMANENT DATUM
LMF .                    TKB : LOG MEASURED FROM
DMF .                    TKB : DRILLING MEASURED FROM
DAPD.F                    10 : FEET ABOVE PERMANENT DATUM
DD  .F                  7848 : DEPTH DRILLER
DL  .F                  7874 : DEPTH LOGGER
BLI .F                  7858 : BOTTOM LOG INTERVAL
TLI .F                  2580 : TOP LOG INTERVAL
CS1 .IN                8.625 : CASING SIZE
CBD1.         8.625" @ 1650' : CASING DRILLER 1
CBL1.F                  1650 : CASING LOGGER 1
BS1 .IN                7.875 : BIT SIZE
BSD1.F                  7848 : DEPTH DRILLED WITH BIT1
DFT .        WATER BASED MUD : TYPE FLUID IN HOLE
DFD .                   10.4 : DENSITY
DFV .                     68 : VISCOSITY
DFPH.                    9.0 : PH
MSS .                MUD PIT : SOURCE OF SAMPLE
RMS .OHMM               0.89 : RM
RMF .OHMM               0.64 : RMF
RMC .OHMM               1.13 : RMC
MFSS.                   MEAS : SOURCE RMF.
MCSS.                   MEAS : SOURCE RMC.
RMB .OHMM               0.31 : RM. AT BHT
BHT .F                   218 : BHT.
TCS .HRS                   3 : TIME CIRC. STOPPED
LUN .                   9684 : LOGGING UNIT NUMBER
LUL .                  ALICE : LOGGING UNIT LOCATION
ENGI.                 HASSAN : RECORDED BY
WITN.                 GUYTON : WITNESSED BY
ORIG.               5" PRINT : ORIGIN OF DATA
UWI .         42127309400000 : UNIQUE WELL ID
DICO. A2D TECHNOLOGIES, INC. : DIGITIZING COMPANY
~Other -----------------------------------------------------
~ASCII -----------------------------------------------------
 1700.00000    5.71800    6.06600    -999.25  -16.38920    -999.25    -999.25    -999.25  179.99220    -999.25    -999.25    -999.25  -16.38920    5.71800    6.06600  174.88630    -999.25    -999.25
 1750.00000    5.44000    5.53200    -999.25  -14.27040    -999.25    -999.25    -999.25  198.76910    -999.25    -999.25    -999.25  -14.27040    5.44000    5.53200  183.82350    -999.25    -999.25
 1800.00000    5.57100    6.26400    -999.25  -17.94150    -999.25    -999.25    -999.25  179.41390    -999.25    -999.25    -999.25  -17.94150    5.57100    6.26400  179.50100    -999.25    -999.25
 1850.00000    3.48400    3.04500    -999.25   -3.89870    -999.25    -999.25    -999.25  339.22160    -999.25    -999.25    -999.25   -3.89870    3.48400    3.04500  287.02640    -999.25    -999.25
 1900.00000    5.25300    5.42300    -999.25  -11.39180    -999.25    -999.25    -999.25  185.62870    -999.25    -999.25    -999.25  -11.39180    5.25300    5.42300  190.36740    -999.25    -999.25
 1950.00000    5.81600    6.63300    -999.25  -11.79400    -999.25    -999.25    -999.25  178.80900    -999.25    -999.25    -999.25  -11.79400    5.81600    6.63300  171.93950    -999.25    -999.25
 2000.00000    5.45300    5.71200    -999.25  -19.11620    -999.25    -999.25    -999.25  187.83950    -999.25    -999.25    -999.25  -19.11620    5.45300    5.71200  183.38530    -999.25    -999.25
 2050.00000    4.67900    5.17900    -999.25   -6.94590    -999.25    -999.25    -999.25  243.51300    -999.25    -999.25    -999.25   -6.94590    4.67900    5.17900  213.72090    -999.25    -999.25
 2100.00000    5.05900    4.95900    -999.25  -13.19020    -999.25    -999.25    -999.25  273.78580    -999.25    -999.25    -999.25  -13.19020    5.05900    4.95900  197.66750    -999.25    -999.25
 2150.00000    5.04800    7.03600    -999.25  -23.03440    -999.25    -999.25    -999.25  190.51900    -999.25    -999.25    -999.25  -23.03440    5.04800    7.03600  198.09830    -999.25    -999.25
 2200.00000    5.16700    6.91500    -999.25  -20.10470    -999.25    -999.25    -999.25  197.32940    -999.25    -999.25    -999.25  -20.10470    5.16700    6.91500  193.53590    -999.25    -999.25
 2250.00000    5.18600    7.04700    -999.25  -29.88810    -999.25    -999.25    -999.25  202.09580    -999.25    -999.25    -999.25  -29.88810    5.18600    7.04700  192.82680    -999.25    -999.25
 2300.00000    4.92200    6.38200    -999.25   -6.62890    -999.25    -999.25    -999.25  221.10680    -999.25    -999.25    -999.25   -6.62890    4.92200    6.38200  203.16940    -999.25    -999.25
 2350.00000    4.85000    6.06900    -999.25   -7.67510    -999.25    -999.25    -999.25  210.21590    -999.25    -999.25    -999.25   -7.67510    4.85000    6.06900  206.18560    -999.25    -999.25
 2400.00000    4.15600    4.65800    -999.25   -7.16060    -999.25    -999.25    -999.25  249.65300    -999.25    -999.25    -999.25   -7.16060    4.15600    4.65800  240.61600    -999.25    -999.25
 2450.00000    3.05100    3.33100    -999.25   -5.10010    -999.25    -999.25    -999.25  378.45140    -999.25    -999.25    -999.25   -5.10010    3.05100    3.33100  327.76140    -999.25    -999.25
 2500.00000    3.15500    3.48000    -999.25   -0.20370    -999.25    -999.25    -999.25  389.27150    -999.25    -999.25    -999.25   -0.20370    3.15500    3.48000  316.95720    -999.25    -999.25
 2550.00000    3.07500    3.59600    -999.25   -6.49380    -999.25    -999.25    -999.25  349.96010    -999.25    -999.25    -999.25   -6.49380    3.07500    3.59600  325.20320    -999.25    -999.25
 2600.00000    3.42900    3.62800   71.74680   -4.18540   71.74680    9.59130  125.01190  437.42230    9.59130    -999.25    -999.25   -4.18540    3.42900    3.62800  291.63020  125.01190    -999.25
 2650.00000    3.49200    3.93000   49.51820   -5.71620   49.51820    9.58350   91.52150  385.55750    9.58350    -999.25    -999.25   -5.71620    3.49200    3.93000  286.36880   91.52150    -999.25
 2700.00000    3.62200    3.78000   60.00000   -4.59500   60.00000    9.67820   96.56230  362.79230    9.67820    -999.25    -999.25   -4.59500    3.62200    3.78000  276.09050   96.56230    -999.25
 2750.00000    2.61700    2.63200   73.29160   -2.17380   73.29160    9.63770  126.71590  501.16430    9.63770    -999.25    -999.25   -2.17380    2.61700    2.63200  382.11690  126.71590    -999.25
 2800.00000    6.92800    8.51200   40.83460  -43.55570   40.83460    8.99470   76.83190  119.64740    8.99470    -999.25    -999.25  -43.55570    6.92800    8.51200  144.34180   76.83190    -999.25
 2850.00000    8.03300    8.65700   51.65380  -20.39920   51.65380    9.42680   81.64590  123.75250    9.42680    -999.25    -999.25  -20.39920    8.03300    8.65700  124.48650   81.64590    -999.25
 2900.00000    8.34800   14.50000   32.91030  -42.15880   32.91030    9.59130   68.81530   99.96670    9.59130    -999.25    -999.25  -42.15880    8.34800   14.50000  119.78920   68.81530    -999.25
 2950.00000    5.36900    5.88200   67.72770   -3.08640   67.72770    9.69500   90.00000  176.08100    9.69500    -999.25    -999.25   -3.08640    5.36900    5.88200  186.25440   90.00000    -999.25
 3000.00000    7.77400   10.51100   49.48400   -9.77860   49.48400    9.57240   75.59250  136.07260    9.57240    -999.25    -999.25   -9.77860    7.77400   10.51100  128.63390   75.59250    -999.25
 3050.00000    5.07500    6.02300   73.06950   -2.26430   73.06950    9.30840   98.49960  212.28970    9.30840    -999.25    -999.25   -2.26430    5.07500    6.02300  197.04430   98.49960    -999.25
 3100.00000    5.07700    6.71000   71.12850   -8.42810   71.12850    9.10220   88.29590  195.65790    9.10220    -999.25    -999.25   -8.42810    5.07700    6.71000  196.96670   88.29590    -999.25
 3150.00000   11.21800   16.49600   28.16100  -23.22520   28.16100    9.08050   68.72380   79.34130    9.08050    -999.25    -999.25  -23.22520   11.21800   16.49600   89.14240   68.72380    -999.25
 3200.00000    8.31900    8.10100   24.31160  -50.77150   24.31160    8.70900   72.88190   40.38680    8.70900    -999.25    -999.25  -50.77150    8.31900    8.10100  120.20670   72.88190    -999.25
 3250.00000    4.64700    4.94900   64.52880   -3.56610   64.52880    8.17760   93.40830  211.94290    8.17760    -999.25    -999.25   -3.56610    4.64700    4.94900  215.19260   93.40830    -999.25
 3300.00000    3.79000    3.86300   62.16380   -6.33580   62.16380    8.32200   85.04290   17.11080    8.32200    -999.25    -999.25   -6.33580    3.79000    3.86300  263.85220   85.04290    -999.25
 3350.00000    3.61200    3.44000    -999.25   -5.21510    -999.25    -999.25    -999.25  320.91700    -999.25    -999.25    -999.25   -5.21510    3.61200    3.44000  276.85490    -999.25    -999.25
 3400.00000    3.85500    4.33200    -999.25   -8.21550    -999.25    -999.25    -999.25  314.87030    -999.25    -999.25    -999.25   -8.21550    3.85500    4.33200  259.40340    -999.25    -999.25
 3450.00000    4.55400    4.92500    -999.25   -8.16990    -999.25    -999.25    -999.25  239.97660    -999.25    -999.25    -999.25   -8.16990    4.55400    4.92500  219.58720    -999.25    -999.25
 3500.00000    4.14100    4.26800    -999.25   -9.29830    -999.25    -999.25    -999.25  242.80720    -999.25    -999.25    -999.25   -9.29830    4.14100    4.26800  241.48760    -999.25    -999.25
 3550.00000    3.46600    3.96700    -999.25   -9.78070    -999.25    -999.25    -999.25  332.21060    -999.25    -999.25    -999.25   -9.78070    3.46600    3.96700  288.51700    -999.25    -999.25
 3600.00000    3.07000    3.28000    -999.25   -7.14300    -999.25    -999.25    -999.25  375.74850    -999.25    -999.25    -999.25   -7.14300    3.07000    3.28000  325.73290    -999.25    -999.25
 3650.00000    2.90200    3.28100    -999.25   -7.08790    -999.25    -999.25    -999.25  418.11900    -999.25    -999.25    -999.25   -7.08790    2.90200    3.28100  344.58990    -999.25    -999.25
 3700.00000    2.09200    2.50300    -999.25   -2.28250    -999.25    -999.25    -999.25  569.27270    -999.25    -999.25    -999.25   -2.28250    2.09200    2.50300  478.01150    -999.25    -999.25
