~Version ---------------------------------------------------
VERS. 2.0 : CWLS log ASCII Standard -VERSION 2.0
WRAP. YES : MULTIPLE LINES PER DEPTH STEP
~Well ------------------------------------------------------
STRT.FT                   1000.0 : START DEPTH
STOP.FT                  11500.0 : STOP DEPTH
STEP.FT                 50.00000 : STEP LENGTH
NULL.                    -999.25 : NULL VALUE
COMP. KAISER-FRANCIS OIL COMPANY : COMPANY
WELL.            D.C. MCMANUS #1 : WELL
FLD .              AUSTIN PIERCE : FIELD
LOC .                            : LOCATION
CNTY.                   GONZALES : COUNTY
STAT.                      TEXAS : STATE
CTRY.   UNITED STATES OF AMERICA : COUNTRY
SRVC.               Schlumberger : SERVICE COMPANY
DATE.                01-Dec-1996 : LOGDATE
API .             42177320060000 : API NUMBER
UWI .             42177320060000 : UNIQUE WELL ID
SLAT.WGS84          29.374572664 : SURFACE LATITUDE
SLON.WGS84        -97.3289574079 : SURFACE LONGITUDE
~Curve Information -----------------------------------------
DEPT    .FT    : DEPTH FEET
AO10ED  .OHMM  : 10 INCH ARRAY RESISTIVITY ONE FOOT RESOLUTION
AO20ED  .OHMM  : 20 INCH ARRAY RESISTIVITY ONE FOOT RESOLUTION
AO30ED  .OHMM  : 30 INCH ARRAY RESISTIVITY ONE FOOT RESOLUTION
AO60ED  .OHMM  : 60 INCH ARRAY RESISTIVITY ONE FOOT RESOLUTION
AO90ED  .OHMM  : 90 INCH ARRAY RESISTIVITY ONE FOOT RESOLUTION
CALWS   .IN    : CALIPER [DCALED+BITED]
CONDWS  .MMHO  : CONDUCTIVITY [1000/DRESWS]
DCALRED .IN    : DIFFERENTIAL CALIPER FROM RESISTIVITY LOG
DCORWS  .G/C3  : DENSITY CORRECTION [HDRAED]
DENWS   .G/C3  : BULK DENSITY [M=2.71 F=1.0] [CALCULATED FROM DPOWS]
DPHZLSED.V/V   : DENSITY POROSITY [M=2.71 F=1.0] FROM DENSITY LOG
DPOWS   .V/V   : DENSITY POROSITY [M=2.71 F=1.0] [DPHZLSED]
DRESWS  .OHMM  : DEEP RESISTIVITY [AO90ED]
DTED    .US/F  : DELTA TIME FROM SONIC LOG
DTWS    .US/F  : DELTA TIME [DTED]
GRRED   .GAPI  : GAMMA RAY FROM RESISTIVITY LOG
GRWS    .GAPI  : GAMMA RAY [GRRED, CSG ABOVE 1070F]
HDRAED  .G/C3  : DENSITY CORRECTION FROM DENSITY LOG
MRESWS  .OHMM  : MEDIUM RESISTIVITY [AO30ED]
NPHILSED.V/V   : NEUTRON POROSITY LIMESTONE FROM DENSITY LOG
NPOWS   .V/V   : NEUTRON POROSITY LIMESTONE [NPHILSED]
SPRED   .MV    : SPONTANEOUS POTENTIAL FROM RESISTIVITY LOG
SPWS    .MV    : SPONTANEOUS POTENTIAL [BASELINE 0 MV] [SPRED]
SRESWS  .OHMM  : SHALLOW RESISTIVITY [AO10ED]
TENRED  .LBF   : TENSION FROM RESISTIVITY LOG
~Params ----------------------------------------------------
PD  .                     GL : PERMANENT DATUM
EPD .FT               257.26 : ELEVATION PERMANENT DATUM
LMF .                     KB : LOG MEASURED FROM
DAPD.FT                 16.3 : FEET ABOVE PERMANENT DATUM
DMF .                     KB : DRILLING MEASURED FROM
EKB .FT               275.58 : KELLY BUSHING
EDF .FT                  275 : DRILLING FLOOR
EGL .FT               257.26 : GROUND LEVEL
DATE.               12/01/96 : RUN DATE
RUN .                      1 : RUN NUMBER
DD  .FT                11530 : DEPTH DRILLER
DL  .FT                11500 : DEPTH LOGGER
BLI .FT                11500 : BOTTOM LOG INTERVAL
TLI .FT                 1070 : TOP LOG INTERVAL
CS  .IN                9.625 : CASING SIZE
CBD .FT                 1061 : CASING BOTTOM DRILLER
CBL .FT                 1070 : CASING BOTTOM LOGGER
BS  .IN                 8.75 : BIT SIZE
BSD .FT                11530 : BIT SIZE AT DEPTH
DFT .                 LOLIME : DRILLING FLUID TYPE
DFD .                   10.1 : DRILLING FLUID DENSITY
DFV .                     47 : DRILLING FLUID VISCOSITY
DFPH.                    9.5 : DRILLING FLUID PH
MSS .                MUD PIT : MUD SAMPLE SOURCE
RMS .OHMM               4.36 : RESISTIVITY MUD SAMPLE
MST .FT                   75 : MUD SAMPLE TEMPERATURE
RMF .OHMM                3.7 : RESISTIVITY MUD FILTRATE SAMPLE
MFST.FT                   75 : MUD FILTRATE SAMPLE TEMPERATURE
RMC .OHMM                6.5 : RESISTIVITY MUD CAKE
MCST.FT                   75 : MUD CAKE SAMPLE TEMPERATURE
MFSS.              MUD PRESS : MUD FILTRATE SAMPLE SOURCE
MCSS.                   CALC : MUD CAKE SAMPLE SOURCE
RMB .OHMM              1.515 : RESISTIVITY MUD AT BHT
TCS .HRS                 430 : TIME CURCULATED STOPPED
TLAB.HRS                 900 : TIME LOGGER AT BOTTOM
LUN .                   3075 : LOGGING UNIT NUMBER
LUL .               VICTORIA : LOGGING UNIT LOCATION
ENGI.                  NAHRI : RECORDING ENGINEER
WITN.                   RUSS : WITNESSED BY
CLNT.                A2DTECH : CLIENT CODE
ORIG.               5" PRINT : ORIGIN OF DATA
UWI .         42177320060000 : UNIQUE WELL ID
DICO. A2D Technologies, Inc. : DIGITIZING COMPANY
~Other -----------------------------------------------------
~ASCII -----------------------------------------------------
# ...
 9400.00000    1.54490    1.52580    1.40730    1.35690    1.35060    9.55950  740.41170    0.80950    0.10190    2.45470    0.14930    0.14930    1.35060   91.23870   91.23870  109.50030  109.50030    0.10190    1.40730    0.26690    0.26690   16.23200   -2.25730    1.54490 4168.35350
 9450.00000    1.70600    1.63900    1.55280    1.50410    1.47170   10.60460  679.48630    1.85460    0.10000    2.43160    0.16280    0.16280    1.47170   94.54340   94.54340  102.38380  102.38380    0.10000    1.55280    0.30280    0.30280   14.01200   -2.05660    1.70600 4183.13130
 9500.00000    2.03030    1.93460    1.89780    1.79150    1.66200   10.12500  601.68480    1.37500    0.02660    2.51040    0.11670    0.11670    1.66200   87.40260   87.40260   94.40510   94.40510    0.02660    1.89780    0.19740    0.19740    9.56440   -4.08350    2.03030 4136.01900
 9550.00000    1.74990    1.60400    1.47110    1.35610    1.34720   10.62590  742.28030    1.87590    0.09230    2.46700    0.14210    0.14210    1.34720   90.91640   90.91640   99.88400   99.88400    0.09230    1.47110    0.27550    0.27550    7.57840   -3.64880    1.74990 4192.96920
 9600.00000    2.38860    2.33520    2.22180    2.06250    2.02900    9.53190  492.85360    0.78190    0.01900    2.52790    0.10650    0.10650    2.02900   81.31660   81.31660   97.37180   97.37180    0.01900    2.22180    0.20490    0.20490    7.47250   -1.33400    2.38860 4279.83690
 9650.00000    2.55060    2.43460    2.21880    2.14020    2.08870    9.47850  478.76670    0.72850    0.10000    2.51630    0.11330    0.11330    2.08870   84.01110   84.01110   99.47990   99.47990    0.10000    2.21880    0.17650    0.17650    4.74870   -1.19610    2.55060 4245.96000
 9700.00000    2.14660    1.99510    1.82570    1.67980    1.63320   10.30950  612.29490    1.55950    0.10000    2.52090    0.11060    0.11060    1.63320   86.29160   86.29160   83.06480   83.06480    0.10000    1.82570    0.21840    0.21840    1.07410   -1.83750    2.14660 4238.25830
 9750.00000    1.84370    1.61050    1.55800    1.46390    1.44110   10.80420  693.91440    2.05420    -999.25    2.46360    0.14410    0.14410    1.44110   90.13500   90.13500   97.16970   97.16970    -999.25    1.55800    0.25970    0.25970   -1.71120   -1.58960    1.84370 4263.47460
 9800.00000    1.85570    1.84430    1.74340    1.63090    1.62170   10.61360  616.63680    1.86360    -999.25    2.50690    0.11880    0.11880    1.62170   88.54260   88.54260   92.45790   92.45790    -999.25    1.74340    0.23470    0.23470   -4.32400   -1.16930    1.85570 4226.43160
 9850.00000    2.02810    1.94760    1.87850    1.74600    1.73630   10.50560  575.93730    1.75560    -999.25    2.49040    0.12840    0.12840    1.73630   85.53740   85.53740   92.33450   92.33450    -999.25    1.87850    0.20940    0.20940   -7.80610   -1.61820    2.02810 4229.83740
 9900.00000    1.71770    1.70660    1.61400    1.49930    1.49130   10.96600  670.55590    2.21600    -999.25    2.60240    0.06290    0.06290    1.49130   91.73150   91.73150   90.48360   90.48360    -999.25    1.61400    0.26240    0.26240  -11.68640   -2.46530    1.71770 4277.86330
 9950.00000    1.69020    1.61870    1.55310    1.46730    1.45920   10.95600  685.30700    2.20600    -999.25    2.45590    0.14860    0.14860    1.45920   90.80280   90.80280   87.38570   87.38570    -999.25    1.55310    0.24540    0.24540  -16.07730   -3.82300    1.69020 4278.30420
 10000.00000    1.67620    1.65600    1.59490    1.47090    1.46300   10.14990  683.52700    1.39990    -999.25    2.42070    0.16920    0.16920    1.46300   87.50400   87.50400  102.89210  102.89210    -999.25    1.59490    0.24030    0.24030  -17.50200   -2.21460    1.67620 4272.95800
 10050.00000    1.70760    1.66560    1.61110    1.50900    1.50090   10.66670  666.26690    1.91670    -999.25    2.41960    0.16980    0.16980    1.50090   89.53020   89.53020   97.72570   97.72570    -999.25    1.61110    0.28010    0.28010  -21.55000   -3.22940    1.70760 4313.39160
 10100.00000    1.62770    1.50620    1.47850    1.44280    1.40280   10.96890  712.86000    2.21890    -999.25    2.48100    0.13390    0.13390    1.40280   94.47270   94.47270  103.72750  103.72750    -999.25    1.47850    0.27460    0.27460  -23.82450   -2.53560    1.62770 4273.35210
 10150.00000    1.66230    1.51420    1.41510    1.30810    1.30000   10.93980  769.23080    2.18980    -999.25    2.42940    0.16410    0.16410    1.30000   94.24510   94.24510  104.35960  104.35960    -999.25    1.41510    0.25290    0.25290  -30.41950   -6.90840    1.66230 4285.18260
 10200.00000    1.52240    1.51130    1.37910    1.30980    1.30020   10.93470  769.11240    2.18470    -999.25    2.50210    0.12160    0.12160    1.30020   92.53520   92.53520  101.59110  101.59110    -999.25    1.37910    0.27580    0.27580  -30.46840   -4.73510    1.52240 4344.45610
 10250.00000    1.87320    1.91310    1.62330    1.60810    1.59840   10.49830  625.62560    1.74830    -999.25    2.50670    0.11890    0.11890    1.59840   84.75120   84.75120  111.82230  111.82230    -999.25    1.62330    0.23530    0.23530  -31.82590   -3.87030    1.87320 4354.34420
 10300.00000    2.12970    2.07260    1.89680    1.72580    1.64650    9.60540  607.34890    0.85540    0.02000    2.57870    0.07680    0.07680    1.64650   81.48130   81.48130  102.47170  102.47170    0.02000    1.89680    0.20650    0.20650  -32.03410   -1.85630    2.12970 4433.18510
 10350.00000    1.84960    1.82220    1.73870    1.60350    1.58990    9.68620  628.97040    0.93620    0.10120    2.52530    0.10800    0.10800    1.58990   86.03500   86.03500  102.77630  102.77630    0.10120    1.73870    0.23090    0.23090  -37.26690   -4.95270    1.84960 4415.32030
 10400.00000    7.69650    6.58170    6.08290    5.76180    5.24930    9.12570  190.50160    0.37570    0.01480    2.63070    0.04640    0.04640    5.24930   66.32900   66.32900   55.35570   55.35570    0.01480    6.08290    0.04910    0.04910  -38.34720   -4.88270    7.69650 4458.78710
 10450.00000    3.92110    3.67600    3.43290    3.19110    3.16330    9.78630  316.12550    1.03630    0.01130    2.61050    0.05820    0.05820    3.16330   74.90940   74.90940   69.58190   69.58190    0.01130    3.43290    0.10290    0.10290  -37.67880   -3.06410    3.92110 4478.08980
 10500.00000    3.51330    3.40900    3.16180    2.90650    2.74410    9.35810  364.41820    0.60810    0.03920    2.61750    0.05410    0.05410    2.74410   74.41930   74.41930   81.07030   81.07030    0.03920    3.16180    0.11840    0.11840  -41.10130   -5.33640    3.51330 4566.69140
 10550.00000    7.53260    7.27070    6.65560    6.03430    6.00040    9.72140  166.65550    0.97140    0.01380    2.61220    0.05720    0.05720    6.00040   69.00490   69.00490   50.73160   50.73160    0.01380    6.65560    0.07610    0.07610  -40.20740   -3.29230    7.53260 4517.85350
 10600.00000    5.96730    5.85420    5.19750    5.22110    5.01470    9.62730  199.41370    0.87730    0.02090    2.60400    0.06200    0.06200    5.01470   74.04130   74.04130   68.30600   68.30600    0.02090    5.19750    0.09400    0.09400  -41.23120   -3.21270    5.96730 4559.22710
 10650.00000    3.93060    3.77660    3.55080    3.40520    3.21680    9.53390  310.86800    0.78390    0.02680    2.61170    0.05750    0.05750    3.21680   74.92940   74.92940   69.11280   69.11280    0.02680    3.55080    0.11020    0.11020  -41.05360   -2.07240    3.93060 4504.42530
 10700.00000   17.55770   16.88220   15.16010   13.38990   11.04350    9.91750   90.55100    1.16750    0.01900    2.63730    0.04250    0.04250   11.04350   59.81230   59.81230   34.31060   34.31060    0.01900   15.16010    0.03430    0.03430  -52.86930  -12.92540   17.55770 4619.16110
 10750.00000   21.99280   17.04660    9.36580    8.28320    7.72090    9.50680  129.51860    0.75680    0.02800    2.67080    0.02290    0.02290    7.72090   89.23800   89.23800   42.46650   42.46650    0.02800    9.36580    0.02910    0.02910  -53.33120  -12.42460   21.99280 4630.01810
