~Version ---------------------------------------------------
VERS. 2.0 : CWLS log ASCII Standard -VERSION 2.0
WRAP. YES : MULTIPLE LINES PER DEPTH STEP
~Well ------------------------------------------------------
STRT.FT                        1500.0 : START DEPTH
STOP.FT                       11350.0 : STOP DEPTH
STEP.FT                      50.00000 : STEP LENGTH
NULL.                         -999.25 : NULL VALUE
COMP.               DAVIS OIL COMPANY : COMPANY
WELL. JOE L. MOCZYGEMBA ET AL UNIT #1 : WELL
FLD .                              WC : FIELD
LOC .                                 : LOCATION
CNTY.                          KARNES : COUNTY
STAT.                           TEXAS : STATE
CTRY.        UNITED STATES OF AMERICA : COUNTRY
SRVC.                    Schlumberger : SERVICE COMPANY
DATE.                     06-Aug-1979 : LOGDATE
API .                  42255307210000 : API NUMBER
UWI .                  42255307210000 : UNIQUE WELL ID
SLAT.WGS84              28.9245629429 : SURFACE LATITUDE
SLON.WGS84             -98.0279225709 : SURFACE LONGITUDE
~Curve Information -----------------------------------------
DEPT    .FT    : DEPTH FEET
CALDED  .IN    : CALIPER FROM DENSITY LOG [ADJ TO LL8ED]
CALWS   .IN    : CALIPER [CALDED]
CONDWS  .MMHO  : CONDUCTIVITY [1000/DRESWS]
DCORWS  .G/C3  : DENSITY CORRECTION [DRHOED]
DENWS   .G/C3  : BULK DENSITY [RHOBED]
DPHILSED.V/V   : DENSITY POROSITY [M=2.71 F=1.0] FROM DENSITY LOG [ADJ TO LL8ED]
DPHISSED.V/V   : DENSITY POROSITY [M=2.65 F=1.0] FROM DENSITY LOG [ADJ TO LL8ED]
DPOWS   .V/V   : DENSITY POROSITY [M=2.71F=1.0] [CALCULATED FROM DENWS]
DRESWS  .OHMM  : DEEP RESISTIVITY [ILDED]
DRHOED  .G/C3  : DENSITY CORRECTION FROM DENSITY LOG [ADJ TO LL8ED]
DTED    .US/F  : DELTA TIME FROM SONIC LOG
DTWS    .US/F  : DELTA TIME [DTED]
GRDED   .GAPI  : GAMMA RAY FROM DENSITY LOG [ADJ TO LL8ED]
GRWS    .GAPI  : GAMMA RAY [GRDED]
ILDED   .OHMM  : INDUCTION LOG DEEP RESISTIVITY
ILMED   .OHMM  : INDUCTION LOG MEDIUM RESISTIVITY
LL8ED   .OHMM  : 8 INCH LATEROLOG RESISTIVITY
MRESWS  .OHMM  : MEDIUM RESISTIVITY [ILMED]
NPHILSED.V/V   : NEUTRON POROSITY LIMESTONE FROM DENSITY LOG [ADJ TO LL8ED]
NPHISSED.V/V   : NEUTRON POROSITY SANDSTONE FROM DENSITY LOG [ADJ TO LL8ED]
NPOWS   .V/V   : NEUTRON POROSITY LIMESTONE [COMVERTED NPHISSED TO LIMESTONE AND SPL WITH NPHILSED @10082F]
RHOBED  .G/C3  : BULK DENSITY FROM DENSITY LOG [ADJ TO LL8ED]
SPRED   .MV    : SPONTANEOUS POTENTIAL FROM RESISTIVITY LOG
SPWS    .MV    : SPONTANEOUS POTENTIAL [BASELINE 0 MV] [SPRED]
SRESWS  .OHMM  : SHALLOW RESISTIVITY [LL8ED]
TENDED  .LBF   : TENSION FROM DENSITY LOG [ADJ TO LL8ED]
~Params ----------------------------------------------------
PD  .                     GL : PERMANENT DATUM
EPD .FT                  402 : ELEVATION PERMANENT DATUM
LMF .                     KB : LOG MEASURED FROM
DAPD.FT                   11 : FEET ABOVE PERMANENT DATUM
DMF .                     KB : DRILLING MEASURED FROM
EKB .FT                  413 : KELLY BUSHING
EDF .FT                  412 : DRILLING FLOOR
EGL .FT                  402 : GROUND LEVEL
DATE.               08/06/79 : RUN DATE
RUN .                      2 : RUN NUMBER
DD  .FT                11364 : DEPTH DRILLER
DL  .FT                11356 : DEPTH LOGGER
BLI .FT                11350 : BOTTOM LOG INTERVAL
TLI .FT                  200 : TOP LOG INTERVAL
CS  .IN                10.75 : CASING SIZE
CBD .FT                 1507 : CASING BOTTOM DRILLER
CBL .FT                    0 : CASING BOTTOM LOGGER
BS  .IN                 8.75 : BIT SIZE
BSD .FT                11364 : BIT SIZE AT DEPTH
DFT .        LIGNO SULFONATE : DRILLING FLUID TYPE
DFD .                   11.7 : DRILLING FLUID DENSITY
DFV .                     48 : DRILLING FLUID VISCOSITY
DFPH.                     11 : DRILLING FLUID PH
DFL .                    4.8 : DRILLING FLUID LOSS
MSS .                    BIN : MUD SAMPLE SOURCE
RMS .OHMM               0.62 : RESISTIVITY MUD SAMPLE
MST .DEGF                 99 : MUD SAMPLE TEMPERATURE
RMF .OHMM               0.57 : RESISTIVITY MUD FILTRATE SAMPLE
MFST.DEGF                 86 : MUD FILTRATE SAMPLE TEMPERATURE
RMC .OHMM                  0 : RESISTIVITY MUD CAKE
MCST.DEGF                 99 : MUD CAKE SAMPLE TEMPERATURE
MFSS.                        : MUD FILTRATE SAMPLE SOURCE
MCSS.                   CALC : MUD CAKE SAMPLE SOURCE
RMB .OHMM                  0 : RESISTIVITY MUD AT BHT
TCS .HRS                   0 : TIME CIRCULATED STOPPED
TLAB.HRS                 715 : TIME LOGGER AT BOTTOM
LUN .                   7799 : LOGGING UNIT NUMBER
LUL .                  PLAES : LOGGING UNIT LOCATION
ENGI.                        : RECORDING ENGINEER
WITN.                  ARREN : WITNESSED BY
CLNT.                A2DTECH : CLIENT CODE
ORIG.               1" PRINT : ORIGIN OF DATA
UWI .         42255307210000 : UNIQUE WELL ID
DICO. A2D Technologies, Inc. : DIGITIZING COMPANY
OS  .                        : OTHER SERVICES
PWI .                        : PRIMARY WELL IDENTIFIER
R1  .                        : REMARKS 1
R2  .                        : REMARKS 2
LSRV.                        : LOG MNEMONIC
~Other -----------------------------------------------------
~ASCII -----------------------------------------------------
# ...
 9600.00000    -999.25    -999.25  393.46840    -999.25    -999.25    -999.25    -999.25    -999.25    2.54150    -999.25   83.62200   83.62200    -999.25    -999.25    2.54150    2.65820    2.54520    2.65820    -999.25    -999.25    -999.25    -999.25  -22.03090   -2.63060    2.54520    -999.25
 9650.00000    -999.25    -999.25  541.71180    -999.25    -999.25    -999.25    -999.25    -999.25    1.84600    -999.25   94.34700   94.34700    -999.25    -999.25    1.84600    1.81060    1.92280    1.81060    -999.25    -999.25    -999.25    -999.25  -20.95810   -1.68880    1.92280    -999.25
 9700.00000    -999.25    -999.25  439.77310    -999.25    -999.25    -999.25    -999.25    -999.25    2.27390    -999.25   89.51540   89.51540    -999.25    -999.25    2.27390    2.35290    2.38660    2.35290    -999.25    -999.25    -999.25    -999.25  -19.83530   -0.69710    2.38660    -999.25
 9750.00000    -999.25    -999.25  424.16020    -999.25    -999.25    -999.25    -999.25    -999.25    2.35760    -999.25   89.36450   89.36450    -999.25    -999.25    2.35760    2.37680    2.50150    2.37680    -999.25    -999.25    -999.25    -999.25  -19.87790   -0.87070    2.50150    -999.25
 9800.00000    -999.25    -999.25  458.29520    -999.25    -999.25    -999.25    -999.25    -999.25    2.18200    -999.25   88.77490   88.77490    -999.25    -999.25    2.18200    2.08230    2.21890    2.08230    -999.25    -999.25    -999.25    -999.25  -20.38530   -1.50920    2.21890    -999.25
 9850.00000    -999.25    -999.25  439.19360    -999.25    -999.25    -999.25    -999.25    -999.25    2.27690    -999.25   89.32730   89.32730    -999.25    -999.25    2.27690    2.21480    2.32270    2.21480    -999.25    -999.25    -999.25    -999.25  -19.49840   -0.75330    2.32270    -999.25
 9900.00000    -999.25    -999.25  448.71220    -999.25    -999.25    -999.25    -999.25    -999.25    2.22860    -999.25   90.83290   90.83290    -999.25    -999.25    2.22860    2.17300    2.39200    2.17300    -999.25    -999.25    -999.25    -999.25  -19.65250   -1.03840    2.39200    -999.25
 9950.00000    -999.25    -999.25  483.53560    -999.25    -999.25    -999.25    -999.25    -999.25    2.06810    -999.25   90.08500   90.08500    -999.25    -999.25    2.06810    1.93240    2.13290    1.93240    -999.25    -999.25    -999.25    -999.25  -20.43580   -1.95280    2.13290    -999.25
 10000.00000    -999.25    -999.25  427.53310    -999.25    -999.25    -999.25    -999.25    -999.25    2.33900    -999.25   87.93710   87.93710    -999.25    -999.25    2.33900    2.23810    2.49970    2.23810    -999.25    -999.25    -999.25    -999.25  -19.83550   -1.36950    2.49970    -999.25
 10050.00000    -999.25    -999.25  462.55610    -999.25    -999.25    -999.25    -999.25    -999.25    2.16190    -999.25   88.72210   88.72210    -999.25    -999.25    2.16190    2.11520    2.37390    2.11520    -999.25    -999.25    -999.25    -999.25  -20.54090   -2.07490    2.37390    -999.25
 10100.00000   13.12870   13.12870  439.50250    0.00280    2.33640    0.19220    -999.25    0.21850    2.27530    0.00280   93.68140   93.68140   81.78930   81.78930    2.27530    2.54090    2.72870    2.54090    0.28940    -999.25    0.28940    2.33640  -22.67810   -4.21210    2.72870 3569.82470
 10150.00000   12.04910   12.04910  337.95200    0.00090    2.50880    0.11140    -999.25    0.11770    2.95900    0.00090   82.08210   82.08210   48.49630   48.49630    2.95900    4.06570    5.69170    4.06570    0.04520    -999.25    0.04520    2.50880  -22.74790   -4.28190    5.69170 3389.95140
 10200.00000   12.29750   12.29750  214.44040    0.01320    2.66610    0.02440    -999.25    0.02570    4.66330    0.01320   68.37130   68.37130   58.86540   58.86540    4.66330    5.63870    6.46250    5.63870    0.09390    -999.25    0.09390    2.66610  -22.76480   -4.29880    6.46250 3725.70190
 10250.00000   12.03410   12.03410  165.84300   -0.01260    2.61780    0.05330    -999.25    0.05390    6.02980   -0.01260   69.13180   69.13180   57.77950   57.77950    6.02980    5.88870    6.08940    5.88870    0.11410    -999.25    0.11410    2.61780  -22.80130   -4.33530    6.08940 3487.90920
 10300.00000   12.27250   12.27250  108.66380    0.01470    2.67750    0.01780    -999.25    0.01900    9.20270    0.01470   67.06220   67.06220   38.85990   38.85990    9.20270   10.92580   11.25750   10.92580    0.05380    -999.25    0.05380    2.67750  -25.69270   -7.22680   11.25750 3489.51050
 10350.00000   12.09010   12.09010   96.82980   -0.00050    2.67010    0.02070    -999.25    0.02330   10.32740   -0.00050   62.67250   62.67250   42.93170   42.93170   10.32740    9.98520   12.64890    9.98520    0.06130    -999.25    0.06130    2.67010  -28.28830   -9.82230   12.64890 3463.04810
 10400.00000   11.73310   11.73310  149.20030   -0.00890    2.57700    0.07960    -999.25    0.07780    6.70240   -0.00890   64.16130   64.16130   54.38960   54.38960    6.70240    8.35160    6.72630    8.35160    0.08830    -999.25    0.08830    2.57700  -26.99600   -8.53000    6.72630 3509.89400
 10450.00000   11.99950   11.99950   21.93590   -0.00640    2.60710    0.06020    -999.25    0.06020   45.58740   -0.00640   59.97550   59.97550   27.44450   27.44450   45.58740   43.39650   60.97270   43.39650    0.02570    -999.25    0.02570    2.60710  -30.46840  -12.00240   60.97270 3517.41820
 10500.00000   11.49760   11.49760  169.77350   -0.00930    2.55720    0.08770    -999.25    0.08940    5.89020   -0.00930   73.66650   73.66650   35.20330   35.20330    5.89020    8.22080    7.25940    8.22080    0.10290    -999.25    0.10290    2.55720  -30.39290  -11.92690    7.25940 3514.20070
 10550.00000   10.98260   10.98260   80.11090   -0.00390    2.67730    0.01960    -999.25    0.01910   12.48270   -0.00390   60.93760   60.93760   39.27890   39.27890   12.48270   11.98210   11.68960   11.98210    0.03450    -999.25    0.03450    2.67730  -29.51220  -11.04620   11.68960 3555.34130
 10600.00000   11.46290   11.46290   75.15010    0.00650    2.60940    0.06310    -999.25    0.05880   13.30670    0.00650   61.92980   61.92980   87.66280   87.66280   13.30670   11.88660    9.87080   11.88660    0.05450    -999.25    0.05450    2.60940  -31.64040  -13.17440    9.87080 3582.39890
 10650.00000   11.89000   11.89000   53.59170    0.00820    2.61690    0.05080    -999.25    0.05440   18.65960    0.00820   71.24700   71.24700   64.22960   64.22960   18.65960   18.24100   25.24880   18.24100    0.12330    -999.25    0.12330    2.61690  -23.23350   -4.76750   25.24880 3563.99150
 10700.00000   11.45910   11.45910   59.70900    0.03090    2.52680    0.10870    -999.25    0.10710   16.74790    0.03090   73.24540   73.24540   57.06130   57.06130   16.74790   15.12450   17.91200   15.12450    0.18850    -999.25    0.18850    2.52680  -31.73480  -13.26880   17.91200 3592.82840
 10750.00000   11.82130   11.82130   22.72310    0.02160    2.55360    0.08990    -999.25    0.09150   44.00800    0.02160   71.56710   71.56710   70.16520   70.16520   44.00800   35.01850   69.91360   35.01850    0.13460    -999.25    0.13460    2.55360  -32.70770  -14.24170   69.91360 3575.60350
 10800.00000   11.85320   11.85320   22.97880    0.01560    2.57620    0.07590    -999.25    0.07820   43.51830    0.01560   76.54990   76.54990   72.45730   72.45730   43.51830   41.37950   86.01840   41.37950    0.13770    -999.25    0.13770    2.57620  -34.70900  -16.24300   86.01840 3588.92530
 10850.00000   10.93090   10.93090   42.79540    0.01610    2.70540    0.00060    -999.25    0.00270   23.36700    0.01610   54.00340   54.00340   30.82610   30.82610   23.36700   19.82810   42.26600   19.82810    0.03480    -999.25    0.03480    2.70540  -30.76000  -12.29400   42.26600 3635.29660
 10900.00000   11.33920   11.33920   14.56130    0.01480    2.71530   -0.00430    -999.25   -0.00310   68.67530    0.01480   50.04880   50.04880   22.34790   22.34790   68.67530   75.78060  190.69290   75.78060   -0.00050    -999.25   -0.00050    2.71530  -42.69170  -24.22570  190.69290 3608.56150
