~Version ---------------------------------------------------
VERS. 2.0 : CWLS log ASCII Standard -VERSION 2.0
WRAP. YES : Multiple lines per depth step
~Well ------------------------------------------------------
STRT.FT                 3500.0 : START DEPTH
STOP.FT                 8350.0 : STOP DEPTH
STEP.FT               50.00000 : STEP LENGTH
NULL.                  -999.25 : NULL VALUE
COMP.      SAGE ENERGY COMPANY : COMPANY
WELL.                  GOLD #1 : WELL
FLD .                 GIDDINGS : FIELD
LOC .                          : LOCATION
CNTY.                 BURLESON : COUNTY
STAT.                    TEXAS : STATE
CTRY. UNITED STATES OF AMERICA : COUNTRY
SRVC.            Dresser Atlas : SERVICE COMPANY
DATE.              03-Dec-1983 : LOGDATE
API .           42051326000000 : API NUMBER
UWI .           42051326000000 : UNIQUE WELL ID
SLAT.WGS84       30.5213843598 : SURFACE LATITUDE
SLON.WGS84      -96.6289898193 : SURFACE LONGITUDE
~Curve Information -----------------------------------------
DEPT    .FT                                                                : Depth Feet
CALRED  .IN                                                                : CALIPER FROM DIFL-CDL-CNL-GR LOG
CALWS   .IN                                                                : CALIPER [CALRED]
CNLSED  .V/V         :   COMPENSATED NEUTRON POROSITY LIMESTONE [M:2.71, F : 1.0] FROM DIFL-CDL-CNL-GR LOG
CNSSED  .V/V         :   COMPENSATED NEUTRON POROSITY SANDSTONE [M:2.65, F : 1.0] FROM DIFL-CDL-CNL-GR LOG
CONDWS  .MMHO                                                              : CONDUCTIVITY [1000/DRESWS]
CORRED  .G/C3                                                              : DENSITY CORRECTION FROM DIFL-CDL-CNL-GR LOG
DCORWS  .G/C3                                                              : DENSITY CORRECTION [CORRED]
DENWS   .G/C3 :   FORMATION BULK DENSITY [CALCULATED FROM DPOWS (M:2.71, F : 1.0)]
DPOWS   .V/V                                                               : DENSITY POROSITY LIMESTONE [PORDSSED CONVERTED TO LIMESTONE (M=2.71, F=1.0) & SPL. TO PORDLSED @ 5854']
DRESWS  .OHMM                                                              : DEEP RESISTIVITY [RILDED]
GRNED   .                                                                  : GAMMA FROM GAMMA-NEUTRON LOG [ADJ. TO GRRED]
GRRED   .GAPI                                                              : GAMMA RAY FROM DIFL-CDL-CNL-GR LOG
GRWS    .GAPI                                                              : GAMMA RAY [GRRED SPL. TO GRNED @ 8320.5']
MRESWS  .OHMM                                                              : MEDIUM RESISTIVITY [RILMED]
NEUTED  .NAPI                                                              : NEUTRON FROM GAMMA-NEUTRON LOG [ADJ. TO GRRED]
NEUTWS  .NAPI                                                              : NEUTRON [NEUTED]
NPOWS   .V/V                                                               : NEUTRON POROSITY LIMESTONE [CNSSED MATRIX CONVERTED TO LIMESTONE & SPL. TO CNLSED @ 5858.5']
PORDLSED.V/V                     :   DENSITY POROSITY LIMESTONE [M:2.71, F : 1.0] FROM DIFL-CDL-CNL-GR LOG
PORDSSED.V/V                     :   DENSITY POROSITY SANDSTONE [M:2.65, F : 1.0]  FROM DIFL-CDL-CNL-GR LOG
RFOCED  .OHMM                                                              : SHALLOW FOCUSED RESISTIVITY FROM DIFL-CDL-CNL-GR LOG
RILDED  .OHMM                                                              : DEEP INDUCTION RESISTIVITY FROM DIFL-CDL-CNL-GR LOG
RILMED  .OHMM                                                              : SPONTANEOUS POTENTIAL FROM RESISTIVITY FROM DIFL-CDL-CNL-GR LOG
SPRED   .MV                                                                : SPONTANEOUS POTENTIAL FROM DIFL-CDL-CNL-GR LOG
SPWS    .MV                                                                : SPONTANEOUS POTENTIAL [BASELINE 0 MV,SPRED]
SRESWS  .OHMM                                                              : SHALLOW RESISTIVITY [RFOCED]
TENRED  .LBF                                                               : TENSION FROM DIFL-CDL-CNL-GR LOG
~Params ----------------------------------------------------
PD  .                     GL : PERMANENT DATUM
EPD .FT                  402 : ELEVATION PERMANENT DATUM
LMF .                     KB : LOG MEASURED FROM
DAPD.FT                   16 : FEET ABOVE PERMANENT DATUM
DMF .                     KB : DRILLING MEASURED FROM
EKB .FT                  418 : KELLY BUSHING
EDF .FT                  417 : DRILLING FLOOR
EGL .FT                  402 : GROUND LEVEL
DATE.               12/03/83 : RUN DATE
RUN .                      1 : RUN NUMBER
DD  .FT                 8442 : DEPTH DRILLER
DL  .FT                 8380 : DEPTH LOGGER
BLI .FT                 8378 : BOTTOM LOG INTERVAL
TLI .FT                 3510 : TOP LOG INTERVAL
CS  .IN                8.625 : CASING SIZE
CBD .FT                 3515 : CASING BOTTOM DRILLER
CBL .FT                 3510 : CASING BOTTOM LOGGER
BS  .IN                7.875 : BIT SIZE
BSD .FT                 8442 : BIT SIZE AT DEPTH
DFT .                  LINGO : DRILLING FLUID TYPE
DFD .                    9.2 : DRILLING FLUID DENSITY
DFV .                     44 : DRILLING FLUID VISCOSITY
DFPH.                      9 : DRILLING FLUID PH
DFL .                      7 : DRILLING FLUID LOSS
MSS .                   FLOW : MUD SAMPLE SOURCE
RMS .OHMM               3.62 : RESISTIVITY MUD SAMPLE
MST .DEGF                 75 : MUD SAMPLE TEMPERATURE
RMF .OHMM               2.71 : RESISTIVITY MUD FILTRATE SAMPLE
MFST.DEGF                 75 : MUD FILTRATE SAMPLE TEMPERATURE
RMC .OHMM               4.52 : RESISTIVITY MUD CAKE
MCST.DEGF                 75 : MUD CAKE SAMPLE TEMPERATURE
MFSS.                      C : MUD FILTRATE SAMPLE SOURCE
MCSS.                      C : MUD CAKE SAMPLE SOURCE
RMB .OHMM              0.917 : RESISTIVITY MUD AT BHT
TCS .HRS                 4.5 : TIME CIRCULATED STOPPED
LUN .                HL 6304 : LOGGING UNIT NUMBER
LUL .                  BRYAN : LOGGING UNIT LOCATION
ENGI.                 POWELL : RECORDING ENGINEER
WITN.                  BOTTO : WITNESSED BY
CLNT.                A2DTECH : CLIENT CODE
ORIG.            2" 5" PRINT : ORIGIN OF DATA
UWI .         42051326000000 : UNIQUE WELL ID
DICO. A2D Technologies, Inc. : DIGITIZING COMPANY
~Other -----------------------------------------------------
~ASCII -----------------------------------------------------
# ...
 4850.00000   10.62740   10.62740    -999.25    0.33630  559.31540    0.07550    0.07550    2.44520    0.15480    1.78790    -999.25  104.63230  104.63230    1.84550    -999.25    -999.25    0.29250    -999.25    0.12410    2.34140    1.78790    1.84550  -34.54320   -6.85090    2.34140    2.34730
 4900.00000   11.40370   11.40370    -999.25    0.35120  744.54620    0.07030    0.07030    2.40680    0.17730    1.34310    -999.25   98.30630   98.30630    1.43090    -999.25    -999.25    0.30760    -999.25    0.14740    1.95080    1.34310    1.43090  -34.59440   -6.90210    1.95080   15.52500
 4950.00000   11.66540   11.66540    -999.25    0.49730 1276.16130    0.09960    0.09960    2.29430    0.24310    0.78360    -999.25   85.31060   85.31060    0.80010    -999.25    -999.25    0.45560    -999.25    0.21560    1.45090    0.78360    0.80010  -31.35040   -3.65810    1.45090   16.77260
 5000.00000    9.18070    9.18070    -999.25    0.44480  926.61230    0.00490    0.00490    2.05900    0.38070    1.07920    -999.25  101.67830  101.67830    1.11970    -999.25    -999.25    0.40300    -999.25    0.35820    1.85370    1.07920    1.11970  -32.48510   -4.79280    1.85370   12.82410
 5050.00000    7.44550    7.44550    -999.25    0.30420  520.91470    0.19030    0.19030    2.41140    0.17460    1.91970    -999.25  101.68990  101.68990    1.96440    -999.25    -999.25    0.26020    -999.25    0.14460    2.40590    1.91970    1.96440  -34.53030   -6.83800    2.40590   20.65940
 5100.00000   10.43730   10.43730    -999.25    0.43150  700.67260    0.13250    0.13250    2.33340    0.22030    1.42720    -999.25  102.83240  102.83240    1.48160    -999.25    -999.25    0.38930    -999.25    0.19190    2.10520    1.42720    1.48160  -34.51940   -6.82710    2.10520    4.10180
 5150.00000   10.10600   10.10600    -999.25    0.38480  714.64300    0.22270    0.22270    2.26900    0.25790    1.39930    -999.25  105.03880  105.03880    1.45340    -999.25    -999.25    0.34160    -999.25    0.23090    2.03540    1.39930    1.45340  -33.99240   -6.30010    2.03540   10.83300
 5200.00000   11.12230   11.12230    -999.25    0.47550  879.19820    0.16490    0.16490    2.27460    0.25460    1.13740    -999.25   87.96630   87.96630    1.18070    -999.25    -999.25    0.43380    -999.25    0.22750    1.80640    1.13740    1.18070  -35.40910   -7.71680    1.80640    8.64550
 5250.00000   10.55670   10.55670    -999.25    0.36390  766.69480    0.20640    0.20640    2.29970    0.23990    1.30430    -999.25   86.10260   86.10260    1.34700    -999.25    -999.25    0.32040    -999.25    0.21230    1.86380    1.30430    1.34700  -35.90380   -8.21150    1.86380   38.50140
 5300.00000   11.18040   11.18040    -999.25    0.39230  929.36800    0.20480    0.20480    2.20760    0.29380    1.07600    -999.25   94.90040   94.90040    1.11930    -999.25    -999.25    0.34930    -999.25    0.26810    1.74670    1.07600    1.11930  -32.88410   -5.19180    1.74670    6.17660
 5350.00000    9.88590    9.88590    -999.25    0.33810  700.82000    0.17480    0.17480    2.10650    0.35290    1.42690    -999.25   83.79850   83.79850    1.46650    -999.25    -999.25    0.29430    -999.25    0.32940    2.03400    1.42690    1.46650  -35.03370   -7.34140    2.03400    2.86310
 5400.00000   11.78000   11.78000    -999.25    0.37820 1027.32690    0.16050    0.16050    2.30800    0.23510    0.97340    -999.25   95.07910   95.07910    1.00080    -999.25    -999.25    0.33490    -999.25    0.20730    1.65800    0.97340    1.00080  -36.67080   -7.44560    1.65800   10.33000
 5450.00000   10.74780   10.74780    -999.25    0.41270  809.45440    0.21160    0.21160    2.25400    0.26670    1.23540    -999.25   73.41010   73.41010    1.27670    -999.25    -999.25    0.37010    -999.25    0.24000    1.79710    1.23540    1.27670  -39.36170   -8.31170    1.79710   13.50980
 5500.00000   10.69890   10.69890    -999.25    0.38440  874.43160    0.16650    0.16650    2.21750    0.28800    1.14360    -999.25  116.25490  116.25490    1.20020    -999.25    -999.25    0.34120    -999.25    0.26210    1.80320    1.14360    1.20020  -42.23760   -9.36270    1.80320   10.07280
 5550.00000    5.83350    5.83350    -999.25    0.26460  415.04110   -0.02660   -0.02660    2.48860    0.12950    2.40940    -999.25   70.80210   70.80210    2.55850    -999.25    -999.25    0.22060    -999.25    0.09780    2.94760    2.40940    2.55850  -43.83780   -9.13800    2.94760    8.18760
 5600.00000    9.22730    9.22730    -999.25    0.30540  752.78530    0.14680    0.14680    2.29720    0.24140    1.32840    -999.25  123.21620  123.21620    1.35750    -999.25    -999.25    0.26140    -999.25    0.21380    1.97600    1.32840    1.35750  -47.96330  -11.43870    1.97600   12.51530
 5650.00000    7.98470    7.98470    -999.25    0.29110  701.50820    0.14150    0.14150    2.25170    0.26800    1.42550    -999.25  104.01700  104.01700    1.51240    -999.25    -999.25    0.24710    -999.25    0.24140    1.93520    1.42550    1.51240  -46.96200   -8.61250    1.93520    7.61520
 5700.00000    6.85480    6.85480    -999.25    0.30450  623.09180    0.03440    0.03440    2.38250    0.19150    1.60490    -999.25   94.93650   94.93650    1.66620    -999.25    -999.25    0.26050    -999.25    0.16210    2.07960    1.60490    1.66620  -45.12850   -4.97410    2.07960   12.41650
 5750.00000    9.09000    9.09000    -999.25    0.32800  706.86360    0.18600    0.18600    2.27510    0.25430    1.41470    -999.25   95.82250   95.82250    1.50210    -999.25    -999.25    0.28420    -999.25    0.22720    1.97080    1.41470    1.50210  -44.48400   -4.49580    1.97080    4.41270
 5800.00000   10.56150   10.56150    -999.25    0.39590  962.37130    0.15920    0.15920    2.22080    0.28610    1.03910    -999.25  112.63930  112.63930    1.12620    -999.25    -999.25    0.35290    -999.25    0.26010    1.63170    1.03910    1.12620  -45.04820   -5.22630    1.63170   17.08330
 5850.00000   10.76370   10.76370    -999.25    0.36030  713.62310    0.17760    0.17760    2.31470    0.23120    1.40130    -999.25  113.09440  113.09440    1.47200    -999.25    -999.25    0.31680    -999.25    0.20320    1.89800    1.40130    1.47200  -44.68160   -5.02590    1.89800    4.70880
 5900.00000   10.34370   10.34370    -999.25    -999.25  630.87500    -999.25    -999.25    -999.25    -999.25    1.58510    -999.25  124.73010  124.73010    1.62050    -999.25    -999.25    -999.25    -999.25    -999.25    1.99790    1.58510    1.62050  -46.18680   -6.69740    1.99790   12.55090
 5950.00000   10.79700   10.79700    -999.25    -999.25 1158.61430    -999.25    -999.25    -999.25    -999.25    0.86310    -999.25  145.11960  145.11960    0.87800    -999.25    -999.25    -999.25    -999.25    -999.25    1.40380    0.86310    0.87800  -43.96930   -4.64610    1.40380   10.59660
 6000.00000   10.66560   10.66560    -999.25    -999.25  855.28570    -999.25    -999.25    -999.25    -999.25    1.16920    -999.25  106.81640  106.81640    1.23420    -999.25    -999.25    -999.25    -999.25    -999.25    1.77350    1.16920    1.23420  -42.99050   -3.83360    1.77350   13.43730
 6050.00000    8.99690    8.99690    -999.25    -999.25  674.30880    -999.25    -999.25    -999.25    -999.25    1.48300    -999.25  113.52610  113.52610    1.54730    -999.25    -999.25    -999.25    -999.25    -999.25    2.34960    1.48300    1.54730  -45.92470   -6.93410    2.34960    8.00690
 6100.00000    9.01460    9.01460    -999.25    -999.25  629.08910    -999.25    -999.25    -999.25    -999.25    1.58960    -999.25  106.41070  106.41070    1.70260    -999.25    -999.25    -999.25    -999.25    -999.25    2.14390    1.58960    1.70260  -42.60820   -3.78380    2.14390    8.27660
 6150.00000   10.02300   10.02300    -999.25    -999.25  664.76100    -999.25    -999.25    -999.25    -999.25    1.50430   51.63170  114.31970  114.31970    1.55080  187.85660  187.85660    -999.25    -999.25    -999.25    2.08230    1.50430    1.55080  -44.26060   -5.60250    2.08230    6.41090
