~Version ---------------------------------------------------
VERS.      2.0 : CWLS log ASCII Standard -VERSION 2.0
WRAP.      YES : Multiple lines per depth step
CREA. 07/19/18 : LAS Creation Date
~Well ------------------------------------------------------
STRT.FT                           4000.0 : START DEPTH
STOP.FT                          13600.0 : STOP DEPTH
STEP.FT                         50.00000 : STEP LENGTH
NULL.                            -999.25 : NULL VALUE
COMP. TEXSTAR NORTH AMERICA INCORPORATED : COMPANY
WELL.                         HOMEYER #2 : WELL
FLD .                     CENTRAL KENEDY : FIELD
LOC .                                    : LOCATION
CNTY.                             KARNES : COUNTY
STAT.                              TEXAS : STATE
CTRY.           UNITED STATES OF AMERICA : COUNTRY
SRVC.                       Schlumberger : SERVICE COMPANY
DATE.                        30-Mar-1990 : LOGDATE
API .                     42255312470000 : API NUMBER
UWI .                     42255312470000 : UNIQUE WELL ID
SLAT.WGS84                 28.7726896993 : SURFACE LATITUDE
SLON.WGS84                -97.8709093626 : SURFACE LONGITUDE
~Curve Information -----------------------------------------
DEPT    .FT    : DEPTH FEET
CALWS   .IN    : CALIPER [DCALDED+BIT]
CONDWS  .MMHO  : DEEP CONDUCTIVITY [1000/DRESWS]
DCALDED .IN    : DIFFERENTIAL CALIPER FROM DENSITY LOG
DCORWS  .G/C3  : DENSITY CORRECTION [DRHOED]
DENWS   .G/C3  : BULK DENSITY [TOP CALC. DPHISSED M=2.68 F=1.0, 12400' DPHISSED M=2.71 F=1.0]]
DPHILSED.V/V   : DENSITY POROSITY (LS) [M=2.71 F=1.0] FROM DENSITY LOG
DPHISSED.V/V   : DENSITY POROSITY (SS) [M=2.68 F=1.0] FROM DENSITY LOG
DPOLSWS .V/V   : DENSITY POROSITY LIMESTONE [M=2.71 F=1.0] [CALC. FROM DENWS]
DRESWS  .OHMM  : DEEP RESISTIVITY [ILDED]
DRHOED  .G/C3  : DENSITY CORRECTION FROM DENSITY LOG
DTED    .US/F  : DELTA TIME FROM DIL/SONIC LOG
DTLED   .US/F  : DELTA TIME LONG SPACING FROM DIL/SONIC LOG
DTWS    .US/F  : DELTA TIME COMPRESSIONAL [DTED]
GRDED   .GAPI  : GAMMA RAY FROM DENSITY LOG
GRRED   .GAPI  : GAMMA RAY FROM RESISTIVITY LOG
GRWS    .GAPI  : GAMMA RAY [TOP GRDED 6100' GRRED 13560' GRDED]
ILDED   .OHMM  : INDUCTION LOG DEEP RESISTIVITY
ILMED   .OHMM  : INDUCTION LOG MEDIUM RESISTIVITY
MRESWS  .OHMM  : MEDIUM RESISTIVITY [ILMED]
NPHILSED.V/V   : NEUTRON POROSITY LIMESTONE FROM DENSITY LOG
NPHISSED.V/V   : NEUTRON POROSITY SANDSTONE FROM DENSITY LOG
NPOLSWS .V/V   : NEUTRON POROSITY LIMESTONE [TOP CONVERSED NPHISSED TO LIME FROM POWER LOG; 12400' NPHILSED]
PEFED   .B/E   : PHOTOELECTRIC FACTOR FROM DENSITY LOG
PEFWS   .B/E   : PHOTOELECTRIC FACTOR [PEFED]
SFLUED  .OHMM  : SPHERICALLY FOCUSED LOG RESISTIVITY
SPHILSED.V/V   : SONIC POROSITY (LS) [DTM=49 DTF=189] FROM DIL/SONIC LOG
SPHISSED.V/V   : SONIC POROSITY (SS) [DTM=55.6 DTF=189] FROM DIL/SONIC LOG
SPOLSWS .V/V   : SONIC POROSITY (LS) [DTM=49 DTF=189] [CALC. FROM DTWS]
SPRED   .MV    : SPONTANEOUS POTENTIAL FROM RESISTIVITY LOG
SPWS    .MV    : SPONTANEOUS POTENTIAL [BASELINE 0 MV] [SPRED]
SRESWS  .OHMM  : SHALLOW RESISTIVITY [SFLUED]
TENDED  .LBF   : TENSION FROM DENSITY LOG
TENRED  .LBF   : TENSION FROM RESISTIVITY LOG
~Params ----------------------------------------------------
PD  .                     GL : PERMANENT DATUM
EPD .FT                  455 : ELEVATION PERMANENT DATUM
LMF .                     KB : LOG MEASURED FROM
DAPD.FT                   23 : MEASUREMENT ABOVE PERMANENT DATUM
DMF .                     KB : DRILLING MEASURED FROM
EKB .FT                  478 : KELLY BUSHING
EDF .FT                  477 : DRILLING FLOOR
EGL .FT                  455 : GROUND LEVEL
DATE.               03/30/90 : RUN DATE
RUN .                      1 : RUN NUMBER
DD  .FT                13600 : DEPTH DRILLER
DL  .FT                13608 : DEPTH LOGGER
BLI .FT                13602 : BOTTOM LOG INTERVAL
TLI .FT                 3954 : TOP LOG INTERVAL
CS  .IN                9.625 : CASING SIZE
CBD .FT                 3950 : CASING BOTTOM DRILLER
CBL .FT                 3954 : CASING BOTTOM LOGGER
BS  .IN                  8.5 : BIT SIZE
BSD .FT                13600 : BIT SIZE AT DEPTH
DFT .               KCL KLIG : DRILLING FLUID TYPE
DFD .                   10.7 : DRILLING FLUID DENSITY
DFV .                     41 : DRILLING FLUID VISCOSITY
DFPH.                   11.5 : DRILLING FLUID PH
DFL .                    9.4 : DRILLING FLUID LOSS
MSS .               CIRC PIT : MUD SAMPLE SOURCE
RMS .OHMM               0.63 : RESISTIVITY MUD SAMPLE
MST .DEGF                 75 : MUD SAMPLE TEMPERATURE
RMF .OHMM               0.55 : RESISTIVITY MUD FILTRATE SAMPLE
MFST.DEGF                 75 : MUD FILTRATE SAMPLE TEMPERATURE
RMC .OHMM               0.95 : RESISTIVITY MUD CAKE
MCST.DEGF                 75 : MUD CAKE SAMPLE TEMPERATURE
MFSS.                   MEAS : MUD FILTRATE SAMPLE SOURCE
MCSS.                   CALC : MUD CAKE SAMPLE SOURCE
RMB .OHMM              0.167 : RESISTIVITY MUD AT BHT
TCS .HRS                1530 : TIME CIRCULATED STOPPED
TLAB.HRS                  50 : TIME LOGGER AT BOTTOM
LUN .                   8268 : LOGGING UNIT NUMBER
LUL .             PLEASANTON : LOGGING UNIT LOCATION
ENGI.                 WILKIE : RECORDING ENGINEER
WITN.         REQUARTH GIBBS : WITNESSED BY
CLNT.                A2DTECH : CLIENT CODE
ORIG.            1" 5" PRINT : ORIGIN OF DATA
UWI .         42255312470000 : UNIQUE WELL ID
DICO. A2D Technologies, Inc. : DIGITIZING COMPANY
~Other -----------------------------------------------------
GRR SATURATED AT 5988'.
~ASCII -----------------------------------------------------
# ...
 7300.00000    -999.25  580.45040    -999.25    -999.25    -999.25    -999.25    -999.25    -999.25    1.72280    -999.25   82.35040   82.97280   82.35040    -999.25   91.40490   91.40490    1.72280    2.22280    2.22280    -999.25    -999.25    -999.25    -999.25    -999.25    3.20130    -999.25    0.20240    0.23820  -48.23550  -35.50110    3.20130    -999.25 2699.53130
 7350.00000    -999.25  467.55190    -999.25    -999.25    -999.25    -999.25    -999.25    -999.25    2.13880    -999.25   89.42650   89.68710   89.42650    -999.25   96.25810   96.25810    2.13880    2.18000    2.18000    -999.25    -999.25    -999.25    -999.25    -999.25    2.39090    -999.25    0.23610    0.28880  -14.65250   -2.02870    2.39090    -999.25 2694.49830
 7400.00000    -999.25  622.51000    -999.25    -999.25    -999.25    -999.25    -999.25    -999.25    1.60640    -999.25   93.99990   94.64320   93.99990    -999.25  106.12530  106.12530    1.60640    1.65630    1.65630    -999.25    -999.25    -999.25    -999.25    -999.25    1.98470    -999.25    0.25540    0.32140  -13.62440   -1.25830    1.98470    -999.25 2754.73190
 7450.00000    -999.25  463.58540    -999.25    -999.25    -999.25    -999.25    -999.25    -999.25    2.15710    -999.25   83.30610   84.13990   83.30610    -999.25   96.29880   96.29880    2.15710    2.29880    2.29880    -999.25    -999.25    -999.25    -999.25    -999.25    3.17150    -999.25    0.20770    0.24500  -15.01380   -2.93540    3.17150    -999.25 2724.95970
 7500.00000    -999.25  487.56700    -999.25    -999.25    -999.25    -999.25    -999.25    -999.25    2.05100    -999.25   89.03450   89.98270   89.03450    -999.25   84.26950   84.26950    2.05100    2.15780    2.15780    -999.25    -999.25    -999.25    -999.25    -999.25    2.52880    -999.25    0.23550    0.28600  -15.03270   -3.24210    2.52880    -999.25 2775.63890
 7550.00000    -999.25  407.44820    -999.25    -999.25    -999.25    -999.25    -999.25    -999.25    2.45430    -999.25   80.41770   79.79400   80.41770    -999.25   94.33110   94.33110    2.45430    2.71330    2.71330    -999.25    -999.25    -999.25    -999.25    -999.25    3.73390    -999.25    0.19300    0.22440  -14.77300   -3.27020    3.73390    -999.25 2786.92070
 7600.00000    -999.25  491.30390    -999.25    -999.25    -999.25    -999.25    -999.25    -999.25    2.03540    -999.25   86.32340   93.95770   86.32340    -999.25   91.30140   91.30140    2.03540    2.29260    2.29260    -999.25    -999.25    -999.25    -999.25    -999.25    1.92820    -999.25    0.21840    0.26660  -15.25710   -4.04210    1.92820    -999.25 2784.32620
 7650.00000    -999.25  494.16880    -999.25    -999.25    -999.25    -999.25    -999.25    -999.25    2.02360    -999.25   92.89090   93.50070   92.89090    -999.25  103.18850  103.18850    2.02360    1.95730    1.95730    -999.25    -999.25    -999.25    -999.25    -999.25    2.38420    -999.25    0.24950    0.31350  -14.27000   -3.34270    2.38420    -999.25 2822.78340
 7700.00000    -999.25  483.58240    -999.25    -999.25    -999.25    -999.25    -999.25    -999.25    2.06790    -999.25   82.36920   83.52570   82.36920    -999.25   94.51150   94.51150    2.06790    2.46040    2.46040    -999.25    -999.25    -999.25    -999.25    -999.25    2.67980    -999.25    0.19990    0.23840  -14.82400   -4.18450    2.67980    -999.25 2811.14500
 7750.00000    -999.25  403.68160    -999.25    -999.25    -999.25    -999.25    -999.25    -999.25    2.47720    -999.25   82.45920   82.97250   82.45920    -999.25   71.76170   71.76170    2.47720    2.54670    2.54670    -999.25    -999.25    -999.25    -999.25    -999.25    2.94410    -999.25    0.20350    0.23900  -33.40030  -23.04860    2.94410    -999.25 2823.85770
 7800.00000    -999.25  434.34830    -999.25    -999.25    -999.25    -999.25    -999.25    -999.25    2.30230    -999.25   84.10900   84.81660   84.10900    -999.25   89.73910   89.73910    2.30230    2.33930    2.33930    -999.25    -999.25    -999.25    -999.25    -999.25    2.91390    -999.25    0.21020    0.25080  -14.86930   -4.80540    2.91390    -999.25 2765.77810
 7850.00000    -999.25  328.73110    -999.25    -999.25    -999.25    -999.25    -999.25    -999.25    3.04200    -999.25   81.87960   81.18470   81.87960    -999.25   79.23400   79.23400    3.04200    3.14660    3.14660    -999.25    -999.25    -999.25    -999.25    -999.25    3.41290    -999.25    0.20050    0.23490  -21.84420  -12.06800    3.41290    -999.25 2848.11620
 7900.00000    -999.25  368.33770    -999.25    -999.25    -999.25    -999.25    -999.25    -999.25    2.71490    -999.25   85.53400   85.15780   85.53400    -999.25   88.92240   88.92240    2.71490    2.65910    2.65910    -999.25    -999.25    -999.25    -999.25    -999.25    3.10740    -999.25    0.21760    0.26100  -15.22540   -5.73700    3.10740    -999.25 2818.47390
 7950.00000    -999.25  895.97710    -999.25    -999.25    -999.25    -999.25    -999.25    -999.25    1.11610    -999.25  100.75980  101.41300  100.75980    -999.25   86.67140   86.67140    1.11610    1.18920    1.18920    -999.25    -999.25    -999.25    -999.25    -999.25    1.36370    -999.25    0.28060    0.36970   -9.84000   -0.63940    1.36370    -999.25 2878.31350
 8000.00000    -999.25  296.68310    -999.25    -999.25    -999.25    -999.25    -999.25    -999.25    3.37060    -999.25   77.54220   78.09670   77.54220    -999.25   59.36090   59.36090    3.37060    3.77330    3.77330    -999.25    -999.25    -999.25    -999.25    -999.25    4.23350    -999.25    0.17470    0.20390  -39.88350  -30.97070    4.23350    -999.25 2881.87990
 8050.00000    -999.25  578.87120    -999.25    -999.25    -999.25    -999.25    -999.25    -999.25    1.72750    -999.25   85.68840   86.98570   85.68840    -999.25  105.42820  105.42820    1.72750    1.90980    1.90980    -999.25    -999.25    -999.25    -999.25    -999.25    2.30020    -999.25    0.21950    0.26210  -14.27360   -5.64850    2.30020    -999.25 2862.52390
 8100.00000   10.07990  396.16510    1.57990   -0.00180    2.52960    -999.25    0.08950    0.10550    2.52420   -0.00180   88.33120   88.93200   88.33120  107.93270   99.41120   99.41120    2.52420    2.62360    2.62360    -999.25    0.25570    0.20310    -999.25    -999.25    3.23770    -999.25    0.23100    0.28090  -15.18570   -6.84840    3.23770 3848.06520 2910.74440
 8150.00000   10.48550  255.16060    1.98550   -0.00150    2.53030    -999.25    0.08910    0.10510    3.91910   -0.00150   79.39400   79.66250   79.39400   92.90650   93.33130   93.33130    3.91910    3.56350    3.56350    -999.25    0.22820    0.17600    -999.25    -999.25    3.80040    -999.25    0.18710    0.21710  -16.44360   -8.39410    3.80040 3868.36380 2943.25050
 8200.00000   10.35550  591.33110    1.85550   -0.00510    2.55300    -999.25    0.07560    0.09180    1.69110   -0.00510   89.77540   90.49370   89.77540  106.21460  107.01170  107.01170    1.69110    1.79560    1.79560    -999.25    0.31290    0.26200    -999.25    -999.25    1.86900    -999.25    0.23590    0.29130  -14.21690   -6.45520    1.86900 3883.85450 2953.34280
 8250.00000   10.40650  384.98560    1.90650   -0.00600    2.56950    -999.25    0.06580    0.08220    2.59750   -0.00600   85.60120   86.12880   85.60120  103.74120  100.82760  100.82760    2.59750    2.52590    2.52590    -999.25    0.27940    0.22720    -999.25    -999.25    2.77070    -999.25    0.21940    0.26140  -15.72730   -8.25340    2.77070 3836.74610 2905.54130
 8300.00000   10.21270  346.23640    1.71270    0.00000    2.57130    -999.25    0.06470    0.08110    2.88820    0.00000   79.86500   80.58880   79.86500   90.73630   93.11520   93.11520    2.88820    2.91520    2.91520    -999.25    0.22080    0.16890    -999.25    -999.25    3.55560    -999.25    0.18990    0.22050  -13.48200   -6.29580    3.55560 3835.48170 2978.65720
 8350.00000   10.37980  831.60080    1.87980    0.00040    2.51020    -999.25    0.10110    0.11690    1.20250    0.00040   97.60980   97.97240   97.60980  103.31400  102.99140  102.99140    1.20250    1.26450    1.26450    -999.25    0.36340    0.31540    -999.25    -999.25    1.50030    -999.25    0.26850    0.34720  -11.61050   -4.71210    1.50030 3827.43970 3015.52910
