~Version ---------------------------------------------------
VERS. 2.0 : CWLS log ASCII Standard -VERSION 2.0
WRAP. YES : Multiple lines per depth step
~Well ------------------------------------------------------
STRT.FT                   3900.0 : START DEPTH
STOP.FT                   8150.0 : STOP DEPTH
STEP.FT                 50.00000 : STEP LENGTH
NULL.                    -999.25 : NULL VALUE
COMP. CHAMPLIN PETROLEUM COMPANY : COMPANY
WELL.          RAYMOND ZBORIL #1 : WELL
FLD .                   GIDDINGS : FIELD
LOC .                            : LOCATION
CNTY.                   BURLESON : COUNTY
STAT.                      TEXAS : STATE
CTRY.   UNITED STATES OF AMERICA : COUNTRY
SRVC.               Schlumberger : SERVICE COMPANY
DATE.                29-Aug-1980 : LOGDATE
API .             42051309240000 : API NUMBER
UWI .             42051309240000 : UNIQUE WELL ID
SLAT.WGS84         30.3934292239 : SURFACE LATITUDE
SLON.WGS84        -96.7526949791 : SURFACE LONGITUDE
~Curve Information -----------------------------------------
DEPT    .FT    : DEPTH
CALWS   .IN    : CALIPER (DCALED+8.75)
CONDWS  .MMHO  : CONDUCTIVITY (1000/DRESWS)
DCALED  .IN    : DIFFERENTIAL CALIPER
DCORWS  .G/C3  : DENSITY CORRECTION (DRHOED)
DENWS   .G/C3  : BULK DENSITY  (DPHISSED M=2.65 F=1/DPHILSED M=2.71 F=1)
DPHILSED.V/V   : DENSITY POROSITY LIMESTONE  (EDITED TOOL PULLS)
DPHISSED.V/V   : DENSITY POROSITY SANDSTONE  (EDITED TOOL PULLS)
DPOWS   .V/V   : DENSITY POROSITY (M=2.71 F=1 FROM DENWS)
DRESWS  .OHMM  : DEEP RESISTIVITY (ILDED)
DRHOED  .G/C3  : DENSITY CORRECTION (FILLED MISSING)(EDITED TOOL PULLS)
GRRED   .GAPI  : GAMMA RAY  (EDITED TOOL PULLS)
GRWS    .GAPI  : GAMMA RAY  (GRRED)
ILDED   .OHMM  : DEEP INDUCTION RESISTIVITY  (EDITED TOOL PULLS)
ILMED   .OHMM  : MEDIUM INDUCTION RESISTIVITY (EDITED TOOL PULLS)
MRESWS  .OHMM  : MEDIUM RESISTIVITY (ILMED)
NPHILSED.V/V   : NEUTRON POROSITY LIMESTONE (EDITED TOOL PULLS)
NPHISSED.V/V   : NEUTRON POROSITY SANDSTONE (EDITED TOOL PULLS)
NPOWS   .V/V   : NEUTRON POROSITY LIMESTONE (NPHISSED CONVERTED TO LS/NPHILSED)
SFLUED  .OHMM  : SPHERICALLY FOCUSED RESISTIVITY (EDITED TOOL PULLS)
SPRED   .MV    : SPONTANEOUS POTENTIAL  (EDITED TOOL PULLS)
SPWS    .MV    : SPONTANEOUS POTENTIAL BASELINE 0 MV (SPRED)
SRESWS  .OHMM  : SHALLOW RESISTIVITY (SFLUED)
~Params ----------------------------------------------------
PD  .                     GL : PERMANENT DATUM
EPD .FT                  334 : ELEVATION PERMANENT DATUM
LMF .                     KB : LOG MEASURED FROM
DAPD.FT                   14 : FEET ABOVE PERMANENT DATUM
DMF .                     KB : DRILLING MEASURED FROM
EKB .FT                  348 : KELLY BUSHING
EDF .FT                  347 : DRILLING FLOOR
EGL .FT                  334 : GROUND LEVEL
DATE.               08/29/80 : RUN DATE
RUN .                      1 : RUN NUMBER
DD  .FT                 8167 : DEPTH DRILLER
DL  .FT                 8178 : DEPTH LOGGER
BLI .FT                 8172 : BOTTOM LOG INTERVAL
TLI .FT                 3865 : TOP LOG INTERVAL
CS  .IN                9.625 : CASING SIZE
CBD .FT                 3850 : CASING BOTTOM DRILLER
CBL .FT                 3865 : CASING BOTTOM LOGGER
BS  .IN                 8.75 : BIT SIZE
BSD .FT                 8167 : BIT SIZE AT DEPTH
DFT .                 BEN-EX : DRILLING FLUID TYPE
DFD .                    9.7 : DRILLING FLUID DENSITY
DFV .                     38 : DRILLING FLUID VISCOSITY
DFPH.                      9 : DRILLING FLUID PH
DFL .                    9.6 : DRILLING FLUID LOSS
MSS .              CIRC TANK : MUD SAMPLE SOURCE
RMS .OHMM               1.37 : RESISTIVITY MUD SAMPLE
MST .DEGF                 75 : MUD SAMPLE TEMPERATURE
RMF .OHMM               1.02 : RESISTIVITY MUD FILTRATE SAMPLE
MFST.DEGF                 75 : MUD FILTRATE SAMPLE TEMPERATURE
RMC .OHMM                2.1 : RESISTIVITY MUD CAKE
MCST.DEGF                 75 : MUD CAKE SAMPLE TEMPERATURE
MFSS.                      M : MUD FILTRATE SAMPLE SOURCE
MCSS.                      C : MUD CAKE SAMPLE SOURCE
RMB .OHMM               0.56 : RESISTIVITY MUD AT BHT
TCS .HRS                2400 : TIME CIRCULATED STOPPED
TLAB.HRS                1800 : TIME LOGGER AT BOTTOM
CLNT.                A2DTECH : CLIENT CODE
ORIG.            2" 5" PRINT : ORIGIN OF DATA
UWI .         42051309240000 : UNIQUE WELL ID
DICO. A2D Technologies, Inc. : DIGITIZING COMPANY
~Other -----------------------------------------------------
~ASCII -----------------------------------------------------
# ...
 7100.00000   13.41490  520.61640    4.66490    0.10000    2.49060    0.12830    -999.25    0.12830    1.92080    0.10000   75.22520   75.22520    1.92080    1.98990    1.98990    0.31690    -999.25    0.31690    2.25460  -14.42720   -5.68630    2.25460
 7150.00000   10.04650    -999.25    1.29650    0.00470    2.61830    0.05360    -999.25    0.05360    -999.25    0.00470   44.41270   44.41270    -999.25    4.82930    4.82930    0.12200    -999.25    0.12200    5.68590  -11.51000   -3.23530    5.68590
 7200.00000    9.81390  132.41350    1.06390    0.01200    2.63800    0.04210    -999.25    0.04210    7.55210    0.01200   23.64900   23.64900    7.55210    8.00680    8.00680    0.06550    -999.25    0.06550   10.99540  -18.98370  -11.17510   10.99540
 7250.00000   10.28230  152.08660    1.53230   -0.00480    2.60420    0.06190    -999.25    0.06190    6.57520   -0.00480   27.08890   27.08890    6.57520    6.83080    6.83080    0.07480    -999.25    0.07480   10.27220  -14.01470   -6.67220   10.27220
 7300.00000   10.57730  106.66890    1.82730    0.02420    2.66400    0.02690    -999.25    0.02690    9.37480    0.02420   23.28890   23.28890    9.37480    9.66460    9.66460    0.05130    -999.25    0.05130   13.96330  -22.93780  -16.06140   13.96330
 7350.00000   10.58740  129.29420    1.83740    0.03440    2.65480    0.03230    -999.25    0.03230    7.73430    0.03440   30.21840   30.21840    7.73430    8.24040    8.24040    0.05670    -999.25    0.05670   13.90990  -13.99380   -7.58360   13.90990
 7400.00000   10.86540  144.13790    2.11540    0.01640    2.63340    0.04480    -999.25    0.04480    6.93780    0.01640   44.32730   44.32730    6.93780    7.17240    7.17240    0.07370    -999.25    0.07370   10.33410  -11.48670   -5.54260   10.33410
 7450.00000   10.64470  185.19550    1.89470    0.01550    2.63680    0.04280    -999.25    0.04280    5.39970    0.01550   41.28220   41.28220    5.39970    5.58230    5.58230    0.07660    -999.25    0.07660    8.85540   -9.35900   -3.70610    8.85540
 7500.00000   10.22670  188.67920    1.47670    0.00120    2.61680    0.05450    -999.25    0.05450    5.30000    0.00120   29.29070   29.29070    5.30000    5.52280    5.52280    0.07550    -999.25    0.07550    8.07620  -13.00590   -7.42160    8.07620
 7550.00000   10.17900  162.05350    1.42900    0.03150    2.61780    0.05390    -999.25    0.05390    6.17080    0.03150   34.75480   34.75480    6.17080    6.02420    6.02420    0.07530    -999.25    0.07530   10.45800  -15.86230  -10.34650   10.45800
 7600.00000    9.86030   98.37100    1.11030    0.06620    2.65680    0.03110    -999.25    0.03110   10.16560    0.06620   30.76290   30.76290   10.16560   11.34070   11.34070    0.05240    -999.25    0.05240   24.63870  -24.85710  -19.40990   24.63870
 7650.00000   10.10880  126.42230    1.35880    0.00070    2.57080    0.08140    -999.25    0.08140    7.91000    0.00070   46.44590   46.44590    7.91000    8.04590    8.04590    0.07650    -999.25    0.07650   15.08660  -19.91610  -14.53750   15.08660
 7700.00000    9.85160   97.40320    1.10160    0.06280    2.56600    0.08420    -999.25    0.08420   10.26660    0.06280   43.29630   43.29630   10.26660    9.03690    9.03690    0.08500    -999.25    0.08500   14.87710  -27.40620  -22.09610   14.87710
 7750.00000    9.30420  111.92820    0.55420    0.06160    2.56770    0.08320    -999.25    0.08320    8.93430    0.06160   58.88800   58.88800    8.93430    7.99240    7.99240    0.06650    -999.25    0.06650   35.78760  -14.83120   -9.58970   35.78760
 7800.00000   15.80550  629.52470    7.05550    0.10000    2.50270    0.12120    -999.25    0.12120    1.58850    0.10000   81.40960   81.40960    1.58850    1.52910    1.52910    0.39280    -999.25    0.39280    3.05280   -6.34460   -1.17170    3.05280
 7850.00000   11.98760  101.16850    3.23760    0.10000    2.52600    0.10760    -999.25    0.10760    9.88450    0.10000   89.38670   89.38670    9.88450   10.43720   10.43720    0.27740    -999.25    0.27740    8.29520   -4.27510   -3.47680    8.29520
 7900.00000    9.73750   69.27220    0.98750    0.03630    2.52510    0.10810    -999.25    0.10810   14.43580    0.03630   88.33380   88.33380   14.43580   15.78320   15.78320    0.24210    -999.25    0.24210   31.56920    6.24060   -2.19170   31.56920
 7950.00000   12.98130  388.84780    4.23130    0.10000    2.42220    0.16830    -999.25    0.16830    2.57170    0.10000   86.40380   86.40380    2.57170    2.31290    2.31290    0.36200    -999.25    0.36200    5.99150  -11.53930  -19.84580    5.99150
 8000.00000   10.43320  309.92380    1.68320    0.09880    2.47150    0.13950    -999.25    0.13950    3.22660    0.09880  102.89210  102.89210    3.22660    3.49080    3.49080    0.33640    -999.25    0.33640    5.01330   -0.09730   -8.18340    5.01330
 8050.00000    8.83970   35.31780    0.08970    0.03370    2.68730    0.01330    -999.25    0.01330   28.31430    0.03370   21.03140   21.03140   28.31430   32.36110   32.36110    0.02570    -999.25    0.02570   40.07490  -13.87010  -21.64480   40.07490
 8100.00000    8.79790   95.18640    0.04790    0.01610    2.71910   -0.00530    -999.25   -0.00530   10.50570    0.01610   38.42510   38.42510   10.50570   11.17160   11.17160    0.04920    -999.25    0.04920   16.62000   -5.49590  -12.92760   16.62000
 8150.00000    8.31930   25.03590   -0.43070    0.04260    2.70470    0.00310    -999.25    0.00310   39.94270    0.04260    -999.25    -999.25   39.94270   41.95560   41.95560    -999.25    -999.25    -999.25   46.51520  -31.73700  -39.16870   46.51520
