~Version ---------------------------------------------------
VERS. 2.0 : CWLS log ASCII Standard -VERSION 2.0
WRAP. YES : MULTIPLE LINES PER DEPTH STEP
~Well ------------------------------------------------------
STRT.FT                   3500.0 : START DEPTH
STOP.FT                  16150.0 : STOP DEPTH
STEP.FT                 50.00000 : STEP LENGTH
NULL.                    -999.25 : NULL VALUE
COMP. CHEYENNE PETROLEUM COMPANY : COMPANY
WELL.              RUBY YOUNG #1 : WELL
FLD .                    WILDCAT : FIELD
LOC .                            : LOCATION
CNTY.                     KARNES : COUNTY
STAT.                      TEXAS : STATE
CTRY.   UNITED STATES OF AMERICA : COUNTRY
SRVC.               Schlumberger : SERVICE COMPANY
DATE.                06-Jan-1997 : LOGDATE
API .             42255313650000 : API NUMBER
UWI .             42255313650000 : UNIQUE WELL ID
SLAT.WGS84         28.8201979392 : SURFACE LATITUDE
SLON.WGS84        -97.8404688792 : SURFACE LONGITUDE
~Curve Information -----------------------------------------
DEPT    .FT    : DEPTH FEET
ASFLED  .OHMM  : AMPLIFIED SPHERICALLY FOCUSED LOG RESISTIVITY
CALWS   .IN    : CALIPER [DCALRED+9.875]<15054>[DCALRED+6.5]
CONDWS  .MMHO  : CONDUCTIVITY [1000/DRESWS]
DCALRED .IN    : DIFFERENTIAL CALIPER FROM RESISTIVITY LOG
DCORWS  .G/C3  : DENSITY CORRECTION [DRHOED]
DENWS   .G/C3  : BULK DENSITY [M=2.71 F=1.0] [CALCULATED FROM DPOWS]
DPHILSED.V/V   : DENSITY POROSITY LIMESTONE[M=2.71 F=1.0] FROM COMPOSITE RES. LOG
DPOWS   .V/V   : DENSITY POROSITY [DPHILSED]
DRESWS  .OHMM  : DEEP RESISTIVITY [IDPHED]
DRHOED  .G/C3  : DENSITY CORRECTION FROM COMPOSITE RES. LOG
DTLFED  .US/F  : DELTA TIME LONG SPACING FAR DETECTOR COMPOSITE RES. LOG
DTLNED  .US/F  : DELTA TIME LONG SPACING NEAR DETECTOR COMPOSITE RES. LOG
DTWS    .US/F  : DELTA TIME [DTLFED]
GRRED   .GAPI  : GAMMA RAY FROM RESISTIVITY LOG
GRWS    .GAPI  : GAMMA RAY [GRRED]
IDPHED  .OHMM  : INDUCTION DEEP PHASE RESISTIVITY
IMPHED  .OHMM  : INDUCTION MEDIUM PHASE RESISTIVITY
MRESWS  .OHMM  : MEDIUM RESISTIVITY [IMPHED]
NPHILSED.V/V   : NEUTRON POROSITY LIMESTONE FROM COMPOSITE RES. LOG
NPOWS   .V/V   : NEUTRON POROSITY LIMESTONE [NPHILSED]
SFLUED  .OHMM  : SPHERICALLY FOCUSED LOG RESISTIVITY
SPRED   .MV    : SPONTANEOUS POTENTIAL FROM RESISTIVITY LOG
SPWS    .MV    : SPONTANEOUS POTENTIAL [BASELINE 0 MV] [SPRED]
SRESWS  .OHMM  : SHALLOW RESISTIVITY [ASFLED], SPLICED WITH [SFLUED] AT 12400'
TENRED  .LBF   : TENSION FROM RESISTIVITY LOG
~Params ----------------------------------------------------
PD  .                     GL : PERMANENT DATUM
EPD .FT                258.6 : ELEVATION PERMANENT DATUM
LMF .                     KB : LOG MEASURED FROM
DAPD.FT                   25 : FEET ABOVE PERMANENT DATUM
DMF .                     KB : DRILLING MEASURED FROM
EKB .FT                284.5 : KELLY BUSHING
EDF .FT                283.6 : DRILLING FLOOR
EGL .FT                258.6 : GROUND LEVEL
DATE.               01/06/97 : RUN DATE
RUN .                      2 : RUN NUMBER
DD  .FT                16145 : DEPTH DRILLER
DL  .FT                16144 : DEPTH LOGGER
BLI .FT                16142 : BOTTOM LOG INTERVAL
TLI .FT                15080 : TOP LOG INTERVAL
CS  .IN                7.625 : CASING SIZE
CBD .FT                15084 : CASING BOTTOM DRILLER
CBL .FT                15080 : CASING BOTTOM LOGGER
BS  .IN                  6.5 : BIT SIZE
BSD .FT                16145 : BIT SIZE AT DEPTH
DFT .              LIG DESCO : DRILLING FLUID TYPE
DFD .                   15.9 : DRILLING FLUID DENSITY
DFV .                     47 : DRILLING FLUID VISCOSITY
DFPH.                   10.3 : DRILLING FLUID PH
DFL .                    5.2 : DRILLING FLUID LOSS
MSS .                MUD PIT : MUD SAMPLE SOURCE
RMS .OHMM                0.6 : RESISTIVITY MUD SAMPLE
MST .DEGF                 75 : MUD SAMPLE TEMPERATURE
RMF .OHMM                0.5 : RESISTIVITY MUD FILTRATE SAMPLE
MFST.DEGF                 75 : MUD FILTRATE SAMPLE TEMPERATURE
RMC .OHMM               0.92 : RESISTIVITY MUD CAKE
MCST.DEGF                 75 : MUD CAKE SAMPLE TEMPERATURE
MFSS.               MEASURED : MUD FILTRATE SAMPLE SOURCE
MCSS.             CALCULATED : MUD CAKE SAMPLE SOURCE
RMB .OHMM               0.13 : RESISTIVITY MUD AT BHT
TCS .HRS                   0 : TIME CIRCULATED STOPPED
TLAB.HRS                1530 : TIME LOGGER AT BOTTOM
LUN .                   2020 : LOGGING UNIT NUMBER
LUL .               VICTORIA : LOGGING UNIT LOCATION
ENGI.                  NAHRI : RECORDING ENGINEER
WITN.    ZAUNBRECHER BRANDON : WITNESSED BY
CLNT.                A2DTECH : CLIENT CODE
ORIG.               5" PRINT : ORIGIN OF DATA
UWI .         42255313650000 : UNIQUE WELL ID
DICO. A2D Technologies, Inc. : DIGITIZING COMPANY
~Other -----------------------------------------------------
MUD WEIGHT USED 9.6 TO 18.8 WHILE DRILLING
~ASCII -----------------------------------------------------
# ...
 7700.00000    3.89210    -999.25  349.00650    -999.25    -999.25    -999.25    -999.25    -999.25    2.86530    -999.25   85.94540   88.59150   85.94540   56.22540   56.22540    2.86530    3.54760    3.54760    -999.25    -999.25    3.89410    -999.25    -999.25    3.89210 3257.95680
 7750.00000    2.54260    -999.25  396.26430    -999.25    -999.25    -999.25    -999.25    -999.25    2.52360    -999.25   88.98030   90.28880   88.98030   55.44280   55.44280    2.52360    2.40030    2.40030    -999.25    -999.25    2.61610    -999.25    -999.25    2.54260 3270.01150
 7800.00000    2.60040    -999.25  398.31890    -999.25    -999.25    -999.25    -999.25    -999.25    2.51060    -999.25   90.84760   91.96050   90.84760   74.08810   74.08810    2.51060    2.39270    2.39270    -999.25    -999.25    2.59760    -999.25    -999.25    2.60040 3252.39280
 7850.00000    1.57130    -999.25  650.25870    -999.25    -999.25    -999.25    -999.25    -999.25    1.53780    -999.25  103.43450  107.28600  103.43450   72.09300   72.09300    1.53780    1.42020    1.42020    -999.25    -999.25    -999.25    -999.25    -999.25    1.57130 3288.37670
 7900.00000    2.63770    -999.25  395.61360    -999.25    -999.25    -999.25    -999.25    -999.25    2.52770    -999.25   90.00810   86.41930   90.00810   75.32800   75.32800    2.52770    2.65260    2.65260    -999.25    -999.25    2.72590    -999.25    -999.25    2.63770 3280.06130
 7950.00000    3.20240    -999.25  346.50880    -999.25    -999.25    -999.25    -999.25    -999.25    2.88590    -999.25   87.48930   87.97580   87.48930   60.74090   60.74090    2.88590    3.00920    3.00920    -999.25    -999.25    3.48530    -999.25    -999.25    3.20240 3302.81180
 8000.00000    3.48010    -999.25  308.64120    -999.25    -999.25    -999.25    -999.25    -999.25    3.24000    -999.25   88.93190   89.69750   88.93190   69.71650   69.71650    3.24000    2.98630    2.98630    -999.25    -999.25    3.52520    -999.25    -999.25    3.48010 3328.04250
 8050.00000    2.36530    -999.25  422.97650    -999.25    -999.25    -999.25    -999.25    -999.25    2.36420    -999.25   91.69390   92.62330   91.69390   72.09720   72.09720    2.36420    2.20820    2.20820    -999.25    -999.25    2.44300    -999.25    -999.25    2.36530 3327.33670
 8100.00000    3.17890    -999.25  315.87990    -999.25    -999.25    -999.25    -999.25    -999.25    3.16580    -999.25   87.05420   87.27350   87.05420   65.34100   65.34100    3.16580    2.93650    2.93650    -999.25    -999.25    3.27770    -999.25    -999.25    3.17890 3360.90870
 8150.00000    5.65120    -999.25  236.26130    -999.25    -999.25    -999.25    -999.25    -999.25    4.23260    -999.25   84.74790   85.54560   84.74790   49.95030   49.95030    4.23260    4.69430    4.69430    -999.25    -999.25    5.37350    -999.25    -999.25    5.65120 3328.04130
 8200.00000    3.50370    -999.25  325.63370    -999.25    -999.25    -999.25    -999.25    -999.25    3.07090    -999.25   86.36040   85.15060   86.36040   62.80690   62.80690    3.07090    2.89550    2.89550    -999.25    -999.25    3.39310    -999.25    -999.25    3.50370 3382.77080
 8250.00000    2.18930    -999.25  528.20830    -999.25    -999.25    -999.25    -999.25    -999.25    1.89320    -999.25   92.15280   93.10440   92.15280   73.32290   73.32290    1.89320    2.02970    2.02970    -999.25    -999.25    2.40620    -999.25    -999.25    2.18930 3371.43650
 8300.00000    3.37860    -999.25  313.96950    -999.25    -999.25    -999.25    -999.25    -999.25    3.18500    -999.25   88.59590   86.53210   88.59590   83.38900   83.38900    3.18500    3.00640    3.00640    -999.25    -999.25    3.30160    -999.25    -999.25    3.37860 3339.64550
 8350.00000    3.04030    -999.25  340.05850    -999.25    -999.25    -999.25    -999.25    -999.25    2.94070    -999.25   87.64700   86.48250   87.64700   64.25880   64.25880    2.94070    2.83420    2.83420    -999.25    -999.25    3.46780    -999.25    -999.25    3.04030 3396.48460
 8400.00000    2.22840    -999.25  515.00190    -999.25    -999.25    -999.25    -999.25    -999.25    1.94170    -999.25   89.88310   94.30570   89.88310   74.46450   74.46450    1.94170    1.99220    1.99220    -999.25    -999.25    2.39740    -999.25    -999.25    2.22840 3409.98750
 8450.00000    1.80260    -999.25  581.34920    -999.25    -999.25    -999.25    -999.25    -999.25    1.72010    -999.25   93.50510   92.62720   93.50510   67.26040   67.26040    1.72010    1.65600    1.65600    -999.25    -999.25    -999.25    -999.25    -999.25    1.80260 3408.48830
 8500.00000    1.19290    -999.25  879.75090    -999.25    -999.25    -999.25    -999.25    -999.25    1.13670    -999.25  100.90100  100.20590  100.90100   66.28150   66.28150    1.13670    1.01580    1.01580    -999.25    -999.25    -999.25    -999.25    -999.25    1.19290 3446.31350
 8550.00000    1.15450    -999.25  918.11360    -999.25    -999.25    -999.25    -999.25    -999.25    1.08920    -999.25  102.98220  102.52650  102.98220   65.83490   65.83490    1.08920    1.01940    1.01940    -999.25    -999.25    -999.25    -999.25    -999.25    1.15450 3425.93360
 8600.00000    3.11630    -999.25  369.91290    -999.25    -999.25    -999.25    -999.25    -999.25    2.70330    -999.25   99.17090   83.18930   99.17090   50.80230   50.80230    2.70330    2.95150    2.95150    -999.25    -999.25    4.68600    -999.25    -999.25    3.11630 3459.01070
 8650.00000    2.48090    -999.25  502.32730    -999.25    -999.25    -999.25    -999.25    -999.25    1.99070    -999.25   71.65810  111.04200   71.65810   56.89540   56.89540    1.99070    2.33640    2.33640    -999.25    -999.25    2.65830    -999.25    -999.25    2.48090 3573.96700
 8700.00000    1.00310    -999.25 1105.51090    -999.25    -999.25    -999.25    -999.25    -999.25    0.90460    -999.25  103.24610  105.84810  103.24610   68.24800   68.24800    0.90460    0.82700    0.82700    -999.25    -999.25    -999.25    -999.25    -999.25    1.00310 3507.57200
 8750.00000    1.18290    -999.25  913.74110    -999.25    -999.25    -999.25    -999.25    -999.25    1.09440    -999.25  103.69350  103.96000  103.69350   59.45120   59.45120    1.09440    1.00150    1.00150    -999.25    -999.25    -999.25    -999.25    -999.25    1.18290 3572.62700
 8800.00000    1.17280    -999.25  933.24130    -999.25    -999.25    -999.25    -999.25    -999.25    1.07150    -999.25  112.29600  111.26980  112.29600   61.69540   61.69540    1.07150    1.01870    1.01870    -999.25    -999.25    -999.25    -999.25    -999.25    1.17280 3564.56740
 8850.00000    2.92810    -999.25  443.99240    -999.25    -999.25    -999.25    -999.25    -999.25    2.25230    -999.25   92.60070   92.64050   92.60070   65.72590   65.72590    2.25230    2.17420    2.17420    -999.25    -999.25    2.23440    -999.25    -999.25    2.92810 3533.38820
 8900.00000    5.37320    -999.25  242.13720    -999.25    -999.25    -999.25    -999.25    -999.25    4.12990    -999.25   83.01030   81.68810   83.01030   61.07740   61.07740    4.12990    4.16740    4.16740    -999.25    -999.25    4.74840    -999.25    -999.25    5.37320 3488.48270
 8950.00000    1.10990    -999.25  974.59630    -999.25    -999.25    -999.25    -999.25    -999.25    1.02610    -999.25  103.05450  104.65740  103.05450   61.98280   61.98280    1.02610    0.97680    0.97680    -999.25    -999.25    -999.25    -999.25    -999.25    1.10990 3558.05810
 9000.00000    1.18090    -999.25  897.12080    -999.25    -999.25    -999.25    -999.25    -999.25    1.11470    -999.25  100.26410  101.93030  100.26410   68.29000   68.29000    1.11470    1.05660    1.05660    -999.25    -999.25    -999.25    -999.25    -999.25    1.18090 3653.70120
 9050.00000    1.52210    -999.25  691.35080    -999.25    -999.25    -999.25    -999.25    -999.25    1.44640    -999.25   96.32840   97.38530   96.32840   62.43870   62.43870    1.44640    1.37610    1.37610    -999.25    -999.25    -999.25    -999.25    -999.25    1.52210 3574.25780
