~Version ---------------------------------------------------
VERS.      2.0 : CWLS log ASCII Standard -VERSION 2.0
WRAP.      YES : Multiple lines per depth step
CREA. 07/21/20 : LAS Creation Date
~Well ------------------------------------------------------
STRT.FT                  2100.0 : START DEPTH
STOP.FT                  6200.0 : STOP DEPTH
STEP.FT                50.00000 : STEP LENGTH
NULL.                   -999.25 : NULL VALUE
COMP. EVERGREEN OIL CORPORATION : COMPANY
WELL.         VICKERS OLYN P #1 : WELL
FLD .                      COST : FIELD
LOC .                           : LOCATION
CNTY.                  GONZALES : COUNTY
STAT.                     TEXAS : STATE
CTRY.  UNITED STATES OF AMERICA : COUNTRY
SRVC.              Schlumberger : SERVICE COMPANY
DATE.               11-Mar-1981 : LOGDATE
API .            42177308050000 : API NUMBER
UWI .            42177308050000 : UNIQUE WELL ID
SLAT.WGS84         29.460506946 : SURFACE LATITUDE
SLON.WGS84       -97.5902132456 : SURFACE LONGITUDE
~Curve Information -----------------------------------------
DEPT    .FT    : DEPTH FEET
BITSED  .IN    : BITS SIZE
CALRED  .IN    : CALIPER FROM DIL-SFL-FDC-CNL LOG
CALWS   .IN    : CALIPER [TOP DCALRED+BITS 5580', CALRDED TD]
CONDWS  .MMHO  : CONDUCTIVITY [1000/DRESWS]
DCALRED .IN    : DIFFERENTIAL CALIPER FROM DIL-SFL-FDC-CNL LOG
DCORWS  .G/C3  : DENSITY CORRECTION [DRHOED]
DENWS   .G/C3  : FORMATION BULK DENSITY [CALC. FROM DPOLSWS M=2.71, F=1.0]
DPHILSED.V/V   : DENSITY POROSITY LIMESTONE [M=2.71, F=1.0] FROM DIL-SFL-FDC-CNL LOG
DPHISSED.V/V   : DENSITY POROSITY SANDSTONE [M=2.68, F=1.0] FROM DIL-SFL-FDC-CNL LOG
DPOLSWS .V/V   : DENSITY POROSITY LIMESTONE [TOP DPHISSED MATRIX CONVERSION TO LIMESTONE (M=2.71,F=1.0) 5580', DPHILSED TD]
DRESWS  .OHMM  : DEEP RESISTIVITY [ILDED]
DRHOED  .G/C3  : DENSITY CORRECTION FROM DIL-SFL-FDC-CNL LOG
GRRED   .GAPI  : GAMMA RAY FROM DIL-SFL-FDC-CNL LOG
GRWS    .GAPI  : GAMMA RAY [GRRED]
ILDED   .OHMM  : DEEP INDUCTION RESISTIVITY FROM DIL-SFL-FDC-CNL LOG
ILMED   .OHMM  : MEDIUM INDUCTION RESISTIVITY FROM DIL-SFL-FDC-CNL LOG
MRESWS  .OHMM  : MEDIUM RESISTIVITY [ILMED]
NPHILSED.V/V   : NEUTRON POROSITY LIMESTONE FROM DIL-SFL-FDC-CNL LOG
NPHISSED.V/V   : NEUTRON POROSITY SANDSTONE FROM DIL-SFL-FDC-CNL LOG
NPOLSWS .V/V   : NEUTRON POROSITY LIMESTONE [TOP NPHISSED MATRIX CONVERSION TO LIMESTONE (SBL) 5580', NPHILSED TD]
RHOBED  .G/C3  : BULK DENSITY FROM DIL-SFL-FDC-CNL LOG
SFLUED  .OHMM  : SHALLOW FOCUSED RESISTIVITY FROM DIL-SFL-FDC-CNL LOG
SPRED   .MV    : SPONTANEOUS POTENTIAL FROM DIL-SFL-FDC-CNL LOG
SPWS    .MV    : SPONTANEOUS POTENTIAL [BASELINE 0MV, SPRED]
SRESWS  .OHMM  : SHALLOW RESISTIVITY [SFLUED]
~Params ----------------------------------------------------
PD  .                     GL : PERMANENT DATUM
EPD .FT                  404 : ELEVATION PERMANENT DATUM
LMF .                     KB : LOG MEASURED FROM
DAPD.FT                   12 : FEET ABOVE PERMANENT DATUM
DMF .                     KB : DRILLING MEASURED FROM
EKB .FT                  416 : KELLY BUSHING
EDF .FT                  415 : DRILLING FLOOR
EGL .FT                  404 : GROUND LEVEL
DATE.               03/11/81 : RUN DATE
RUN .                      1 : RUN NUMBER
DD  .FT                 6215 : DEPTH DRILLER
DL  .FT                 6215 : DEPTH LOGGER
BLI .FT                 6138 : BOTTOM LOG INTERVAL
TLI .FT                 2068 : TOP LOG INTERVAL
CS  .IN                8.625 : CASING SIZE
CBD .FT                 2054 : CASING BOTTOM DRILLER
CBL .FT                 2068 : CASING BOTTOM LOGGER
BS  .IN                7.875 : BIT SIZE
BSD .FT                 6215 : BIT SIZE AT DEPTH
MST .DEGF                 75 : MUD SAMPLE TEMPERATURE
MFST.DEGF                 75 : MUD FILTRATE SAMPLE TEMPERATURE
MCST.DEGF                 75 : MUD CAKE SAMPLE TEMPERATURE
WITN.                  EVANS : WITNESSED BY
CLNT.                A2DTECH : CLIENT CODE
ORIG.            1" 5" PRINT : ORIGIN OF DATA
UWI .         42177308050000 : UNIQUE WELL ID
DICO. A2D Technologies, Inc. : DIGITIZING COMPANY
~Other -----------------------------------------------------
DIL-SFL-FDC-CNL TOOL RUN
~ASCII -----------------------------------------------------
 2100.00000    7.87500    -999.25    9.41200  152.71840    1.53700   -0.01700    2.14910    -999.25    0.31600    0.32800    6.54800   -0.01700   75.56100   75.56100    6.54800    6.77600    6.77600    -999.25    0.37600    0.33270    -999.25    6.31000  -24.21000   -9.62620    6.31000
 2150.00000    7.87500    -999.25    9.15800   88.17560    1.28300   -0.00900    2.06850    -999.25    0.36400    0.37520   11.34100   -0.00900   55.85400   55.85400   11.34100   10.86000   10.86000    -999.25    0.39500    0.35200    -999.25   10.43200  -20.70300   -6.56230   10.43200
 2200.00000    7.87500    -999.25    9.35600  179.01900    1.48100   -0.00400    2.16260    -999.25    0.30800    0.32010    5.58600   -0.00400   76.64100   76.64100    5.58600    5.45200    5.45200    -999.25    0.42900    0.38680    -999.25    5.00500  -16.90800   -4.15190    5.00500
 2250.00000    7.87500    -999.25    9.81700   98.05840    1.94200   -0.01500    2.08190    -999.25    0.35600    0.36730   10.19800   -0.01500   65.79500   65.79500   10.19800    9.90900    9.90900    -999.25    0.42400    0.38160    -999.25    9.22400  -23.42200  -12.93260    9.22400
 2300.00000    7.87500    -999.25   11.00800  277.23870    3.13300   -0.01700    2.16590    -999.25    0.30600    0.31820    3.60700   -0.01700   82.79100   82.79100    3.60700    3.51400    3.51400    -999.25    0.48000    0.43930    -999.25    3.94400  -16.11600   -8.43700    3.94400
 2350.00000    7.87500    -999.25    8.49100   89.01550    0.61600   -0.01100    2.09870    -999.25    0.34600    0.35750   11.23400   -0.01100   66.33200   66.33200   11.23400   10.86900   10.86900    -999.25    0.37800    0.33470    -999.25   10.06600  -22.23600  -14.29220   10.06600
 2400.00000    7.87500    -999.25    9.76700  173.55090    1.89200    0.02300    2.19950    -999.25    0.28600    0.29850    5.76200    0.02300   78.28500   78.28500    5.76200    5.60300    5.60300    -999.25    0.40500    0.36220    -999.25    5.23100  -18.36600  -10.15730    5.23100
 2450.00000    7.87500    -999.25    8.84500  168.18030    0.97000   -0.00500    2.17770    -999.25    0.29900    0.31130    5.94600   -0.00500   84.25800   84.25800    5.94600    5.65200    5.65200    -999.25    0.37100    0.32760    -999.25    7.14500  -20.32500  -11.85150    7.14500
 2500.00000    7.87500    -999.25    8.33000   93.48420    0.45500   -0.00500    2.05170    -999.25    0.37400    0.38500   10.69700   -0.00500   52.37300   52.37300   10.69700   10.48400   10.48400    -999.25    0.40100    0.35810    -999.25   10.98200  -23.63300  -14.89460   10.98200
 2550.00000    7.87500    -999.25   10.89200  439.36730    3.01700    0.03800    1.78620    -999.25    0.53200    0.54020    2.27600    0.03800   52.18100   52.18100    2.27600    2.80600    2.80600    -999.25    0.50000    0.46020    -999.25    3.68900  -10.43100   -1.42040    3.68900
 2600.00000    7.87500    -999.25   10.39600  435.35050    2.52100    0.09700    2.07520    -999.25    0.36000    0.37120    2.29700    0.09700   70.53200   70.53200    2.29700    2.29400    2.29400    -999.25    0.50100    0.46120    -999.25    1.28300  -10.84400   -1.42210    1.28300
 2650.00000    7.87500    -999.25    9.07300  174.85570    1.19800   -0.00100    2.15580    -999.25    0.31200    0.32410    5.71900   -0.00100   54.38300   54.38300    5.71900    5.68300    5.68300    -999.25    0.40600    0.36320    -999.25    4.60300  -19.91300  -10.07980    4.60300
 2700.00000    7.87500    -999.25    9.05100   92.60120    1.17600   -0.01200    2.01810    -999.25    0.39400    0.40460   10.79900   -0.01200   43.82900   43.82900   10.79900   10.54000   10.54000    -999.25    0.36900    0.32560    -999.25   10.29100  -22.54000  -12.29550   10.29100
 2750.00000    7.87500    -999.25    9.31500  100.87760    1.44000   -0.00900    2.13400    -999.25    0.32500    0.33680    9.91300   -0.00900   39.71500   39.71500    9.91300    9.64700    9.64700    -999.25    0.33600    0.29220    -999.25    9.32400  -23.37900  -14.29840    9.32400
 2800.00000    7.87500    -999.25    8.81500  132.64360    0.94000   -0.00400    2.11220    -999.25    0.33800    0.34960    7.53900   -0.00400   47.60000   47.60000    7.53900    7.66300    7.66300    -999.25    0.39100    0.34800    -999.25    9.90900  -20.12700  -12.53540    9.90900
 2850.00000    7.87500    -999.25    8.20400  188.60810    0.32900   -0.00100    2.12060    -999.25    0.33300    0.34470    5.30200   -0.00100   57.91700   57.91700    5.30200    5.42800    5.42800    -999.25    0.41800    0.37550    -999.25    3.74000  -17.92200  -10.33040    3.74000
 2900.00000    7.87500    -999.25    8.05000  110.80330    0.17500    0.00300    2.10710    -999.25    0.34100    0.35260    9.02500    0.00300   47.31000   47.31000    9.02500    8.78600    8.78600    -999.25    0.39300    0.35000    -999.25    8.30400  -21.39200  -13.80040    8.30400
 2950.00000    7.87500    -999.25    8.37500  134.66200    0.50000    0.00600    2.13570    -999.25    0.32400    0.33590    7.42600    0.00600   54.31400   54.31400    7.42600    6.95900    6.95900    -999.25    0.38700    0.34390    -999.25    8.10800  -20.12700  -12.90500    8.10800
 3000.00000    7.87500    -999.25    8.96600  288.68360    1.09100    0.03800    2.11380    -999.25    0.33700    0.34860    3.46400    0.03800   65.10500   65.10500    3.46400    3.45800    3.45800    -999.25    0.45100    0.40930    -999.25    2.72000  -12.45500   -6.05440    2.72000
 3050.00000    7.87500    -999.25   10.23700  590.66750    2.36200    0.04700    1.67370    -999.25    0.59900    0.60600    1.69300    0.04700   76.37700   76.37700    1.69300    1.73200    1.73200    -999.25    0.56800    0.53190    -999.25    2.41800   -6.70800   -1.12880    2.41800
 3100.00000    7.87500    -999.25    9.23900  365.76440    1.36400    0.04600    2.09870    -999.25    0.34600    0.35750    2.73400    0.04600   81.53100   81.53100    2.73400    3.25000    3.25000    -999.25    0.50100    0.46120    -999.25    2.06800  -10.66000   -5.90220    2.06800
 3150.00000    7.87500    -999.25    7.66800  130.94150   -0.20700   -0.00700    2.08530    -999.25    0.35400    0.36530    7.63700   -0.00700   43.58600   43.58600    7.63700    8.00300    8.00300    -999.25    0.38500    0.34180    -999.25   10.48600  -19.18600  -15.24960   10.48600
 3200.00000    7.87500    -999.25    7.69700   81.78620   -0.17800   -0.01000    2.12060    -999.25    0.33300    0.34470   12.22700   -0.01000   35.44400   35.44400   12.22700   11.87000   11.87000    -999.25    0.35600    0.31240    -999.25   11.86500  -21.64600  -18.53100   11.86500
 3250.00000    7.87500    -999.25    7.66800  184.87710   -0.20700    0.03700    2.24320    -999.25    0.26000    0.27300    5.40900    0.03700   78.41500   78.41500    5.40900    4.54900    4.54900    -999.25    0.39500    0.35200    -999.25    4.21400  -10.51300   -8.21940    4.21400
 3300.00000    7.87500    -999.25    7.55300   96.80540   -0.32200   -0.00400    2.15080    -999.25    0.31500    0.32700   10.33000   -0.00400   47.94300   47.94300   10.33000   10.69700   10.69700    -999.25    0.39500    0.35200    -999.25   10.34300  -19.55300  -17.38630   10.34300
 3350.00000    7.87500    -999.25    7.75700  154.36860   -0.11800    0.01500    2.18780    -999.25    0.29300    0.30540    6.47800    0.01500   66.18300   66.18300    6.47800    6.88600    6.88600    -999.25    0.41000    0.36730    -999.25    7.54800  -12.95400  -10.52340    7.54800
 3400.00000    7.87500    -999.25    7.42700  348.55350   -0.44800    0.03700    2.28520    -999.25    0.23500    0.24840    2.86900    0.03700   99.39600   99.39600    2.86900    2.97300    2.97300    -999.25    0.39400    0.35100    -999.25    3.24000   -7.49800   -4.80360    3.24000
 3450.00000    7.87500    -999.25    8.81400  473.70910    0.93900    0.09500    2.31880    -999.25    0.21500    0.22880    2.11100    0.09500   95.84600   95.84600    2.11100    2.14900    2.14900    -999.25    0.45300    0.41140    -999.25    2.09700   -5.99300   -3.03470    2.09700
