~Version ---------------------------------------------------
VERS. 2.0 : CWLS log ASCII Standard -VERSION 2.0
WRAP.  NO : ONE LINE PER DEPTH STEP
~Well ------------------------------------------------------
STRT.F                   300.0 : START DEPTH
STOP.F                 14000.0 : STOP DEPTH
STEP.F                50.00000 : STEP LENGTH
NULL.                  -999.25 : NULL VALUE
COMP.        GETTY OIL COMPANY : COMPANY
WELL.           R. B. LEWIS #1 : WELL
FLD .                  WILDCAT : FIELD
LOC .                          : LOCATION
CNTY.                 BURLESON : COUNTY
STAT.                    TEXAS : STATE
CTRY. UNITED STATES OF AMERICA : COUNTRY
SRVC.             Schlumberger : SERVICE COMPANY
DATE.              12-May-1980 : LOGDATE
API .           42051306100000 : API NUMBER
UWI .           42051306100000 : UNIQUE WELL ID
SLAT.WGS84           30.417676 : SURFACE LATITUDE
SLON.WGS84          -96.504349 : SURFACE LONGITUDE
~Curve Information -----------------------------------------
DEPT.F                 : 
SPR .MV   07 010 01 00 : SPONTANEOUS POTENTIAL
DT  .US/F 60 520 00 00 : DELTA TIME
ILD .OHMM 07 120 46 00 : DEEP INDUCTION RESISTIVITY
ILM .OHMM 07 120 44 00 : INDUCTION LOG MEDIUM RESISTIVITY
SFLU.OHMM 07 220 01 00 : SPHERICALLY FOCUSED LOG UNAVERAGED RESISTIVITY
GRD .GAPI 45 310 01 00 : GAMMA RAY FROM DENSITY LOG
CALD.IN   45 280 60 00 : CALIPER FROM DENSITY
DRHO.G/C3 45 356 01 00 : DENSITY CORRECTION
RHOB.G/C3 45 350 01 00 : BULK DENSITY
NPHI.DEC  42 890 03 00 : NEUTRON POROSITY SANDSTONE
GR  .GAPI 30 310 01 00 : GAMMA RAY
~Params ----------------------------------------------------
EKB .F                 283.0 : KELLY BUSHING
EGL .F                   266 : ELEVATION GROUND LEVEL
EDF .F                   282 : ELEVATION DERRICK FLOOR
EPD .F                   266 : ELEVATION PERMANENT DATUM
TD  .F               14006.0 : TOTAL DEPTH
DATE.            14-MAY-1980 : DATE LOGGED
CLNT.                A2DTECH : CLIENT CODE
SL  . 3459' FNEL & 2038' FSL : SURFACE LOCATION
PD  .                     GL : PERMANENT DATUM
LMF .                     KB : LOG MEASURED FROM
DMF .                     KB : DRILLING MEASURED FROM
DAPD.F                    17 : FEET ABOVE PERMANENT DATUM
DD  .F                 14001 : DEPTH DRILLER
DL  .F                 14006 : DEPTH LOGGER
BLI .F                 14003 : BOTTOM LOG INTERVAL
TLI .F                  9717 : TOP LOG INTERVAL
CS1 .IN                7.875 : CASING SIZE
CBD1.         7.875" @ 9729' : CASING DRILLER 1
CBL1.F                  9717 : CASING LOGGER 1
BS1 .IN                  6.5 : BIT SIZE
BSD1.F                 14001 : DEPTH DRILLED WITH BIT1
DFT .         SPERSENE/XF-20 : TYPE FLUID IN HOLE
DFD .                   10.2 : DENSITY
DFV .                     43 : VISCOSITY
DFPH.                     10 : PH
DFL .                   10.4 : FLUID LOSS
MSS .              CIRC TANK : SOURCE OF SAMPLE
RMS .OHMM              0.616 : RM
RMF .OHMM               0.46 : RMF
RMC .OHMM               0.92 : RMC
MFSS.                   CALC : SOURCE RMF.
MCSS.                   CALC : SOURCE RMC.
RMB .OHMM              0.143 : RM. AT BHT
BHT .F                   322 : BHT.
TCS .HRS                2200 : TIME CIRC. STOPPED
TLAB.HRS                 500 : TIME LOGGER AT BOTTOM
LUN .                   8176 : LOGGING UNIT NUMBER
LUL .                BRENHAM : LOGGING UNIT LOCATION
ENGI.                 HARVEY : RECORDED BY
WITN.           ADDINGTON JR : WITNESSED BY
ORIG.               5" PRINT : ORIGIN OF DATA
UWI .         42051306100000 : UNIQUE WELL ID
DICO. A2D TECHNOLOGIES, INC. : DIGITIZING COMPANY
~Other -----------------------------------------------------
# NPHI SANDSTONE/LIMESTONE
~ASCII -----------------------------------------------------
# ...
 3350.00000  -42.31900  110.74000    2.67800    2.44700    2.56200   77.63700   10.47700    0.02400    2.30000    0.37400    -999.25
 3400.00000  -41.21000  114.35900    2.50600    2.13300    2.26900   77.41200    9.97200    0.04300    2.20700    0.36600    -999.25
 3450.00000  -28.51300  102.59300    2.66700    1.96300    1.90200   65.17600    9.83000    0.06000    2.33800    0.36400    -999.25
 3500.00000  -48.18700  102.96400    3.35000    3.14400    3.00300   81.52600   10.47000    0.03100    2.36100    0.32300    -999.25
 3550.00000  -47.13200  106.78300    3.05600    3.14100    2.99900   85.00100   11.14100    0.03000    2.30000    0.34600    -999.25
 3600.00000  -38.05500  101.70900    3.47600    2.88100    2.79200   71.00600   10.54300    0.04000    2.26700    0.30600    -999.25
 3650.00000  -27.91400  103.13700    2.63000    1.95500    2.03000   65.87500    9.87100    0.02700    2.15900    0.36100    -999.25
 3700.00000  -33.37800  105.32000    2.84300    2.40100    2.37600   74.56400   10.06500    0.02600    2.19000    0.37400    -999.25
 3750.00000  -52.74200  109.25300    1.88500    1.89500    1.95500  103.71500   11.24400    0.08700    2.39400    0.40700    -999.25
 3800.00000  -42.72500   96.37900    4.36800    3.75800    3.95100   81.98000   11.10000    0.06000    2.42100    0.30500    -999.25
 3850.00000  -34.54200   85.81300    3.95100    3.77400    5.43900   61.45300    9.79000    0.04500    2.39900    0.27900    -999.25
 3900.00000  -33.82300  103.10100    2.37000    1.93000    1.68500   56.08100    9.92200    0.01700    2.13400    0.34400    -999.25
 3950.00000  -31.52700  100.89300    3.07400    2.40500    2.48300   56.92500    9.95400    0.02900    2.18700    0.36700    -999.25
 4000.00000  -54.23300   98.43600    3.74000    2.94900    3.14300  103.08200   11.64500    0.12100    2.43900    0.35900    -999.25
 4050.00000  -19.78900  100.59000    2.05200    1.53600    1.67600   49.98700   10.22500    0.01900    2.13900    0.29600    -999.25
 4100.00000  -18.87500  102.72800    2.84000    2.22200    1.87900   46.71400   10.03800    0.00900    2.11200    0.34200    -999.25
 4150.00000  -20.60600   98.74800    2.70100    2.09200    1.70400   52.50900   10.67400    0.02300    2.17600    0.29400    -999.25
 4200.00000  -22.89600   93.29000    3.18800    2.76600    2.71600   79.33800   10.14900    0.05400    2.36700    0.30800    -999.25
 4250.00000  -20.33900   99.30600    1.66400    1.39500    1.27200   45.91500    9.90200    0.01900    2.17800    0.31400    -999.25
 4300.00000  -18.31900  103.48800    1.84500    1.69700    1.49800   39.16400   12.47500    0.06000    2.05000    0.40200    -999.25
 4350.00000  -22.50400  100.89300    1.63600    1.56400    1.41400   49.81000   10.08100    0.02800    2.15300    0.33400    -999.25
 4400.00000  -21.57600   99.55300    1.91100    1.65800    1.61100   63.48000   11.47700    0.01700    2.20800    0.30800    -999.25
 4450.00000  -24.18900  100.04500    1.50300    1.48000    1.44100   48.77600    9.86400    0.02700    2.17100    0.31800    -999.25
 4500.00000  -24.61300   95.28700    1.60800    1.70700    1.63500   59.69400   10.61000    0.04400    2.21900    0.31100    -999.25
 4550.00000  -23.41200   92.36100    2.66200    2.83700    2.97600   87.43800   10.13200    0.02000    2.39600    0.30100    -999.25
 4600.00000  -27.17100   96.39100    0.72800    0.80400    0.88900   44.69900    9.86900    0.03700    2.16900    0.31500    -999.25
 4650.00000  -28.97700   96.32900    0.79700    0.87700    0.90400   47.93600    9.94900    0.03500    2.14200    0.31500    -999.25
 4700.00000  -26.73000   99.32900    0.80600    0.90400    0.99300   48.25800   10.22600    0.02400    2.14600    0.27700    -999.25
 4750.00000  -27.58500   95.78500    0.88000    1.00400    0.99400   52.55000   10.03300    0.05200    2.19000    0.32200    -999.25
 4800.00000  -28.92300   94.80600    0.81600    0.95400    1.04600   45.72300   10.05700    0.01200    2.18300    0.30800    -999.25
 4850.00000  -29.11300   97.03800    0.79000    1.00400    1.02700   46.88100    9.87200    0.03000    2.17400    0.31200    -999.25
 4900.00000  -30.09600   94.34500    0.93300    1.07400    1.10500   50.38500   10.01600    0.04000    2.22100    0.30600    -999.25
 4950.00000  -26.87700   90.77200    1.24900    1.42900    1.61500   63.48000    9.78300    0.04800    2.28200    0.29400    -999.25
 5000.00000  -23.83600   88.02100    1.62800    1.87300    2.02800   83.89600   10.02800    0.04700    2.40200    0.28800    -999.25
 5050.00000  -23.83800   93.31100    2.06700    2.12200    2.54800   78.92500   10.20400    0.09000    2.39100    0.33000    -999.25
 5100.00000  -25.23200  121.20900    1.49600    1.83900    4.04400   53.62900    9.98200    0.02500    1.70900    0.60300    -999.25
 5150.00000  -17.57500   96.70900    2.15500    2.44600    2.77700  104.60900   10.75900    0.00400    2.43500    0.28800    -999.25
 5200.00000  -32.22200   88.37900    0.98500    1.26300    1.65800   64.82600   10.34100    0.02900    2.38200    0.27100    -999.25
 5250.00000  -30.37500   94.94000    0.81300    1.00700    1.08900   50.34400   10.20800    0.02100    2.23200    0.27800    -999.25
 5300.00000  -33.00000   89.18700    0.78400    1.08000    1.37200   52.66000   10.01600    0.05900    2.30500    0.29200    -999.25
 5350.00000  -27.57600   90.16400    1.34900    1.67600    2.02300   76.25300   10.30700    0.04400    2.38100    0.25900    -999.25
 5400.00000  -32.38800   85.71500    1.04100    1.40700    1.80100   49.65200   10.14000    0.02500    2.32800    0.26900    -999.25
 5450.00000  -30.68200   88.98800    1.42200    1.73900    2.06100   86.42500    9.95000    0.04500    2.39600    0.29900    -999.25
 5500.00000  -32.51500   90.36000    1.14400    1.51300    1.67600   49.22500    9.91300    0.02300    2.26300    0.29700    -999.25
 5550.00000  -27.35800   83.08800    1.55700    1.90500    2.37500   63.36200    9.91800    0.04500    2.40700    0.24600    -999.25
 5600.00000   -9.44800   91.02200    2.04200    2.06100    2.13900   99.99500   10.60900    0.04300    2.48000    0.29400    -999.25
 5650.00000   -6.72900   91.66800    2.04800    2.00600    2.12200   96.30900   11.09800    0.13900    2.46700    0.30700    -999.25
 5700.00000   -9.86700   91.13400    2.18400    2.24900    2.37300   89.00000   10.43600    0.04000    2.49100    0.31400    -999.25
 5750.00000   -7.94300   87.41500    2.36800    2.41800    2.62700  100.03400    2.65100    0.03900    2.49200    0.35200    -999.25
 5800.00000   -7.79700   88.20800    2.22200    2.28300    2.50200   94.34500    2.64600    0.04800    2.52600    0.36600    -999.25
 5850.00000   -7.08400   86.80600    2.36800    2.45600    2.76600   92.07100    2.65100    0.06900    2.52300    0.34500    -999.25
 5900.00000   -6.62000   87.72100    2.25200    2.35400    2.50200   86.35700    2.65100    0.03700    2.52200    0.36100    -999.25
 5950.00000  -10.74400   86.45100    2.46500    2.51900    2.54500   80.28100    2.67100    0.04800    2.48500    0.31000    -999.25
 6000.00000   -6.72300   86.11100    2.40800    2.51500    3.00300   80.05100    2.67100    0.05700    2.52800    0.33800    -999.25
 6050.00000   -5.53900   88.13800    2.22300    2.30400    2.54900   88.01400    2.67100    0.07900    2.55900    0.35000    -999.25
 6100.00000   -4.80100   92.42400    1.79500    1.83400    2.10400   93.87800    2.67100    0.10600    2.56400    0.35600    -999.25
 6150.00000   -6.14500   88.97400    2.15000    2.23900    2.47900   82.31500    2.65100    0.07800    2.60700    0.38700    -999.25
 6200.00000   -7.01900   88.92600    2.18600    2.24900    2.69800   88.79100    2.67100    0.07700    2.55800    0.38500    -999.25
 6250.00000   -8.71600   91.14900    2.05600    2.13400    2.36200   86.18000    2.66300    0.10300    2.62000    0.38800    -999.25
 6300.00000  -10.07000   90.04800    2.03600    2.11500    2.42900   93.39600    2.67100    0.01500    2.54700    0.34600    -999.25
 6350.00000   -8.19900   92.56000    1.71000    1.78800    2.06500   87.41400    2.65100    0.19500    2.63400    0.39800    -999.25
