~Version ---------------------------------------------------
VERS. 2.0 : CWLS log ASCII Standard -VERSION 2.0
WRAP.  NO : ONE LINE PER DEPTH STEP
~Well ------------------------------------------------------
STRT.FT                            2500.0 : START DEPTH
STOP.FT                           14300.0 : STOP DEPTH
STEP.FT                          50.00000 : STEP LENGTH
NULL.                             -999.25 : NULL VALUE
COMP. BASS ENTERPRISES PRODUCTION COMPANY : COMPANY
WELL.                 MUELLER GAS UNIT #2 : WELL
FLD .                            WORD, N. : FIELD
LOC .                                     : LOCATION
CNTY.                              LAVACA : COUNTY
STAT.                               TEXAS : STATE
CTRY.            UNITED STATES OF AMERICA : COUNTRY
SRVC.                        Schlumberger : SERVICE COMPANY
DATE.                         05-Jan-1981 : LOGDATE
API .                      42285315200000 : API NUMBER
UWI .                      42285315200000 : UNIQUE WELL ID
SLAT.WGS84                  29.4041630679 : SURFACE LATITUDE
SLON.WGS84                 -96.9765206245 : SURFACE LONGITUDE
~Curve Information -----------------------------------------
DEPT.FT                : 
CALR.IN   07 280 01 00 : CALIPER FROM RESISTIVITY LOG
DT  .US/F 60 500 00 00 : DELTA-T (INTERVAL TRANSIT TIME)
GRR .GAPI 07 310 01 00 : GAMMA RAY FROM RESISTIVITY LOG
ILD .OHMM 07 120 46 00 : INDUCTION DEEP RESISTIVITY
ILM .OHMM 07 120 44 00 : INDUCTION MEDIUM RESISTIVITY
SFLU.OHMM 07 220 01 00 : SHALLOW FOCUSED RESISTIVITY (UNAVERAGED)
SPR .MV   07 010 01 00 : SPONTANEOUS POTENTIAL FROM RESISTIVITY LOG
~Params ----------------------------------------------------
PD  .                     GL : PERMANENT DATUM
EPD .FT                218.8 : ELEVATION PERMANENT DATUM
LMF .                     KB : LOG MEASURED FROM
DAPD.FT                 18.9 : FEET ABOVE PERMANENT DATUM
DMF .                     KB : DRILLING MEASURED FROM
EKB .FT                237.7 : KELLY BUSHING
EDF .FT                235.8 : DRILLING FLOOR
EGL .FT                218.8 : GROUND LEVEL
DATE.               01/05/81 : RUN DATE
RUN .                      1 : RUN NUMBER
DD  .FT                14340 : DEPTH DRILLER
DL  .FT                14320 : DEPTH LOGGER
BLI .FT                14320 : BOTTOM LOG INTERVAL
TLI .FT                 2500 : TOP LOG INTERVAL
CS  .IN                10.75 : CASING SIZE
CBD .FT                 2498 : CASING BOTTOM DRILLER
CBL .FT                 2500 : CASING BOTTOM LOGGER
BS  .IN                 8.75 : BIT SIZE
BSD .FT                14340 : BIT SIZE AT DEPTH
DFT .         LICNOSULFONATE : DRILLING FLUID TYPE
DFD .                   10.8 : DRILLING FLUID DENSITY
DFV .                     41 : DRILLING FLUID VISCOSITY
DFPH.                   11.5 : DRILLING FLUID PH
DFL .                    5.6 : DRILLING FLUID LOSS
MSS .              CIRC TANK : MUD SAMPLE SOURCE
RMS .OHMM              0.567 : RESISTIVITY MUD SAMPLE
MST .DEGF                 96 : MUD SAMPLE TEMPERATURE
RMF .OHMM              0.673 : RESISTIVITY MUD FILTRATE SAMPLE
MFST.DEGF                 62 : MUD FILTRATE SAMPLE TEMPERATURE
RMC .OHMM              1.346 : RESISTIVITY MUD CAKE
MCST.DEGF                 62 : MUD CAKE SAMPLE TEMPERATURE
MFSS.                      M : MUD FILTRATE SAMPLE SOURCE
MCSS.                      C : MUD CAKE SAMPLE SOURCE
RMB .OHMM               0.19 : RESISTIVITY MUD AT BHT
TCS .HRS                1500 : TIME CIRCULATED STOPPED
TLAB.HRS                 130 : TIME LOGGER AT BOTTOM
LUN .                   8015 : LOGGING UNIT NUMBER
LUL .               VICTORIA : LOGGING UNIT LOCATION
ENGI.          BAILEY HUGHES : RECORDING ENGINEER
WITN.         KNISELY HOOVER : WITNESSED BY
CLNT.                A2DTECH : CLIENT CODE
ORIG.            2" 5" PRINT : ORIGIN OF DATA
UWI .         42285315200000 : UNIQUE WELL ID
DICO. A2D Technologies, Inc. : DIGITIZING COMPANY
~Other -----------------------------------------------------
~ASCII -----------------------------------------------------
 2500.00000   10.26680  133.23730   53.62010 1940.66570    -999.25    0.19940  -31.18290
 2550.00000   11.69490  163.44880   82.22970    0.93150    0.95840    0.98350  -27.54930
 2600.00000   10.52680  178.97010   99.07060    0.73830    0.69240    0.78990  -23.92230
 2650.00000   10.14990  170.56680   90.94610    0.74880    0.66650    0.80060  -23.27940
 2700.00000    9.01140  174.43690  100.72670    0.76140    0.72760    0.79520  -67.36930
 2750.00000    9.61300  170.57650   97.94700    0.91900    0.84030    0.97630  -77.11000
 2800.00000    9.78770  160.12860  116.40870    0.92570    0.83140    0.98140  -83.32160
 2850.00000    9.42100  179.01550  105.32490    0.73320    0.69410    0.74090  -58.84470
 2900.00000    9.43660  189.72600  102.04060    0.73720    0.67010    0.75430  -81.36660
 2950.00000    9.24840  176.45960   86.32030    0.69570    0.67070    0.78550  -82.11260
 3000.00000    9.56100  178.30140   91.72880    0.89420    0.81260    0.91340 -102.63340
 3050.00000   10.05520  159.25980   79.72040    1.02400    0.91650    1.08560  -95.74550
 3100.00000   10.58330  146.40010   82.97260    1.13260    1.03390    1.17520 -105.11440
 3150.00000    8.94450  179.57720   83.43350    0.85170    0.84720    0.93210  -97.28670
 3200.00000    9.69290  175.12410   82.58510    0.80290    0.73800    0.71650  -94.31940
 3250.00000   10.13380  169.58710   86.74980    0.70290    0.75670    0.79010  -95.79980
 3300.00000   10.21240  153.70260   88.98400    0.82730    0.90770    0.85190 -103.62920
 3350.00000    9.55030  174.17250   95.82050    0.68590    0.70910    0.80570  -25.54490
 3400.00000    9.70510  140.39540   70.85100    0.87510    0.85480    0.99570  -39.20680
 3450.00000    9.96220  148.13970   81.27990    0.70170    0.75150    0.83830  -35.48340
 3500.00000    9.63220  163.71840   96.13020    0.73470    0.79000    0.72860  -26.49210
 3550.00000   10.28560  150.94310   83.80770    0.79430    0.75710    0.80980  -29.47210
 3600.00000    9.65170  163.28950   91.28470    0.81430    0.79200    0.85590  -24.47630
 3650.00000   10.50670  146.60360   92.72490    0.82670    0.86260    0.97410  -26.70210
 3700.00000   10.42790  134.46560   62.60320    0.82340    0.99030    1.11850  -59.73860
 3750.00000    9.88290  132.78270   72.84030    0.82050    1.02260    1.09620  -48.41080
 3800.00000    9.77920  136.00990   65.08950    0.91200    1.05500    1.23230  -55.95480
 3850.00000   10.26660  105.40040   71.26020    1.59170    1.53730    1.47250  -26.18850
 3900.00000   10.74650  140.87870   79.33030    0.95410    0.85800    0.94340  -28.68190
 3950.00000   10.33550  118.21800   71.22880    1.36900    1.42140    1.72510  -34.38980
 4000.00000   10.70770  131.81930   75.29400    1.12860    1.03660    0.99960  -26.18000
 4050.00000   10.82680  157.12240   89.87620    1.35800    1.05660    2.01750  -26.71340
 4100.00000   10.74870  132.45830   93.80800    1.07540    1.10600    1.03990  -32.54970
 4150.00000    7.40320  140.43480   78.01880    0.85830    0.90510    1.00320  -25.69240
 4200.00000    7.17810  128.77120   73.25030    0.77570    0.76630    1.02210  -24.72120
 4250.00000    7.17260  146.35140   84.04540    0.61450    0.62800    0.66530  -24.48210
 4300.00000    7.18540  157.58260   93.00630    0.59940    0.57850    0.71090  -23.73860
 4350.00000    7.22610  149.92910   72.06040    0.69460    0.65690    0.75970  -22.89640
 4400.00000    7.21170  144.58720   91.56120    0.71170    0.68660    0.88740  -21.98670
 4450.00000    7.44230  140.65970   95.28430    0.63570    0.71260    0.64240  -23.23640
 4500.00000    7.50060  158.39450   95.16300    0.56220    0.58130    0.65150  -21.70390
 4550.00000    7.24790  141.49200   88.77870    0.84720    0.89040    0.92570  -23.35670
 4600.00000    7.24980  131.23290   98.45360    0.90120    0.85410    1.05200  -23.08830
 4650.00000    7.09870  140.57030  105.40410    0.79410    0.74200    0.83210  -23.10570
 4700.00000    7.31830  130.72940   90.10700    1.00100    0.90800    1.09080  -24.04260
 4750.00000    7.29270  126.97410   95.43500    1.50520    1.23440    1.26090  -25.25110
 4800.00000    7.68350  169.66630  110.76010    0.80950    0.75730    0.79660  -23.50480
 4850.00000    9.44150  130.43090  102.24620    1.06660    1.03420    0.91370  -27.63370
 4900.00000   10.20580  122.93410  101.05460    1.09100    0.99460    1.13220  -25.24700
 4950.00000   11.73310  119.74690   74.29530    0.86720    0.90870    1.25290  -25.06690
 5000.00000   11.18320  166.59270   89.08910    0.56350    0.54340    0.65400  -94.54680
 5050.00000   12.04930  144.28530   77.26170    0.87700    0.84550    0.98410  -25.11120
 5100.00000    9.27480  270.05220   81.19360    0.47920    0.47030    0.59740  -73.74240
 5150.00000    9.87380  141.65860   93.11320    0.96020    1.04150    1.20230  -24.53290
 5200.00000    9.91470  151.11450   95.88270    0.98470    0.99600    1.04450  -23.95840
 5250.00000    9.87460  148.52970   86.27960    0.99090    0.88690    1.06180  -24.09630
 5300.00000   10.26170  127.22890   93.98780    1.06770    1.03110    0.96960  -23.51260
 5350.00000   10.00290  150.40210   89.55290    0.90680    0.81640    0.91820  -23.88220
 5400.00000    9.42950  144.83480  107.35490    0.81000    0.77740    0.82880  -23.17360
 5450.00000    9.25410  143.53940   96.97950    0.93570    0.89810    0.99730  -24.40230
 5500.00000   10.15660  150.17610   83.34170    0.71400    0.72100    0.78740  -21.53210
 5550.00000   12.25210  100.63880   78.53610    0.95780    1.03670    0.97040  -21.16450
 5600.00000   11.22800  134.51140   89.97450    0.77150    0.82560    0.85120  -21.91320
 5650.00000   11.91710  119.49090   76.39500    1.10860    1.14170    1.20340  -22.46090
 5700.00000   11.54080  120.35380   85.43320    1.21220    1.12050    1.05370  -23.05830
 5750.00000   11.32810  124.06150   79.86280    1.08960    1.00080    1.07900  -23.82730
 5800.00000   11.01420  105.55250   97.80020    2.01050    1.87010    1.73670  -34.83490
 5850.00000   10.16490  103.15980   71.67390    1.17480    1.66870    2.06850  -73.53870
 5900.00000    9.64260   95.66450   50.11770    1.06360    1.61410    2.38260  -84.01590
 5950.00000    9.52400   97.75590   69.19020    1.09370    1.57000    2.35580  -88.92120
 6000.00000    9.60010   94.65720   58.12830    0.98390    1.46030    2.48290  -93.43440
 6050.00000    9.47370   98.03680   40.39600    0.79000    0.90610    1.50680  -94.22430
 6100.00000    9.52880   94.45380   66.33290    0.60760    0.82860    1.69820  -94.39090
 6150.00000    9.89580   96.08210   65.48760    0.40880    0.48270    0.68630  -86.83830
 6200.00000   10.71380   99.13470   96.49180    1.58680    1.84370    2.18630  -41.09090
 6250.00000    9.44670   98.15150   41.41030    0.52030    0.63310    0.85470  -88.65510
 6300.00000    9.57330   94.91040   73.81950    1.49920    2.20210    3.16200  -76.12230
 6350.00000    9.98510  105.46420   93.26790    0.98860    1.21090    1.42330  -57.36190
 6400.00000   10.58730   95.98600  119.89340    1.82330    2.17100    2.39130  -37.29490
 6450.00000   10.34030   92.05500   92.80350    1.86920    1.85300    2.32560  -49.91350
 6500.00000   10.34570   97.79810   98.72470    2.01550    2.17850    2.45140  -39.44460
 6550.00000    9.62610   94.35630   68.15180    1.38140    1.90210    3.18380  -56.66600
 6600.00000   10.02500   99.83080   89.70750    1.86520    2.01710    2.03660  -32.32990
 6650.00000    9.86570   98.15240   89.16630    2.09380    2.22560    2.22760  -41.95080
 6700.00000   10.84210  105.91250  101.36380    1.65640    1.74660    1.90500  -37.42570
 6750.00000   10.20940   96.15090   95.61740    2.35280    2.45570    2.65670  -41.81190
 6800.00000   10.35580   91.94970   99.35060    2.58220    2.57320    2.91910  -34.86710
 6850.00000   11.20660   97.20930  102.40110    2.63130    2.56630    2.74700  -29.33490
 6900.00000   11.39920   96.67650  107.22370    2.62370    2.83750    3.26470  -33.76160
 6950.00000   10.60770   90.23860   97.41400    2.41610   32.69390    3.05760  -43.06800
