~Version ---------------------------------------------------
VERS. 2.0 : CWLS log ASCII Standard -VERSION 2.0
WRAP.  NO : ONE LINE PER DEPTH STEP
~Well ------------------------------------------------------
STRT.F                   300.0 : START DEPTH
STOP.F                 16100.0 : STOP DEPTH
STEP.F                50.00000 : STEP LENGTH
NULL.                  -999.25 : NULL VALUE
COMP.    MOBIL OIL CORPORATION : COMPANY
WELL.     DAISY BRICE BRYNE #1 : WELL
FLD .                  WILDCAT : FIELD
LOC .                          : LOCATION
CNTY.                   ZAVALA : COUNTY
STAT.                    TEXAS : STATE
CTRY. UNITED STATES OF AMERICA : COUNTRY
SRVC.             Schlumberger : SERVICE COMPANY
DATE.              30-Jun-1968 : LOGDATE
API .           42507007550000 : API NUMBER
UWI .           42507007550000 : UNIQUE WELL ID
SLAT.WGS84       28.7751642991 : SURFACE LATITUDE
SLON.WGS84      -99.5625449173 : SURFACE LONGITUDE
~Curve Information -----------------------------------------
DEPT.F                 : 
SPR .MV   05 010 01 00 : SPONTANEOUS POTENTIAL
GRR .GAPI 05 310 01 00 : GAMMA RAY FROM RES.
CALS.IN   60 280 50 00 : CALIPER FROM SONIC LOG
DT  .US/F 60 520 00 00 : ACOUSTIC TRANSIT TIME SLOWNESS, DELTA T
ILD .OHMM 05 120 46 00 : INDUCTION LOG DEEP
ASN .OHMM 05 041 16 00 : AMPLIFIED SHORT NORMAL 16"
~Params ----------------------------------------------------
EKB .F                 748.0 : KELLY BUSHING
EGL .F                   730 : ELEVATION GROUND LEVEL
EDF .F                   0.0 : DRILLING FLOOR
EPD .F                   730 : ELEVATION PERMANENT DATUM
TD  .F               16152.0 : TOTAL DEPTH
DATE.            30-JUN-1968 : DATE LOGGED
CLNT.                A2DTECH : CLIENT CODE
PD  .                     GL : PERMANENT DATUM
LMF .                     KB : LOG MEASURED FROM
DMF .                     KB : DRILLING MEASURED FROM
DAPD.F                    18 : FEET ABOVE PERMANENT DATUM
DD  .F                 16152 : DEPTH DRILLER
DL  .F                 16100 : DEPTH LOGGER
BLI .F                 16090 : BOTTOM LOG INTERVAL
TLI .F                 15700 : TOP LOG INTERVAL
CS1 .IN                7.625 : CASING SIZE
CBD1.        7.625" @ 15700' : CASING DRILLER 1
CBL1.F                 15700 : CASING LOGGER 1
BS1 .IN                  6.5 : BIT SIZE
DFT .                CAUSTIC : TYPE FLUID IN HOLE
DFD .                   11.3 : DENSITY
DFV .                     44 : VISCOSITY
DFPH.                     12 : PH
DFL .                   14.6 : FLUID LOSS
MSS .               FLOWLINE : SOURCE OF SAMPLE
RMS .OHMM               0.24 : RM
RMF .OHMM               0.17 : RMF
MFSS.                   MEAS : SOURCE RMF.
RMC .OHMM               0.21 : RMC
MCSS.                   CALC : SOURCE RMC.
RMB .OHMM               0.07 : RM. AT BHT
BHT .F                   280 : BHT.
TCS .HRS                   6 : TIME CIRC. STOPPED
LUN .                   4540 : LOGGING UNIT NUMBER
LUL .                  PLEAS : LOGGING UNIT LOCATION
ENGI.         MATYEAR-HAMMAR : RECORDED BY
WITN.                 BISHOP : WITNESSED BY
ORIG.          1" & 5" PRINT : ORIGIN OF DATA
UWI .         42507007550000 : UNIQUE WELL ID
DICO. A2D TECHNOLOGIES, INC. : DIGITIZING COMPANY
~Other -----------------------------------------------------
~ASCII -----------------------------------------------------
# ...
 10600.00000  -49.69330    -999.25   10.85960   52.36060   39.04320   61.02170
 10650.00000  -89.49390    -999.25   11.21840   50.43510   47.18340   59.75230
 10700.00000 -108.43560    -999.25   11.46810   77.82320   28.08640   40.83590
 10750.00000  -46.70250    -999.25   11.04680   49.92240   86.72810  100.99070
 10800.00000  -68.40490    -999.25   11.01170   48.98840   24.69140   72.16720
 10850.00000  -77.07000    -999.25   10.87510   52.81860   11.49690   42.41480
 10900.00000  -90.71960    -999.25   10.84400   53.79780   31.09870   34.73680
 10950.00000  -47.89140    -999.25   10.96880   54.26460   35.91820   72.03560
 11000.00000  -92.63800   13.37420   11.21840   59.58750   31.79010   36.81110
 11050.00000  -63.49640   14.11040   10.95320   49.22180   76.96790   84.96900
 11100.00000  -25.30690   21.77930   10.31350   49.98840   68.21030   56.31500
 11150.00000  -19.24850   55.70460   10.48520   60.19550   32.79310   25.61140
 11200.00000  -36.34970   39.50920   12.91890   65.42760   19.29010   25.17030
 11250.00000  -44.01780   45.58180   11.60840   59.68900   32.63890   23.96280
 11300.00000  -29.60120   48.83440   12.35330   60.43410   20.21600   30.51060
 11350.00000  -37.42350   29.32490   11.31200   61.97520   40.81790   34.73680
 11400.00000  -49.69330   25.27610   11.08970   54.32350   16.35800   31.91950
 11450.00000  -35.12270   32.94460   11.00000   55.72320   55.71580   32.50770
 11500.00000  -36.80980   30.30640   11.73320   59.12910   37.50000   32.24480
 11550.00000  -18.75000   46.71780   12.01810   58.58050   27.23840   26.94010
 11600.00000  -24.69330   43.92640   12.43100   64.09500   20.52470   27.02790
 11650.00000  -22.77610   28.65030   11.78000   53.30310   49.46010   37.20220
 11700.00000  -18.55830   46.74850   11.71770   69.34030   19.67310   31.02170
 11750.00000  -22.16180   21.41100   11.31200   55.19440   41.82080   36.85750
 11800.00000  -15.64420   39.01840   11.35880   57.11000   67.39350   38.97830
 11850.00000  -40.56760   30.73620   11.06630   58.51590   57.71640   62.33740
 11900.00000  -25.00000   33.37420   11.14040   57.25060   69.69880   48.90090
 11950.00000  -35.81300   20.61350   11.12480   67.17000  102.00620   68.35970
 12000.00000  -19.93870   23.19020   11.76440   55.36140   81.17280   58.01860
 12050.00000   -7.51520   44.96570   11.53040   61.69520   80.90480   48.73070
 12100.00000  -37.73040   19.20260   11.03120   58.66640   41.25750   52.56930
 12150.00000  -23.77300   19.81580   10.68800   54.62690  198.47310   77.77090
 12200.00000  -19.93870   40.00000   11.58110   55.97760   44.78530   58.69970
 12250.00000  -26.87880    8.89600   11.46810   55.85110   57.74540   40.30190
 12300.00000  -31.13480    7.60740   10.99980   57.99370   59.04910   46.00620
 12350.00000  -15.37580   41.25610   11.71760   57.21620   31.55630   37.66250
 12400.00000  -56.59510   12.73030   11.17940   64.57570   50.00000   47.58510
 12450.00000  -45.93550   12.82220   10.89080   54.52180   71.54910   45.43310
 12500.00000  -47.08540   13.98800   11.29640   56.27890   77.78440   54.02480
 12550.00000  -49.99960   13.37440   10.84400   55.53660   78.45090   58.70720
 12600.00000  -25.92020   32.63800   11.26520   61.97540   27.20550   38.54490
 12650.00000  -54.75460    9.57060   11.09360   58.24260   66.52620   54.98270
 12700.00000  -34.96930   39.26380   11.17160   56.37630   52.76070   61.28450
 12750.00000  -21.85560   45.88960   10.78160   58.42920   96.20620   37.39940
 12800.00000  -10.12270   48.83440   14.39590   64.18800   58.27670   29.69040
 12850.00000  -24.46360   19.87730   11.29640   50.26230   87.36600   33.04880
 12900.00000  -34.50920   15.46010   11.01550   54.18350   81.90180   40.58820
 12950.00000  -87.34620   10.55210   11.00410   61.36860   26.30440   17.32200
 13000.00000  -99.86340   11.04290   11.04680   64.58790   12.73010    4.59760
 13050.00000  -75.99690   69.38640   10.95320   63.32830    9.96930   17.67800
 13100.00000  -58.74230   22.57670   11.76440   61.47990   50.15340   30.55730
 13150.00000  -83.20550   11.68710   10.53200   54.91910   51.63600   21.76470
 13200.00000  -24.07980   57.42330   12.18950   61.37240   25.15340   27.52320
 13250.00000  -39.83950   35.67630   10.87520   57.55380   51.10000   38.17380
 13300.00000  -50.30790   38.34360   11.01560   62.17300   25.15340   30.13930
 13350.00000  -77.26270   10.92020   10.90640   59.36210   34.81600   31.78020
 13400.00000  -41.71780   41.59510   10.53190   61.00700   92.33130   46.96820
 13450.00000  -36.57980   48.15960   11.37450   58.83490   17.37050   22.44580
 13500.00000  -75.61350   13.19030   10.97270   59.45570   51.53080   42.26010
 13550.00000  -75.23020   13.06810   10.56310   54.98760   68.40570   55.88240
 13600.00000  -22.39260   48.58900   10.53200   56.92460   49.38650   33.43650
 13650.00000  -30.59780   44.90820   10.43840   55.33830   43.84940   37.63160
 13700.00000  -34.20250   24.72380   10.61000   56.56310   53.52780   44.14860
 13750.00000  -73.23620   11.84060   10.82840   55.23790   56.63560   45.44130
 13800.00000  -16.71780   43.80370   11.01550   61.22880   30.52150   36.13000
 13850.00000  -24.61660   32.26800   10.79720   61.27540   63.91100   40.12180
 13900.00000  -80.06130   12.63800   10.57880   59.68830   28.06730   37.52320
 13950.00000  -22.92940   72.94520   11.40170   64.47120   17.94590   22.84890
 14000.00000  -50.61350   62.08590   10.82830   60.64160   22.69940   21.02170
 14050.00000  -67.40790   28.77090   10.38770   57.42740   49.27240   41.31580
 14100.00000  -39.72410   52.76070   11.99380   58.79280   24.38650   27.98760
 14150.00000  -50.11500   16.65640   11.55900   57.83490   50.42130   48.75390
 14200.00000  -24.23310   55.82820   14.07450   63.48460   38.19020   37.39940
 14250.00000  -51.07360   17.66830   10.98440   56.15660   52.99080   61.13000
 14300.00000  -31.90180   28.46660   10.56510   56.89250   62.73040   46.17630
 14350.00000  -57.51530   37.60560   10.95340   59.26770   72.47060   57.61680
 14400.00000  -43.55830   55.95090   11.49690   55.04680   37.42330   42.81730
 14450.00000  -50.61350   66.84040   13.67080   62.54670   44.89620   31.11460
 14500.00000  -75.61350   18.03690   10.56520   58.13080   70.50100   39.00890
 14550.00000  -42.33130   49.78460   13.57760   57.33610   34.27910   28.01860
 14600.00000  -50.19170   18.40490   10.75150   59.01880   49.69330   42.41490
 14650.00000  -55.82840   62.76040   13.88820   61.24610   34.43250   22.13620
 14700.00000  -95.09240   18.52790   10.81360   59.62620   27.45400   29.25700
 14750.00000  -59.27910   64.57060   14.77330   62.66360   35.23840   25.77400
 14800.00000  -44.47850   19.63190   10.84470   56.71840   44.47850   35.60370
 14850.00000  -38.11390   63.25150   14.13660   72.05610   37.55760   28.35910
 14900.00000  -66.87150   18.65030   12.24220   61.29290   18.32820   15.23220
 14950.00000  -67.71360   58.95710   12.70800   69.34600   30.52150   32.44580
 15000.00000  -69.17210   24.04910   10.47190   56.05090   42.94480   43.77710
 15050.00000  -83.01370   24.69260   11.00000   57.71010   32.66870   36.22290
 15100.00000  -72.62270   53.90250   11.60560   60.53730   46.40130   46.99690
 15150.00000  -68.13640   19.41730   10.54970   57.93870   69.17330   40.46480
 15200.00000  -37.42330   59.63190   10.68940   53.55140   24.84660   52.66250
 15250.00000  -40.18410   18.83420   10.40990   55.23360   40.56760   43.59110
 15300.00000  -24.53990   57.72960   10.38270   57.00930   48.31290   43.68420
 15350.00000  -28.98770   51.93200   10.64290   56.77570   30.98220   36.11460
 15400.00000  -24.23310   45.88960   10.14600   57.13000   44.78530   41.70280
 15450.00000  -19.78530   51.10430   10.08390   57.48030   72.50350   49.04840
 15500.00000  -21.16560   78.65030   11.55880   64.39250   52.83740   48.01870
 15550.00000  -37.42370   71.53370   15.61180   89.51390   54.75590   26.74940
 15600.00000  -31.74850   51.41100    9.70730   57.57050   31.90180   55.63470
 15650.00000  -35.19940   62.33160    9.57530   57.42840   43.32820   62.46130
