~Version ---------------------------------------------------
VERS. 2.0 : CWLS log ASCII Standard -VERSION 2.0
WRAP. YES : MULTIPLE LINES PER DEPTH STEP
~Well ------------------------------------------------------
STRT.FT                 1650.0 : START DEPTH
STOP.FT                 6350.0 : STOP DEPTH
STEP.FT               50.00000 : STEP LENGTH
NULL.                  -999.25 : NULL VALUE
COMP.  JENNINGS EXPLORATION CO : COMPANY
WELL.       BROLL HENRY JR. #1 : WELL
FLD .                       WC : FIELD
LOC .                          : LOCATION
CNTY.                   WILSON : COUNTY
STAT.                    TEXAS : STATE
CTRY. UNITED STATES OF AMERICA : COUNTRY
SRVC.               Computalog : SERVICE COMPANY
DATE.              23-Sep-1990 : LOGDATE
API .           42493322270000 : API NUMBER
UWI .           42493322270000 : UNIQUE WELL ID
SLAT.WGS84        29.059677326 : SURFACE LATITUDE
SLON.WGS84      -98.2105069587 : SURFACE LONGITUDE
~Curve Information -----------------------------------------
DEPT    .FT                                                                                               : DEPTH FEET
BITED   .IN                                                                                               : BIT SIZE FROM LOG HEADER
CALWS   .IN                                                                                               : CALIPER [DCALED+BITED]
CONDWS  .MMHO                                                                                             : CONDUCTIVITY [1000/DRESWS]
DCALED  .IN                                                                                               : DIFFERENTIAL CALIPER FROM DENSITY LOG
DCORWS  .G/C3                                                                                             : DENSITY CORRECTION [DRHOED]
DENWS   .G/C3 :   BULK DENSITY [CALCULATED FROM DPHISSED: M=2.65 F=1.0 TO 5330] [CALCULATED FROM DPHILSED : M=2.71, F=1 (5330 TO TD)]
DPHILSED.V/V                                                                                              : DENSITY POROSITY LIMESTONE
DPHISSED.V/V                                                                                              : DENSITY POROSITY SANDSTONE
DPOWS   .V/V                                   :   DENSITY POROSITY [M=2.71 F=1.0] [CALCULATED FROM DENWS : WELLTOP TO TD]
DRESWS  .OHMM                                                                                             : DEEP RESISTIVITY [ILDED]
DRHOED  .G/C3                                                                                             : DENSITY CORRECTION FROM DENSITY LOG
GRRED   .GAPI                                                                                             : GAMMA RAY FROM RESISTIVITY LOG
GRWS    .GAPI                                                                                             : GAMMA RAY [GRRED]
ILDED   .OHMM                                                                                             : INDUCTION LOG DEEP RESISTIVITY
ILMED   .OHMM                                                                                             : INDUCTION LOG MEDIUM RESISTIVITY
LL3ED   .OHMM                                                                                             : LATEROLOG 3 RESISTIVITY
MRESWS  .OHMM                                                                                             : MEDIUM RESISTIVITY [ILMED]
NPHILSED.V/V                                                                                              : NEUTRON POROSITY LIMESTONE
NPHISSED.V/V                                                                                              : NEUTRON POROSITY SANDSTONE
NPOWS   .V/V                                                                                              : NEUTRON POROSITY LIMESTONE [CONVERTED FROM NPHISSED (WELLTOP TO 5330), THEN EQUALS NPHILSED TO TD. SEE OTHER INFORMATION BELOW ON CONVERSION PARMS]
SPRED   .MV                                                                                               : SPONTANEOUS POTENTIAL FROM RESISTIVITY LOG
SPWS    .MV                                                                                               : SPONTANEOUS POTENTIAL [BASELINE 0 MV] [SPRED]
SRESWS  .OHMM                                                                                             : SHALLOW RESISTIVITY [LL3ED]
TENRED  .LBF                                                                                              : TENSION FROM RESISTIVITY LOG
~Params ----------------------------------------------------
PD  .                     GL : PERMANENT DATUM
EPD .FT                  461 : ELEVATION PERMANENT DATUM
LMF .                    TKB : LOG MEASURED FROM
DAPD.FT                    8 : FEET ABOVE PERMANENT DATUM
DMF .                    TKB : DRILLING MEASURED FROM
EKB .FT                  469 : KELLY BUSHING
EDF .FT                  468 : DRILLING FLOOR
EGL .FT                  461 : GROUND LEVEL
DATE.               09/23/90 : RUN DATE
RUN .                      1 : RUN NUMBER
DD  .FT                 6390 : DEPTH DRILLER
DL  .FT                 6372 : DEPTH LOGGER
BLI .FT                 6369 : BOTTOM LOG INTERVAL
TLI .FT                 1640 : TOP LOG INTERVAL
CS  .IN                8.625 : CASING SIZE
CBD .FT                 1640 : CASING BOTTOM DRILLER
CBL .FT                 1640 : CASING BOTTOM LOGGER
BS  .IN                7.875 : BIT SIZE
BSD .FT                 6390 : BIT SIZE AT DEPTH
DFT .                    WBM : DRILLING FLUID TYPE
DFD .                   9.85 : DRILLING FLUID DENSITY
DFV .                     50 : DRILLING FLUID VISCOSITY
DFPH.                      9 : DRILLING FLUID PH
DFL .                    7.6 : DRILLING FLUID LOSS
MSS .             CIRCULATED : MUD SAMPLE SOURCE
RMS .OHMM               3.65 : RESISTIVITY MUD SAMPLE
MST .DEGF                106 : MUD SAMPLE TEMPERATURE
RMF .OHMM               3.21 : RESISTIVITY MUD FILTRATE SAMPLE
MFST.DEGF                106 : MUD FILTRATE SAMPLE TEMPERATURE
RMC .OHMM               4.05 : RESISTIVITY MUD CAKE
MCST.DEGF                106 : MUD CAKE SAMPLE TEMPERATURE
MFSS.                   MEAS : MUD FILTRATE SAMPLE SOURCE
MCSS.                   MEAS : MUD CAKE SAMPLE SOURCE
RMB .OHMM               2.36 : RESISTIVITY MUD AT BHT
TCS .HRS                   6 : TIME CIRCULATED STOPPED
LUN .                   3049 : LOGGING UNIT NUMBER
LUL .                    SEG : LOGGING UNIT LOCATION
ENGI.              DEVILBISS : RECORDING ENGINEER
WITN.               JENNINGS : WITNESSED BY
CLNT.                A2DTECH : CLIENT CODE
ORIG.               5" PRINT : ORIGIN OF DATA
UWI .         42493322270000 : UNIQUE WELL ID
DICO. A2D Technologies, Inc. : DIGITIZING COMPANY
~Other -----------------------------------------------------
1. NPOWS converted from NPHISSED (welltop to 5330) with following parms: Logging Co. = Computalog. Tool = CNS. Input Matrix: Quartz. Output Matrix: Limestone. Rest of NPOWS = NPHILSED (5330 to TD).
2. DENWS calculated from DPHISSED (welltop TO 5330) M=2.65, F=1. Then calculated from DPHILSED (5330 to TD) M=2.71, F=1.
3. DPOWS then calculated from DENWS (welltop to TD) M=2.71, F=1.
~ASCII -----------------------------------------------------
 1650.00000    7.87500   10.08700   23.07940    2.21200    -999.25    -999.25    -999.25    -999.25    -999.25   43.32860    -999.25   24.04450   24.04450   43.32860   19.01210   26.24230   19.01210    -999.25    -999.25    -999.25 -103.18820  -20.83180   26.24230 1598.01880
 1700.00000    7.87500   12.11260   32.01230    4.23760    -999.25    -999.25    -999.25    -999.25    -999.25   31.23800    -999.25   36.70280   36.70280   31.23800   13.57380   16.84900   13.57380    -999.25    -999.25    -999.25 -121.10780  -37.76620   16.84900 1560.16410
 1750.00000    7.87500   10.65550   35.08480    2.78050    -999.25    -999.25    -999.25    -999.25    -999.25   28.50240    -999.25   44.22330   44.22330   28.50240   14.28450   17.70620   14.28450    -999.25    -999.25    -999.25 -133.93370  -49.39060   17.70620 1597.43600
 1800.00000    7.87500    8.11600   44.84870    0.24100    -999.25    -999.25    -999.25    -999.25    -999.25   22.29720    -999.25   63.71050   63.71050   22.29720   19.95030   17.97920   19.95030    -999.25    -999.25    -999.25 -127.11980  -41.37520   17.97920 1636.01930
 1850.00000    7.87500    8.26280   61.26550    0.38780    -999.25    -999.25    -999.25    -999.25    -999.25   16.32240    -999.25   79.55850   79.55850   16.32240   12.24150   12.73010   12.24150    -999.25    -999.25    -999.25 -115.25850  -28.31240   12.73010 1654.99550
 1900.00000    7.87500    9.28410  170.06220    1.40910    -999.25    -999.25    -999.25    -999.25    -999.25    5.88020    -999.25   72.68050   72.68050    5.88020    4.89620    7.27690    4.89620    -999.25    -999.25    -999.25  -94.91190   -6.76420    7.27690 1626.93870
 1950.00000    7.87500    8.02240  109.48950    0.14740    -999.25    -999.25    -999.25    -999.25    -999.25    9.13330    -999.25   77.79300   77.79300    9.13330    7.63900   11.39400    7.63900    -999.25    -999.25    -999.25 -103.74100  -14.53040   11.39400 1677.65500
 2000.00000    7.87500    7.87020   66.01400   -0.00480    -999.25    -999.25    -999.25    -999.25    -999.25   15.14830    -999.25   60.26880   60.26880   15.14830   13.16260   16.41970   13.16260    -999.25    -999.25    -999.25 -110.04600  -20.44860   16.41970 1702.46280
 2050.00000    7.87500    8.01250   49.27930    0.13750    -999.25    -999.25    -999.25    -999.25    -999.25   20.29250    -999.25   40.80180   40.80180   20.29250   16.45650   18.45860   16.45650    -999.25    -999.25    -999.25 -105.63410  -15.64990   18.45860 1690.35580
 2100.00000    7.87500    9.90230  219.16850    2.02730    -999.25    -999.25    -999.25    -999.25    -999.25    4.56270    -999.25   58.97490   58.97490    4.56270    4.26470    8.70100    4.26470    -999.25    -999.25    -999.25 -107.68440  -17.31350    8.70100 1748.33040
 2150.00000    7.87500    7.86420   59.73540   -0.01080    -999.25    -999.25    -999.25    -999.25    -999.25   16.74050    -999.25   62.79220   62.79220   16.74050   18.64100   17.89810   18.64100    -999.25    -999.25    -999.25 -107.83300  -17.07530   17.89810 1750.99120
 2200.00000    7.87500    7.63890   96.23810   -0.23610    -999.25    -999.25    -999.25    -999.25    -999.25   10.39090    -999.25   62.91430   62.91430   10.39090    9.06610   10.79610    9.06610    -999.25    -999.25    -999.25 -109.11580  -17.97130   10.79610 1716.54580
 2250.00000    7.87500    7.67550   98.32260   -0.19950    -999.25    -999.25    -999.25    -999.25    -999.25   10.17060    -999.25   55.90170   55.90170   10.17060   10.01780   12.06980   10.01780    -999.25    -999.25    -999.25 -112.26930  -20.73810   12.06980 1787.77170
 2300.00000    7.87500    7.72190  135.95450   -0.15310    -999.25    -999.25    -999.25    -999.25    -999.25    7.35540    -999.25   79.52950   79.52950    7.35540    6.77270    9.05920    6.77270    -999.25    -999.25    -999.25 -108.40450  -16.48650    9.05920 1786.11320
 2350.00000    7.87500    8.29730  217.69890    0.42230    -999.25    -999.25    -999.25    -999.25    -999.25    4.59350    -999.25   86.50420   86.50420    4.59350    4.24850    5.81960    4.24850    -999.25    -999.25    -999.25  -97.16770   -4.86290    5.81960 1849.69130
 2400.00000    7.87500    8.34400  222.24200    0.46900    -999.25    -999.25    -999.25    -999.25    -999.25    4.49960    -999.25   76.19280   76.19280    4.49960    4.54670    5.04130    4.54670    -999.25    -999.25    -999.25 -104.36980  -11.67830    5.04130 1817.44620
 2450.00000    7.87500    9.02910  427.04020    1.15410    -999.25    -999.25    -999.25    -999.25    -999.25    2.34170    -999.25   88.71160   88.71160    2.34170    2.29440    2.86560    2.29440    -999.25    -999.25    -999.25  -95.92000   -2.84170    2.86560 1943.49910
 2500.00000    7.87500   10.10420  382.70190    2.22920    -999.25    -999.25    -999.25    -999.25    -999.25    2.61300    -999.25   82.92850   82.92850    2.61300    2.55890    3.74940    2.55890    -999.25    -999.25    -999.25  -95.43780   -2.06160    3.74940 1924.70070
 2550.00000    7.87500    7.92190  203.69500    0.04690    -999.25    -999.25    -999.25    -999.25    -999.25    4.90930    -999.25   73.05860   73.05860    4.90930    4.56210    5.58890    4.56210    -999.25    -999.25    -999.25 -106.20750  -12.88860    5.58890 1919.36160
 2600.00000    7.87500    7.62630  126.19890   -0.24870    -999.25    -999.25    -999.25    -999.25    -999.25    7.92400    -999.25   64.62200   64.62200    7.92400    7.42550    9.68020    7.42550    -999.25    -999.25    -999.25 -110.82490  -17.56330    9.68020 1930.90560
 2650.00000    7.87500    7.82350  147.95530   -0.05150    -999.25    -999.25    -999.25    -999.25    -999.25    6.75880    -999.25   90.15400   90.15400    6.75880    5.95660    7.23020    5.95660    -999.25    -999.25    -999.25 -103.67800  -10.47380    7.23020 1887.49890
 2700.00000    7.87500    7.64990  102.49160   -0.22510    -999.25    -999.25    -999.25    -999.25    -999.25    9.75690    -999.25   57.07380   57.07380    9.75690    8.78140   10.84520    8.78140    -999.25    -999.25    -999.25 -114.42700  -21.28010   10.84520 1936.62050
 2750.00000    7.87500    7.63890  147.62330   -0.23610    -999.25    -999.25    -999.25    -999.25    -999.25    6.77400    -999.25   79.62430   79.62430    6.77400    5.65720    7.01670    5.65720    -999.25    -999.25    -999.25 -107.20020  -14.11070    7.01670 1916.50220
 2800.00000    7.87500    7.63760  106.14470   -0.23740    -999.25    -999.25    -999.25    -999.25    -999.25    9.42110    -999.25   56.88290   56.88290    9.42110    8.60790   10.61540    8.60790    -999.25    -999.25    -999.25 -113.88310  -20.85090   10.61540 1971.41700
 2850.00000    7.87500    7.98620  281.92840    0.11120    -999.25    -999.25    -999.25    -999.25    -999.25    3.54700    -999.25   91.75830   91.75830    3.54700    3.47640    4.93800    3.47640    -999.25    -999.25    -999.25  -95.69650   -2.72160    4.93800 2002.00390
 2900.00000    7.87500    7.88110  204.33180    0.00610    -999.25    -999.25    -999.25    -999.25    -999.25    4.89400    -999.25   82.06090   82.06090    4.89400    4.59200    6.73350    4.59200    -999.25    -999.25    -999.25 -110.30680  -17.28090    6.73350 2034.02730
 2950.00000    7.87500    7.74350  173.71060   -0.13150    -999.25    -999.25    -999.25    -999.25    -999.25    5.75670    -999.25   89.99140   89.99140    5.75670    5.24270    6.83640    5.24270    -999.25    -999.25    -999.25 -108.80890  -15.70490    6.83640 2028.57730
 3000.00000    7.87500    7.63320  107.38720   -0.24180    -999.25    -999.25    -999.25    -999.25    -999.25    9.31210    -999.25   60.85650   60.85650    9.31210    8.42560   10.83100    8.42560    -999.25    -999.25    -999.25 -115.22560  -22.04350   10.83100 2072.17650
 3050.00000    7.87500    7.72390  110.23780   -0.15110    -999.25    -999.25    -999.25    -999.25    -999.25    9.07130    -999.25   70.16420   70.16420    9.07130    8.15130   11.26290    8.15130    -999.25    -999.25    -999.25 -115.78750  -22.52740   11.26290 2063.81370
