~Version ---------------------------------------------------
VERS. 2.0 : CWLS log ASCII Standard -VERSION 2.0
WRAP. YES : MULTIPLE LINES PER DEPTH STEP
~Well ------------------------------------------------------
STRT.FT                   3500.0 : START DEPTH
STOP.FT                  16150.0 : STOP DEPTH
STEP.FT                 50.00000 : STEP LENGTH
NULL.                    -999.25 : NULL VALUE
COMP. CHEYENNE PETROLEUM COMPANY : COMPANY
WELL.              RUBY YOUNG #1 : WELL
FLD .                    WILDCAT : FIELD
LOC .                            : LOCATION
CNTY.                     KARNES : COUNTY
STAT.                      TEXAS : STATE
CTRY.   UNITED STATES OF AMERICA : COUNTRY
SRVC.               Schlumberger : SERVICE COMPANY
DATE.                06-Jan-1997 : LOGDATE
API .             42255313650000 : API NUMBER
UWI .             42255313650000 : UNIQUE WELL ID
SLAT.WGS84         28.8201979392 : SURFACE LATITUDE
SLON.WGS84        -97.8404688792 : SURFACE LONGITUDE
~Curve Information -----------------------------------------
DEPT    .FT    : DEPTH FEET
ASFLED  .OHMM  : AMPLIFIED SPHERICALLY FOCUSED LOG RESISTIVITY
CALWS   .IN    : CALIPER [DCALRED+9.875]<15054>[DCALRED+6.5]
CONDWS  .MMHO  : CONDUCTIVITY [1000/DRESWS]
DCALRED .IN    : DIFFERENTIAL CALIPER FROM RESISTIVITY LOG
DCORWS  .G/C3  : DENSITY CORRECTION [DRHOED]
DENWS   .G/C3  : BULK DENSITY [M=2.71 F=1.0] [CALCULATED FROM DPOWS]
DPHILSED.V/V   : DENSITY POROSITY LIMESTONE[M=2.71 F=1.0] FROM COMPOSITE RES. LOG
DPOWS   .V/V   : DENSITY POROSITY [DPHILSED]
DRESWS  .OHMM  : DEEP RESISTIVITY [IDPHED]
DRHOED  .G/C3  : DENSITY CORRECTION FROM COMPOSITE RES. LOG
DTLFED  .US/F  : DELTA TIME LONG SPACING FAR DETECTOR COMPOSITE RES. LOG
DTLNED  .US/F  : DELTA TIME LONG SPACING NEAR DETECTOR COMPOSITE RES. LOG
DTWS    .US/F  : DELTA TIME [DTLFED]
GRRED   .GAPI  : GAMMA RAY FROM RESISTIVITY LOG
GRWS    .GAPI  : GAMMA RAY [GRRED]
IDPHED  .OHMM  : INDUCTION DEEP PHASE RESISTIVITY
IMPHED  .OHMM  : INDUCTION MEDIUM PHASE RESISTIVITY
MRESWS  .OHMM  : MEDIUM RESISTIVITY [IMPHED]
NPHILSED.V/V   : NEUTRON POROSITY LIMESTONE FROM COMPOSITE RES. LOG
NPOWS   .V/V   : NEUTRON POROSITY LIMESTONE [NPHILSED]
SFLUED  .OHMM  : SPHERICALLY FOCUSED LOG RESISTIVITY
SPRED   .MV    : SPONTANEOUS POTENTIAL FROM RESISTIVITY LOG
SPWS    .MV    : SPONTANEOUS POTENTIAL [BASELINE 0 MV] [SPRED]
SRESWS  .OHMM  : SHALLOW RESISTIVITY [ASFLED], SPLICED WITH [SFLUED] AT 12400'
TENRED  .LBF   : TENSION FROM RESISTIVITY LOG
~Params ----------------------------------------------------
PD  .                     GL : PERMANENT DATUM
EPD .FT                258.6 : ELEVATION PERMANENT DATUM
LMF .                     KB : LOG MEASURED FROM
DAPD.FT                   25 : FEET ABOVE PERMANENT DATUM
DMF .                     KB : DRILLING MEASURED FROM
EKB .FT                284.5 : KELLY BUSHING
EDF .FT                283.6 : DRILLING FLOOR
EGL .FT                258.6 : GROUND LEVEL
DATE.               01/06/97 : RUN DATE
RUN .                      2 : RUN NUMBER
DD  .FT                16145 : DEPTH DRILLER
DL  .FT                16144 : DEPTH LOGGER
BLI .FT                16142 : BOTTOM LOG INTERVAL
TLI .FT                15080 : TOP LOG INTERVAL
CS  .IN                7.625 : CASING SIZE
CBD .FT                15084 : CASING BOTTOM DRILLER
CBL .FT                15080 : CASING BOTTOM LOGGER
BS  .IN                  6.5 : BIT SIZE
BSD .FT                16145 : BIT SIZE AT DEPTH
DFT .              LIG DESCO : DRILLING FLUID TYPE
DFD .                   15.9 : DRILLING FLUID DENSITY
DFV .                     47 : DRILLING FLUID VISCOSITY
DFPH.                   10.3 : DRILLING FLUID PH
DFL .                    5.2 : DRILLING FLUID LOSS
MSS .                MUD PIT : MUD SAMPLE SOURCE
RMS .OHMM                0.6 : RESISTIVITY MUD SAMPLE
MST .DEGF                 75 : MUD SAMPLE TEMPERATURE
RMF .OHMM                0.5 : RESISTIVITY MUD FILTRATE SAMPLE
MFST.DEGF                 75 : MUD FILTRATE SAMPLE TEMPERATURE
RMC .OHMM               0.92 : RESISTIVITY MUD CAKE
MCST.DEGF                 75 : MUD CAKE SAMPLE TEMPERATURE
MFSS.               MEASURED : MUD FILTRATE SAMPLE SOURCE
MCSS.             CALCULATED : MUD CAKE SAMPLE SOURCE
RMB .OHMM               0.13 : RESISTIVITY MUD AT BHT
TCS .HRS                   0 : TIME CIRCULATED STOPPED
TLAB.HRS                1530 : TIME LOGGER AT BOTTOM
LUN .                   2020 : LOGGING UNIT NUMBER
LUL .               VICTORIA : LOGGING UNIT LOCATION
ENGI.                  NAHRI : RECORDING ENGINEER
WITN.    ZAUNBRECHER BRANDON : WITNESSED BY
CLNT.                A2DTECH : CLIENT CODE
ORIG.               5" PRINT : ORIGIN OF DATA
UWI .         42255313650000 : UNIQUE WELL ID
DICO. A2D Technologies, Inc. : DIGITIZING COMPANY
~Other -----------------------------------------------------
MUD WEIGHT USED 9.6 TO 18.8 WHILE DRILLING
~ASCII -----------------------------------------------------
# ...
 14700.00000    -999.25    -999.25    9.49790    -999.25    -999.25    -999.25    -999.25    -999.25  105.28630    -999.25   91.73300   92.53790   91.73300   16.31760   16.31760  105.28630   37.88410   37.88410    -999.25    -999.25  408.33380    -999.25    -999.25  408.33380 5347.64500
 14750.00000    -999.25    -999.25    8.52950    -999.25    -999.25    -999.25    -999.25    -999.25  117.23990    -999.25   89.88490   95.85890   89.88490   17.39440   17.39440  117.23990   22.85760   22.85760    -999.25    -999.25 1943.07930    -999.25    -999.25 1943.07930 5340.03220
 14800.00000    -999.25    -999.25    6.11870    -999.25    -999.25    -999.25    -999.25    -999.25  163.43310    -999.25   81.46070   87.74440   81.46070   19.27850   19.27850  163.43310   27.67980   27.67980    -999.25    -999.25  717.96560    -999.25    -999.25  717.96560 5442.90330
 14850.00000  878.61720    -999.25    6.66650    -999.25    -999.25    -999.25    -999.25    -999.25  150.00290    -999.25   89.56060   92.95480   89.56060   18.23140   18.23140  150.00290   27.23860   27.23860    -999.25    -999.25  212.73790    -999.25    -999.25  212.73790 5418.25630
 14900.00000  966.72310    -999.25   13.38440    -999.25    -999.25    -999.25    -999.25    -999.25   74.71390    -999.25   61.10790   68.37470   61.10790   15.65830   15.65830   74.71390   13.77900   13.77900    -999.25    -999.25  217.81260    -999.25    -999.25  217.81260 5499.83940
 14950.00000   74.43950    -999.25    9.95010    -999.25    -999.25    -999.25    -999.25    -999.25  100.50140    -999.25   93.40310   93.20680   93.40310   15.24600   15.24600  100.50140   24.20610   24.20610    -999.25    -999.25  118.99010    -999.25    -999.25  118.99010 5535.79100
 15000.00000    -999.25    -999.25    9.44680    -999.25    -999.25    -999.25    -999.25    -999.25  105.85590    -999.25   92.29090   92.29090   92.29090   11.49500   11.49500  105.85590   20.97980   20.97980    0.05330    0.05330  578.70260    -999.25    -999.25  578.70260 5545.02880
 15050.00000    -999.25    -999.25    -999.25    -999.25    -999.25    -999.25    -999.25    -999.25    -999.25    -999.25    -999.25    -999.25    -999.25   40.37750   40.37750    -999.25    -999.25    -999.25    0.27240    -999.25    -999.25    -999.25    -999.25    -999.25 5659.68210
 15100.00000    -999.25   11.55550  285.19280    5.05550   -0.00010    2.67720    0.01920    0.01920    3.50640   -0.00010    -999.25    -999.25    -999.25   59.01630   59.01630    3.50640    4.23240    4.23240    0.20580    0.20580    5.58670   18.82920   -1.95520    5.58670 4150.11040
 15150.00000    -999.25   12.16950  169.18760    5.66950   -0.00130    2.58470    0.07330    0.07330    5.91060   -0.00130    -999.25    -999.25    -999.25   65.18350   65.18350    5.91060    6.24990    6.24990    0.20520    0.20520   10.54900   16.17180   -4.55800   10.54900 3931.73970
 15200.00000    -999.25    7.39560   79.60830    0.89560    0.00100    2.66110    0.02860    0.02860   12.56150    0.00100    -999.25    -999.25    -999.25   55.29360   55.29360   12.56150   13.40290   13.40290    0.12730    0.12730   19.62620   18.93780   -1.73740   19.62620 3971.82910
 15250.00000    -999.25    6.38990   69.89930   -0.11010    0.00120    2.62260    0.05110    0.05110   14.30630    0.00120    -999.25    -999.25    -999.25   42.25100   42.25100   14.30630   25.85730   25.85730    0.05620    0.05620   29.31390   19.05890   -1.56160   29.31390 3876.17240
 15300.00000    -999.25    7.14570   86.89080    0.64570   -0.00050    2.69990    0.00590    0.00590   11.50870   -0.00050    -999.25    -999.25    -999.25   61.43430   61.43430   11.50870   15.93100   15.93100    0.10150    0.10150   25.49700   15.69160   -4.87430   25.49700 3851.89040
 15350.00000    -999.25    8.32730   63.98770    1.82730    0.00630    -999.25    -999.25    -999.25   15.62800    0.00630    -999.25    -999.25    -999.25   19.44440   19.44440   15.62800   65.91040   65.91040    0.01240    0.01240   82.29430    4.19130  -15.75060   82.29430 3850.74930
 15400.00000    -999.25    8.21640   26.21080    1.71640    0.01120    -999.25    -999.25    -999.25   38.15220    0.01120    -999.25    -999.25    -999.25   23.10240   23.10240   38.15220  903.16460  903.16460    0.00980    0.00980  676.22240  -36.60530  -32.86470  676.22240 3874.12230
 15450.00000    -999.25    7.88830    4.62740    1.38830   -0.00610    2.70760    0.00140    0.00140  216.10220   -0.00610    -999.25    -999.25    -999.25   27.56390   27.56390  216.10220  270.46840  270.46840    0.00870    0.00870  665.44700  -39.41840  -33.41270  665.44700 3792.49190
 15500.00000    -999.25    8.05350   16.26460    1.55350   -0.00450    2.70980    0.00010    0.00010   61.48320   -0.00450    -999.25    -999.25    -999.25   22.70420   22.70420   61.48320 1958.65670 1958.65670    0.00960    0.00960  447.39830  -53.29260  -45.02170  447.39830 3860.30420
 15550.00000    -999.25    7.94780   23.34590    1.44780    0.00420    2.68730    0.01330    0.01330   42.83400    0.00420    -999.25    -999.25    -999.25   19.60210   19.60210   42.83400   43.85670   43.85670    0.01290    0.01290   50.50420  -60.63380  -50.09770   50.50420 3819.72780
 15600.00000    -999.25    7.64200   59.28490    1.14200   -0.00040    2.63000    0.04680    0.04680   16.86770   -0.00040    -999.25    -999.25    -999.25   15.12740   15.12740   16.86770   19.37080   19.37080    0.02390    0.02390   31.01920  -67.11300  -54.31170   31.01920 3880.77100
 15650.00000    -999.25    7.64440  121.26500    1.14440    0.00250    2.66110    0.02860    0.02860    8.24640    0.00250    -999.25    -999.25    -999.25   18.97770   18.97770    8.24640   10.17240   10.17240    0.02410    0.02410   10.84190  -60.35860  -45.29220   10.84190 3873.87700
 15700.00000    -999.25    7.48410   33.80830    0.98410   -0.00280    2.67370    0.02120    0.02120   29.57850   -0.00280    -999.25    -999.25    -999.25   15.35180   15.35180   29.57850   42.50630   42.50630    0.01610    0.01610   48.36240  -79.23050  -61.89890   48.36240 3909.08350
 15750.00000    -999.25    7.34340   15.22770    0.84340   -0.00930    2.68970    0.01190    0.01190   65.66990   -0.00930    -999.25    -999.25    -999.25   18.11500   18.11500   65.66990   76.89190   76.89190    0.01080    0.01080  165.80900  -80.60910  -61.01230  165.80900 3922.75150
 15800.00000    -999.25    7.23700   72.05390    0.73700    0.00300    2.65780    0.03050    0.03050   13.87850    0.00300    -999.25    -999.25    -999.25   13.27780   13.27780   13.87850   23.49070   23.49070    0.02300    0.02300   22.52220  -80.81010  -58.94810   22.52220 3975.46560
 15850.00000    -999.25    6.98940    6.56070    0.48940   -0.00080    2.70830    0.00100    0.00100  152.42200   -0.00080    -999.25    -999.25    -999.25    9.84680    9.84680  152.42200  163.62380  163.62380    0.01040    0.01040  122.53690  -78.28950  -54.16230  122.53690 3895.06860
 15900.00000    -999.25    7.01140   14.57620    0.51140    0.00990    2.71000    0.00000    0.00000   68.60480    0.00990    -999.25    -999.25    -999.25   38.20950   38.20950   68.60480   61.77750   61.77750    0.00930    0.00930  119.28900  -80.83730  -54.44500  119.28900 3897.05640
 15950.00000    -999.25    6.70060   35.22890    0.20060    0.00510    2.69750    0.00730    0.00730   28.38580    0.00510    -999.25    -999.25    -999.25   41.84710   41.84710   28.38580   32.57650   32.57650    0.01610    0.01610   31.73820  -88.41630  -59.75880   31.73820 4023.17500
 16000.00000    -999.25    6.54530   84.14750    0.04530   -0.00340    2.60310    0.06250    0.06250   11.88390   -0.00340    -999.25    -999.25    -999.25   14.78060   14.78060   11.88390   13.53350   13.53350    0.03250    0.03250   22.36630 -106.41320  -75.49050   22.36630 4136.12890
 16050.00000    -999.25    6.21000  212.71170   -0.29000   -0.00130    2.65610    0.03150    0.03150    4.70120   -0.00130    -999.25    -999.25    -999.25    8.37990    8.37990    4.70120    5.02850    5.02850    0.02990    0.02990    6.39670  -81.04460  -47.85670    6.39670 4254.87990
