~Version ---------------------------------------------------
VERS. 2.0 : CWLS log ASCII Standard -VERSION 2.0
WRAP.  NO : ONE LINE PER DEPTH STEP
~Well ------------------------------------------------------
STRT.FT                            300.0 : START DEPTH
STOP.FT                          22000.0 : STOP DEPTH
STEP.FT                         50.00000 : STEP LENGTH
NULL.                            -999.25 : NULL VALUE
COMP. PAN AMERICAN PETROLEUM CORPORATION : COMPANY
WELL.                  A. M. FOERSTER #1 : WELL
FLD .                            WILDCAT : FIELD
LOC .                                    : LOCATION
CNTY.                           LA SALLE : COUNTY
STAT.                              TEXAS : STATE
CTRY.           UNITED STATES OF AMERICA : COUNTRY
SRVC.                       Schlumberger : SERVICE COMPANY
DATE.                        20-Aug-1964 : LOGDATE
API .                     42283002040000 : API NUMBER
UWI .                     42283002040000 : UNIQUE WELL ID
SLAT.WGS84                 28.3371650608 : SURFACE LATITUDE
SLON.WGS84                -98.9649233845 : SURFACE LONGITUDE
~Curve Information -----------------------------------------
DEPT  .FT    : DEPTH
CONDWS.MMHO  : CONDUCTIVITY [CILDED] FROM IEL
ILDED .OHMM  : INDUCTION LOG DEEP RESISTIVITY FROM IEL
ASNED .OHMM  : SHORT NORMAL RESISTIVITY 16 INCH FROM IEL
CILDED.MMHO  : CONDUCTIVITY FROM IEL
DRESWS.OHMM  : DEEP RESISTIVITY [ILDED] FROM IEL [IF ILDED < 1 THEN 1000/CILDED]
DTWS  .US/F  : DELTA TIME FROM SONIC LOG
NEUTWS.CU    : NEUTRON FROM GAMMA RAY NEUTRON LOG
GRNED .GAPI  : GAMMA RAY FROM NEUTRON LOG
NEUTED.NAPI  : NEUTRON  FROM GAMMA RAY NEUTRON LOG
SPED  .MV    : SPONTANEOUS POTENTIAL [MECHANICAL SHIFTS REMOVED]
SPWS  .MV    : SPONTANEOUS POTENTIAL [BASELINE 0 MV]
CALSED.IN    : CALIPER FROM SONIC LOG
DTED  .US/F  : DELTA TIME FROM SONIC LOG
SRESWS.OHMM  : SHALLOW RESISTIVITY [ASNED] FROM IEL
GRWS  .GAPI  : GAMMA RAY [GRNED] FROM GAMMA RAY NEUTRON LOG
CALWS .IN    : CALIPER [CALSED] FROM SONIC LOG
SPSED .MV    : SPONTANEOUS POTENTIAL FROM SONIC LOG [MECHANICAL SHIFTS REMOVED]
~Params ----------------------------------------------------
EKB .F                 473.5 : KELLY BUSHING
EGL .F                   445 : ELEVATION GROUND LEVEL
EDF .F                   471 : ELEVATION DERRICK FLOOR
EPD .F                   445 : ELEVATION PERMANENT DATUM
TD  .F               21995.0 : TOTAL DEPTH
DATE.            20-AUG-1964 : DATE LOGGED
CLNT.                A2DTECH : CLIENT CODE
SL  .   1320' FSL & 660' FWL : SURFACE LOCATION
PD  .                     GL : PERMANENT DATUM
LMF .                     KB : LOG MEASURED FROM
DMF .                     KB : DRILLING MEASURED FROM
DAPD.F                  28.5 : FEET ABOVE PERMANENT DATUM
DD  .F                 21995 : DEPTH DRILLER
DL  .F                 21992 : DEPTH LOGGER
BLI .F                 21991 : BOTTOM LOG INTERVAL
TLI .F                 20005 : TOP LOG INTERVAL
CS1 .IN                9.625 : CASING SIZE
CBD1.        9.625" @ 15993' : CASING DRILLER 1
CBL1.F                 15993 : CASING LOGGER 1
BS1 .IN                  8.5 : BIT SIZE
BSD1.F                 21995 : DEPTH DRILLED WITH BIT1
DFT .              XP-20-O.E : TYPE FLUID IN HOLE
DFD .                   18.4 : DENSITY
DFV .                     54 : VISCOSITY
DFPH.                    8.9 : PH
DFL .                      4 : FLUID LOSS
MSS .                MUD/PIT : SOURCE OF SAMPLE
RMS .OHMM               0.15 : RM
RMF .OHMM              0.089 : RMF
RMC .OHMM               0.32 : RMC
MFSS.                   MEAS : SOURCE RMF.
MCSS.                   MEAS : SOURCE RMC.
RMB .OHMM              0.046 : RM. AT BHT
BHT .F                   404 : BHT.
TCS .HRS                  10 : TIME CIRC. STOPPED
LUN .                   4526 : LOGGING UNIT NUMBER
LUL .                    KEN : LOGGING UNIT LOCATION
ENGI.                  HARSH : RECORDED BY
WITN.          FREEMAN/WALSH : WITNESSED BY
ORIG.          1" & 5" PRINT : ORIGIN OF DATA
UWI .         42283002040000 : UNIQUE WELL ID
DICO. A2D TECHNOLOGIES, INC. : DIGITIZING COMPANY
~Other -----------------------------------------------------
~ASCII -----------------------------------------------------
  300.00000  818.77200    1.21700    1.60300  818.77200    1.21700  159.73200    -999.25    -999.25    -999.25  -27.52500    1.28500    -999.25  159.73200    1.60300    -999.25    -999.25  -30.23500
  350.00000  663.23000    1.52800    1.76900  663.23000    1.52800  147.35800    -999.25    -999.25    -999.25  -30.39300   -2.14700    -999.25  147.35800    1.76900    -999.25    -999.25  -29.90700
  400.00000  784.11400    1.25800    1.69300  784.11400    1.25800  162.39800    -999.25    -999.25    -999.25  -30.59000   -2.90810    -999.25  162.39800    1.69300    -999.25    -999.25  -30.29400
  450.00000  753.17200    1.32200    1.64500  753.17200    1.32200  213.17100    -999.25    -999.25    -999.25  -28.69100   -1.57310    -999.25  213.17100    1.64500    -999.25    -999.25  -29.28400
  500.00000  712.03700    1.41800    1.90600  712.03700    1.41800  120.03000    -999.25    -999.25    -999.25  -27.67500   -1.01370    -999.25  120.03000    1.90600    -999.25    -999.25  -29.05900
  550.00000  560.87400    1.74800    2.73700  560.87400    1.74800  134.83600    -999.25    -999.25    -999.25  -43.36400  -16.72950    -999.25  134.83600    2.73700    -999.25    -999.25  -45.41900
  600.00000  386.61200    2.54800    3.31900  386.61200    2.54800  118.34000    -999.25    -999.25    -999.25  -35.39200   -8.78430    -999.25  118.34000    3.31900    -999.25    -999.25  -31.41400
  650.00000  347.07700    2.84000    3.63800  347.07700    2.84000  134.74200    -999.25    -999.25    -999.25  -37.90500  -11.32410    -999.25  134.74200    3.63800    -999.25    -999.25  -32.80100
  700.00000  224.48500    5.21100    9.37700  224.48500    5.21100   64.87700    -999.25    -999.25    -999.25  -41.53800  -14.98380    -999.25   64.87700    9.37700    -999.25    -999.25  -39.85100
  750.00000  395.34600    2.51800    3.31100  395.34600    2.51800  156.21300    -999.25    -999.25    -999.25  -29.72400   -3.19660    -999.25  156.21300    3.31100    -999.25    -999.25  -30.97200
  800.00000  373.42500    2.52500    3.63000  373.42500    2.52500  135.91100    -999.25    -999.25    -999.25  -40.62500  -14.12440    -999.25  135.91100    3.63000    -999.25    -999.25  -37.17600
  850.00000  670.67200    1.49200    2.05300  670.67200    1.49200  152.93200    -999.25    -999.25    -999.25  -26.34400    0.12980    -999.25  152.93200    2.05300    -999.25    -999.25  -27.18600
  900.00000  680.04900    1.49400    2.07700  680.04900    1.49400  191.03800    -999.25    -999.25    -999.25  -26.26700    0.18000    -999.25  191.03800    2.07700    -999.25    -999.25  -27.26600
  950.00000  516.02100    1.93900    2.44800  516.02100    1.93900  132.39500    -999.25    -999.25    -999.25  -28.02700   -1.60680    -999.25  132.39500    2.44800    -999.25    -999.25  -27.61800
 1000.00000  864.39400    1.17500    1.75800  864.39400    1.17500  228.57900    -999.25    -999.25    -999.25  -25.30700    1.08640    -999.25  228.57900    1.75800    -999.25    -999.25  -26.04800
 1050.00000  804.11700    1.26800    1.74100  804.11700    1.26800  194.69900    -999.25    -999.25    -999.25  -26.67500   -0.30840    -999.25  194.69900    1.74100    -999.25    -999.25  -25.24900
 1100.00000  279.60200    3.74100    4.84700  279.60200    3.74100  121.38500    -999.25    -999.25    -999.25  -45.13000  -18.79020    -999.25  121.38500    4.84700    -999.25    -999.25  -40.19900
 1150.00000  511.46800    1.96800    2.58400  511.46800    1.96800  120.81900    -999.25    -999.25    -999.25  -27.38600   -1.07290    -999.25  120.81900    2.58400    -999.25    -999.25  -25.99400
 1200.00000  560.91100    1.75300    2.47400  560.91100    1.75300  135.38300    -999.25    -999.25    -999.25  -26.07600    0.21030    -999.25  135.38300    2.47400    -999.25    -999.25  -24.65000
 1250.00000  210.87800    5.03200    6.64000  210.87800    5.03200  112.21000    -999.25    -999.25    -999.25  -44.25900  -17.99950    -999.25  112.21000    6.64000    -999.25    -999.25  -38.12500
 1300.00000  240.45500    4.69400    6.55600  240.45500    4.69400  121.00000    -999.25    -999.25    -999.25  -50.69300  -24.46030    -999.25  121.00000    6.55600    -999.25    -999.25  -46.04500
 1350.00000  240.50100    4.04500    5.58300  240.50100    4.04500  115.61600    -999.25    -999.25    -999.25  -44.98300  -18.77710    -999.25  115.61600    5.58300    -999.25    -999.25  -39.89300
 1400.00000  241.15700    4.23700    6.29000  241.15700    4.23700  122.49100    -999.25    -999.25    -999.25  -53.18500  -27.00590    -999.25  122.49100    6.29000    -999.25    -999.25  -47.73300
 1450.00000  304.36200    3.28800    4.01900  304.36200    3.28800  116.05400    -999.25    -999.25    -999.25  -32.99600   -6.84370    -999.25  116.05400    4.01900    -999.25    -999.25  -30.23700
 1500.00000  525.71400    1.89200    2.28400  525.71400    1.89200   89.11500    -999.25    -999.25    -999.25  -25.92700    0.19850    -999.25   89.11500    2.28400    -999.25    -999.25  -25.19200
 1550.00000  311.14600    3.21600    4.21200  311.14600    3.21600  116.41100    -999.25    -999.25    -999.25  -46.22200  -20.13710    -999.25  116.41100    4.21200    -999.25    -999.25  -41.88700
 1600.00000  686.08900    1.47700    2.09300  686.08900    1.47700  151.25100    -999.25    -999.25    -999.25  -26.02900   -0.09730    -999.25  151.25100    2.09300    -999.25    -999.25  -25.73000
 1650.00000  264.91400    3.81300    6.42100  264.91400    3.81300  108.06600    -999.25    -999.25    -999.25  -56.43900  -30.66040    -999.25  108.06600    6.42100    -999.25    -999.25  -54.48600
 1700.00000  763.18400    1.28900    1.58900  763.18400    1.28900  216.47200    -999.25    -999.25    -999.25  -25.47000    0.15550    -999.25  216.47200    1.58900    -999.25    -999.25  -28.17800
 1750.00000  321.39300    3.16400    4.73600  321.39300    3.16400  113.07200    -999.25    -999.25    -999.25  -48.34700  -22.87460    -999.25  113.07200    4.73600    -999.25    -999.25  -51.10800
 1800.00000  396.49700    2.59800    5.65400  396.49700    2.59800  114.94400    -999.25    -999.25    -999.25  -56.29900  -30.97970    -999.25  114.94400    5.65400    -999.25    -999.25  -51.15600
 1850.00000  294.42500    3.40300    6.31900  294.42500    3.40300  103.02100    -999.25    -999.25    -999.25  -68.01400  -42.84780    -999.25  103.02100    6.31900    -999.25    -999.25  -62.50800
 1900.00000  260.62800    3.81900    7.41700  260.62800    3.81900  108.85900    -999.25    -999.25    -999.25  -71.22500  -46.21190    -999.25  108.85900    7.41700    -999.25    -999.25  -64.09700
 1950.00000  573.76400    1.78500    3.16100  573.76400    1.78500  112.55300    -999.25    -999.25    -999.25  -35.58700  -10.72700    -999.25  112.55300    3.16100    -999.25    -999.25  -28.98300
 2000.00000  293.81000    3.41100    3.97000  293.81000    3.41100   91.35300    -999.25    -999.25    -999.25  -27.87700   -3.17010    -999.25   91.35300    3.97000    -999.25    -999.25  -25.40700
 2050.00000  152.91300    7.66400   10.08600  152.91300    7.66400  101.73100    -999.25    -999.25    -999.25  -43.10000  -18.54620    -999.25  101.73100   10.08600    -999.25    -999.25  -36.32400
 2100.00000  177.98600    6.21700    8.65600  177.98600    6.21700  103.39500    -999.25    -999.25    -999.25  -53.35700  -28.95630    -999.25  103.39500    8.65600    -999.25    -999.25  -51.52600
 2150.00000  164.69900    6.78900   10.17500  164.69900    6.78900  103.57300    -999.25    -999.25    -999.25  -60.31700  -36.06950    -999.25  103.57300   10.17500    -999.25    -999.25  -52.60300
 2200.00000  170.14900    6.67800    8.52700  170.14900    6.67800  111.48100    -999.25    -999.25    -999.25  -43.94900  -19.85460    -999.25  111.48100    8.52700    -999.25    -999.25  -36.52100
 2250.00000  247.84200    4.24700    6.80400  247.84200    4.24700  109.69000    -999.25    -999.25    -999.25  -40.99800  -17.05670    -999.25  109.69000    6.80400    -999.25    -999.25  -35.59400
 2300.00000  560.08500    1.77600    3.04900  560.08500    1.77600  152.13700    -999.25    -999.25    -999.25  -27.79400   -4.00580    -999.25  152.13700    3.04900    -999.25    -999.25  -25.31900
