~Version ---------------------------------------------------
VERS. 2.0 : CWLS log ASCII Standard -VERSION 2.0
WRAP.  NO : ONE LINE PER DEPTH STEP
~Well ------------------------------------------------------
STRT.F                   3800.0 : START DEPTH
STOP.F                   8750.0 : STOP DEPTH
STEP.F                 50.00000 : STEP LENGTH
NULL.                   -999.25 : NULL VALUE
COMP. WINDSOR PRODUCING COMPANY : COMPANY
WELL.               MAE UNIT #1 : WELL
FLD .                  GIDDINGS : FIELD
LOC .                           : LOCATION
CNTY.                       LEE : COUNTY
STAT.                     TEXAS : STATE
CTRY.  UNITED STATES OF AMERICA : COUNTRY
SRVC.              Schlumberger : SERVICE COMPANY
DATE.               20-Feb-1980 : LOGDATE
API .            42287306420000 : API NUMBER
UWI .            42287306420000 : UNIQUE WELL ID
SLAT.WGS84        30.1872257744 : SURFACE LATITUDE
SLON.WGS84       -96.8800783206 : SURFACE LONGITUDE
~Curve Information -----------------------------------------
DEPT   .F    0   1   0  0 : 1 MEASURED DEPTH
GRR    .GAPI 07 310 01 00 : GAMMA RAY FROM RESISTIVITY LOG
DT     .US/F 60 500 00 00 : DELTA-T (INTERVAL TRANSIT TIME)
ILD    .OHMM 07 120 46 00 : INDUCTION DEEP RESISTIVITY
ILM    .OHMM 07 120 44 00 : INDUCTION MEDIUM RESISTIVITY
SFLU   .OHMM 07 220 06 00 : SHALLOW FOCUSED RESISTIVITY (UNAVERAGED)
SPR    .MV   07 010 01 00 : SPONTANEOUS POTENTIAL FROM RESISTIVITY LOG
DPHI_LS.DEC  45 890 10 00 : DENSITY POROSITY LIMESTONE
DRHO   .G/C3 45 356 01 00 : BULK DENSITY CORRECTION
RHOB   .G/C3 45 350 01 00 : BULK DENSITY
CALD   .IN   45 280 60 00 : CALIPER FROM DENSITY LOG
~Params ----------------------------------------------------
PD  .                     GL : PERMANENT DATUM
EPD .FT                  410 : ELEVATION PERMANENT DATUM
LMF .                     KB : LOG MEASURED FROM
DAPD.FT                   15 : FEET ABOVE PERMANENT DATUM
DMF .                     KB : DRILLING MEASURED FROM
EKB .FT                  425 : KELLY BUSHING
EDF .FT                  424 : DRILLING FLOOR
EGL .FT                  410 : GROUND LEVEL
DATE.               02/20/80 : RUN DATE
RUN .                      1 : RUN NUMBER
DD  .FT                 8806 : DEPTH DRILLER
DL  .FT                 8793 : DEPTH LOGGER
BLI .FT                 8786 : BOTTOM LOG INTERVAL
TLI .FT                 3810 : TOP LOG INTERVAL
CS  .IN                9.625 : CASING SIZE
CBD .FT                 3820 : CASING BOTTOM DRILLER
CBL .FT                 3810 : CASING BOTTOM LOGGER
BS  .IN                 8.75 : BIT SIZE
BSD .FT                 8806 : BIT SIZE AT DEPTH
DFT .                    GEL : DRILLING FLUID TYPE
DFD .                    9.7 : DRILLING FLUID DENSITY
DFV .                     37 : DRILLING FLUID VISCOSITY
DFPH.                      9 : DRILLING FLUID PH
DFL .                    8.8 : DRILLING FLUID LOSS
MSS .               CIRC PIT : MUD SAMPLE SOURCE
RMS .OHMM               1.03 : RESISTIVITY MUD SAMPLE
MST .DEGF                 83 : MUD SAMPLE TEMPERATURE
RMF .OHMM                1.1 : RESISTIVITY MUD FILTRATE SAMPLE
MFST.DEGF                 75 : MUD FILTRATE SAMPLE TEMPERATURE
RMC .OHMM               1.51 : RESISTIVITY MUD CAKE
MCST.DEGF                 83 : MUD CAKE SAMPLE TEMPERATURE
MFSS.                      M : MUD FILTRATE SAMPLE SOURCE
MCSS.                      C : MUD CAKE SAMPLE SOURCE
TCS .HRS                2300 : TIME CIRCULATED STOPPED
TLAB.HRS                 400 : TIME LOGGER AT BOTTOM
LUN .                   8096 : LOGGING UNIT NUMBER
LUL .                BRENHAM : LOGGING UNIT LOCATION
ENGI.               HENDRICK : RECORDING ENGINEER
WITN.      MONTGOMERY BRYANT : WITNESSED BY
CLNT.                A2DTECH : CLIENT CODE
ORIG.            2" 5" PRINT : ORIGIN OF DATA
UWI .         42287306420000 : UNIQUE WELL ID
DICO. A2D Technologies, Inc. : DIGITIZING COMPANY
~Other -----------------------------------------------------
~ASCII -----------------------------------------------------
 3800.00000   46.31310    -999.25    -999.25    -999.25    -999.25    -999.25    -999.25    -999.25    -999.25    -999.25
 3850.00000   56.84140  111.11400    3.17450    3.69320    4.17100  -43.89910    -999.25    -999.25    -999.25    -999.25
 3900.00000   67.53100  103.31740    4.87940    5.77570    7.85910  -35.97770    -999.25    -999.25    -999.25    -999.25
 3950.00000  104.67930   97.83330    5.01880    5.74890    5.40130  -20.24530    -999.25    -999.25    -999.25    -999.25
 4000.00000   73.34160  101.20160    4.22450    5.03480    7.12870  -42.52870    -999.25    -999.25    -999.25    -999.25
 4050.00000   64.73860  110.37890    3.66160    4.19370    6.06310  -42.52210    -999.25    -999.25    -999.25    -999.25
 4100.00000   60.56980  107.13050    4.01890    4.88870    7.57510  -36.76350    -999.25    -999.25    -999.25    -999.25
 4150.00000  130.62290   99.89950    3.99610    4.11640    4.49820   -5.45930    -999.25    -999.25    -999.25    -999.25
 4200.00000   67.50330   93.26570    4.11800    4.92070    6.56110  -29.64830    -999.25    -999.25    -999.25    -999.25
 4250.00000   28.85640   92.14280    2.48860    2.96280    4.89630  -47.38490    -999.25    -999.25    -999.25    -999.25
 4300.00000   53.72040   99.37110    2.79290    3.50300    6.15790  -47.97070    -999.25    -999.25    -999.25    -999.25
 4350.00000  110.22960  103.94520    3.23520    3.33440    4.49970    0.06540    -999.25    -999.25    -999.25    -999.25
 4400.00000  103.88580   96.04260    3.48270    3.92270    3.60780  -10.82600    -999.25    -999.25    -999.25    -999.25
 4450.00000   87.28250  164.01340    4.10670    4.28740    6.55320    7.01910    -999.25    -999.25    -999.25    -999.25
 4500.00000  106.21430   97.28550    2.51300    2.80320    2.32080   -3.79540    -999.25    -999.25    -999.25    -999.25
 4550.00000   62.68790  102.72030    1.12430    1.50820    4.82980  -71.20820    -999.25    -999.25    -999.25    -999.25
 4600.00000   43.86490   95.99830    1.28310    1.72630    6.57830  -72.75180    -999.25    -999.25    -999.25    -999.25
 4650.00000   77.36510   92.10730    1.85340    2.45990    3.69640  -30.85930    -999.25    -999.25    -999.25    -999.25
 4700.00000   87.77260   85.54440    3.29710    3.50590    4.03510    5.60130    -999.25    -999.25    -999.25    -999.25
 4750.00000   72.97160   97.90950    0.98740    1.24790    4.12670  -74.43060    -999.25    -999.25    -999.25    -999.25
 4800.00000   72.10120   90.95240    2.37120    3.01620    5.99540  -36.98690    -999.25    -999.25    -999.25    -999.25
 4850.00000   93.37860   92.28430    2.14650    2.70370    4.68230  -32.88310    -999.25    -999.25    -999.25    -999.25
 4900.00000   72.19900   90.08100    1.12620    1.55590    6.97200  -78.11210    -999.25    -999.25    -999.25    -999.25
 4950.00000  111.07710   91.75240    2.27350    2.72870    3.23650  -14.44200    -999.25    -999.25    -999.25    -999.25
 5000.00000   69.24300   94.00100    1.23530    1.61620    5.18160  -63.65470    -999.25    -999.25    -999.25    -999.25
 5050.00000   80.31710   86.90100    1.71740    2.24740    6.32150  -58.27160    -999.25    -999.25    -999.25    -999.25
 5100.00000  112.73460   92.96120    2.37770    2.47260    2.69050   -3.66280    -999.25    -999.25    -999.25    -999.25
 5150.00000  117.21390   95.52180    2.38270    2.44800    2.74600   -2.32660    -999.25    -999.25    -999.25    -999.25
 5200.00000  104.09410   93.24450    2.48220    2.93310    4.01230  -18.37190    -999.25    -999.25    -999.25    -999.25
 5250.00000  103.12750   90.00410    2.52800    2.80200    4.17790   -2.62280    -999.25    -999.25    -999.25    -999.25
 5300.00000  105.30400   93.16950    2.41470    2.48080    2.59390    0.76070    -999.25    -999.25    -999.25    -999.25
 5350.00000  117.74730   92.53030    2.53640    2.60480    2.66070    0.29970    -999.25    -999.25    -999.25    -999.25
 5400.00000  118.72550   94.04950    2.26340    2.32620    2.26930    3.05260    -999.25    -999.25    -999.25    -999.25
 5450.00000  122.97050   91.26670    2.34800    2.41160    2.50520    5.61420    -999.25    -999.25    -999.25    -999.25
 5500.00000  105.34070   96.25220    1.96950    2.07620    2.15660    2.52930    -999.25    -999.25    -999.25    -999.25
 5550.00000  111.32840   96.11010    1.80430    1.83990    1.97950    1.90890    -999.25    -999.25    -999.25    -999.25
 5600.00000  100.01050  101.24600    1.62980    1.67350    1.82490    3.71930    -999.25    -999.25    -999.25    -999.25
 5650.00000  100.63190   99.43020    1.71150    1.75950    1.88350    0.60730    -999.25    -999.25    -999.25    -999.25
 5700.00000   94.68900   99.72830    1.62900    1.66920    1.79760    2.77590    -999.25    -999.25    -999.25    -999.25
 5750.00000   91.81760   98.71240    1.62500    1.67420    1.83510    6.28420    -999.25    -999.25    -999.25    -999.25
 5800.00000  129.79200   94.46590    1.80160    1.86710    1.95900    5.33450    -999.25    -999.25    -999.25    -999.25
 5850.00000  114.63710   96.47190    1.55070    1.59140    1.63790    4.75050    -999.25    -999.25    -999.25    -999.25
 5900.00000  103.72670   95.21710    1.45550    1.51020    1.57660    7.37150    -999.25    -999.25    -999.25    -999.25
 5950.00000   75.71430   85.15390    2.25390    2.16580    2.05050   -0.90070    -999.25    -999.25    -999.25    -999.25
 6000.00000   75.17710   88.28240    1.71960    1.79360    1.53580   -6.20940    -999.25    -999.25    -999.25    -999.25
 6050.00000   83.24060   94.44450    1.74860    1.81830    1.91500   -0.00490    -999.25    -999.25    -999.25    -999.25
 6100.00000   73.70720   84.67570    1.85800    1.92210    1.96580   -5.13660    -999.25    -999.25    -999.25    -999.25
 6150.00000   68.83530   81.61480    1.96510    2.12780    2.60040   -9.08410    -999.25    -999.25    -999.25    -999.25
 6200.00000   92.24670   97.66300    1.49370    1.57010    1.68600    1.21400    -999.25    -999.25    -999.25    -999.25
 6250.00000   88.25910   90.53920    1.82160    1.89220    1.94940    4.67050    -999.25    -999.25    -999.25    -999.25
 6300.00000   82.30760   93.39710    1.70270    1.80660    1.91090   -3.24670    -999.25    -999.25    -999.25    -999.25
 6350.00000   86.32060   98.61530    1.25000    1.34510    1.60370   -1.19690    -999.25    -999.25    -999.25    -999.25
 6400.00000   89.38920   93.13860    1.63560    1.68960    1.78920   -0.62120    -999.25    -999.25    -999.25    -999.25
 6450.00000   95.28050  102.71630    1.18110    1.24970    1.33560   -0.44620    -999.25    -999.25    -999.25    -999.25
 6500.00000   95.12590  106.42880    1.10340    1.17240    1.29850   -5.52010    -999.25    -999.25    -999.25    -999.25
 6550.00000  101.45830   99.50420    1.34950    1.46170    1.62020   -1.53940    -999.25    -999.25    -999.25    -999.25
 6600.00000   87.14900   86.90790    1.82500    1.95180    2.06080   -5.16910    -999.25    -999.25    -999.25    -999.25
 6650.00000   73.15910   83.42610    1.98930    2.12140    2.48740  -11.59990    -999.25    -999.25    -999.25    -999.25
 6700.00000   88.73140   88.69170    1.72160    1.77170    1.83800   -1.58480    -999.25    -999.25    -999.25    -999.25
 6750.00000  126.46080   97.24260    1.35160    1.42350    1.51110    0.71010    -999.25    -999.25    -999.25    -999.25
 6800.00000   79.43820   86.03210    2.07150    2.12360    2.19510    4.08570    -999.25    -999.25    -999.25    -999.25
 6850.00000  112.08050   87.35910    2.02500    2.06470    1.91560    1.06140    -999.25    -999.25    -999.25    -999.25
 6900.00000  101.17940   97.61510    1.44730    1.50430    1.55080    1.09290    -999.25    -999.25    -999.25    -999.25
 6950.00000  137.79720   94.36290    1.59160    1.70340    1.80140    7.53240    -999.25    -999.25    -999.25    -999.25
 7000.00000   94.00400   94.55230    1.62910    1.68930    1.75940   -2.01880    -999.25    -999.25    -999.25    -999.25
 7050.00000  109.43660   98.42990    1.42710    1.51650    1.59640    4.55600    -999.25    -999.25    -999.25    -999.25
