~Version ---------------------------------------------------
VERS. 2.0 : CWLS log ASCII Standard -VERSION 2.0
WRAP. YES : MULTIPLE LINES PER DEPTH STEP
~Well ------------------------------------------------------
STRT.FT                      1000.0 : START DEPTH
STOP.FT                      8050.0 : STOP DEPTH
STEP.FT                    50.00000 : STEP LENGTH
NULL.                       -999.25 : NULL VALUE
COMP. MACHII ROSS PETROLEUM COMPANY : COMPANY
WELL.                    KINCAID #1 : WELL
FLD .                   LOS CUATROS : FIELD
LOC .                               : LOCATION
CNTY.                      MAVERICK : COUNTY
STAT.                         TEXAS : STATE
CTRY.      UNITED STATES OF AMERICA : COUNTRY
SRVC.                 Dresser Atlas : SERVICE COMPANY
DATE.                   19-Sep-1978 : LOGDATE
API .                42323312560000 : API NUMBER
UWI .                42323312560000 : UNIQUE WELL ID
SLAT.WGS84             28.770602727 : SURFACE LATITUDE
SLON.WGS84          -100.4374528413 : SURFACE LONGITUDE
~Curve Information -----------------------------------------
DEPT  .FT    : DEPTH FEET
CALDED.IN    : CALIPER FROM DENSITY LOG [DEP AD TO GRRED]
CALRED.IN    : CALIPER FROM RESISTIVITY LOG
CALWS .IN    : CALIPER [976 CALRED 1886.5 CALDED]
CONDWS.MMHO  : CONDUCTIVITY [1000/DRESWS]
CORRED.G/C3  : DENSITY CORRECTION FROM DENSITY LOG [DEP AD TO GRRED]
DCORWS.G/C3  : DENSITY CORRECTION [CORRED]
DENWS .G/C3  : BULK DENSITY [M=2.71 F=1.0] [CALCULATED FROM DPOWS]
DPHIED.V/V   : DENSITY POROSITY [M=2.71 F=1.0] FROM DENSITY LOG [DEP AD TO GRRED]
DPOWS .V/V   : DENSITY POROSITY [M=2.71 F=1.0] [DPHIED]
DRESWS.OHMM  : DEEP RESISTIVITY [ILDED]
DTED  .US/F  : DELTA TIME FROM SONIC LOG
DTWS  .US/F  : DELTA TIME [DTED]
GRDED .GAPI  : GAMMA RAY FROM DENSITY LOG [DEP AD TO GRRED]
GRRED .GAPI  : GAMMA RAY FROM RESISTIVITY LOG
GRWS  .GAPI  : GAMMA RAY [976 GRRED 1805.5 GRDED 7558.5 GRRED 7718.5 GRDED]
ILDED .OHMM  : INDUCTION LOG DEEP RESISTIVITY
ILMED .OHMM  : INDUCTION LOG MEDIUM RESISTIVITY
MRESWS.OHMM  : MEDIUM RESISTIVITY [ILMED]
NPHIED.V/V   : NEUTRON POROSITY SANDSTONE FROM DENSITY LOG [DEP AD TO GRRED]
NPOWS .V/V   : NEUTRON POROSITY SANDSTONE [NPHIED]
SFLUED.OHMM  : SPHERICALLY FOCUSED LOG RESISTIVITY
SPRED .MV    : SPONTANEOUS POTENTIAL FROM RESISTIVITY LOG
SPWS  .MV    : SPONTANEOUS POTENTIAL [BASELINE 0 MV] [SPRED]
SRESWS.OHMM  : SHALLOW RESISTIVITY [SFLUED]
TENDED.LBF   : TENSION FROM DENSITY LOG [DEP AD TO GRRED]
~Params ----------------------------------------------------
PD  .                     GL : PERMANENT DATUM
EPD .FT                  884 : ELEVATION PERMANENT DATUM
LMF .                     KB : LOG MEASURED FROM
DAPD.FT                   21 : FEET ABOVE PERMANENT DATUM
DMF .                     KB : DRILLING MEASURED FROM
EKB .FT                  905 : KELLY BUSHING
EDF .FT                  904 : DRILLING FLOOR
EGL .FT                  884 : GROUND LEVEL
DATE.              9-19-1978 : RUN DATE
RUN .                      2 : RUN NUMBER
DD  .FT                 8050 : DEPTH DRILLER
DL  .FT                 8050 : DEPTH LOGGER
BLI .FT                 8048 : BOTTOM LOG INTERVAL
TLI .FT                 6461 : TOP LOG INTERVAL
CS  .IN                9.625 : CASING SIZE
CBD .FT                 6473 : CASING BOTTOM DRILLER
CBL .FT                 6456 : CASING BOTTOM LOGGER
BS  .IN                7.875 : BIT SIZE
BSD .FT                 8050 : BIT SIZE AT DEPTH
DFT .                  LIGNO : DRILLING FLUID TYPE
DFD .                   14.6 : DRILLING FLUID DENSITY
DFV .                     48 : DRILLING FLUID VISCOSITY
DFPH.                     11 : DRILLING FLUID PH
DFL .                    7.2 : DRILLING FLUID LOSS
MSS .                    PIT : MUD SAMPLE SOURCE
RMS .OHMM                1.4 : RESISTIVITY MUD SAMPLE
MST .DEGF                 75 : MUD SAMPLE TEMPERATURE
RMF .OHMM               1.07 : RESISTIVITY MUD FILTRATE SAMPLE
MFST.DEGF                 75 : MUD FILTRATE SAMPLE TEMPERATURE
RMC .OHMM               1.75 : RESISTIVITY MUD CAKE
MCST.DEGF                 75 : MUD CAKE SAMPLE TEMPERATURE
MFSS.                   MEAS : MUD FILTRATE SAMPLE SOURCE
MCSS.                   CALC : MUD CAKE SAMPLE SOURCE
RMB .OHMM               0.61 : RESISTIVITY MUD AT BHT
TCS .HRS                   6 : TIME CIRCULATED STOPPED
LUN .                   6160 : LOGGING UNIT NUMBER
LUL .                  ALICE : LOGGING UNIT LOCATION
ENGI.                 BOYKIN : RECORDING ENGINEER
WITN.                 WALKER : WITNESSED BY
CLNT.                A2DTECH : CLIENT CODE
ORIG.          1" 2.5" PRINT : ORIGIN OF DATA
UWI .         42323312560000 : UNIQUE WELL ID
DICO. A2D Technologies, Inc. : DIGITIZING COMPANY
~Other -----------------------------------------------------
~ASCII -----------------------------------------------------
# ...
 3800.00000   13.03000   12.81590   13.03000   54.68370   -0.00500   -0.00500    2.65870    0.03000    0.03000   18.28700   55.43080   55.43080   22.64700   25.99600   22.64700   18.28700   19.24780   19.24780    0.07600    0.07600   22.93790  -59.36250  -28.54250   22.93790  950.00000
 3850.00000   13.00100   12.82050   13.00100   49.77650    0.00700    0.00700    2.64500    0.03800    0.03800   20.08980   55.74140   55.74140   22.71800   22.05720   22.71800   20.08980   24.45630   24.45630    0.05400    0.05400   20.37620  -54.98010  -19.09120   20.37620  866.94400
 3900.00000   12.75500   12.80320   12.75500   70.66690   -0.01400   -0.01400    2.66040    0.02900    0.02900   14.15090   58.45990   58.45990   27.72400   25.20710   27.72400   14.15090   17.91820   17.91820    0.03800    0.03800   16.14140  -48.85640   -7.89860   16.14140  856.72300
 3950.00000   12.97300   12.86500   12.97300   50.93410   -0.02000   -0.02000    2.61770    0.05400    0.05400   19.63320   56.50210   56.50210   20.64600   22.55840   20.64600   19.63320   22.52250   22.52250    0.06000    0.06000   17.76000  -60.06450  -15.53200   17.76000  910.00000
 4000.00000   13.09100   13.02190   13.09100   48.19440   -0.02400   -0.02400    2.65360    0.03300    0.03300   20.74930   55.82230   55.82230   24.02700   24.08130   24.02700   20.74930   29.80210   29.80210    0.06100    0.06100   20.56020  -64.49350  -16.91130   20.56020  857.59000
 4050.00000   13.04000   13.06270   13.04000   57.10700   -0.02100   -0.02100    2.66380    0.02700    0.02700   17.51100   55.01050   55.01050   23.84200   29.31270   23.84200   17.51100   24.67740   24.67740    0.05400    0.05400   20.55580  -57.43980   -6.80780   20.55580 1006.23700
 4100.00000   13.13600   13.10650   13.13600   51.22400   -0.00700   -0.00700    2.59890    0.06500    0.06500   19.52210   56.56540   56.56540   21.45500   26.23570   21.45500   19.52210   21.71420   21.71420    0.09100    0.09100   19.26270  -74.80240  -21.12070   19.26270  899.30800
 4150.00000   13.18400   12.99070   13.18400   76.82080   -0.01500   -0.01500    2.59030    0.07000    0.07000   13.01730   59.88190   59.88190   21.25500   23.00800   21.25500   13.01730   13.27600   13.27600    0.09800    0.09800   11.51930  -67.72790  -10.99640   11.51930  925.18200
 4200.00000   13.26700   13.04580   13.26700  151.79340   -0.02800   -0.02800    2.48430    0.13200    0.13200    6.58790   61.39110   61.39110   20.82900   22.06700   20.82900    6.58790    8.09420    8.09420    0.10300    0.10300   10.70750  -62.44240   -2.66120   10.70750  990.00000
 4250.00000   14.51000   13.47010   14.51000   50.29830    0.20100    0.20100    2.32180    0.22700    0.22700   19.88140   54.47110   54.47110   26.86800   32.55560   26.86800   19.88140   23.68280   23.68280    0.03800    0.03800   24.21790  -74.81750  -12.78900   24.21790  865.54800
 4300.00000   13.25500   13.27830   13.25500   21.37580   -0.02300   -0.02300    2.88440   -0.10200   -0.10200   46.78190   52.40160   52.40160   24.43700   29.52790   24.43700   46.78190   46.97220   46.97220    0.01900    0.01900   44.35370 -105.04240  -40.76660   44.35370  922.79600
 4350.00000   12.86000   12.79280   12.86000   33.94180    0.01900    0.01900    2.87420   -0.09600   -0.09600   29.46220   53.18900   53.18900   31.49200   31.71860   31.49200   29.46220   35.05760   35.05760    0.03500    0.03500   43.85900 -106.37130  -39.84810   43.85900  887.60200
 4400.00000   13.00500   12.79280   13.00500   47.52290    0.06600    0.06600    2.55610    0.09000    0.09000   21.04250   57.85210   57.85210   61.16100   48.96010   61.16100   21.04250   23.50310   23.50310    0.07700    0.07700   30.50170  -90.99770  -24.21100   30.50170  870.00000
 4450.00000   13.19100   13.05540   13.19100   23.14790    0.00400    0.00400    2.88610   -0.10300   -0.10300   43.20040   52.79220   52.79220   32.63500   34.64380   32.63500   43.20040   48.86130   48.86130    0.02600    0.02600   49.75470 -131.07570  -68.65430   49.75470  937.73900
 4500.00000   12.95000   12.94440   12.95000   21.11530   -0.03100   -0.03100    2.85540   -0.08500   -0.08500   47.35910   52.58810   52.58810   19.98200   25.48660   19.98200   47.35910   47.69300   47.69300   -0.00100   -0.00100   47.64460 -136.41440  -78.35830   47.64460  949.45400
 4550.00000   12.95100   12.79070   12.95100   21.93440   -0.00500   -0.00500    2.66210    0.02800    0.02800   45.59040   52.91070   52.91070   33.11700   35.85660   33.11700   45.59040   48.52330   48.52330    0.01800    0.01800   44.85000 -108.87360  -55.18290   44.85000 1000.90600
 4600.00000   14.40200   13.83790   14.40200   20.98870    0.04900    0.04900    2.09270    0.36100    0.36100   47.64460   51.49240   51.49240   40.81800   39.34970   40.81800   47.64460   61.29490   61.29490    0.06400    0.06400   57.19780 -119.60960  -70.28420   57.19780  879.58700
 4650.00000   12.87000   12.68610   12.87000   56.30630   -0.00200   -0.00200    2.68090    0.01700    0.01700   17.76000   54.56690   54.56690   20.59700   25.99600   20.59700   17.76000   19.90820   19.90820    0.07200    0.07200   30.17180 -105.59900  -60.63890   30.17180  930.23600
 4700.00000   12.66800   12.55380   12.66800   27.27630    0.11700    0.11700    2.70660    0.00200    0.00200   36.66190   50.20010   50.20010   35.57200   33.45230   35.57200   36.66190   46.78190   46.78190    0.02400    0.02400   39.68710  -95.67300  -55.07820   39.68710  990.00000
 4750.00000   12.53600   12.55850   12.53600   47.06020   -0.00700   -0.00700    2.69120    0.01100    0.01100   21.24940   57.06420   57.06420   33.53500   34.86100   33.53500   21.24940   27.24830   27.24830    0.03500    0.03500   25.98420  -48.55660  -12.32710   25.98420  983.14400
 4800.00000   12.55000   12.56730   12.55000   38.69710   -0.00300   -0.00300    2.70490    0.00300    0.00300   25.84170   56.74320   56.74320   48.17100   44.32610   48.17100   25.84170   33.89200   33.89200    0.04400    0.04400   29.62540  -44.42300  -11.83520   29.62540  990.00000
 4850.00000   14.37300   12.88230   14.37300   29.05740    0.20300    0.20300    2.32870    0.22300    0.22300   34.41470   51.66670   51.66670   31.98500   33.82050   31.98500   34.41470   41.92360   41.92360    0.05700    0.05700   42.15410  -69.10580  -38.97910   42.15410  796.25000
 4900.00000   12.45100   12.43430   12.45100   53.30260   -0.02100   -0.02100    2.69630    0.00800    0.00800   18.76080   55.94490   55.94490   30.35500   32.86850   30.35500   18.76080   26.30810   26.30810    0.04500    0.04500   23.90390  -47.41040  -19.74470   23.90390 1010.00000
 4950.00000   14.39200   13.39040   14.39200   56.30630    0.12200    0.12200    2.24150    0.27400    0.27400   17.76000   57.68370   57.68370   40.37100   33.15780   40.37100   17.76000   22.93890   22.93890    0.09000    0.09000   18.15410  -38.68420  -13.47950   18.15410  802.59400
 5000.00000   13.34100   12.62920   13.34100   57.51030    0.09500    0.09500    2.64840    0.03600    0.03600   17.38820   54.42910   54.42910   31.79000   31.47990   31.79000   17.38820   22.03160   22.03160    0.05000    0.05000   28.30650  -43.67000  -19.85130   28.30650  959.04000
 5050.00000   14.37000   13.43030   14.37000   42.03130    0.11100    0.11100    1.98670    0.42300    0.42300   23.79180   51.51790   51.51790   32.42700   31.14470   32.42700   23.79180   44.10170   44.10170    0.05500    0.05500   36.78980  -39.98130  -14.91670   36.78980  690.00000
 5100.00000   12.36700   12.43430   12.36700   51.14930   -0.00100   -0.00100    2.69460    0.00900    0.00900   19.55060   56.36800   56.36800   33.43100   35.94450   33.43100   19.55060   25.59600   25.59600    0.04400    0.04400   19.09550  -46.61350  -20.30290   19.09550  836.57800
 5150.00000   12.27500   12.52130   12.27500   67.02770    0.01100    0.01100    2.54240    0.09800    0.09800   14.91920   58.45470   58.45470   34.46400   36.78620   34.46400   14.91920   22.59810   22.59810    0.06200    0.06200   19.00270  -38.00560  -10.44910   19.00270  888.28600
