~Version ---------------------------------------------------
VERS.      2.0 : CWLS log ASCII Standard -VERSION 2.0
WRAP.      YES : Multiple lines per depth step
CREA. 01/19/13 : LAS Creation Date
~Well ------------------------------------------------------
STRT.FT                 1500.0 : START DEPTH
STOP.FT                10050.0 : STOP DEPTH
STEP.FT               50.00000 : STEP LENGTH
NULL.                  -999.25 : NULL VALUE
COMP.     MARATHON OIL COMPANY : COMPANY
WELL.              HOLMES S #1 : WELL
FLD .               BEAR GRASS : FIELD
LOC .                          : LOCATION
CNTY.                     LEON : COUNTY
STAT.                    TEXAS : STATE
CTRY. UNITED STATES OF AMERICA : COUNTRY
SRVC.             Schlumberger : SERVICE COMPANY
DATE.              05-Jul-1991 : LOGDATE
API .           42289311110000 : API NUMBER
UWI .           42289311110000 : UNIQUE WELL ID
SLAT.WGS84       31.3704869151 : SURFACE LATITUDE
SLON.WGS84      -96.2382553647 : SURFACE LONGITUDE
~Curve Information -----------------------------------------
DEPT    .FT    : DEPTH FEET
CALDED  .IN    : CALIPER FROM CN-LDT LOG
CALWS   .IN    : CALIPER [CALDED]
CONDWS  .MMHO  : CONDUCTIVITY [1000/DRESWS]
DCORWS  .G/C3  : DENSITY CORRECTION [DRHOED]
DENWS   .G/C3  : FORMATION BULK DENSITY [CALCULATED FROM DPOWS M=2.71, F=1.0]
DPHILSED.V/V   : DENSITY POROSITY LIMESTONE [M=2.71, F=1.0] FROM CN-LDT LOG
DPOWS   .V/V   : DENSITY POROSITY LIMESTONE [DPHILSED]
DRESWS  .OHMM  : DEEP RESISTIVITY [ILDED]
DRHOED  .G/C3  : BULK DENSITY CORRECTION FROM CN-LDT LOG
GRRED   .GAPI  : GAMMA RAY FROM DIL-SFL LOG
GRWS    .GAPI  : GAMMA RAY [GRRED]
ILDED   .OHMM  : DEEP INDUCTION FROM DIL-SFL LOG
ILMED   .OHMM  : MEDIUM INDUCTION FROM DIL-SFL LOG
MRESWS  .OHMM  : MEDIUM RESISTIVITY [ILMED]
NPHILSED.V/V   : NEUTRON POROSITY LIMESTONE FROM CN-LDT LOG
NPOWS   .V/V   : NEUTRON POROSITY LIMESTONE [NPHILSED]
RHOBED  .G/C3  : BULK DENSITY FROM CN-LDT LOG
SFLUED  .OHMM  : SHALLOW FOCUSED RESISTIVITY (UNAVERAGED) FROM DIL-SFL LOG
SPRED   .MV    : SPONTANEOUS POTENTIAL FROM DIL-SFL LOG
SPWS    .MV    : SPONTANEOUS POTENTIAL [BASELINE 0 MV, SPRED]
SRESWS  .OHMM  : SHALLOW RESISTIVITY [SFLUED]
TENRED  .LBF   : TENSION FROM DIL-SFL LOG
~Params ----------------------------------------------------
PD  .                     GL : PERMANENT DATUM
EPD .FT                  515 : ELEVATION PERMANENT DATUM
LMF .                     KB : LOG MEASURED FROM
DAPD.FT                   23 : FEET ABOVE PERMANENT DATUM
DMF .                     KB : DRILLING MEASURED FROM
EKB .FT                  538 : KELLY BUSHING
EDF .FT                  537 : DRILLING FLOOR
EGL .FT                  515 : GROUND LEVEL
DATE.               06/07/91 : RUN DATE
RUN .                      1 : RUN NUMBER
DD  .FT                10100 : DEPTH DRILLER
DL  .FT                10084 : DEPTH LOGGER
BLI .FT                10080 : BOTTOM LOG INTERVAL
TLI .FT                 4215 : TOP LOG INTERVAL
CS  .IN                8.625 : CASING SIZE
CBD .FT                 1528 : CASING BOTTOM DRILLER
CBL .FT                 1514 : CASING BOTTOM LOGGER
BS  .IN                7.875 : BIT SIZE
BSD .FT                10100 : BIT SIZE AT DEPTH
DFT .                    LIG : DRILLING FLUID TYPE
DFD .                   10.2 : DRILLING FLUID DENSITY
DFV .                     45 : DRILLING FLUID VISCOSITY
DFPH.                    9.8 : DRILLING FLUID PH
DFL .                     10 : DRILLING FLUID LOSS
MSS .                   TANK : MUD SAMPLE SOURCE
RMS .OHMM               3.28 : RESISTIVITY MUD SAMPLE
MST .DEGF                 75 : MUD SAMPLE TEMPERATURE
RMF .OHMM               3.02 : RESISTIVITY MUD FILTRATE SAMPLE
MFST.DEGF                 75 : MUD FILTRATE SAMPLE TEMPERATURE
RMC .OHMM               2.59 : RESISTIVITY MUD CAKE
MCST.DEGF                 75 : MUD CAKE SAMPLE TEMPERATURE
MFSS.                  PRESS : MUD FILTRATE SAMPLE SOURCE
MCSS.                   MEAS : MUD CAKE SAMPLE SOURCE
RMB .OHMM              1.159 : RESISTIVITY MUD AT BHT
TCS .HRS                 400 : TIME CIRCULATED STOPPED
TLAB.HRS                1100 : TIME LOGGER AT BOTTOM
LUN .                   8605 : LOGGING UNIT NUMBER
LUL .                  TYLER : LOGGING UNIT LOCATION
ENGI.                 HIBURN : RECORDING ENGINEER
CLNT.                A2DTECH : CLIENT CODE
ORIG.          1" 2.5" PRINT : ORIGIN OF DATA
UWI .         42289311110000 : UNIQUE WELL ID
DICO. A2D Technologies, Inc. : DIGITIZING COMPANY
~Other -----------------------------------------------------
~ASCII -----------------------------------------------------
# ...
 6300.00000    -999.25    -999.25   53.79610    -999.25    -999.25    -999.25    -999.25   18.58870    -999.25   15.83010   15.83010   18.58870   19.93420   19.93420    -999.25    -999.25    -999.25   33.67820  -33.36550  -18.07080   33.67820 2879.78340
 6350.00000    -999.25    -999.25  219.70300    -999.25    -999.25    -999.25    -999.25    4.55160    -999.25   64.57530   64.57530    4.55160    5.22090    5.22090    -999.25    -999.25    -999.25    5.46740  -18.96300   -3.88410    5.46740 2883.42310
 6400.00000    -999.25    -999.25   62.52770    -999.25    -999.25    -999.25    -999.25   15.99290    -999.25   29.69360   29.69360   15.99290   16.50630   16.50630    -999.25    -999.25    -999.25   23.61310  -40.65620  -26.11180   23.61310 2889.23800
 6450.00000    -999.25    -999.25  275.15620    -999.25    -999.25    -999.25    -999.25    3.63430    -999.25   57.16220   57.16220    3.63430    4.07090    4.07090    -999.25    -999.25    -999.25    4.61480  -17.92620   -3.91620    4.61480 2936.29590
 6500.00000    -999.25    -999.25   56.19560    -999.25    -999.25    -999.25    -999.25   17.79500    -999.25   45.47470   45.47470   17.79500   18.34450   18.34450    -999.25    -999.25    -999.25   19.05080  -24.86210  -11.38660   19.05080 2970.99390
 6550.00000    -999.25    -999.25  161.63710    -999.25    -999.25    -999.25    -999.25    6.18670    -999.25   50.10760   50.10760    6.18670    6.93360    6.93360    -999.25    -999.25    -999.25    7.76110  -17.16090   -4.21980    7.76110 2987.98850
 6600.00000    -999.25    -999.25  185.98420    -999.25    -999.25    -999.25    -999.25    5.37680    -999.25   49.85670   49.85670    5.37680    5.78420    5.78420    -999.25    -999.25    -999.25   13.70440  -18.47570   -6.06910   13.70440 3006.90480
 6650.00000    -999.25    -999.25  179.98880    -999.25    -999.25    -999.25    -999.25    5.55590    -999.25   61.26220   61.26220    5.55590    6.17990    6.17990    -999.25    -999.25    -999.25    9.52250  -18.13010   -6.25790    9.52250 2937.43070
 6700.00000    -999.25    -999.25  235.45480    -999.25    -999.25    -999.25    -999.25    4.24710    -999.25   42.44940   42.44940    4.24710    4.99240    4.99240    -999.25    -999.25    -999.25    3.94160  -19.46910   -8.13130    3.94160 2996.25150
 6750.00000    -999.25    -999.25   60.38360    -999.25    -999.25    -999.25    -999.25   16.56080    -999.25   37.87270   37.87270   16.56080   18.89500   18.89500    -999.25    -999.25    -999.25   16.76590  -24.52100  -13.71770   16.76590 3008.10990
 6800.00000    -999.25    -999.25  437.27320    -999.25    -999.25    -999.25    -999.25    2.28690    -999.25   48.13310   48.13310    2.28690    2.37990    2.37990    -999.25    -999.25    -999.25    3.25010  -17.21800   -6.94910    3.25010 3013.05300
 6850.00000    -999.25    -999.25  825.96840    -999.25    -999.25    -999.25    -999.25    1.21070    -999.25   56.29870   56.29870    1.21070    1.33150    1.33150    -999.25    -999.25    -999.25    1.56590  -19.29770   -9.56330    1.56590 3062.30320
 6900.00000    -999.25    -999.25  482.16010    -999.25    -999.25    -999.25    -999.25    2.07400    -999.25   37.62610   37.62610    2.07400    2.22810    2.22810    -999.25    -999.25    -999.25    4.12030  -16.79580   -7.59580    4.12030 3016.27390
 6950.00000    -999.25    -999.25  144.27310    -999.25    -999.25    -999.25    -999.25    6.93130    -999.25   31.08730   31.08730    6.93130    7.21890    7.21890    -999.25    -999.25    -999.25    8.96200  -15.61420   -6.94860    8.96200 3084.05030
 7000.00000    -999.25    -999.25  355.93520    -999.25    -999.25    -999.25    -999.25    2.80950    -999.25   34.53970   34.53970    2.80950    2.99950    2.99950    -999.25    -999.25    -999.25    7.07560  -18.26200  -10.13090    7.07560 3064.44870
 7050.00000    -999.25    -999.25   66.79980    -999.25    -999.25    -999.25    -999.25   14.97010    -999.25   21.70720   21.70720   14.97010   15.47130   15.47130    -999.25    -999.25    -999.25   20.10270  -19.94890  -12.35220   20.10270 3011.14180
 7100.00000    -999.25    -999.25  129.67650    -999.25    -999.25    -999.25    -999.25    7.71150    -999.25   23.05990   23.05990    7.71150    8.02300    8.02300    -999.25    -999.25    -999.25   21.45780  -19.14750  -12.08530   21.45780 3045.23340
 7150.00000    -999.25    -999.25  257.26780    -999.25    -999.25    -999.25    -999.25    3.88700    -999.25   35.37080   35.37080    3.88700    4.19220    4.19220    -999.25    -999.25    -999.25    7.83680  -19.32900  -12.80120    7.83680 3117.21630
 7200.00000    9.70320    9.70320   72.29820    0.01730    2.62890    0.04740    0.04740   13.83160    0.01730   29.02660   29.02660   13.83160   15.96280   15.96280    0.02940    0.02940    2.63390   36.79030  -19.23570  -13.24240   36.79030 3094.90620
 7250.00000   10.45350   10.45350  365.12340   -0.01440    2.17820    0.31100    0.31100    2.73880   -0.01440   48.90430   48.90430    2.73880    2.97220    2.97220    0.20360    0.20360    2.20250    3.86360  -20.58260  -15.12370    3.86360 3038.30590
 7300.00000    9.46820    9.46820   84.80250   -0.00570    2.68300    0.01580    0.01580   11.79210   -0.00570   31.18930   31.18930   11.79210   15.31570   15.31570    0.03150    0.03150    2.68470   22.25390  -18.00180  -13.07730   22.25390 3191.80220
 7350.00000    9.62050    9.62050  133.95310   -0.00570    2.59270    0.06860    0.06860    7.46530   -0.00570   29.04830   29.04830    7.46530   10.62370   10.62370    0.03830    0.03830    2.60220   35.96590  -15.11310  -10.72310   35.96590 3072.30250
 7400.00000    9.16650    9.16650   70.44930   -0.00850    2.67970    0.01770    0.01770   14.19460   -0.00850   51.98650   51.98650   14.19460   18.39570   18.39570    0.01510    0.01510    2.68430   65.56160  -12.58840   -8.73280   65.56160 3127.00830
 7450.00000    9.72760    9.72760  118.34180   -0.00840    2.66310    0.02740    0.02740    8.45010   -0.00840   53.98480   53.98480    8.45010    9.05650    9.05650    0.08470    0.08470    2.66330    8.05250  -14.38580  -11.06470    8.05250 3097.76950
 7500.00000   13.78100   13.78100  523.80700    0.10880    2.25500    0.26610    0.26610    1.90910    0.10880   69.64530   69.64530    1.90910    1.98900    1.98900    0.33080    0.33080    2.25620    2.52680  -18.52440  -15.73770    2.52680 3122.43820
 7550.00000    9.72820    9.72820   97.30940   -0.00900    2.69140    0.01090    0.01090   10.27650   -0.00900   38.43600   38.43600   10.27650   11.23200   11.23200    0.04020    0.04020    2.69160   16.89930  -15.08210  -12.82980   16.89930 3177.36960
 7600.00000    9.62850    9.62850  127.62750   -0.00150    2.62520    0.04960    0.04960    7.83530   -0.00150   35.79540   35.79540    7.83530   10.55180   10.55180    0.05520    0.05520    2.62790   10.67150  -13.68640  -11.96860   10.67150 3231.21090
 7650.00000    9.28950    9.28950  286.27050    0.01210    2.62640    0.04890    0.04890    3.49320    0.01210   69.68700   69.68700    3.49320    4.14250    4.14250    0.18060    0.18060    2.62820    3.46410  -12.32400  -11.14060    3.46410 3135.71290
 7700.00000    9.34120    9.34120  121.73740    0.01800    2.66470    0.02650    0.02650    8.21440    0.01800   35.68630   35.68630    8.21440   11.96180   11.96180    0.02630    0.02630    2.66620   16.22080  -26.86160  -26.21270   16.22080 3172.87820
 7750.00000    8.92900    8.92900  118.81850    0.02190    2.58890    0.07080    0.07080    8.41620    0.02190   42.90560   42.90560    8.41620    9.06070    9.06070    0.08230    0.08230    2.58900    9.07420  -14.20910  -14.09460    9.07420 3166.40800
 7800.00000    9.07560    9.07560  101.18590   -0.00770    2.67170    0.02240    0.02240    9.88280   -0.00770   35.59520   35.59520    9.88280   11.28960   11.28960    0.03370    0.03370    2.67520   38.44300  -14.35680  -14.77670   38.44300 3251.50070
 7850.00000    8.84630    8.84630   83.72830   -0.00090    2.67700    0.01930    0.01930   11.94340   -0.00090   36.24870   36.24870   11.94340   12.31470   12.31470    0.04810    0.04810    2.67650   18.63490  -14.56890  -15.52330   18.63490 3251.60030
