~Version ---------------------------------------------------
VERS. 2.0 : CWLS log ASCII Standard -VERSION 2.0
WRAP.  NO : One line per depth step
~Well ------------------------------------------------------
STRT.FT                     1500.0 : START DEPTH
STOP.FT                     8900.0 : STOP DEPTH
STEP.FT                   50.00000 : STEP LENGTH
NULL.                      -999.25 : NULL VALUE
COMP. PAN AMERICAN PETROLEUM CORP. : COMPANY
WELL.       FROST NATIONAL BANK #1 : WELL
FLD .                           WC : FIELD
LOC .                              : LOCATION
CNTY.                       DIMMIT : COUNTY
STAT.                        TEXAS : STATE
CTRY.     UNITED STATES OF AMERICA : COUNTRY
SRVC.                              : SERVICE COMPANY
DATE.                              : LOGDATE
API .               42127301140000 : API NUMBER
UWI .               42127301140000 : UNIQUE WELL ID
SLAT.WGS84           28.4914048015 : SURFACE LATITUDE
SLON.WGS84           -99.834117977 : SURFACE LONGITUDE
~Curve Information -----------------------------------------
DEPT  .FT                                                 : DEPTH
CALSED.IN                                                 : CALIPER FROM SONIC LOG
GRDED .GAPI                                               : GAMMA RAY FROM DENSITY LOG
NPHIED.V/V                                                : NEUTRON POROSITY LIMESTONE FROM DENSITY LOG
SPRED .MV                                                 : SPONTANEOUS POTENTIAL FROM RESISTIVITY LOG [MECH. SHIFT REMOVED@4750 (-16MV)]
CILDED.MMHO                                               : CONDUCTIVITY FROM RESISTIVITY LOG
SPWS  .MV :   SPONTANEOUS POTENTIAL [FROM SPRED. BASELINE : 0MV]
CALDED.IN                                                 : CALIPER FROM DENSITY LOG
ILDED .OHMM                                               : INDUCTION LOG DEEP RESISTIVITY
ALL8ED.OHMM                                               : AMPLIFIED LATEROLOG 8
DTED  .US/F                                               : DELTA TIME FROM SONIC LOG
SPSED .MV                                                 : SPONTANEOUS POTENTIAL FROM SONIC LOG
CALWS .IN                                                 : CALIPER [CALSED]
GRWS  .GAPI                                               : GAMMA RAY [GRDED]
NPOWS .V/V                                                : NEUTRON POROSITY LIMESTONE [NPHIED]
DTWS  .US/F                                               : DELTA TIME [DTED]
DRESWS.OHMM                                               : DEEP RESISTIVITY [=1000/CILDED IF ILDED < 1. ELSE ILDED]
MRESWS.OHMM                                               : MEDIUM RESISTIVITY [ALL8ED]
CONDWS.MMHO                                               : CONDUCTIVITY [1000/DRESWS]
~Params ----------------------------------------------------
EKB .F                 603.3 : Kelly bushing
EGL .F                 590.3 : Ground level
EDF .F                   0.0 : Drilling floor
EPD .F                 590.8 : Permanent datum
TD  .F                8898.0 : Total depth
DATE.            21-NOV-1970 : Date logged
CLNT.                A2DTECH : Client Code
SL  .  660' FNEL & 600' FSEL : Surface Location
PD  .                     GL : Permanent Datum
LMF .                     KB : Log Measured From
DMF .                     KB : Drilling Measured From
DAPD.F                  12.5 : Feet Above Permanent Datum
DD  .F                  8898 : Depth driller
DL  .F                  8894 : Depth logger
BLI .F                  8893 : Bottom log interval
TLI .F                  1500 : Top log interval
CS1 .IN                10.75 : Casing size
CBD1.         10.75" @ 1500' : Casing driller 1
CBL1.F                  1500 : Casing logger 1
BS1 .IN                 8.75 : Bit size
BSD1.F                  8898 : Depth drilled with bit1
DFT .     LOW SOLIDS/POLYMER : Type fluid in hole
DFD .                   10.5 : Density
DFV .                     80 : Viscosity
DFPH.                    8.0 : pH
DFL .                    8.0 : Fluid loss
MSS .               FLOWLINE : Source of sample
RMS .OHMM               1.05 : Rm
RMF .OHMM               1.21 : Rmf
RMC .OHMM               2.42 : Rmc
MFSS.                   MEAS : Source Rmf.
MCSS.                   CALC : Source Rmc.
RMB .OHMM               0.51 : Rm. at BHT
BHT .F                   198 : BHT.
TCS .HRS                   7 : Time Circ. stopped
LUN .                   7027 : Logging unit number
LUL .                  PHARD : Logging unit location
ENGI.                   FETT : Recorded By
WITN.           LEANS/FOCSOM : Witnessed by
ORIG.          5" & 1" PRINT : Origin of data
UWI .         42127301140000 : Unique Well ID
DICO. A2D TECHNOLOGIES, INC. : Digitizing Company
~Other -----------------------------------------------------
~ASCII -----------------------------------------------------
# ...
 7350.00000    8.07210    7.34490    0.00360  -21.20200    5.20000   -6.38030    9.05410  159.18660   70.61580   50.90050  -36.70670    8.07210    7.34490    0.00360   50.90050  159.18660   70.61580    6.28190
 7400.00000    7.89010   27.28750    0.01140  -18.69500   12.40000   -3.21410    9.12930  104.81930   47.07020   54.40540   -5.12330    7.89010   27.28750    0.01140   54.40540  104.81930   47.07020    9.54020
 7450.00000    7.54650   12.44440    0.02990  -28.52600    7.60000  -12.17810    8.93380  111.14460   40.84790   50.80990  -40.81360    7.54650   12.44440    0.02990   50.80990  111.14460   40.84790    8.99730
 7500.00000    8.04300   18.74060    0.01590  -33.22100    5.20000  -16.00610    9.24940  127.04580   36.60710   50.98520  -37.99730    8.04300   18.74060    0.01590   50.98520  127.04580   36.60710    7.87120
 7550.00000    7.84770   13.94420    0.02160  -26.73900    6.80000   -8.65710   11.03600  122.59040   36.43350   49.34730  -37.81070    7.84770   13.94420    0.02160   49.34730  122.59040   36.43350    8.15720
 7600.00000    8.02820   13.94160    0.02870  -28.38200    7.60000   -9.43310   12.20740  130.32210   25.89290   51.11840  -48.47110    8.02820   13.94160    0.02870   51.11840  130.32210   25.89290    7.67330
 7650.00000    7.69460   14.09440    0.03770  -29.13100    8.40000   -9.31510   12.65770  101.66700   33.24400   52.42640  -26.97450    7.69460   14.09440    0.03770   52.42640  101.66700   33.24400    9.83600
 7700.00000    8.41850   18.59140    0.07040  -28.39100   10.00000   -7.70810   12.40260    -999.25   41.26500   51.11670  -19.00460    8.41850   18.59140    0.07040   51.11670  100.00000   41.26500   10.00000
 7750.00000    9.83100   23.98870    0.15360  -24.59400   12.40000   -3.04630   13.12330   65.81310   21.75400   52.68100   -2.35080    9.83100   23.98870    0.15360   52.68100   65.81310   21.75400   15.19450
 7800.00000    8.28520   11.69470    0.02690  -36.41700   10.00000  -14.01810   16.23120  119.41540   14.61990   50.70330  -30.82580    8.28520   11.69470    0.02690   50.70330  119.41540   14.61990    8.37410
 7850.00000    9.20190   19.64070    0.15390  -40.79500    6.40000  -17.54500   10.82590  141.41570   82.28230   51.07370   -3.06250    9.20190   19.64070    0.15390   51.07370  141.41570   82.28230    7.07140
 7900.00000    7.98380   14.99270    0.14340  -36.41100    7.60000  -12.30980   10.01500   89.23210   30.32990   51.60940   -1.49290    7.98380   14.99270    0.14340   51.60940   89.23210   30.32990   11.20670
 7950.00000    7.86280   19.04050    0.15060  -36.38500    6.80000  -11.43270   10.16530  126.05420   33.24400   50.89960  -10.30630    7.86280   19.04050    0.15060   50.89960  126.05420   33.24400    7.93310
 8000.00000    8.26910   24.13840    0.17720  -37.97800    6.80000  -12.17460    9.95500  127.06370   45.41670   53.32180  -23.52790    8.26910   24.13840    0.17720   53.32180  127.06370   45.41670    7.87010
 8050.00000    8.28410   20.84010    0.12130  -33.94400    5.20000   -7.28940    9.98500  134.26300   58.19830   51.36760  -19.75680    8.28410   20.84010    0.12130   51.36760  134.26300   58.19830    7.44810
 8100.00000    8.83780   17.09160    0.13740  -38.80000    6.80000  -11.29430    9.63960  150.30120   75.44660   51.03440  -41.08750    8.83780   17.09160    0.13740   51.03440  150.30120   75.44660    6.65330
 8150.00000    9.06310   17.39230    0.11350  -35.60000    7.60000   -7.24310   10.30040  115.88800  100.59520   51.84460  -45.15100    9.06310   17.39230    0.11350   51.84460  115.88800  100.59520    8.62900
 8200.00000    9.22820   15.29160    0.09010  -32.38600   12.40000   -3.17800   10.67570   78.60400   50.63060   50.81250  -54.57430    9.22820   15.29160    0.09010   50.81250   78.60400   50.63060   12.72200
 8250.00000    8.46160   21.88910    0.07780  -35.90200    5.20000   -5.84290    9.23430  139.08500    -999.25   50.54870  -67.91510    8.46160   21.88910    0.07780   50.54870  139.08500    -999.25    7.18980
 8300.00000    8.03930    -999.25    -999.25  -37.20000    6.00000   -6.44830    8.69380  132.07830   86.62200   49.56140  -59.72290    8.03930    -999.25    -999.25   49.56140  132.07830   86.62200    7.57130
 8350.00000    8.31140   21.14020    0.01440  -42.80000    6.00000  -11.50800    8.85890  117.91990  100.58040   49.19420  -61.84330    8.31140   21.14020    0.01440   49.19420  117.91990  100.58040    8.48030
 8400.00000    7.86190   18.59070    0.12870  -48.40000    6.80000  -16.56780    8.18320  158.73590   87.34940   49.99090  -76.22310    7.86190   18.59070    0.12870   49.99090  158.73590   87.34940    6.29980
 8450.00000    8.59670    6.74760    0.01410  -55.65100    4.40000  -23.27850    9.09920  168.44880    -999.25   48.68930  -61.34650    8.59670    6.74760    0.01410   48.68930  168.44880    -999.25    5.93650
 8500.00000    7.90770    8.84560    0.04970  -55.73000    9.20000  -22.81730    8.60350  101.95780   17.95180   52.19710  -83.42180    7.90770    8.84560    0.04970   52.19710  101.95780   17.95180    9.80800
 8550.00000    7.89650    6.74660    0.10810  -58.79900   14.00000  -25.34600    8.31830   71.98710   23.91570   53.89030  -45.58590    7.89650    6.74660    0.10810   53.89030   71.98710   23.91570   13.89140
 8600.00000    7.91150    7.79610    0.12750  -61.20600    7.60000  -27.21280    8.31830   84.54780   47.00350   49.20140  -39.57810    7.91150    7.79610    0.12750   49.20140   84.54780   47.00350   11.82760
 8650.00000    7.78900    7.19760    0.12630  -59.60000    9.20000  -25.06650    8.21350   79.66920   33.59730   52.01550  -35.93460    7.78900    7.19760    0.12630   52.01550   79.66920   33.59730   12.55190
 8700.00000    7.83640   13.04350    0.11080  -57.20700    7.60000  -22.13330    8.39350  111.29520   31.05420   53.67820  -53.10180    7.83640   13.04350    0.11080   53.67820  111.29520   31.05420    8.98510
 8750.00000    9.04900   17.54110    0.09160  -51.59500    6.00000  -15.98100    9.84980  121.01020  101.55120   50.17080  -64.82880    9.04900   17.54110    0.09160   50.17080  121.01020  101.55120    8.26380
 8800.00000    8.99970   13.19320    0.06650  -53.51700    5.20000  -17.36280    9.62460  143.64160    -999.25   49.18360  -85.16090    8.99970   13.19320    0.06650   49.18360  143.64160    -999.25    6.96180
 8850.00000    9.07590   22.18990    0.07420  -49.13500    8.40000  -12.44050    8.79880   93.26400   65.36460   53.14100  -76.26550    9.07590   22.18990    0.07420   53.14100   93.26400   65.36460   10.72230
 8900.00000    -999.25    -999.25    -999.25    -999.25   26.00000    -999.25    -999.25    -999.25    -999.25    -999.25    -999.25    -999.25    -999.25    -999.25    -999.25   38.46150    -999.25   26.00000
