~Version ---------------------------------------------------
VERS. 2.0 : CWLS log ASCII Standard -VERSION 2.0
WRAP. YES : MULTIPLE LINES PER DEPTH STEP
~Well ------------------------------------------------------
STRT.FT                 2150.0 : START DEPTH
STOP.FT                 9700.0 : STOP DEPTH
STEP.FT               50.00000 : STEP LENGTH
NULL.                  -999.25 : NULL VALUE
COMP.    REATA OIL & GAS CORP. : COMPANY
WELL.           CONWAY M L  #2 : WELL
FLD .          MADISONVILLE, W : FIELD
LOC .                          : LOCATION
CNTY.                  MADISON : COUNTY
STAT.                    TEXAS : STATE
CTRY. UNITED STATES OF AMERICA : COUNTRY
SRVC.                  Unknown : SERVICE COMPANY
DATE.              30-Aug-1983 : LOGDATE
API .           42313304420000 : API NUMBER
UWI .           42313304420000 : UNIQUE WELL ID
SLAT.WGS84       30.8763806633 : SURFACE LATITUDE
SLON.WGS84      -96.0411831718 : SURFACE LONGITUDE
~Curve Information -----------------------------------------
DEPT    .FT    : DEPTH FEET
CALWS   .IN    : CALIPER [DCALED+BITED]
CONDWS  .MMHO  : CONDUCTIVITY [1000/DRESWS]
DCALED  .IN    : DIFFERENTIAL CALIPER FROM DENSITY LOG
DCORWS  .G/C3  : DENSITY CORRECTION [DRHOED]
DENWS   .G/C3  : BULK DENSITY [M=2.71 F=1.0] [CALCULATED FROM DPOLSWS]
DPHILSED.V/V   : DENSITY POROSITY [M=2.71 F=1.0] FROM DENSITY LOG
DPHISSED.V/V   : DENSITY POROSITY [M=2.65 F=1.0] FROM DENSITY LOG
DPOLSWS .V/V   : DENSITY POROSITY [M=2.71 F=1.0] [2128 DPHILSED 8570 DPOCAL_LS 9340.5 DPHILSED]
DRESWS  .OHMM  : DEEP RESISTIVITY [ILDED]
DRHOED  .G/C3  : DENSITY CORRECTION FROM DENSITY LOG
GRED    .GAPI  : GAMMA RAY  [DEP ADJ TO GRRED]
GRRED   .GAPI  : GAMMA RAY FROM RESISTIVITY LOG
GRWS    .GAPI  : GAMMA RAY [GRRED]
ILDED   .OHMM  : INDUCTION LOG DEEP RESISTIVITY
ILMED   .OHMM  : INDUCTION LOG MEDIUM RESISTIVITY
MRESWS  .OHMM  : MEDIUM RESISTIVITY [ILMED]
NPHILSED.V/V   : NEUTRON POROSITY LIMESTONE FROM DENSITY LOG
NPHISSED.V/V   : NEUTRON POROSITY SANDSTONE FROM DENSITY LOG
NPOLSWS .V/V   : NEUTRON POROSITY LIMESTONE [2128 NPHILSED 8570 NPOCAL_LS 9340.5 NPHILSED][NPHISSED IS CONVERTED TO NPOCAL_LS USING POWERLOG MODULE]
SFLUED  .OHMM  : SPHERICALLY FOCUSED LOG RESISTIVITY
SPRED   .MV    : SPONTANEOUS POTENTIAL FROM RESISTIVITY LOG
SPWS    .MV    : SPONTANEOUS POTENTIAL [BASELINE 0 MV] [SPRED]
SRESWS  .OHMM  : SHALLOW RESISTIVITY [SFLUED]
~Params ----------------------------------------------------
DATE.               08/05/83 : RUN DATE
RUN .                      1 : RUN NUMBER
BLI .FT                 9740 : BOTTOM LOG INTERVAL
TLI .FT                 2120 : TOP LOG INTERVAL
CLNT.                A2DTECH : CLIENT CODE
ORIG.            2" 5" PRINT : ORIGIN OF DATA
UWI .         42313304420000 : UNIQUE WELL ID
DICO. A2D Technologies, Inc. : DIGITIZING COMPANY
~Other -----------------------------------------------------
~ASCII -----------------------------------------------------
# ...
 6800.00000    -999.25  594.53030    -999.25    -999.25    -999.25    -999.25    -999.25    -999.25    1.68200    -999.25    -999.25    -999.25    -999.25    1.68200    1.65910    1.65910    -999.25    -999.25    -999.25    1.60510  -16.73110   -3.98240    1.60510
 6850.00000    -999.25  585.48010    -999.25    -999.25    -999.25    -999.25    -999.25    -999.25    1.70800    -999.25    -999.25    -999.25    -999.25    1.70800    1.74600    1.74600    -999.25    -999.25    -999.25    1.86200  -16.47070   -3.52750    1.86200
 6900.00000    -999.25  718.54570    -999.25    -999.25    -999.25    -999.25    -999.25    -999.25    1.39170    -999.25    -999.25    -999.25    -999.25    1.39170    1.35660    1.35660    -999.25    -999.25    -999.25    1.39850  -14.81440   -1.67670    1.39850
 6950.00000    -999.25  654.23620    -999.25    -999.25    -999.25    -999.25    -999.25    -999.25    1.52850    -999.25    -999.25    -999.25    -999.25    1.52850    1.57720    1.57720    -999.25    -999.25    -999.25    1.62830  -16.96290   -3.63070    1.62830
 7000.00000    -999.25  761.49870    -999.25    -999.25    -999.25    -999.25    -999.25    -999.25    1.31320    -999.25    -999.25    -999.25    -999.25    1.31320    1.37070    1.37070    -999.25    -999.25    -999.25    1.43460  -17.94640   -4.41970    1.43460
 7050.00000    -999.25  787.89790    -999.25    -999.25    -999.25    -999.25    -999.25    -999.25    1.26920    -999.25    -999.25    -999.25    -999.25    1.26920    1.32670    1.32670    -999.25    -999.25    -999.25    1.41340  -17.37420   -3.65300    1.41340
 7100.00000    -999.25  768.34420    -999.25    -999.25    -999.25    -999.25    -999.25    -999.25    1.30150    -999.25    -999.25    -999.25    -999.25    1.30150    1.38080    1.38080    -999.25    -999.25    -999.25    1.51430  -18.18970   -4.27410    1.51430
 7150.00000    -999.25  806.19160    -999.25    -999.25    -999.25    -999.25    -999.25    -999.25    1.24040    -999.25    -999.25    -999.25    -999.25    1.24040    1.30020    1.30020    -999.25    -999.25    -999.25    1.38340  -18.89010   -4.78000    1.38340
 7200.00000    -999.25  800.38420    -999.25    -999.25    -999.25    -999.25    -999.25    -999.25    1.24940    -999.25    -999.25    -999.25    -999.25    1.24940    1.32490    1.32490    -999.25    -999.25    -999.25    1.41580  -17.79210   -3.48750    1.41580
 7250.00000    -999.25  752.67190    -999.25    -999.25    -999.25    -999.25    -999.25    -999.25    1.32860    -999.25    -999.25    -999.25    -999.25    1.32860    1.41600    1.41600    -999.25    -999.25    -999.25    1.50890  -17.04680   -2.54770    1.50890
 7300.00000    -999.25  713.62310    -999.25    -999.25    -999.25    -999.25    -999.25    -999.25    1.40130    -999.25    -999.25    -999.25    -999.25    1.40130    1.47840    1.47840    -999.25    -999.25    -999.25    1.54150  -16.70150   -2.00790    1.54150
 7350.00000    -999.25  640.04100    -999.25    -999.25    -999.25    -999.25    -999.25    -999.25    1.56240    -999.25    -999.25    -999.25    -999.25    1.56240    1.66660    1.66660    -999.25    -999.25    -999.25    1.68860  -16.42920   -1.54110    1.68860
 7400.00000    -999.25  514.90660    -999.25    -999.25    -999.25    -999.25    -999.25    -999.25    1.94210    -999.25    -999.25    -999.25    -999.25    1.94210    2.07290    2.07290    -999.25    -999.25    -999.25    2.19770  -16.33620   -1.25360    2.19770
 7450.00000    -999.25  554.63120    -999.25    -999.25    -999.25    -999.25    -999.25    -999.25    1.80300    -999.25    -999.25    -999.25    -999.25    1.80300    1.84440    1.84440    -999.25    -999.25    -999.25    2.00990  -16.07290   -0.84570    2.00990
 7500.00000    -999.25  547.40530    -999.25    -999.25    -999.25    -999.25    -999.25    -999.25    1.82680    -999.25    -999.25    -999.25    -999.25    1.82680    1.88160    1.88160    -999.25    -999.25    -999.25    2.03010  -16.30360   -0.99030    2.03010
 7550.00000    -999.25  594.10640    -999.25    -999.25    -999.25    -999.25    -999.25    -999.25    1.68320    -999.25    -999.25    -999.25    -999.25    1.68320    1.75530    1.75530    -999.25    -999.25    -999.25    1.84270  -17.87570   -2.47630    1.84270
 7600.00000   14.08840  564.81220    6.21340    0.06730    2.49270    0.12710    -999.25    0.12710    1.77050    0.06730    -999.25   94.39900   94.39900    1.77050    1.82890    1.82890    0.23720    -999.25    0.23720    1.95540  -19.97030   -4.48490    1.95540
 7650.00000   11.85280  328.55830    3.97780    0.01730    2.53390    0.10300    -999.25    0.10300    3.04360    0.01730   89.87640   89.82890   89.82890    3.04360    2.94040    2.94040    0.16870    -999.25    0.16870    2.92000  -19.73800   -4.16650    2.92000
 7700.00000   12.07870  358.10210    4.20370    0.04180    2.56020    0.08760    -999.25    0.08760    2.79250    0.04180   73.58020   89.10230   89.10230    2.79250    2.87630    2.87630    0.17680    -999.25    0.17680    2.99010  -19.76070   -4.10320    2.99010
 7750.00000   11.56700  400.81770    3.69200    0.00530    2.54260    0.09790    -999.25    0.09790    2.49490    0.00530   83.56490   86.37630   86.37630    2.49490    2.60550    2.60550    0.20270    -999.25    0.20270    2.79420  -20.06150   -4.31790    2.79420
 7800.00000   13.68900  436.94840    5.81400    0.09470    2.47210    0.13910    -999.25    0.13910    2.28860    0.09470   87.46240   98.69160   98.69160    2.28860    2.40790    2.40790    0.24870    -999.25    0.24870    2.17570  -18.61870   -2.78900    2.17570
 7850.00000   14.32320  533.73190    6.44820    0.09780    2.49850    0.12370    -999.25    0.12370    1.87360    0.09780   77.44580   89.13860   89.13860    1.87360    1.93430    1.93430    0.27610    -999.25    0.27610    2.07750  -19.73360   -3.81790    2.07750
 7900.00000   14.11950  448.16920    6.24450    -999.25    2.44080    0.15740    -999.25    0.15740    2.23130    -999.25   87.05860   95.79750   95.79750    2.23130    2.28650    2.28650    0.30550    -999.25    0.30550    2.37990  -20.63890   -4.63710    2.37990
 7950.00000   11.27070  236.41780    3.39570    0.03330    2.61750    0.05410    -999.25    0.05410    4.22980    0.03330   68.33630   74.10030   74.10030    4.22980    4.42020    4.42020    0.17740    -999.25    0.17740    5.18800  -17.97440   -1.93310    5.18800
 8000.00000   11.91010  308.37550    4.03510    0.02660    2.56650    0.08390    -999.25    0.08390    3.24280    0.02660   79.95100   93.51240   93.51240    3.24280    3.35590    3.35590    0.23730    -999.25    0.23730    3.41900  -20.51890   -4.62440    3.41900
 8050.00000   13.19770  349.52810    5.32270    -999.25    2.51870    0.11190    -999.25    0.11190    2.86100    -999.25   84.68840   93.57630   93.57630    2.86100    2.92510    2.92510    0.25180    -999.25    0.25180    3.06010  -19.02920   -3.28150    3.06010
 8100.00000   13.35570  372.96730    5.48070    0.08890    2.51130    0.11620    -999.25    0.11620    2.68120    0.08890   93.69670   89.01640   89.01640    2.68120    2.80710    2.80710    0.25560    -999.25    0.25560    3.09610  -18.22220   -2.62130    3.09610
 8150.00000   12.79860  424.86300    4.92360    -999.25    2.56070    0.08730    -999.25    0.08730    2.35370    -999.25   84.95540   97.45630   97.45630    2.35370    2.49280    2.49280    0.27360    -999.25    0.27360    2.55310  -18.87590   -3.42180    2.55310
 8200.00000   11.91800  473.03690    4.04300    0.09130    2.52310    0.10930    -999.25    0.10930    2.11400    0.09130   85.20480   90.82300   90.82300    2.11400    2.25690    2.25690    0.27450    -999.25    0.27450    2.44490  -17.98600   -2.67870    2.44490
 8250.00000   10.70590  141.06760    2.83090   -0.01190    2.59510    0.06720    -999.25    0.06720    7.08880   -0.01190   44.30460   49.73330   49.73330    7.08880    7.31370    7.31370    0.10140    -999.25    0.10140    7.71490  -18.04820   -2.88770    7.71490
 8300.00000   11.00860  179.49130    3.13360    0.01880    2.57730    0.07760    -999.25    0.07760    5.57130    0.01880   55.56760   65.24840   65.24840    5.57130    5.39130    5.39130    0.16620    -999.25    0.16620    4.55660  -18.66350   -3.64980    4.55660
