~Version ---------------------------------------------------
VERS. 2.0 : CWLS log ASCII Standard -VERSION 2.0
WRAP.  NO : ONE LINE PER DEPTH STEP
~Well ------------------------------------------------------
STRT.F                      1050.0 : START DEPTH
STOP.F                     12900.0 : STOP DEPTH
STEP.F                    50.00000 : STEP LENGTH
NULL.                      -999.25 : NULL VALUE
COMP.         MARATHON OIL COMPANY : COMPANY
WELL.                    WILLIS #1 : WELL
FLD . BOB HEND (COTTON VALLEYLIME) : FIELD
LOC .                              : LOCATION
CNTY.                    LIMESTONE : COUNTY
STAT.                        TEXAS : STATE
CTRY.     UNITED STATES OF AMERICA : COUNTRY
SRVC.                              : SERVICE COMPANY
DATE.                              : LOGDATE
API .               42293312300000 : API NUMBER
UWI .               42293312300000 : UNIQUE WELL ID
SLAT.WGS84           31.3874962389 : SURFACE LATITUDE
SLON.WGS84           -96.295097431 : SURFACE LONGITUDE
~Curve Information -----------------------------------------
DEPT.F                 : 
SPR .MV   06 010 01 00 : SPONTANEOUS POTENTIAL
AH20.OHMM 06 120 20 00 : 10-IN. RESISTIVITY, 1-FT RESOLUTION
AH30.OHMM 06 120 30 00 : 30-IN. RESISTIVITY, 2-FT RESOLUTION
AH90.OHMM 06 120 90 00 : 90-IN. RESISTIVITY, 2-FT RESOLUTION
DCAL.IN   06 280 30 00 : DIFFERENTIAL CALIPER
GRR .GAPI 06 310 01 00 : GAMMA RAY FROM RESISTIVITY
DTLN.US/F 60 523 00 00 : ACOUSTIC TRANSIT TIME, LONG SPACED, NEAR ARRAY
PEF .B/E  45 358 01 00 : PHOTOELECTRIC FACTOR
NPHI.DEC  42 890 01 00 : NEUTRON POROSITY LIMESTONE
DPHZ.DEC  45 890 10 00 : DENSITY POROSITY LIMESTONE
DT4P.US/F 60 532 00 00 : COMPRESSIONAL-WAVE INTERVAL TRANSIT TIME ACOUSTIC SLOWNESS, P&S MODE
IMPH.OHMM 07 120 44 00 : INDUCTION MEDIUM PHASOR RES.
IDPH.OHMM 07 120 46 00 : INDUCTION DEEP PHASOR RES
SFL .OHMM 07 220 01 00 : SPHERICALLY FOCUSED LOG UNAVERAGED RESISTIVITY
~Params ----------------------------------------------------
EKB .F                 407.0 : KELLY BUSHING
EGL .F                   376 : ELEVATION GROUND LEVEL
EDF .F                   405 : ELEVATION DERRICK FLOOR
EPD .F                   376 : ELEVATION PERMANENT DATUM
TD  .F               12902.0 : TOTAL DEPTH
DATE.            05-DEC-1997 : DATE LOGGED
CLNT.                A2DTECH : CLIENT CODE
PD  .                     GL : PERMANENT DATUM
LMF .                     KB : LOG MEASURED FROM
DMF .                     KB : DRILLING MEASURED FROM
DAPD.F                    31 : FEET ABOVE PERMANENT DATUM
DD  .F                 12900 : DEPTH DRILLER
DL  .F                 12902 : DEPTH LOGGER
BLI .F                 12986 : BOTTOM LOG INTERVAL
TLI .F                  8600 : TOP LOG INTERVAL
CS1 .IN                9.625 : CASING SIZE
CBD1.         9.625" @ 9480' : CASING DRILLER 1
CBL1.F                  9480 : CASING LOGGER 1
BS1 .IN                12.25 : BIT SIZE
BSD1.F                 12900 : DEPTH DRILLED WITH BIT1
DFT .           LIGNOSULFATE : TYPE FLUID IN HOLE
DFD .                   11.4 : DENSITY
DFV .                     36 : VISCOSITY
DFPH.                     10 : PH
DFL .                    120 : FLUID LOSS
MSS .       CIRCULATION TANK : SOURCE OF SAMPLE
RMS .OHMM               2.76 : RM
RMF .OHMM               2.29 : RMF
RMC .OHMM              3.588 : RMC
MFSS.                   CALC : SOURCE RMF.
MCSS.                   CALC : SOURCE RMC.
RMB .OHMM              0.835 : RM. AT BHT
BHT .F                   260 : BHT.
TCS .HRS                1530 : TIME CIRC. STOPPED
TLAB.HRS                 300 : TIME LOGGER AT BOTTOM
LUN .                   8400 : LOGGING UNIT NUMBER
LUL .                  TYLER : LOGGING UNIT LOCATION
ENGI.        SKRBICH GARDNER : RECORDED BY
WITN.                EW BANK : WITNESSED BY
ORIG.               5" PRINT : ORIGIN OF DATA
UWI .         42293312300000 : UNIQUE WELL ID
DICO. A2D TECHNOLOGIES, INC. : DIGITIZING COMPANY
~Other -----------------------------------------------------
~ASCII -----------------------------------------------------
# ...
 10850.00000  -51.13550    -999.25    -999.25    -999.25    0.09200   16.46860    -999.25    -999.25    0.00180    0.08460   56.92190   39.33760   39.22780   62.78480
 10900.00000  -30.37160    -999.25    -999.25    -999.25    0.33740   28.36070    -999.25    -999.25    0.00580    0.06540   57.37960   32.25380   33.49210   39.52780
 10950.00000   -5.34220    -999.25    -999.25    -999.25    0.49040   61.73780    -999.25    -999.25    0.04210    0.05240   60.29090   14.04490   14.28450   14.68550
 11000.00000   -2.59550    -999.25    -999.25    -999.25    0.47140   34.75930    -999.25    -999.25    0.00260    0.05320   56.30930   26.33270   28.82710   34.18240
 11050.00000  -63.52620    -999.25    -999.25    -999.25    0.18350   17.60670    -999.25    -999.25    0.02100    0.11030   60.95040   12.60890    8.29550   42.93440
 11100.00000   -1.43250    -999.25    -999.25    -999.25    0.60260   51.90550    -999.25    -999.25    0.01640    0.04470   57.98630   23.02950   22.32830   23.27530
 11150.00000  -38.29530    -999.25    -999.25    -999.25    0.03160   47.78960    -999.25    -999.25    0.02180    0.06220   59.21670   36.90600   35.25930   43.48960
 11200.00000  -28.12230    -999.25    -999.25    -999.25    0.25670   26.29570    -999.25    -999.25    0.00550    0.06010   54.77800   30.41880   29.43000   42.82430
 11250.00000  -14.80910    -999.25    -999.25    -999.25    0.55880   76.13850    -999.25    -999.25    0.07470    0.05740   60.59940   22.16050   21.68010   19.48190
 11300.00000  -39.23670    -999.25    -999.25    -999.25    0.49510   33.84860    -999.25    -999.25    0.02020    0.06700   61.51430   11.00390    8.71240   12.96180
 11350.00000  -37.99050    -999.25    -999.25    -999.25    0.30670   37.27450    -999.25    -999.25    0.00360    0.05540   58.79550   23.87570   22.34310   24.16450
 11400.00000  -39.43290    -999.25    -999.25    -999.25    0.52410   27.89260    -999.25    -999.25    0.00570    0.05850   55.08150   41.01130   41.39800   40.90140
 11450.00000  -42.83680    -999.25    -999.25    -999.25    0.30730   60.58320    -999.25    -999.25    0.04020    0.06700   60.44410   20.57610   20.71620   20.50280
 11500.00000  -43.46670    -999.25    -999.25    -999.25    0.06080   27.29960    -999.25    -999.25    0.06170    0.01940   59.74880   33.49140   34.39530   47.59110
 11550.00000  -59.20990    -999.25    -999.25    -999.25    1.77960   17.76710    -999.25    -999.25    0.14330    0.10610   56.19320   70.47360   79.28630   78.16930
 11600.00000    3.09340    -999.25    -999.25    -999.25    1.87020   82.69730    -999.25    -999.25    0.12680   -0.03390   59.55830   18.11320   15.62300   18.28240
 11650.00000  -12.95910    -999.25    -999.25    -999.25    2.14680   59.91150    -999.25    -999.25    0.09620    0.21250   55.33600  236.95830   44.64980   36.99960
 11700.00000  -68.55160    -999.25    -999.25    -999.25    0.21470   28.86320    -999.25    -999.25    0.00490    0.07150   57.16200   40.02220   38.52740   43.71380
 11750.00000  -16.03610    -999.25    -999.25    -999.25    0.16560   72.72250    -999.25    -999.25    0.04600    0.04650   60.25890    9.58550    9.68690   10.21960
 11800.00000  -71.64120    -999.25    -999.25    -999.25    0.29650   21.95750    -999.25    -999.25   -0.00040    0.09620   58.30250   46.46890   45.45310   47.07720
 11850.00000  -40.16710    -999.25    -999.25    -999.25    0.21550   82.08840    -999.25    -999.25    0.08470    0.09080   61.94570   16.44440   16.77380   18.90160
 11900.00000  -69.89420    -999.25    -999.25    -999.25    0.21030   37.03490    -999.25    -999.25    0.02490    0.16150   62.96550   11.37480    9.72920   10.29910
 11950.00000  -85.72510    -999.25    -999.25    -999.25    0.33070   23.93670    -999.25    -999.25    0.01090    0.08690   59.43250   46.47080   48.53050   50.54870
 12000.00000  -11.92380    -999.25    -999.25    -999.25    3.37510   90.19530    -999.25    -999.25    0.29590    0.36070   71.16390    5.38430    5.82720    5.23470
 12050.00000  -54.46660    -999.25    -999.25    -999.25    0.46090   22.02420    -999.25    -999.25    0.00490    0.05780   55.84990  111.17080  167.63020  113.58850
 12100.00000  -46.51970    -999.25    -999.25    -999.25    0.52190   75.89210    -999.25    -999.25    0.01360   -0.02270   61.32670   12.32380   10.86010   17.17740
 12150.00000  -69.80090    -999.25    -999.25    -999.25    0.55180   42.07060    -999.25    -999.25    0.07460    0.09850   63.53410    9.99640    9.89200   17.87100
 12200.00000  -36.11020    -999.25    -999.25    -999.25    0.60840   80.25920    -999.25    -999.25    0.07920    0.04710   62.10310    8.83530    8.08970    9.75110
 12250.00000  -69.49870    -999.25    -999.25    -999.25    0.50110   24.00620    -999.25    -999.25    0.00490    0.01260   57.74120   56.98400   42.09690  135.74680
 12300.00000  -59.07420    -999.25    -999.25    -999.25    1.31970   32.01110    -999.25    -999.25    0.02060    0.04170   56.77790   42.79840   55.40050   88.63370
 12350.00000  -53.26890    -999.25    -999.25    -999.25    0.24450   33.15190    -999.25    -999.25    0.01400    0.03480   55.86520   64.97380   19.82910   72.72610
 12400.00000  -84.49320    -999.25    -999.25    -999.25    1.78410   24.23780    -999.25    -999.25    0.00480    0.14690   58.37690   59.44000   63.51090   59.28630
 12450.00000  -23.84960    -999.25    -999.25    -999.25    0.58330   54.40500    -999.25    -999.25    0.21180    0.19460   50.18380   11.77290   13.03520   13.18000
 12500.00000  -39.49510    -999.25    -999.25    -999.25    0.58250  126.67340    -999.25    -999.25    0.06600    0.11470   70.70450   12.07560   10.54450   24.80740
 12550.00000  -46.97200    -999.25    -999.25    -999.25    0.12180   96.26520    -999.25    -999.25    0.03590    0.09150   62.28610    9.79000    9.68690   12.23370
 12600.00000  -24.49860    -999.25    -999.25    -999.25    0.27650  112.73420    -999.25    -999.25    0.16220    0.04710   69.77320    8.89830    8.89910   10.74830
 12650.00000  -27.21670    -999.25    -999.25    -999.25    0.00000  115.01950    -999.25    -999.25    0.20920    0.01290   70.44070    8.90370    8.90050   11.04320
 12700.00000  -61.83760    -999.25    -999.25    -999.25    0.06130   17.94670    -999.25    -999.25    0.00920    0.14160   59.79110   96.88210   88.83430  163.63300
 12750.00000  -51.12990    -999.25    -999.25    -999.25   -0.00050   20.24730    -999.25    -999.25    0.01850    0.13390   61.37950   69.52630   49.09810   91.82080
 12800.00000  -19.26500    -999.25    -999.25    -999.25    0.00000  129.75460    -999.25    -999.25    0.21080    0.00910   73.62840    7.58850    7.27580    9.68760
 12850.00000  -19.46000    -999.25    -999.25    -999.25    0.00080  114.10060    -999.25    -999.25    0.24690    0.01520   73.77960    6.75550    6.61930    8.80370
 12900.00000  -19.58080    -999.25    -999.25    -999.25    -999.25    -999.25    -999.25    -999.25    0.34920    -999.25    -999.25    5.07070    5.12740    5.82190
