~Version ---------------------------------------------------
VERS. 2.0 : CWLS log ASCII Standard -VERSION 2.0
WRAP.  NO : ONE LINE PER DEPTH STEP
~Well ------------------------------------------------------
STRT.F                    3850.0 : START DEPTH
STOP.F                    8500.0 : STOP DEPTH
STEP.F                  50.00000 : STEP LENGTH
NULL.                    -999.25 : NULL VALUE
COMP. CHAMPLIN PETROLEUM COMPANY : COMPANY
WELL.        BRINKMAN JUNELL  #1 : WELL
FLD .                   GIDDINGS : FIELD
LOC .                            : LOCATION
CNTY.                   BURLESON : COUNTY
STAT.                      TEXAS : STATE
CTRY.   UNITED STATES OF AMERICA : COUNTRY
SRVC.               Schlumberger : SERVICE COMPANY
DATE.                11-Apr-1980 : LOGDATE
API .             42051306040000 : API NUMBER
UWI .             42051306040000 : UNIQUE WELL ID
SLAT.WGS84         30.3775396068 : SURFACE LATITUDE
SLON.WGS84        -96.7226538324 : SURFACE LONGITUDE
~Curve Information -----------------------------------------
DEPT.F                 : 
SPR .MV   07 010 01 00 : SPONTANEOUS POTENTIAL FROM RESISTIVITY
GRR .GAPI 07 310 01 00 : GAMMA RAY FROM RESISTIVITY
DT  .US/F 60 520 00 00 : DELTA-T (INTERVAL TRANSIT TIME)
ILM .OHMM 07 120 44 00 : INDUCTION MEDIUM RESISTIVITY
ILD .OHMM 07 120 46 00 : INDUCTION DEEP RESISTIVITY
SFLU.OHMM 07 220 01 00 : SFL RESISTIVITY (UNAVERAGED)
CALD.IN   45 280 60 00 : CALIPER FROM DENSITY LOG
RHOB.G/C3 45 350 01 00 : BULK DENSITY
DRHO.G/C3 45 356 01 00 : BULK DENSITY CORRECTION
NPHI.DEC  42 890 03 00 : NEUTRON POROSITY
DPHI.DEC  45 890 12 00 : DENSITY POROSITY
~Params ----------------------------------------------------
PD  .                             GL : PERMANENT DATUM
EPD .FT                          367 : ELEVATION PERMANENT DATUM
LMF .                             KB : LOG MEASURED FROM
DAPD.FT                         13.6 : FEET ABOVE PERMANENT DATUM
DMF .                             KB : DRILLING MEASURED FROM
EKB .FT                        380.6 : KELLY BUSHING
EDF .FT                        379.6 : DRILLING FLOOR
EGL .FT                          367 : GROUND LEVEL
DATE.                       04/11/80 : RUN DATE
RUN .                              1 : RUN NUMBER
DD  .FT                         8538 : DEPTH DRILLER
DL  .FT                         8514 : DEPTH LOGGER
BLI .FT                         8511 : BOTTOM LOG INTERVAL
TLI .FT                         3831 : TOP LOG INTERVAL
CS  .IN                        9.625 : CASING SIZE
CBD .FT                         3820 : CASING BOTTOM DRILLER
CBL .FT                         3831 : CASING BOTTOM LOGGER
BS  .IN                         8.75 : BIT SIZE
BSD .FT                         8538 : BIT SIZE AT DEPTH
DFT .                            LNS : DRILLING FLUID TYPE
DFD .                            9.6 : DRILLING FLUID DENSITY
DFV .                             40 : DRILLING FLUID VISCOSITY
DFPH.                              9 : DRILLING FLUID PH
DFL .                            8.8 : DRILLING FLUID LOSS
MSS .                            PIT : MUD SAMPLE SOURCE
RMS .OHMM                       2.46 : RESISTIVITY MUD SAMPLE
MST .DEGF                         75 : MUD SAMPLE TEMPERATURE
RMF .OHMM                       1.82 : RESISTIVITY MUD FILTRATE SAMPLE
MFST.DEGF                         75 : MUD FILTRATE SAMPLE TEMPERATURE
RMC .OHMM                       3.61 : RESISTIVITY MUD CAKE
MCST.DEGF                         75 : MUD CAKE SAMPLE TEMPERATURE
MFSS.                              M : MUD FILTRATE SAMPLE SOURCE
MCSS.                              C : MUD CAKE SAMPLE SOURCE
RMB .OHMM                       0.96 : RESISTIVITY MUD AT BHT
TCS .HRS                        1800 : TIME CIRCULATED STOPPED
TLAB.HRS                        2300 : TIME LOGGER AT BOTTOM
LUN .                           8138 : LOGGING UNIT NUMBER
LUL .                        BRENHAM : LOGGING UNIT LOCATION
ENGI.                       CRAWFORD : RECORDING ENGINEER
WITN. SCHELL DRAKE CAMERON DAUGHTERY : WITNESSED BY
CLNT.                        A2DTECH : CLIENT CODE
ORIG.                    2" 5" PRINT : ORIGIN OF DATA
UWI .                 42051306040000 : UNIQUE WELL ID
DICO.         A2D Technologies, Inc. : DIGITIZING COMPANY
~Other -----------------------------------------------------
~ASCII -----------------------------------------------------
 3850.00000  -26.01500   66.44250   97.82410    6.34660    5.84110    7.63810   12.98830    1.66170    0.02340    0.57540    0.58660
 3900.00000  -30.37210   76.01650   98.57030   14.82950   14.05690   14.74680   11.07420    2.32410    0.06430    0.31140    0.20010
 3950.00000  -25.86270   95.86470  100.65570    9.36970    9.81170   12.83950   11.74200    1.54690   -0.00630    0.63800    0.71300
 4000.00000  -27.36840   70.60240   97.07610    9.11260    9.03010    9.20870   11.13350    2.46840    0.11920    0.33100    0.10990
 4050.00000  -29.47760   65.69510   95.73650   11.62520   11.26650    9.80120   11.02960    2.18030    0.08210    0.33110    0.27830
 4100.00000  -24.05870   50.52780  146.25960    6.21570    5.82100   18.53330   12.28530    1.54320    0.01370    0.65670    0.67370
 4150.00000  -25.86470   38.12120  143.12730    6.94760    5.56540  323.65440   11.02230    1.80400   -0.02640    0.60890    0.59550
 4200.00000  -32.75570   53.68420   73.38140    7.60480    5.96410   24.61820   10.65090    2.36590    0.08500    0.35070    0.15150
 4250.00000  -62.69460   49.10040  101.25210    8.15270    5.88180   12.06450    9.81300    2.19450    0.08360    0.35880    0.28010
 4300.00000  -58.80120   53.37930   99.76030    9.11270    6.61550   12.06310   10.05040    2.16990    0.08660    0.33600    0.28950
 4350.00000  -49.02160   58.55860   89.17970    7.59610    5.92250    6.37960    9.88730    2.21610    0.08730    0.36990    0.27120
 4400.00000  -52.81240   65.18850   93.80010    7.87370    5.88160    9.46740    9.90790    2.31000    0.09100    0.31050    0.21090
 4450.00000  -22.27540   91.80510   96.18480    4.60870    4.33890    5.40280   11.94360    2.45010    0.10740    0.33240    0.10810
 4500.00000  -41.43710   91.75810   96.48240    5.04510    4.21060    4.83610   10.68050    2.29030    0.06280    0.32790    0.22030
 4550.00000  -55.92210   78.27070  101.54990    4.92610    4.54380    7.74460   11.64640    2.29260    0.06130    0.37170    0.23510
 4600.00000  -20.47900   69.69960   98.86740    3.69830    3.65800    4.35910   11.94350    2.39120    0.04730    0.32390    0.13940
 4650.00000  -21.05260   73.19820   98.27150    2.81780    2.82750    3.56600   11.60180    2.43440    0.06720    0.36010    0.13000
 4700.00000  -21.34900   63.06310   97.82420    3.16560    3.11330    4.01130   10.84400    2.43220    0.10360    0.32120    0.11210
 4750.00000  -18.94740   78.60250   94.39520    3.18750    3.07040    4.45050   10.82940    2.45980    0.11850    0.33280    0.11260
 4800.00000  -18.34340   77.25350   94.54550    2.97350    2.90540    3.74290   11.56360    2.49180    0.11780    0.30250    0.09740
 4850.00000  -15.93740   94.14410   96.78030    2.64170    2.60940    3.02000   11.61350    2.58050    0.22920    0.28680    0.02640
 4900.00000  -15.93840   90.76870   98.09700    2.17430    2.02800    2.74090   11.59340    2.52610    0.15040    0.29260    0.06700
 4950.00000  -18.34490   89.86600   98.86640    1.97240    1.93200    2.55740   12.86950    2.41430    0.11850    0.34130    0.14740
 5000.00000  -17.13900   85.81300  102.74270    1.70430    1.68240    2.35340   13.22540    2.43590    0.13340    0.37870    0.13400
 5050.00000  -16.84210   82.20720   94.99150    2.05650    2.04190    2.85720   12.64010    2.49550    0.12670    0.31190    0.09560
 5100.00000  -13.53380   87.38830   97.97320    1.91830    1.93210    2.62910   12.49300    2.53010    0.14550    0.34800    0.07150
 5150.00000  -18.94570   82.43240  100.20860    1.69260    1.68250    2.35350   12.57260    2.47170    0.12460    0.31680    0.09070
 5200.00000  -14.43610   84.91100  100.35830    1.61210    1.58100    2.21130   11.80100    2.51190    0.14250    0.37040    0.08000
 5250.00000  -14.23560   93.01800  104.23080    1.38330    1.35790    2.15080   11.13350    2.47320    0.13710    0.37130    0.11300
 5300.00000  -12.33080   90.76720   98.27030    1.58980    1.58100    2.28920   10.29370    2.51190    0.12960    0.35920    0.08260
 5350.00000  -13.83460   90.09010   96.03480    1.37370    1.37680    2.45340   10.67380    2.33830    0.07690    0.44180    0.24210
 5400.00000  -12.03010   84.91160   92.31000    1.52480    1.52170    2.47040   12.26100    2.55440    0.13920    0.27580    0.06030
 5450.00000  -15.33660   83.33330   88.73320    2.20460    2.18820    2.91720   12.23990    2.53130    0.09620    0.25470    0.07420
 5500.00000  -16.83870   68.69370   93.65050    1.83980    1.81540    2.58930   11.35630    2.52290    0.13110    0.30830    0.08180
 5550.00000  -14.13530   91.66810  108.25630    1.17060    1.11890    1.59700   11.72700    2.49480    0.10220    0.37510    0.09250
 5600.00000  -16.54140   88.29120  107.21310    1.09190    1.05740    1.82150   12.17200    2.49330    0.09250    0.37440    0.09110
 5650.00000  -12.03150   91.89350  104.38080    1.29940    1.23260    1.68790   11.60840    2.53280    0.09100    0.33370    0.07240
 5700.00000  -14.28640   69.59460   91.56480    1.89180    1.79640    2.57510   11.59340    2.52460    0.06350    0.27160    0.07150
 5750.00000  -15.18800   70.71940   94.99260    1.58980    1.50610    2.36990   11.62320    2.57600    0.10880    0.32300    0.05580
 5800.00000  -15.03710   84.46020  107.06410    1.08830    0.99720    1.54260   12.98820    2.50250    0.22330    0.37300    0.06210
 5850.00000  -14.58570   82.20720  105.42520    1.14910    1.12960    1.68790   12.75080    2.48660    0.06800    0.34000    0.10190
 5900.00000  -10.67670   76.12720  100.80430    1.37680    1.35240    2.18090   11.93470    2.49600    0.05830    0.32520    0.08800
 5950.00000   -8.87220   93.01980  104.08270    1.26720    1.20220    1.91200   11.23740    2.49780    0.08580    0.37300    0.08130
 6000.00000  -12.93140   77.48000  100.20840    1.27600    1.23600    1.60800   11.54900    2.44190    0.07240    0.33230    0.12600
 6050.00000  -10.37790   78.15430   89.32910    1.71780    1.68790    2.47040   11.43770    2.51190    0.07990    0.27320    0.08530
 6100.00000   -7.21780   97.29990  100.05950    1.27600    1.22740    1.84690   11.78640    2.48290    0.10490    0.33020    0.10140
 6150.00000  -11.40340   83.10960   91.56480    1.57010    1.47980    1.73530   11.59360    2.52890    0.11110    0.38820    0.07420
 6200.00000  -12.02860   82.20720   95.00420    1.38630    1.37130    1.87270   12.55800    2.46130    0.09030    0.35790    0.11210
 6250.00000   -7.82050   77.70430   98.42030    1.39830    1.33080    1.93870   11.91990    2.49400    0.10960    0.36410    0.09210
 6300.00000   -8.27010   90.09010   96.03530    1.50880    1.40980    1.99310   11.54900    2.45160    0.07760    0.36950    0.11030
 6350.00000   -6.91670   87.38740   95.88600    1.54850    1.47980    2.10660   11.77160    2.48580    0.08630    0.32790    0.09560
 6400.00000  -11.42710   92.34230  103.33830    1.42520    1.43930    1.84690   11.53420    2.39120    0.07520    0.40920    0.16040
 6450.00000  -10.93980   89.19070   97.37710    1.49590    1.45940    1.95210   11.90500    2.47060    0.11850    0.36320    0.11190
 6500.00000  -15.93940   70.94590   88.88190    1.98620    1.88570    2.85710   12.03870    2.52830    0.25000    0.30020    0.07190
 6550.00000  -11.57890   69.14090   90.96930    1.95870    1.82810    2.48750   11.37090    2.55590    0.18390    0.30420    0.05940
 6600.00000  -12.03070   76.57880   91.16020    1.90510    1.81530    2.64760   12.14580    2.48960    0.17790    0.31540    0.09520
 6650.00000  -12.93350   87.16360   93.05490    1.86560    1.69420    2.52240   12.65430    2.53730    0.19650    0.33820    0.06570
 6700.00000   -8.14300   92.74010  101.99700    1.35470    1.24110    1.75950   13.38890    2.47220    0.15940    0.37080    0.10770
 6750.00000  -19.66990   89.37130   99.91060    1.54610    1.42530    2.09210   12.79280    2.45230    0.15670    0.33460    0.12110
 6800.00000  -19.22120   75.00000   96.33140    1.60090    1.48560    2.13600   12.60240    2.51340    0.12890    0.28740    0.11670
 6850.00000  -19.19090   65.56890   91.34110    1.95880    1.68480    2.47050   11.11860    2.67660    0.22990    0.27220    0.01930
