~Version ---------------------------------------------------
VERS. 2.0 : CWLS log ASCII Standard -VERSION 2.0
WRAP. YES : Multiple lines per depth step
~Well ------------------------------------------------------
STRT.FT                   2500.0 : START DEPTH
STOP.FT                  17250.0 : STOP DEPTH
STEP.FT                 50.00000 : STEP LENGTH
NULL.                    -999.25 : NULL VALUE
COMP. CHAMPLIN PETROLEUM COMPANY : COMPANY
WELL.    FRIAR RANCH GAS UNIT #1 : WELL
FLD .                    WILDCAT : FIELD
LOC .                            : LOCATION
CNTY.                    DE WITT : COUNTY
STAT.                      TEXAS : STATE
CTRY.   UNITED STATES OF AMERICA : COUNTRY
SRVC.                    Unknown : SERVICE COMPANY
DATE.                27-Nov-1979 : LOGDATE
API .             42123309830000 : API NUMBER
UWI .             42123309830000 : UNIQUE WELL ID
SLAT.WGS84           29.12059862 : SURFACE LATITUDE
SLON.WGS84          -97.21043026 : SURFACE LONGITUDE
~Curve Information -----------------------------------------
DEPT    .FT    : DEPTH FEET
ACED    .US/F  : DELTA TIME (ACOUSTIC) FROM SONIC LOG [DEP ADJ TO DTED]
CALDED  .IN    : CALIPER FROM DENSITY LOG [DEP ADJ TO GRRED]
CALRED  .IN    : CALIPER FROM RESISTIVITY LOG
CALWS   .IN    : CALIPER [CALDED]
CONDWS  .MMHO  : CONDUCTIVITY [1000/DRESWS]
CORRED  .G/C3  : DENSITY CORRECTION FROM DENSITY LOG
DCORWS  .G/C3  : DENSITY CORRECTION [CORRED]
DENWS   .G/C3  : BULK DENSITY [M=2.71 F=1.0] [RHOBED]
DPHILSED.V/V   : DENSITY POROSITY [M=2.71 F=1.0] FROM DENSITY LOG [DEP ADJ TO GRRED]
DPHISSED.V/V   : DENSITY POROSITY [M=2.65 F=1.0][7100-10800F M=2.68] FROM DENSITY LOG
DPOLSWS .V/V   : DENSITY POROSITY [M=2.71 F=1.0] [CAL FR DENWS]
DRESWS  .OHMM  : DEEP RESISTIVITY [ILDED]
DTED    .US/F  : DELTA TIME FROM SONIC LOG
DTWS    .US/F  : DELTA TIME [2490 DTED 15878 ACED]
GRDED   .GAPI  : GAMMA RAY FROM DENSITY LOG [DEP ADJ TO GRRED]
GRRED   .GAPI  : GAMMA RAY FROM RESISTIVITY LOG
GRWS    .GAPI  : GAMMA RAY [2490 GRDED 17231 GRRED]
ILDED   .OHMM  : INDUCTION LOG DEEP RESISTIVITY
ILMED   .OHMM  : INDUCTION LOG MEDIUM RESISTIVITY
MRESWS  .OHMM  : MEDIUM RESISTIVITY [ILMED]
NPHILSED.V/V   : NEUTRON POROSITY LIMESTONE FROM DENSITY LOG [DEP ADJ TO GRRED]
NPHISSED.V/V   : NEUTRON POROSITY SANDSTONE FROM DENSITY LOG
NPOLSWS .V/V   : NEUTRON POROSITY LIMESTONE [2490 NPOLSCAL 14943 NPHILSED] [NPHISSED WAS CONVERTED TO NPOLSCAL USING POWERLOG MODULE]
RHOBED  .G/C3  : BULK DENSITY FROM DENSITY LOG [DEP ADJ TO GRRED]
SFLED   .OHMM  : SPHERICALLY FOCUSED LOG RESISTIVITY
SPHILSED.V/V   : SONIC POROSITY FROM SONIC LOG [DEP ADJ TO DTED] [LIMESTONE M=47.5, F=189]
SPOWS   .V/V   : SONIC POROSITY [CAL FR DTWS] [LIMESTONE M=47.5, F=189]
SPRED   .MV    : SPONTANEOUS POTENTIAL FROM RESISTIVITY LOG [SHIFTS ARE REMOVED]
SPWS    .MV    : SPONTANEOUS POTENTIAL [BASELINE 0 MV] [SPRED]
SRESWS  .OHMM  : SHALLOW RESISTIVITY [SFLED]
~Params ----------------------------------------------------
PD  .                     GL : PERMANENT DATUM
EPD .FT                223.8 : ELEVATION PERMANENT DATUM
LMF .                     KB : LOG MEASURED FROM
DAPD.FT                   26 : FEET ABOVE PERMANENT DATUM
DMF .                     KB : DRILLING MEASURED FROM
EKB .FT                249.8 : KELLY BUSHING
EDF .FT                248.8 : DRILLING FLOOR
EGL .FT                223.8 : GROUND LEVEL
DATE.               11/27/79 : RUN DATE
RUN .                      1 : RUN NUMBER
DD  .FT                17252 : DEPTH DRILLER
DL  .FT                17259 : DEPTH LOGGER
BLI .FT                17258 : BOTTOM LOG INTERVAL
TLI .FT                15013 : TOP LOG INTERVAL
CS  .IN                    7 : CASING SIZE
CBD .FT                15015 : CASING BOTTOM DRILLER
CBL .FT                15018 : CASING BOTTOM LOGGER
BS  .IN                5.875 : BIT SIZE
BSD .FT                17252 : BIT SIZE AT DEPTH
DFT .               OIL FAZE : DRILLING FLUID TYPE
DFD .                   12.8 : DRILLING FLUID DENSITY
DFV .                     45 : DRILLING FLUID VISCOSITY
DFL .                   13.6 : DRILLING FLUID LOSS
TCS .HRS                 545 : TIME CIRCULATED STOPPED
TLAB.HRS                1500 : TIME LOGGER AT BOTTOM
LUN .                   8011 : LOGGING UNIT NUMBER
LUL .                   VICT : LOGGING UNIT LOCATION
ENGI.                   SHEA : RECORDING ENGINEER
WITN.            BLANKENSHIP : WITNESSED BY
CLNT.                A2DTECH : CLIENT CODE
ORIG.            1" 5" PRINT : ORIGIN OF DATA
UWI .         42123309830000 : UNIQUE WELL ID
DICO. A2D Technologies, Inc. : DIGITIZING COMPANY
~Other -----------------------------------------------------
~ASCII -----------------------------------------------------
# ...
 10900.00000    -999.25   15.57470    -999.25   15.57470  497.78490   -0.03770   -0.03770    2.51690    -999.25    0.08530    0.11290    2.00890   79.15460   79.15460   46.90140    -999.25   46.90140    2.00890    1.86080    1.86080    -999.25    0.37870    0.33540    2.51690    2.22360    -999.25    0.22370  -19.43090   -3.01500    2.22360
 10950.00000    -999.25   15.00740    -999.25   15.00740  461.93650   -0.01710   -0.01710    2.52940    -999.25    0.07520    0.10560    2.16480   82.59900   82.59900   48.69980    -999.25   48.69980    2.16480    1.96130    1.96130    -999.25    0.35810    0.31460    2.52940    2.30690    -999.25    0.24800  -25.04870   -8.70610    2.30690
 11000.00000    -999.25   16.29930    -999.25   16.29930  447.40730   -0.02550   -0.02550    2.54560    -999.25    0.06780    0.09610    2.23510   82.95820   82.95820   47.76700    -999.25   47.76700    2.23510    2.02270    2.02270    -999.25    0.34260    0.29890    2.54560    2.36690    -999.25    0.25060  -24.20640   -7.93710    2.36690
 11050.00000    -999.25   13.19440    -999.25   13.19440  433.65130   -0.01360   -0.01360    2.59670    -999.25    0.03910    0.06630    2.30600   80.44480   80.44480   53.58060    -999.25   53.58060    2.30600    2.11430    2.11430    -999.25    0.32770    0.28390    2.59670    2.72510    -999.25    0.23280  -24.49080   -8.29480    2.72510
 11100.00000    -999.25   17.04710    -999.25   17.04710  667.20040   -0.04170   -0.04170    2.49440    -999.25    0.09770    0.12610    1.49880   90.50250   90.50250   41.97010    -999.25   41.97010    1.49880    1.34500    1.34500    -999.25    0.45310    0.41140    2.49440    1.68680    -999.25    0.30390  -20.43500   -4.31230    1.68680
 11150.00000    -999.25   12.77780    -999.25   12.77780  490.29220   -0.05320   -0.05320    2.43670    -999.25    0.13080    0.15980    2.03960   82.70640   82.70640   47.38710    -999.25   47.38710    2.03960    2.05450    2.05450    -999.25    0.36180    0.31830    2.43670    2.69130    -999.25    0.24880  -25.05490   -9.00550    2.69130
 11200.00000    -999.25   13.28970    -999.25   13.28970  498.05760   -0.02780   -0.02780    2.46600    -999.25    0.11420    0.14270    2.00780   82.93190   82.93190   54.15390    -999.25   54.15390    2.00780    1.99290    1.99290    -999.25    0.31690    0.27300    2.46600    2.49000    -999.25    0.25040  -20.66260   -4.68650    2.49000
 11250.00000    -999.25   14.24450    -999.25   14.24450  480.03070    0.00990    0.00990    2.58960    -999.25    0.04080    0.07040    2.08320   82.51470   82.51470   70.03090    -999.25   70.03090    2.08320    1.89540    1.89540    -999.25    0.28020    0.23620    2.58960    2.20540    -999.25    0.24750  -21.71130   -5.80850    2.20540
 11300.00000    -999.25   13.02130    -999.25   13.02130  320.58470    0.02740    0.02740    2.59060    -999.25    0.03760    0.06980    3.11930   75.86580   75.86580   68.45310    -999.25   68.45310    3.11930    2.92310    2.92310    -999.25    0.22140    0.17770    2.59060    4.13530    -999.25    0.20050  -22.67110   -6.84160    4.13530
 11350.00000    -999.25   12.37080    -999.25   12.37080  234.47210    0.02720    0.02720    2.52180    -999.25    0.08120    0.11010    4.26490   72.10580   72.10580   50.22490    -999.25   50.22490    4.26490    3.95780    3.95780    -999.25    0.15650    0.11380    2.52180    5.12000    -999.25    0.17390  -31.56510  -15.80890    5.12000
 11400.00000    -999.25   16.11550    -999.25   16.11550  666.13380   -0.08920   -0.08920    2.34060    -999.25    0.19450    0.21600    1.50120  101.74110  101.74110   60.12630    -999.25   60.12630    1.50120    1.32950    1.32950    -999.25    0.38010    0.33690    2.34060    1.56470    -999.25    0.38330  -17.96870   -2.28580    1.56470
 11450.00000    -999.25   14.54840    -999.25   14.54840  472.72380   -0.02460   -0.02460    2.46550    -999.25    0.11630    0.14300    2.11540   93.36400   93.36400   57.82150    -999.25   57.82150    2.11540    1.59970    1.59970    -999.25    0.33190    0.28810    2.46550    1.50230    -999.25    0.32410  -19.53690   -3.92730    1.50230
 11500.00000    -999.25   13.82910    -999.25   13.82910  799.48830   -0.04460   -0.04460    2.43000    -999.25    0.14110    0.16370    1.25080  100.64910  100.64910   68.90450    -999.25   68.90450    1.25080    1.11450    1.11450    -999.25    0.35460    0.31100    2.43000    1.73100    -999.25    0.37560  -18.39370   -2.85740    1.73100
 11550.00000    -999.25   13.04200    -999.25   13.04200  769.23080   -0.02930   -0.02930    2.43360    -999.25    0.12850    0.16160    1.30000   92.45870   92.45870   56.29100    -999.25   56.29100    1.30000    1.16460    1.16460    -999.25    0.36170    0.31820    2.43360    1.41280    -999.25    0.31770  -19.02710   -3.56130    1.41280
 11600.00000    -999.25   12.36030    -999.25   12.36030 1003.10960   -0.02700   -0.02700    2.45350    -999.25    0.12190    0.15000    0.99690   97.76800   97.76800   58.42460    -999.25   58.42460    0.99690    0.89940    0.89940    -999.25    0.39480    0.35180    2.45350    1.12470    -999.25    0.35530  -17.46490   -1.93510    1.12470
 11650.00000    -999.25   13.18200    -999.25   13.18200  980.77670   -0.01800   -0.01800    2.48490    -999.25    0.10580    0.13160    1.01960  104.20310  104.20310   64.24820    -999.25   64.24820    1.01960    0.90950    0.90950    -999.25    0.33600    0.29220    2.48490    1.17470    -999.25    0.40070  -18.58040   -2.98650    1.17470
 11700.00000    -999.25   12.05520    -999.25   12.05520  333.52230    0.00010    0.00010    2.50620    -999.25    0.08810    0.11920    2.99830   84.39110   84.39110   65.54730    -999.25   65.54730    2.99830    2.70540    2.70540    -999.25    0.22290    0.17920    2.50620    3.62070    -999.25    0.26070  -20.92420   -5.26630    3.62070
 11750.00000    -999.25   10.97750    -999.25   10.97750  450.73470    0.02560    0.02560    2.57410    -999.25    0.05020    0.07950    2.21860   85.65890   85.65890   94.51660    -999.25   94.51660    2.21860    2.13140    2.13140    -999.25    0.20390    0.16040    2.57410    2.53340    -999.25    0.26970  -20.78870   -5.06670    2.53340
 11800.00000    -999.25   11.21830    -999.25   11.21830  387.35670    0.01230    0.01230    2.55400    -999.25    0.06220    0.09120    2.58160   85.26000   85.26000   98.53910    -999.25   98.53910    2.58160    2.33610    2.33610    -999.25    0.23290    0.18910    2.55400    2.71840    -999.25    0.26690  -22.35700   -6.57090    2.71840
 11850.00000    -999.25   11.07300    -999.25   11.07300  332.15970    0.00850    0.00850    2.55580    -999.25    0.06160    0.09020    3.01060   79.67600   79.67600   92.13330    -999.25   92.13330    3.01060    2.83990    2.83990    -999.25    0.20500    0.16150    2.55580    3.12270    -999.25    0.22740  -22.83070   -6.98060    3.12270
 11900.00000    -999.25   10.69420    -999.25   10.69420  399.87210    0.03940    0.03940    2.58650    -999.25    0.04030    0.07220    2.50080   84.39510   84.39510   97.30490    -999.25   97.30490    2.50080    2.12590    2.12590    -999.25    0.24660    0.20270    2.58650    2.43670    -999.25    0.26070  -21.50530   -5.59110    2.43670
 11950.00000    -999.25   10.64630    -999.25   10.64630  518.43020    0.01890    0.01890    2.57250    -999.25    0.04970    0.08040    1.92890   86.27570   86.27570   86.52860    -999.25   86.52860    1.92890    1.80650    1.80650    -999.25    0.29100    0.24700    2.57250    2.19520    -999.25    0.27400  -20.85520   -4.87690    2.19520
 12000.00000    -999.25   16.77780    -999.25   16.77780  854.48180   -0.11910   -0.11910    2.50230    -999.25    0.09120    0.12150    1.17030  100.10300  100.10300   61.41460    -999.25   61.41460    1.17030    1.05010    1.05010    -999.25    0.31370    0.26980    2.50230    1.23500    -999.25    0.37180  -17.05550   -0.97270    1.23500
 12050.00000    -999.25   15.70240    -999.25   15.70240  815.99350   -0.05430   -0.05430    2.52250    -999.25    0.08020    0.10960    1.22550   90.05550   90.05550   67.39500    -999.25   67.39500    1.22550    1.14270    1.14270    -999.25    0.29020    0.24620    2.52250    1.30290    -999.25    0.30070  -17.68790   -1.45860    1.30290
