~Version ---------------------------------------------------
VERS. 2.0 : CWLS log ASCII Standard -VERSION 2.0
WRAP. YES : Multiple lines per depth step
~Well ------------------------------------------------------
STRT.FT                   3800.0 : START DEPTH
STOP.FT                   8500.0 : STOP DEPTH
STEP.FT                 50.00000 : STEP LENGTH
NULL.                    -999.25 : NULL VALUE
COMP. CHAMPLIN PETROLEUM COMPANY : COMPANY
WELL.          WILLIAM A LANG #1 : WELL
FLD .                   GIDDINGS : FIELD
LOC .                            : LOCATION
CNTY.                   BURLESON : COUNTY
STAT.                      TEXAS : STATE
CTRY.   UNITED STATES OF AMERICA : COUNTRY
SRVC.               Schlumberger : SERVICE COMPANY
DATE.                24-Jul-1980 : LOGDATE
API .             42051308420000 : API NUMBER
UWI .             42051308420000 : UNIQUE WELL ID
SLAT.WGS84         30.3748097121 : SURFACE LATITUDE
SLON.WGS84        -96.7279740326 : SURFACE LONGITUDE
~Curve Information -----------------------------------------
DEPT    .FT    : DEPTH FEET
CALDED  .IN    : CALIPER FROM SIMULTANEOUS CNL-FDC LOG  [ADJ. TO GRRED]
CALWS   .IN    : CALIPER [CALDED]
CONDWS  .MMHO  : CONDUCTIVITY [1000/DRESWS]
DCORWS  .G/C3  : DENSITY CORRECTION [DROHED]
DENWS   .G/C3  : FORMATION BULK DENSITY [RHOBED]
DPHILSED.V/V   : DENSITY POROSITY LIMESTONE [M=2.71 F=1.0] FROM SIMULTANEOUS CNL-FDC LOG  [ADJ. TO GRRED]
DPHISSED.V/V   : DENSITY POROSITY SANDSTONE [M=2.68 F=1.0] FROM SIMULTANEOUS CNL-FDC LOG  [ADJ. TO GRRED]
DPOWS   .V/V   : DENSITY POROSITY LIMESTONE [M=2.71 F=1.0] [CALCULATED FROM DENWS]
DRESWS  .OHMM  : DEEP RESISTIVITY [ILDED]
DRHOED  .G/C3  : BULK DENSITY CORRECTION FROM SIMULTANEOUS CNL-FDC LOG  [ADJ. TO GRRED]
DTED    .US/F  : DELTA-T FROM DIL-SFL-SONIC LOG
DTWS    .US/F  : COMPRESSIONAL SONIC [DTED]
GRDED   .GAPI  : GAMMA RAY FROM SIMULTANEOUS CNL-FDC LOG [ADJ. TO GRRED]
GRRED   .GAPI  : GAMMA RAY FROM DIL-SFL-SONIC LOG
GRWS    .GAPI  : GAMMA RAY [GRRED SPL.TO GRDED @ 8483']
ILDED   .OHMM  : DEEP INDUCTION FROM DIL-SFL-SONIC LOG
ILMED   .OHMM  : MEDIUM INDUCTION FROM DIL-SFL-SONIC LOG
MRESWS  .OHMM  : MEDIUM RESISTIVTY [ILMED]
NPHILSED.V/V   : NEUTRON POROSITY LIMESTONE FROM SIMULTANEOUS CNL-FDC LOG [ADJ. TO GRRED/RHOBED]
NPHISSED.V/V   : NEUTRON POROSITY SANDSTONE FROM SIMULTANEOUS CNL-FDC LOG  [ADJ. TO GRRED/RHOBED]
NPOWS   .V/V   : NEUTRON POROSITY LIMESTONE [NPHISSED MATRIX CONVERTED TO LIMESTONE & SPL. TO NPHILSED @ 6800.5']
RHOBED  .G/C3  : BULK DENSITY FROM SIMULTANEOUS CNL-FDC LOG  [ADJ. TO GRRED]
SFLUED  .OHMM  : SHALLOW FOCUSED RESISTIVITY FROM DIL-SFL-SONIC LOG
SPHILSED.V/V   : SONIC POROSITY LIMESTONE SONIC-DENSITY POROSITY LOG[DTM=47.6.6;DTF=189]
SPRED   .MV    : SPONTANEOUS POTENTIAL FROM DIL-SFL-SONIC LOG
SPWS    .MV    : SPONTANEOUS POTENTIAL [BASELINE 0 MV, SPRED]
SRESWS  .OHMM  : SHALLOW RESISTIVITY [SFLUED]
~Params ----------------------------------------------------
PD  .                     GL : PERMANENT DATUM
EPD .FT                  372 : ELEVATION PERMANENT DATUM
LMF .                     KB : LOG MEASURED FROM
DAPD.FT                   19 : FEET ABOVE PERMANENT DATUM
DMF .                     KB : DRILLING MEASURED FROM
EKB .FT                  391 : KELLY BUSHING
EDF .FT                  390 : DRILLING FLOOR
EGL .FT                  372 : GROUND LEVEL
DATE.               07/24/80 : RUN DATE
RUN .                      1 : RUN NUMBER
DD  .FT                 8548 : DEPTH DRILLER
DL  .FT                 8547 : DEPTH LOGGER
BLI .FT                 8544 : BOTTOM LOG INTERVAL
TLI .FT                 3800 : TOP LOG INTERVAL
CS  .IN                9.625 : CASING SIZE
CBD .FT                 3804 : CASING BOTTOM DRILLER
CBL .FT                 3800 : CASING BOTTOM LOGGER
BS  .IN                 8.75 : BIT SIZE
BSD .FT                 8548 : BIT SIZE AT DEPTH
DFT .                  BEN X : DRILLING FLUID TYPE
DFD .                    9.3 : DRILLING FLUID DENSITY
DFV .                     40 : DRILLING FLUID VISCOSITY
DFPH.                     10 : DRILLING FLUID PH
DFL .                      9 : DRILLING FLUID LOSS
MSS .              CIRC TANK : MUD SAMPLE SOURCE
RMS .OHMM               1.73 : RESISTIVITY MUD SAMPLE
MST .DEGF                 75 : MUD SAMPLE TEMPERATURE
RMF .OHMM                1.3 : RESISTIVITY MUD FILTRATE SAMPLE
MFST.DEGF                 75 : MUD FILTRATE SAMPLE TEMPERATURE
RMC .OHMM                2.6 : RESISTIVITY MUD CAKE
MCST.DEGF                 75 : MUD CAKE SAMPLE TEMPERATURE
MFSS.                      M : MUD FILTRATE SAMPLE SOURCE
MCSS.                      C : MUD CAKE SAMPLE SOURCE
RMB .OHMM              0.705 : RESISTIVITY MUD AT BHT
TCS .HRS                1400 : TIME CIRCULATED STOPPED
TLAB.HRS                2100 : TIME LOGGER AT BOTTOM
LUN .                   8015 : LOGGING UNIT NUMBER
LUL .               VICTORIA : LOGGING UNIT LOCATION
ENGI.         SHEA LANGHAMER : RECORDING ENGINEER
WITN.           DAVID SCHELL : WITNESSED BY
CLNT.                A2DTECH : CLIENT CODE
ORIG.            2" 5" PRINT : ORIGIN OF DATA
UWI .         42051308420000 : UNIQUE WELL ID
DICO. A2D Technologies, Inc. : DIGITIZING COMPANY
~Other -----------------------------------------------------
DENSITY POROSITY READING APPROX 3 UNITS LOW OVER SECTION 7990'- 7950'
~ASCII -----------------------------------------------------
 3800.00000    -999.25    -999.25    -999.25    -999.25    -999.25    -999.25    -999.25    -999.25    -999.25    -999.25    -999.25    -999.25   63.78920   69.31470   69.31470    -999.25    -999.25    -999.25    -999.25    0.45510    0.41340    -999.25    -999.25    -999.25    -999.25    -999.25    -999.25
 3850.00000   13.61070   13.61070   97.84640    0.04690    2.10130    -999.25    0.34230    0.35600   10.22010    0.04690  108.80430  108.80430   52.89670   53.27780   53.27780   10.22010    9.69170    9.69170    -999.25    0.34430    0.30060    2.10130    8.73090    -999.25  -50.09010  -18.78060    8.73090
 3900.00000   14.93070   14.93070  105.57880    0.01280    2.36710    -999.25    0.18560    0.20050    9.47160    0.01280   94.95660   94.95660   74.98060   77.02940   77.02940    9.47160    9.01600    9.01600    -999.25    0.30750    0.26350    2.36710    8.50470    -999.25  -44.41270  -15.91420    8.50470
 3950.00000   13.65820   13.65820  130.73430    0.06410    1.99470    -999.25    0.40580    0.41830    7.64910    0.06410  129.31170  129.31170   75.38670   82.70790   82.70790    7.64910    6.88230    6.88230    -999.25    0.47470    0.43300    1.99470   11.72870    -999.25  -32.90940   -4.80230   11.72870
 4000.00000   15.83460   15.83460  218.90460   -0.11640    1.60740    -999.25    0.63910    0.64480    4.56820   -0.11640  149.03670  149.03670   62.29400   68.94440   68.94440    4.56820    3.58130    3.58130    -999.25    0.61060    0.56890    1.60740    3.39330    -999.25  -30.04540   -2.32960    3.39330
 4050.00000   11.49910   11.49910   74.77810    0.02670    2.28460    -999.25    0.23490    0.24880   13.37290    0.02670   97.97260   97.97260   55.54880   65.65340   65.65340   13.37290   12.04290   12.04290    -999.25    0.29430    0.25030    2.28460   11.57360    -999.25  -36.23500  -10.78180   11.57360
 4100.00000   13.09670   13.09670  281.99990    0.12320    2.23140    -999.25    0.26550    0.27990    3.54610    0.12320  103.43030  103.43030   86.72190   89.06110   89.06110    3.54610    3.40900    3.40900    -999.25    0.45820    0.41650    2.23140    4.40930    -999.25  -37.60440  -11.86760    4.40930
 4150.00000   12.09110   12.09110  226.71620   -0.04540    1.69490    -999.25    0.57320    0.59360    4.41080   -0.04540  139.06860  139.06860   66.50520   73.51510   73.51510    4.41080    5.31240    5.31240    -999.25    0.64340    0.60170    1.69490   11.69660    -999.25  -38.78300   -8.78480   11.69660
 4200.00000   11.86700   11.86700  253.47900    0.06120    2.38990    -999.25    0.17650    0.18720    3.94510    0.06120   96.22020   96.22020   98.14300  109.56120  109.56120    3.94510    4.13700    4.13700    -999.25    0.36690    0.32350    2.38990    4.27300    -999.25  -41.42330  -10.21150    4.27300
 4250.00000   10.48120   10.48120  219.73190    0.02630    2.22840    -999.25    0.26790    0.28160    4.55100    0.02630  101.58520  101.58520   59.03580   59.59840   59.59840    4.55100    5.11120    5.11120    -999.25    0.32810    0.28420    2.22840    6.10630    -999.25  -53.79930  -21.37390    6.10630
 4300.00000   10.64730   10.64730  182.87220    0.03010    2.34790    -999.25    0.19650    0.21180    5.46830    0.03010   95.54570   95.54570   77.02430   85.89070   85.89070    5.46830    6.02310    6.02310    -999.25    0.36250    0.31910    2.34790    6.34490    -999.25  -48.39350  -14.75450    6.34490
 4350.00000   10.57140   10.57140  131.95050    0.02600    2.26630    -999.25    0.24570    0.25950    7.57860    0.02600   92.56970   92.56970   50.11110   64.37010   64.37010    7.57860    9.03480    9.03480    -999.25    0.31990    0.27600    2.26630   10.39700    -999.25  -50.35530  -15.50270   10.39700
 4400.00000   10.42380   10.42380  177.53790    0.03360    2.35160    -999.25    0.19430    0.20960    5.63260    0.03360   93.50590   93.50590   72.74500   76.42160   76.42160    5.63260    6.27040    6.27040    -999.25    0.31980    0.27590    2.35160    7.12910    -999.25  -44.35720   -8.29100    7.12910
 4450.00000    9.42130    9.42130  228.57140    0.01850    2.31820    -999.25    0.21610    0.22910    4.37500    0.01850   81.94720   81.94720   51.98950   58.33220   58.33220    4.37500    5.12420    5.12420    -999.25    0.27770    0.23370    2.31820   11.53570    -999.25  -46.12220  -10.46960   11.53570
 4500.00000    9.00300    9.00300  257.08920    0.02450    2.21020    -999.25    0.27890    0.29230    3.88970    0.02450   99.61650   99.61650   72.73750   70.78800   70.78800    3.88970    4.51650    4.51650    -999.25    0.35480    0.31120    2.21020    6.37880    -999.25  -54.40800  -19.60160    6.37880
 4550.00000    9.03790    9.03790  226.28530    0.01350    2.28570    -999.25    0.23560    0.24810    4.41920    0.01350   94.68460   94.68460   80.31260   92.76310   92.76310    4.41920    5.17620    5.17620    -999.25    0.31440    0.27040    2.28570    5.62930    -999.25  -48.12990  -14.16970    5.62930
 4600.00000   10.78380   10.78380  359.29860    0.03730    2.36280    -999.25    0.19030    0.20300    2.78320    0.03730  103.28200  103.28200   94.08470   99.81740   99.81740    2.78320    2.82530    2.82530    -999.25    0.34260    0.29890    2.36280    2.88650    -999.25  -33.36710   -0.25310    2.88650
 4650.00000   10.49870   10.49870  330.85190    0.11110    2.32190    -999.25    0.21930    0.22700    3.02250    0.11110   97.55660   97.55660   90.71830   96.85530   96.85530    3.02250    3.32990    3.32990    -999.25    0.34040    0.29670    2.32190    4.17270    -999.25  -43.22650  -10.95870    4.17270
 4700.00000   10.55280   10.55280  335.07570    0.03130    2.38100    -999.25    0.17780    0.19240    2.98440    0.03130   97.20850   97.20850   88.45000   97.91420   97.91420    2.98440    3.13540    3.13540    -999.25    0.32170    0.27780    2.38100    3.76730    -999.25  -37.07370   -5.65210    3.76730
 4750.00000   10.52080   10.52080  330.81910    0.03900    2.42410    -999.25    0.15330    0.16720    3.02280    0.03900   95.59440   95.59440   86.76340   97.00700   97.00700    3.02280    3.15920    3.15920    -999.25    0.29610    0.25210    2.42410    3.97070    -999.25  -37.55530   -6.97990    3.97070
 4800.00000   10.39730   10.39730  321.86420    0.01600    2.41080    -999.25    0.16070    0.17500    3.10690    0.01600   88.09250   88.09250   81.30810   92.02000   92.02000    3.10690    3.23730    3.23730    -999.25    0.27930    0.23530    2.41080    4.06400    -999.25  -37.65890   -7.92970    4.06400
 4850.00000   10.04140   10.04140  447.70770    0.11870    2.36210    -999.25    0.18760    0.20350    2.23360    0.11870   98.92760   98.92760   87.94660   98.19870   98.19870    2.23360    2.32220    2.32220    -999.25    0.35640    0.31280    2.36210    2.56660    -999.25  -31.58530   -2.70230    2.56660
 4900.00000   10.40790   10.40790  417.79820    0.15850    2.38400    -999.25    0.17600    0.19060    2.39350    0.15850   96.16070   96.16070   85.31670  106.73810  106.73810    2.39350    2.48140    2.48140    -999.25    0.34560    0.30190    2.38400    2.77510    -999.25  -31.31870   -3.28190    2.77510
 4950.00000   12.33620   12.33620  597.37160    0.08800    2.23710    -999.25    0.26360    0.27650    1.67400    0.08800  104.54620  104.54620   89.35950  103.73810  103.73810    1.67400    1.72300    1.72300    -999.25    0.38460    0.34140    2.23710    1.96490    -999.25  -29.08240   -1.89180    1.96490
 5000.00000   13.83700   13.83700  607.38580    0.03780    2.38830    -999.25    0.17480    0.18810    1.64640    0.03780  104.59890  104.59890   91.17730   98.85690   98.85690    1.64640    1.69620    1.69620    -999.25    0.37800    0.33470    2.38830    1.94650    -999.25  -29.03150   -1.89400    1.94650
 5050.00000   14.62240   14.62240  502.23490    0.09430    2.45030    -999.25    0.13090    0.15190    1.99110    0.09430   97.20010   97.20010   87.00410   92.26390   92.26390    1.99110    2.04380    2.04380    -999.25    0.33390    0.29010    2.45030    2.25740    -999.25  -30.60210   -2.58670    2.25740
