~Version ---------------------------------------------------
VERS. 2.0 : CWLS log ASCII Standard -VERSION 2.0
WRAP.  NO : ONE LINE PER DEPTH STEP
~Well ------------------------------------------------------
STRT.F                   300.0 : START DEPTH
STOP.F                  8000.0 : STOP DEPTH
STEP.F                50.00000 : STEP LENGTH
NULL.                  -999.25 : NULL VALUE
COMP. AMOCO PRODUCTION COMPANY : COMPANY
WELL.      DON DILLON ET AL #2 : WELL
FLD .               STONE CITY : FIELD
LOC .                          : LOCATION
CNTY.                 BURLESON : COUNTY
STAT.                    TEXAS : STATE
CTRY. UNITED STATES OF AMERICA : COUNTRY
SRVC.             Schlumberger : SERVICE COMPANY
DATE.              24-Aug-1981 : LOGDATE
API .           42051317780000 : API NUMBER
UWI .           42051317780000 : UNIQUE WELL ID
SLAT.WGS84       30.6071406045 : SURFACE LATITUDE
SLON.WGS84      -96.5577066683 : SURFACE LONGITUDE
~Curve Information -----------------------------------------
DEPT.F                 : 
SPR .MV   07 010 01 00 : SPONTANEOUS POTENTIAL FROM RES. LOG
CILD.MMHO 07 110 46 00 : CONDUCTIVITY INDUCTION LOG DEEP
ILD .OHMM 07 120 46 00 : INDUCTION LOG DEEP
ASFL.OHMM 07 221 06 00 : AMPLIFIED SHALLOW FOCUSED LOG RESISTIVITY
GRD .GAPI 45 310 01 00 : GAMMA RAY FROM DENSITY LOG
CALD.IN   45 280 60 00 : CALIPER FROM DENSITY LOG
NPHI.DEC  42 890 01 00 : NEUTRON POROSITY LIMESTONE
DPHI.DEC  45 890 10 00 : DENSITY POROSITY LIMESTONE
RHOB.G/C3 45 350 01 00 : BULK DENSITY
DRHO.G/C3 45 356 01 00 : DENSITY CORRECTION
~Params ----------------------------------------------------
PD  .                      GL : PERMANENT DATUM
EPD .F                  274.7 : ELEVATION PERMANENT DATUM
LMF .                      KB : LOG MEASURED FROM
DAPD.F                   17.9 : FEET ABOVE PERMANENT DATUM
DMF .                      KB : DRILLING MEASURED FROM
EKB .F                  292.6 : KELLING BUSHING
EDF .F                  291.6 : DRILLING FLOOR
EGL .F                  274.7 : GROUND LEVEL
DATE.             24-AUG-1981 : RUN DATE
RUN .                       1 : RUN NUMBER
DD  .F                   8057 : DEPTH DRILLER
DL  .F                   8046 : DEPTH LOGGER
BLI .F                   8040 : BOTTOM LOG INTERVAL
TLI .F                   1203 : TOP LOG INTERVAL
CS  .IN                 8.625 : CASING SIZE
CBD .F                   1203 : CASING BOTTOM DRILLER
CBL .F                   1203 : CASING BOTTOM LOGGER
BS  .IN                 7.875 : BIT SIZE
BSD .F                   8057 : BIT SIZE AT DEPTH
DFT .                     LNS : DRILLING FLUID TYPE
DFD .                       9 : DRILLING FLUID DENSITY
DFV .                      42 : DRILLING FLUID VISCOSITY
DFPH.                       9 : DRILLING FLUID PH
DFL .                       7 : DRILLING FLUID LOSS
MSS .                    TANK : MUD SAMPLE SOURCE
RMS .OHMM                1.81 : RESISTIVITY MUD SAMPLE
MST .F                    115 : MUD SAMPLE TEMPERATURE
RMF .OHMM                0.91 : RESISTIVITY MUD FILTRATE SAMPLE
MFST.F                    115 : MUD FILTRATE SAMPLE TEMPERATURE
RMC .OHMM               1.815 : RESISTIVITY MUD CAKE
MCST.F                    115 : MUD CAKE SAMPLE TEMPERATURE
MFSS.                       M : MUD FILTRATE SAMPLE SOURCE
MCSS.                       C : MUD CAKE SAMPLE SOURCE
RMB .OHMM               0.802 : RESISTIVITY MUD AT BHT
TCS .HRS                 1530 : TIME CURCULATED STOPPED
TLAB.HRS                 2030 : TIME LOGGER AT BOTTOM
LUN .                    8696 : LOGGING UNIT NUMBER
LUL .                 BRENHAM : LOGGING UNIT LOCATION
ENGI.           WYATT, CHURCH : RECORDING ENGINEER
WITN.                J. ALTIC : WITNESSED BY
CLNT.                 A2DTECH : CLIENT CODE
ORIG.            1", 5" PRINT : ORIGIN OF DATA
UWI .          42051317780000 : UNIQUE WELL ID
DICO.  A2D Technologies, Inc. : DIGITIZING COMPANY
R1  . POROSITY WITH LIMESTONE : REMARKS 1
~Other -----------------------------------------------------
~ASCII -----------------------------------------------------
# ...
 3600.00000   -5.29240  340.10960    3.09960    3.58480   69.91490    8.71200    0.29820    0.26510    2.26530    0.10160
 3650.00000  -24.36270  169.44730    5.49360    6.35170   69.15750    8.14060    0.30360    0.24970    2.29540    0.06250
 3700.00000  -31.84220  277.19250    3.64650    7.35340   50.69840    8.33160    0.29790    0.33690    2.13730    0.00980
 3750.00000  -28.66280  271.55490    3.60150    5.68630   71.25570    8.12820    0.32190    0.29710    2.20220    0.02180
 3800.00000   -0.93040  441.66430    2.20510    2.44000   87.75570    9.07140    0.27530    0.19530    2.38900    0.06300
 3850.00000   -0.19570  476.37800    2.23570    2.28480   89.32440    9.02940    0.30040    0.18470    2.39670    0.04250
 3900.00000   -1.16540  429.93660    2.15830    2.36870   82.37900    9.25660    0.29980    0.20870    2.35440    0.04260
 3950.00000   -0.91600  421.75200    2.35160    2.39290   89.85610    9.73920    0.30870    0.17280    2.42280    0.06410
 4000.00000   -1.02310  429.79180    2.41040    2.47480   92.31850    9.08820    0.27150    0.16010    2.43720    0.05750
 4050.00000    0.14980  424.63440    2.36380    2.42210   86.13350    9.48100    0.28670    0.18290    2.40940    0.01920
 4100.00000   -1.64680  432.68090    2.26240    2.39390   83.90770    9.72080    0.28570    0.14780    2.46020    0.05210
 4150.00000   -2.17530  521.09990    1.98790    2.02440   93.97470   10.11510    0.26010    0.15860    2.44880    0.03990
 4200.00000   -1.10610  669.43720    1.45580    1.66990   95.00470   10.35910    0.30490    0.13040    2.49290    0.09880
 4250.00000   -1.56930  523.62210    1.83790    2.07400   93.35140   10.10880    0.28800    0.16310    2.43430    0.07000
 4300.00000   -0.53820  677.70120    1.47190    1.65530   97.94250   10.35800    0.31330    0.17610    2.41000    0.06220
 4350.00000   -2.35500  701.69590    1.51480    1.61240   94.01690   10.12300    0.32730    0.16930    2.42450    0.08330
 4400.00000   -0.21480  743.86460    1.50920    1.56030   98.83970    9.67590    0.33990    0.19260    2.39450    0.09850
 4450.00000   -2.47180  700.78740    1.50090    1.60800  113.21980    9.92330    0.29970    0.18210    2.41000    0.08190
 4500.00000   -1.33720  686.11310    1.54160    1.60240   98.43710   10.10610    0.31950    0.18210    2.40470    0.08640
 4550.00000   -0.72900  823.81890    1.28410    1.31180   96.77060   10.05410    0.34470    0.15290    2.45300    0.08470
 4600.00000   -0.62670 1240.95690    0.92280    0.96040   82.84130    9.95430    0.33010    0.21140    2.35580    0.04760
 4650.00000   -4.32120  358.83010    2.80070    2.90420   70.13890    9.10780    0.24150    0.11330    2.51660    0.06080
 4700.00000   -0.04240  594.48820    1.64390    1.93980   71.59820    8.74630    0.31010    0.11160    2.51600    0.04970
 4750.00000   -0.24950  570.86610    1.82760    2.17520   68.63110    8.94170    0.14550    0.11590    2.52470    0.13930
 4800.00000   -1.65740  671.36370    1.60810    1.71790   76.60580    9.56750    0.29380    0.13770    2.48060    0.06410
 4850.00000   -2.67080  694.88190    1.38770    1.67170   90.28990    9.50480    0.30650    0.13700    2.48090    0.07650
 4900.00000   -0.93100  709.67620    1.50120    1.62440   87.15590    9.28000    0.31200    0.15870    2.44210    0.03210
 4950.00000    0.84700  986.61420    1.19010    1.22300   89.10310    9.41110    0.33930    0.15610    2.45220    0.05090
 5000.00000    0.33990  720.47240    1.53430    1.60740   73.85300    9.46810    0.24390    0.13860    2.47490    0.15630
 5050.00000   -0.86490  987.96930    1.24840    1.26450   86.88270    9.87370    0.33110    0.14800    2.45600    0.06630
 5100.00000    0.03130 1051.18120    1.05660    1.15520   86.00260    9.72420    0.37170    0.14010    2.47320    0.07780
 5150.00000   -5.85420  704.72440    1.61640    1.68700   62.06640    8.90380    0.25000    0.09790    2.55410    0.02520
 5200.00000   -4.06340  634.12550    1.55620    1.85590   76.94270    8.67820    0.28350    0.12210    2.50920    0.05310
 5250.00000   -2.08930  786.74540    1.37680    1.40750   80.51780    8.87450    0.28460    0.14210    2.46770    0.06760
 5300.00000   -1.32230  719.55210    1.58720    1.52810   86.42220    9.06870    0.26360    0.16120    2.44210    0.06070
 5350.00000   -0.51300  956.69290    0.93900    1.00590  100.66150    8.72580    0.37450    0.23010    2.32110    0.08990
 5400.00000    0.07830  790.72310    1.18200    1.22990   89.25450    9.23800    0.27920    0.18090    2.40570    0.11110
 5450.00000   -3.61950  779.52760    1.43100    1.41650   86.85180    9.56550    0.30680    0.20270    2.36230    0.14610
 5500.00000   -1.56530  987.66410    1.03730    1.04410   98.28650   10.55790    0.33750    0.21510    2.34470    0.10160
 5550.00000   -0.66280  874.57820    1.30840    1.27080  110.85370   10.65870    0.29470    0.15360    2.46100    0.12930
 5600.00000   -2.94330  682.19020    1.56710    1.62350  103.52750   10.31620    0.26600    0.11370    2.50930    0.08340
 5650.00000    0.40040  649.60630    1.70650    1.73690   94.46070    9.66730    0.25350    0.11070    2.52140    0.04450
 5700.00000   -0.29700  648.43370    1.61340    1.76150   90.09540    9.42140    0.27390    0.11480    2.51050    0.09550
 5750.00000   -0.78430  673.85830    1.53080    1.75000   91.11330    9.75990    0.24740    0.10950    2.52370    0.07570
 5800.00000   -0.24070  742.58940    1.37790    1.58980   91.30710   10.14650    0.25310    0.10970    2.53100    0.08670
 5850.00000    0.32890  767.71660    1.53130    1.59180   97.35760    9.48820    0.26040    0.08790    2.57070    0.17560
 5900.00000   -0.03510  963.75490    1.21530    1.25610   94.40150    8.86600    0.33590    0.16670    2.42270    0.08590
 5950.00000   -0.15680  797.63780    1.34100    1.54500   90.48580    8.98900    0.32610    0.14630    2.46660    0.13350
 6000.00000    0.30950  894.52330    1.23610    1.38840   87.69850    9.75480    0.28810    0.14770    2.46420    0.07230
 6050.00000   -2.52470  757.39170    1.40980    1.60350   78.29470    9.44120    0.27450    0.12520    2.49810    0.07860
 6100.00000   -0.57490  427.95690    2.36280    2.53510   59.61480    8.74280    0.17800    0.08970    2.56480    0.00840
 6150.00000   -1.31820  355.64300    2.90610    3.16130   52.89460    8.56190    0.13820    0.07750    2.58600    0.02460
 6200.00000   -2.18830  349.38390    2.85460    3.22850   65.74830    8.55880    0.13420    0.07890    2.58020    0.04630
 6250.00000   -1.79060  417.14890    2.50180    2.81210   80.71540    8.51960    0.18750    0.10320    2.53540    0.01730
 6300.00000    0.48970  494.56530    2.10710    2.34300   84.85370    8.54600    0.18400    0.11010    2.53410   -0.00340
 6350.00000    1.42820  382.56290    2.55770    2.98480   70.05610    8.57710    0.16350    0.10150    2.54420    0.00990
 6400.00000   -4.27750  368.32500    2.74550    3.27560   88.96860    8.55880    0.18960    0.10050    2.56110    0.01970
 6450.00000   -1.99860  421.25980    2.25800    2.80120   83.43220    8.70210    0.25360    0.07540    2.59530    0.16610
 6500.00000    0.08970  492.34340    2.08890    2.64990   59.26210    8.73690    0.15470    0.07050    2.59960    0.01850
 6550.00000   -2.37340  679.13390    1.41140    1.88280   83.97980    8.79200    0.26130    0.09430    2.56420    0.12190
 6600.00000   -3.80790  736.22050    1.37770    1.70880  100.74330    9.19600    0.20730    0.10470    2.53830    0.05440
 6650.00000   -2.61270  571.85040    1.69250    2.14990   94.63770    9.11050    0.25520    0.10140    2.54870    0.09290
 6700.00000   -2.30160  558.78050    1.91150    2.30000   84.93630    8.80840    0.23630    0.07470    2.58170    0.08000
 6750.00000   -1.16930  603.01840    1.67550    2.11120   85.83620    8.93240    0.25870    0.08450    2.57820    0.08550
 6800.00000   -0.81400  598.20870    1.63780    2.06390   84.72790    9.10250    0.25360    0.10410    2.53380    0.08580
 6850.00000   -0.81890  655.24930    1.58370    1.95010   88.02590    9.30550    0.27260    0.08640    2.56590    0.10620
