~Version ---------------------------------------------------
VERS. 2.0 : CWLS log ASCII Standard -VERSION 2.0
WRAP. YES : Multiple lines per depth step
~Well ------------------------------------------------------
STRT.FT                   3800.0 : START DEPTH
STOP.FT                   8500.0 : STOP DEPTH
STEP.FT                 50.00000 : STEP LENGTH
NULL.                    -999.25 : NULL VALUE
COMP. CHAMPLIN PETROLEUM COMPANY : COMPANY
WELL.     MARYANN ZGABAY UNIT #1 : WELL
FLD .                   GIDDINGS : FIELD
LOC .                            : LOCATION
CNTY.                   BURLESON : COUNTY
STAT.                      TEXAS : STATE
CTRY.   UNITED STATES OF AMERICA : COUNTRY
SRVC.               Schlumberger : SERVICE COMPANY
DATE.                22-Jun-1980 : LOGDATE
API .             42051306560000 : API NUMBER
UWI .             42051306560000 : UNIQUE WELL ID
SLAT.WGS84         30.3487905786 : SURFACE LATITUDE
SLON.WGS84        -96.7442146113 : SURFACE LONGITUDE
~Curve Information -----------------------------------------
DEPT    .FT    : Depth Curve
CALDED  .IN    : CALIPER FROM COMPENSATED NEUTRON-FORMATION DENSITY LOG
CALSED  .IN    : CALIPER FROM SONIC-DENSITY LOG
CALWS   .IN    : CALIPER [CALDED]
CONDWS  .MMHO  : CONDUCTIVITY [1000/DRESWS]
DCORWS  .G/C3  : DENSITY CORRECTION [DRHOED]
DENWS   .G/C3  : BULK DENSITY [RHOBED]
DPHI1ED .V/V   : DENSITY POROSITY FROM SONIC-DENSITY LOG
DPHILSED.V/V   : DENSITY POROSITY LIMESTONE [M=2.71 F=1.0] FROM COMPENSATED NEUTRON-FORMATION DENSITY LOG
DPHISSED.V/V   : DENSITY POROSITY SANDSTONE [M=2.65 F=1.0] FROM COMPENSATED NEUTRON-FORMATION DENSITY LOG
DPOWS   .V/V   : DENSITY POROSITY [DPHISSED  CONVERTED TO LIMESTONE (M=2.71 F=1.0),SPL. TO DPHILSED @ 5602.5']
DRESWS  .OHMM  : DEEP RESISTIVITY [ILDED]
DRHOED  .G/C3  : BULK DENSITY CORRECTION  FROM COMPENSATED NEUTRON-FORMATION DENSITY LOG
DTED    .US/F  : SONIC FROM DUAL INDUCTION-SFL-SONIC LOG [ADJ. TO GRDED]
DTWS    .US/F  : COMPRESSIONAL SONIC [DTED]
GRDED   .GAPI  : GAMMA RAY  FROM COMPENSATED NEUTRON-FORMATION DENSITY LOG [GRDED IN CASING FROM 3781' - 3796']
GRRED   .GAPI  : GAMMA RAY FROM DUAL INDUCTION-SFL-SONIC LOG [ADJ. TO GRDED] [GRRED RESCALED TO 0-150 FROM 0-75]
GRSED   .GAPI  : GAMMA RAY FROM SONIC-DENSITY LOG
GRWS    .G/C3  : GAMMA RAY [GRRED SPL. TO GRDED @ 3783']
ILDED   .OHMM  : DEEP INDUCTION FROM DUAL INDUCTION-SFL-SONIC LOG [ADJ. TO GRDED]
ILMED   .OHMM  : MEDIUM INDUCTION FROM DUAL INDUCTION-SFL-SONIC LOG [ADJ. TO GRDED]
MRESWS  .OHMM  : MEDIUM RESISTIVITY [ILMED]
NPHILSED.V/V   : NEUTRON POROSITY LIMESTONE  FROM COMPENSATED NEUTRON-FORMATION DENSITY LOG
NPHISSED.V/V   : NEUTRON POROSITY SANDSTONE  FROM COMPENSATED NEUTRON-FORMATION DENSITY LOG [NPHISSED IN CASING FROM 3781' - 3796']
NPOWS   .V/V   : NEUTRON POROSITY LIMESTONE[NPHISSED MATRIX CONVERTED TO LIMESTONE SPL. TO NPHILSED @ 5600']
RHOBED  .G/C3  : BULK DENSITY FROM COMPENSATED NEUTRON-FORMATION DENSITY LOG
SFLUED  .OHMM  : SHALLOW FOUCUSED FROM DUAL INDUCTION-SFL-SONIC [ADJ. TO GRDED]
SPHIED  .V/V   : SONIC POROSITY FROM SONIC-DENSITY LOG [ADJ. TO DTED]
SPOWS   .V/V   : SONIC POROSITY [ SPHI SPL. TO SPHIED FROM 7501.5'-8116.5']
SPRED   .MV    : SPOTANEOUS POTENTIAL FROM DUAL INDUCTION-SFL-SONIC [ADJ. TO GRDED]
SPWS    .MV    : SPONTANEOUS POTENTIAL [BASELINE 0 MV, SPRED]
SRESWS  .OHMM  : SHALLOW RESISTIVITY [SFLUED]
~Params ----------------------------------------------------
PD  .                     GL : PERMANENT DATUM
EPD .FT                  279 : ELEVATION PERMANENT DATUM
LMF .                     KB : LOG MEASURED FROM
DAPD.FT                 16.3 : FEET ABOVE PERMANENT DATUM
DMF .                     KB : DRILLING MEASURED FROM
EKB .FT                295.3 : KELLY BUSHING
EDF .FT                294.3 : DRILLING FLOOR
EGL .FT                  279 : GROUND LEVEL
DATE.                6-22-80 : RUN DATE
RUN .                      1 : RUN NUMBER
DD  .FT                 8522 : DEPTH DRILLER
DL  .FT                 8523 : DEPTH LOGGER
BLI .FT                 8516 : BOTTOM LOG INTERVAL
TLI .FT                 3796 : TOP LOG INTERVAL
CS  .IN                9.625 : CASING SIZE
CBD .FT                 3784 : CASING BOTTOM DRILLER
CBL .FT                 3796 : CASING BOTTOM LOGGER
BS  .IN                 8.75 : BIT SIZE
BSD .FT                 8522 : BIT SIZE AT DEPTH
DFT .                 BEN-EX : DRILLING FLUID TYPE
DFD .                    9.5 : DRILLING FLUID DENSITY
DFV .                     44 : DRILLING FLUID VISCOSITY
DFPH.                    9.5 : DRILLING FLUID PH
DFL .                    6.6 : DRILLING FLUID LOSS
MSS .               MUD TANK : MUD SAMPLE SOURCE
RMS .OHMM               2.06 : RESISTIVITY MUD SAMPLE
MST .DEGF                 94 : MUD SAMPLE TEMPERATURE
RMF .OHMM               1.52 : RESISTIVITY MUD FILTRATE SAMPLE
MFST.DEGF                 94 : MUD FILTRATE SAMPLE TEMPERATURE
RMC .OHMM               3.04 : RESISTIVITY MUD CAKE
MCST.DEGF                 94 : MUD CAKE SAMPLE TEMPERATURE
MFSS.                      C : MUD FILTRATE SAMPLE SOURCE
MCSS.                      C : MUD CAKE SAMPLE SOURCE
RMB .OHMM              0.988 : RESISTIVITY MUD AT BHT
TCS .HRS                 300 : TIME CIRCULATED STOPPED
TLAB.HRS                1000 : TIME LOGGER AT BOTTOM
LUN .                   7750 : LOGGING UNIT NUMBER
LUL .                BRENHAM : LOGGING UNIT LOCATION
ENGI.            KRONEBITTER : RECORDING ENGINEER
WITN.             PRESTRIDGE : WITNESSED BY
CLNT.                A2DTECH : CLIENT CODE
ORIG.          1" 2.5" PRINT : ORIGIN OF DATA
UWI .         42051306560000 : UNIQUE WELL ID
DICO. A2D Technologies, Inc. : DIGITIZING COMPANY
~Other -----------------------------------------------------
~ASCII -----------------------------------------------------
# ...
 7250.00000    9.90690    -999.25    9.90690  380.66240    0.01940    2.58480    -999.25    0.07770    -999.25    0.07770    2.62700    0.01940   84.65990   84.65990   73.82070   82.77200    -999.25   73.82070    2.62700    2.65440    2.65440    0.19020    -999.25    0.19020    2.58480    5.33310    -999.25    0.24390   74.86240   -2.77870    5.33310
 7300.00000   12.51010    -999.25   12.51010  534.45930    0.17920    2.57360    -999.25    0.07920    -999.25    0.07920    1.87100    0.17920   89.86580   89.86580   97.17420   99.39820    -999.25   97.17420    1.87100    1.86010    1.86010    0.24880    -999.25    0.24880    2.57360    3.77710    -999.25    0.28160   67.89940  -11.11450    3.77710
 7350.00000   12.91170    -999.25   12.91170  556.71540    0.14550    2.55850    -999.25    0.09090    -999.25    0.09090    1.79630    0.14550   91.63070   91.63070   97.12420   94.63520    -999.25   97.12420    1.79630    1.77750    1.77750    0.23040    -999.25    0.23040    2.55850    3.77750    -999.25    0.29440   71.73530   -8.65140    3.77750
 7400.00000   11.32050    -999.25   11.32050  455.43560    0.08040    2.55060    -999.25    0.09640    -999.25    0.09640    2.19570    0.08040   88.03530   88.03530   95.13270   86.63700    -999.25   95.13270    2.19570    2.13680    2.13680    0.26570    -999.25    0.26570    2.55060    4.22530    -999.25    0.26840   76.75090   -5.00860    4.22530
 7450.00000   12.97060    -999.25   12.97060  516.76920    0.13350    2.56100    -999.25    0.08930    -999.25    0.08930    1.93510    0.13350   92.50550   92.50550  103.31910   87.43120    -999.25  103.31910    1.93510    1.90200    1.90200    0.28180    -999.25    0.28180    2.56100    3.83600    -999.25    0.30080   73.27480   -9.85750    3.83600
 7500.00000   10.04960    -999.25   10.04960  327.17160    0.00660    2.58630    -999.25    0.07200    -999.25    0.07200    3.05650    0.00660   80.19620   80.19620   74.28880   68.70860    -999.25   74.28880    3.05650    3.02150    3.02150    0.18290    -999.25    0.18290    2.58630    4.36650    -999.25    0.21160   82.25950   -2.87470    4.36650
 7550.00000   11.27940   11.36870   11.27940  110.90660    0.22640    2.44790    0.18260    0.08080    -999.25    0.08080    9.01660    0.22640   61.40250   61.40250   24.77880   23.26640   24.99190   24.77880    9.01660    9.21450    9.21450    0.06320    -999.25    0.06320    2.44790   15.82030    0.06900    0.06900   70.27720  -17.54040   15.82030
 7600.00000   10.94120   11.00490   10.94120  144.27100   -0.00960    2.61610    0.05190    0.06190    -999.25    0.06190    6.93140   -0.00960   65.28440   65.28440   31.41600   32.10380   31.34190   31.41600    6.93140    7.03860    7.03860    0.06790    -999.25    0.06790    2.61610    8.59700    0.10390    0.10390   81.80180   -8.69910    8.59700
 7650.00000   12.01460   12.05700   12.01460  163.28400    0.10180    2.08850    0.36130    0.36610    -999.25    0.36610    6.12430    0.10180   70.82300   70.82300   41.81100   40.65960   40.29780   41.81100    6.12430    5.60520    5.60520    0.04990    -999.25    0.04990    2.08850    5.04790    0.11650    0.11650   84.31660   -8.86770    5.04790
 7700.00000   10.35300   10.39530   10.35300  102.34370   -0.00070    2.64730    0.03830    0.04400    -999.25    0.04400    9.77100   -0.00070   60.48780   60.48780   28.31860   24.12940   26.10470   28.31860    9.77100    9.34500    9.34500    0.04760    -999.25    0.04760    2.64730   12.66820    0.06820    0.06820   88.36070   -7.50690   12.66820
 7750.00000   10.44120   10.48380   10.44120  111.63700   -0.00070    2.59740    0.07340    0.07770    -999.25    0.07770    8.95760   -0.00070   61.55250   61.55250   31.02220   28.14860   31.79030   31.02220    8.95760    8.78180    8.78180    0.05300    -999.25    0.05300    2.59740   10.28780    0.07450    0.07450   88.37000  -10.18100   10.28780
 7800.00000   10.91180   10.99070   10.91180  233.23620    0.00140    2.62500    0.05490    0.05710    -999.25    0.05710    4.28750    0.00140   70.36440   70.36440   56.93550   45.10260   54.10710   56.93550    4.28750    4.37170    4.37170    0.09040    -999.25    0.09040    2.62500    6.24770    0.13780    0.13780   99.08730   -1.25350    6.24770
 7850.00000   10.01470   10.05590   10.01470  185.19890    0.00890    2.56250    0.08110    0.08390    -999.25    0.08390    5.39960    0.00890   69.33440   69.33440   43.44060   38.89300   33.50750   43.44060    5.39960    4.86880    4.86880    0.13440    -999.25    0.13440    2.56250    6.06360    0.14010    0.14010   88.74970  -12.33190    6.06360
 7900.00000    9.58260    9.58540    9.58260  105.29530    0.00520    2.63310    0.05250    0.04640    -999.25    0.04640    9.49710    0.00520   65.56890   65.56890   51.10590   42.85880   48.94780   51.10590    9.49710    9.61020    9.61020    0.06670    -999.25    0.06670    2.63310   14.15400    0.08430    0.08430   90.94740  -10.87510   14.15400
 7950.00000    9.38240    9.46600    9.38240   91.48540    0.00220    2.59650    0.06320    0.06560    -999.25    0.06560   10.93070    0.00220   67.00640   67.00640   63.50060   62.78880   60.89550   63.50060   10.93070   10.05420   10.05420    0.08860    -999.25    0.08860    2.59650   10.71030    0.08670    0.08670   92.26800  -10.29520   10.71030
 8000.00000    9.35100    9.25230    9.35100   64.56070   -0.00190    2.56200    0.08340    0.08840    -999.25    0.08840   15.48930   -0.00190   64.96660   64.96660   44.69030   40.20540   47.91120   44.69030   15.48930   16.35380   16.35380    0.06990    -999.25    0.06990    2.56200   18.62910    0.08670    0.08670   72.03110  -31.27300   18.62910
 8050.00000    9.32360    9.27060    9.32360   50.70510   -0.00370    2.59470    0.06720    0.07140    -999.25    0.07140   19.72190   -0.00370   63.19260   63.19260   54.86730   50.03760   52.57080   54.86730   19.72190   15.09930   15.09930    0.07140    -999.25    0.07140    2.59470   39.90870    0.07480    0.07480   84.46190  -19.58310   39.90870
 8100.00000    9.23530    9.24470    9.23530   40.18730   -0.00520    2.57410    0.07370    0.07500    -999.25    0.07500   24.88350   -0.00520   66.64430   66.64430   38.49560   38.51240   36.71450   38.49560   24.88350   24.24670   24.24670    0.07430    -999.25    0.07430    2.57410   20.57260    0.10740    0.10740   74.81000  -31.76370   20.57260
 8150.00000   14.32350   12.92770   14.32350  354.75460    0.13350    2.31740    0.24550    0.21070    -999.25    0.21070    2.81890    0.13350  101.81900  101.81900   94.83700   98.75360   94.14090   94.83700    2.81890    2.43240    2.43240    0.37120    -999.25    0.37120    2.31740    5.72070    -999.25    0.36830   94.81030  -20.27780    5.72070
 8200.00000   14.28570    -999.25   14.28570  375.00940    0.10200    2.47870    -999.25    0.15300    -999.25    0.15300    2.66660    0.10200   99.00050   99.00050  113.27340   99.46660    -999.25  113.27340    2.66660    2.04180    2.04180    0.33930    -999.25    0.33930    2.47870    4.43820    -999.25    0.34780   90.08240  -33.52010    4.43820
 8250.00000    9.71640    -999.25    9.71640   76.52750   -0.00370    2.48070    -999.25    0.13230    -999.25    0.13230   13.06720   -0.00370   89.09140   89.09140  114.82300  112.80320    -999.25  114.82300   13.06720   12.94990   12.94990    0.28750    -999.25    0.28750    2.48070   16.13540    -999.25    0.27600  109.75150  -22.36540   16.13540
 8300.00000   12.54870    -999.25   12.54870  472.96980    0.14380    2.26730    -999.25    0.26960    -999.25    0.26960    2.11430    0.14380   91.94610   91.94610  116.37170  103.52160    -999.25  116.37170    2.11430    2.09000    2.09000    0.35710    -999.25    0.35710    2.26730    5.24000    -999.25    0.29670  119.95120  -18.32810    5.24000
 8350.00000    9.61760    -999.25    9.61760   95.97020   -0.00790    2.68900    -999.25    0.01160    -999.25    0.01160   10.41990   -0.00790   66.40230   66.40230   37.60990   33.12940    -999.25   37.60990   10.41990   10.30270   10.30270    0.12150    -999.25    0.12150    2.68900   14.74300    -999.25    0.11160  121.27740  -17.67670   14.74300
