~Version ---------------------------------------------------
VERS. 2.0 : CWLS log ASCII Standard -VERSION 2.0
WRAP. YES : Multiple lines per depth step
~Well ------------------------------------------------------
STRT.FT                    300.0 : START DEPTH
STOP.FT                  19600.0 : STOP DEPTH
STEP.FT                 50.00000 : STEP LENGTH
NULL.                    -999.25 : NULL VALUE
COMP. CITIES SERVICE OIL COMPANY : COMPANY
WELL.          PEELER RANCH A #1 : WELL
FLD .                    WILDCAT : FIELD
LOC .                            : LOCATION
CNTY.                   ATASCOSA : COUNTY
STAT.                      TEXAS : STATE
CTRY.   UNITED STATES OF AMERICA : COUNTRY
SRVC.               Schlumberger : SERVICE COMPANY
DATE.                12-Feb-1972 : LOGDATE
API .             42013301410000 : API NUMBER
UWI .             42013301410000 : UNIQUE WELL ID
SLAT.WGS84         28.6903618688 : SURFACE LATITUDE
SLON.WGS84        -98.4697337546 : SURFACE LONGITUDE
~Curve Information -----------------------------------------
DEPT  .FT    : DEPTH
ALL8ED.OHMM  : LATEROLOG-8 RESISTIVITY AMPLIFIED
ASNED .OHMM  : AMPLIFIED SHORT NORMAL 16 IN.
CALWS .IN    : CALIPER (CALSED)
CALSED.IN    : CALIPER FROM SONIC LOG (ADJ TO RES.)
CILDED.MMHO  : CONDUCTIVITY FROM LOG
CONDWS.MMHO  : CONDUCTIVITY (1000/DRESws)
DCORWS.G/C3  : DENSITY CORRECTION (DRHOED)
DENWS .G/C3  : BULK DENSITY  (RHOBED LS)
DPOWS .V/V   : DENSITY POROSITY (M=2.71 F=1 FROM DENws)
DRESWS.OHMM  : DEEP RESISTIVITY (IF ILDED<1, THEN 1000/CILDED)
DRHOED.G/C3  : DENSITY CORRECTION (ADJ TO RES.)
DTED  .US/F  : DELTA TIME  (ADJ TO RES.)
DTWS  .US/F  : DELTA TIME  (DTED)
GRDED .GAPI  : GAMMA RAY FROM DENSITY LOG (ADJ TO RES.)
GRWS  .GAPI  : GAMMA RAY (GRSED/GRDED @ 8498)
GRSED .GAPI  : GAMMA RAY FROM SONIC LOG (ADJ TO RES.)
ILDED .OHMM  : DEEP INDUCTION RESISTIVITY
NEUTED.CU    : NEUTRON FROM GAMMA RAY NEUTRON LOG (ADJ TO RES.)
NEUTWS.CU    : NEUTRON FROM GAMMA RAY NEUTRON LOG (NEUTED)
NPOWS .V/V   : NEUTRON POROSITY LIMESTONE (SNPED)
RHOBED.G/C3  : BULK DENSITY (ADJ TO RES.)
SNPED .V/V   : SIDEWALL NEUTRON POROSITY (ADJ TO RES.)
SPWS  .MV    : SPONTANEOUS POTENTIAL BASELINE 0 MV (SPRED)
SPRED .MMHO  : SPONTANEOUS POTENTIAL FROM RESISTIVITY
SRESWS.OHMM  : SHALLOW RESISTIVITY (ASNED/ALL8ED @ 12329)
~Params ----------------------------------------------------
PD  .                     GL : PERMANENT DATUM
EPD .F                   297 : ELEVATION PERMANENT DATUM
LMF .                     KB : LOG MEASURED FROM
DAPD.F                  30.5 : FEET ABOVE PERMANENT DATUM
DMF .                     KB : DRILLING MEASURED FROM
EKB .F                 327.5 : KELLING BUSHING
EDF .F                 326.5 : DRILLING FLOOR
EGL .F                   297 : GROUND LEVEL
DATE.             02-12-1972 : RUN DATE
RUN .                      9 : RUN NUMBER
DD  .F                 19629 : DEPTH DRILLER
DL  .F                 19635 : DEPTH LOGGER
BLI .F                 19628 : BOTTOM LOG INTERVAL
TLI .F                 19127 : TOP LOG INTERVAL
BS  .IN                  4.4 : BIT SIZE
BSD .F                 19629 : BIT SIZE AT DEPTH
DFT .       INVERMUL 43% OIL : DRILLING FLUID TYPE
DFD .                   19.1 : DRILLING FLUID DENSITY
DFV .                     88 : DRILLING FLUID VISCOSITY
TCS .HRS                  12 : TIME CURCULATED STOPPED
LUN .                   7504 : LOGGING UNIT NUMBER
LUL .                  PLEAS : LOGGING UNIT LOCATION
ENGI.               CLEMENTS : RECORDING ENGINEER
WITN.         GRIGSBY THOMAS : WITNESSED BY
CLNT.                A2DTECH : CLIENT CODE
ORIG.            2" 5" PRINT : ORIGIN OF DATA
UWI .         42013301410000 : UNIQUE WELL ID
DICO. A2D Technologies, Inc. : DIGITIZING COMPANY
~Other -----------------------------------------------------
~ASCII -----------------------------------------------------
# ...
 14300.00000   32.10050    -999.25   13.25300   13.25300   29.50450   29.47260    0.00850    2.71290   -0.00170   33.92980    0.00850   49.00600   49.00600   25.71200   25.71200    -999.25   33.92980    -999.25    -999.25    0.02050    2.71290    0.02050  -34.58470  -49.39020   32.10050
 14350.00000   48.92400    -999.25   13.19000   13.19000   29.08370   25.68990   -0.01530    2.73530   -0.01480   38.92580   -0.01530   49.52300   49.52300   29.18900   29.18900    -999.25   38.92580    -999.25    -999.25    0.00880    2.73530    0.00880  -14.97610  -29.87800   48.92400
 14400.00000   38.83900    -999.25   13.06300   13.06300   95.21910   66.08510    0.03890    2.59260    0.06870   15.13200    0.03890   53.34000   53.34000   33.17900   33.17900    -999.25   15.13200    -999.25    -999.25    0.04870    2.59260    0.04870  -22.73420  -37.73250   38.83900
 14450.00000    -999.25    -999.25   10.28800   10.28800    -999.25   13.59670    0.01310    2.78330   -0.04290   73.54700    0.01310   50.81300   50.81300   24.03100   24.03100   30.07700   73.54700    -999.25    -999.25    0.01210    2.78330    0.01210    -999.25    -999.25    -999.25
 14500.00000    -999.25    -999.25   10.01000   10.01000   59.83900   69.18120    0.00070    2.68780    0.01300   14.45480    0.00070   59.38700   59.38700   32.47500   32.47500   52.68300   14.45480    -999.25    -999.25    0.11040    2.68780    0.11040    -999.25    -999.25    -999.25
 14550.00000    -999.25    -999.25   10.02600   10.02600    -999.25   14.79170   -0.00310    2.74310   -0.01940   67.60570   -0.00310   50.41700   50.41700   24.66600   24.66600   29.56800   67.60570    -999.25    -999.25    0.02250    2.74310    0.02250    -999.25    -999.25    -999.25
 14600.00000    -999.25    -999.25   10.07000   10.07000    -999.25   10.40100    0.00390    2.74570   -0.02090   96.14440    0.00390   52.87700   52.87700   22.50800   22.50800   31.08900   96.14440    -999.25    -999.25    0.01580    2.74570    0.01580    -999.25    -999.25    -999.25
 14650.00000    -999.25    -999.25   10.20900   10.20900    -999.25   19.35550    0.00610    2.76120   -0.02990   51.66490    0.00610   51.80600   51.80600   30.07200   30.07200   32.46900   51.66490    -999.25    -999.25    0.02380    2.76120    0.02380    -999.25    -999.25    -999.25
 14700.00000    -999.25    -999.25   10.07900   10.07900   35.05980   30.71090    0.00510    2.75640   -0.02710   32.56170    0.00510   55.04600   55.04600   35.96000   35.96000   37.74900   32.56170    -999.25    -999.25    0.03180    2.75640    0.03180    -999.25    -999.25    -999.25
 14750.00000    -999.25    -999.25   10.07000   10.07000   41.80070   33.56100    0.02240    2.76730   -0.03350   29.79650    0.02240   53.15500   53.15500   27.87900   27.87900   32.70300   29.79650    -999.25    -999.25    0.04360    2.76730    0.04360    -999.25    -999.25    -999.25
 14800.00000    -999.25    -999.25   10.94700   10.94700   58.21320   53.43710    0.01160    2.64710    0.03680   18.71360    0.01160   55.77400   55.77400   36.17600   36.17600   42.49200   18.71360    -999.25    -999.25    0.03910    2.64710    0.03910    -999.25    -999.25    -999.25
 14850.00000    -999.25    -999.25   11.53600   11.53600   39.97340   26.17440   -0.00380    2.68180    0.01650   38.20520   -0.00380   57.99600   57.99600   47.64000   47.64000   43.95300   38.20520    -999.25    -999.25    0.01640    2.68180    0.01640    -999.25    -999.25    -999.25
 14900.00000    -999.25    -999.25   10.90100   10.90100   50.76180   67.85320    0.01150    2.69650    0.00790   14.73770    0.01150   61.05200   61.05200   52.54200   52.54200   51.12300   14.73770    -999.25    -999.25    0.04400    2.69650    0.04400    -999.25    -999.25    -999.25
 14950.00000    -999.25    -999.25   10.58700   10.58700   35.13940   11.93140    0.11180    2.49690    0.12460   83.81280    0.11180   61.94600   61.94600   30.23600   30.23600   38.50200   83.81280    -999.25    -999.25    0.04260    2.49690    0.04260    -999.25    -999.25    -999.25
 15000.00000    -999.25    -999.25    9.94900    9.94900   37.05180   37.04060    0.01930    2.73120   -0.01240   26.99740    0.01930   59.18700   59.18700   47.00700   47.00700   51.80700   26.99740    -999.25    -999.25    0.02360    2.73120    0.02360    -999.25    -999.25    -999.25
 15050.00000    -999.25    -999.25   10.34700   10.34700    -999.25    7.16640    0.12170    2.54930    0.09400  139.53920    0.12170   58.27400   58.27400   30.82600   30.82600   26.37100  139.53920    -999.25    -999.25    0.03530    2.54930    0.03530    -999.25    -999.25    -999.25
 15100.00000    -999.25    -999.25   10.15900   10.15900   32.27090   33.40260    0.08240    2.52470    0.10840   29.93780    0.08240   55.21800   55.21800   33.88000   33.88000   40.25600   29.93780    -999.25    -999.25    0.12440    2.52470    0.12440    -999.25    -999.25    -999.25
 15150.00000    -999.25    -999.25   10.21800   10.21800   31.31920   21.79960    0.01850    2.82510   -0.06730   45.87250    0.01850   53.39300   53.39300   34.51700   34.51700   34.49100   45.87250    -999.25    -999.25    0.02680    2.82510    0.02680    -999.25    -999.25    -999.25
 15200.00000    -999.25    -999.25   10.21000   10.21000   31.13450   16.61540    0.03000    2.72730   -0.01010   60.18520    0.03000   59.02800   59.02800   49.95300   49.95300   50.77700   60.18520    -999.25    -999.25    0.04030    2.72730    0.04030    -999.25    -999.25    -999.25
 15250.00000    -999.25    -999.25   10.24300   10.24300    -999.25   10.62660    0.10550    2.60710    0.06020   94.10340    0.10550   57.71800   57.71800   29.56500   29.56500   36.12700   94.10340    -999.25    -999.25    0.04510    2.60710    0.04510    -999.25    -999.25    -999.25
 15300.00000    -999.25    -999.25   10.71100   10.71100    -999.25    5.66970    0.01380    2.65320    0.03320  176.37470    0.01380   57.12300   57.12300   12.76700   12.76700   15.17500  176.37470    -999.25    -999.25    0.00540    2.65320    0.00540    -999.25    -999.25    -999.25
 15350.00000    -999.25    -999.25   11.02500   11.02500    -999.25    9.68250    0.00920    2.85360   -0.08400  103.27930    0.00920   47.44000   47.44000   21.34800   21.34800   24.00600  103.27930    -999.25    -999.25    0.02950    2.85360    0.02950    -999.25    -999.25    -999.25
 15400.00000    -999.25    -999.25   10.25700   10.25700   31.47410   38.13110    0.08000    2.65720    0.03090   26.22530    0.08000   61.64900   61.64900   39.43000   39.43000   43.01300   26.22530    -999.25    -999.25    0.08470    2.65720    0.08470    -999.25    -999.25    -999.25
 15450.00000    -999.25    -999.25   11.32600   11.32600   97.77430   93.57780    0.05310    2.71950   -0.00560   10.68630    0.05310   72.20200   72.20200   74.18100   74.18100   73.89900   10.68630    -999.25    -999.25    0.10570    2.71950    0.10570    -999.25    -999.25    -999.25
 15500.00000    -999.25    -999.25    9.97900    9.97900   54.08370   50.82360   -0.00820    2.75590   -0.02680   19.67590   -0.00820   64.94000   64.94000   46.25700   46.25700   85.56300   19.67590    -999.25    -999.25    0.02920    2.75590    0.02920    -999.25    -999.25    -999.25
 15550.00000    -999.25    -999.25    9.85300    9.85300   45.81090   52.17410    0.00220    2.69570    0.00840   19.16660    0.00220   56.96400   56.96400   42.63500   42.63500   73.27100   19.16660    -999.25    -999.25    0.03920    2.69570    0.03920    -999.25    -999.25    -999.25
 15600.00000    -999.25    -999.25    9.88100    9.88100   74.15630   71.52150    0.00790    2.71020   -0.00010   13.98180    0.00790   65.02000   65.02000   60.45800   60.45800   88.67800   13.98180    -999.25    -999.25    0.07200    2.71020    0.07200    -999.25    -999.25    -999.25
 15650.00000    -999.25    -999.25    9.93000    9.93000   87.10160   82.98820    0.02000    2.75730   -0.02770   12.04990    0.02000   69.10700   69.10700   71.48700   71.48700   88.78900   12.04990    -999.25    -999.25    0.08840    2.75730    0.08840    -999.25    -999.25    -999.25
