~Version ---------------------------------------------------
VERS. 2.0 : CWLS log ASCII Standard -VERSION 2.0
WRAP.  NO : ONE LINE PER DEPTH STEP
~Well ------------------------------------------------------
STRT.F                  3450.0 : START DEPTH
STOP.F                  8150.0 : STOP DEPTH
STEP.F                50.00000 : STEP LENGTH
NULL.                  -999.25 : NULL VALUE
COMP.      SAGE ENERGY COMPANY : COMPANY
WELL.         CALVIN VAUGHN #1 : WELL
FLD .                 GIDDINGS : FIELD
LOC .                          : LOCATION
CNTY.                 BURLESON : COUNTY
STAT.                    TEXAS : STATE
CTRY. UNITED STATES OF AMERICA : COUNTRY
SRVC.            Dresser Atlas : SERVICE COMPANY
DATE.              15-Nov-1983 : LOGDATE
API .           42051325800000 : API NUMBER
UWI .           42051325800000 : UNIQUE WELL ID
SLAT.WGS84       30.5582726608 : SURFACE LATITUDE
SLON.WGS84      -96.6022686075 : SURFACE LONGITUDE
~Curve Information -----------------------------------------
DEPT   .F    0   1   0  0 : 1 MEASURED DEPTH
GRN    .GAPI 35 310 01 00 : GAMMA RAY FROM GRN LOG
NEUT   .NAPI 35 330 01 00 : NEUTRON
CN_SS  .DEC  42 890 03 00 : COMPENSATED NEUTRON POROSITY SANDSTONE
GRR    .GAPI 07 310 01 00 : GAMMA RAY FROM RESISTIVITY LOG
PORD_SS.DEC  45 890 12 00 : DENSITY POROSITY [SANDSTONE]
RFOC   .OHMM 07 220 01 00 : SHALLOW FOCUSED LOG RESISTIVITY
RILD   .OHMM 07 120 46 00 : RAW DEEP INDUCTION RESISTIVITY
RILM   .OHMM 07 120 44 00 : RAW MEDIUM INDUCTION RESISTIVITY
SPR    .MV   07 010 01 00 : SPONTANEOUS POTENTIAL FROM RESISTIVITY LOG
CALR   .IN   07 280 01 00 : CALIPER FROM RESISTIVITY LOG
PORD_LS.DEC  45 890 10 00 : DENSITY POROSITY [LIMESTONE]
CN_LS  .DEC  42 890 01 00 : COMPENSATED NEUTRON POROSITY LIMESTONE
~Params ----------------------------------------------------
PD  .                     GL : PERMANENT DATUM
EPD .FT                  335 : ELEVATION PERMANENT DATUM
LMF .                     KB : LOG MEASURED FROM
DAPD.FT                   16 : FEET ABOVE PERMANENT DATUM
DMF .                     KB : DRILLING MEASURED FROM
EKB .FT                  351 : KELLY BUSHING
EDF .FT                  350 : DRILLING FLOOR
EGL .FT                  335 : GROUND LEVEL
DATE.               11/15/83 : RUN DATE
RUN .                      1 : RUN NUMBER
DD  .FT                 8180 : DEPTH DRILLER
DL  .FT                 8169 : DEPTH LOGGER
BLI .FT                 8167 : BOTTOM LOG INTERVAL
TLI .FT                 3410 : TOP LOG INTERVAL
CS  .IN                8.625 : CASING SIZE
CBD .FT                 3415 : CASING BOTTOM DRILLER
CBL .FT                 3410 : CASING BOTTOM LOGGER
BS  .IN                7.765 : BIT SIZE
BSD .FT                 8180 : BIT SIZE AT DEPTH
DFT .         LIGNOSULFONATE : DRILLING FLUID TYPE
DFD .                    9.2 : DRILLING FLUID DENSITY
DFV .                     47 : DRILLING FLUID VISCOSITY
DFPH.                    9.5 : DRILLING FLUID PH
DFL .                      7 : DRILLING FLUID LOSS
MSS .                    PIT : MUD SAMPLE SOURCE
RMS .OHMM               2.06 : RESISTIVITY MUD SAMPLE
MST .DEGF                 75 : MUD SAMPLE TEMPERATURE
RMF .OHMM               1.61 : RESISTIVITY MUD FILTRATE SAMPLE
MFST.DEGF                 75 : MUD FILTRATE SAMPLE TEMPERATURE
RMC .OHMM               2.58 : RESISTIVITY MUD CAKE
MCST.DEGF                 75 : MUD CAKE SAMPLE TEMPERATURE
MFSS.                   MEAS : MUD FILTRATE SAMPLE SOURCE
MCSS.                   MEAS : MUD CAKE SAMPLE SOURCE
RMB .OHMM                0.8 : RESISTIVITY MUD AT BHT
TCS .HRS                   4 : TIME CIRCULATED STOPPED
LUN .                   6245 : LOGGING UNIT NUMBER
LUL .                   GONZ : LOGGING UNIT LOCATION
ENGI.                REPSHER : RECORDING ENGINEER
WITN.                  BAKER : WITNESSED BY
CLNT.                A2DTECH : CLIENT CODE
ORIG.            2" 5" PRINT : ORIGIN OF DATA
UWI .         42051325800000 : UNIQUE WELL ID
DICO. A2D Technologies, Inc. : DIGITIZING COMPANY
~Other -----------------------------------------------------
~ASCII -----------------------------------------------------
# ...
 6250.00000   44.17890  261.65210    -999.25   60.95490    -999.25    2.55590    2.56590    2.58460  -33.36700    8.30950    -999.25    -999.25
 6300.00000   32.01750  237.44520    -999.25   50.67170    -999.25    2.79330    2.77320    2.79590  -34.93450    8.31440    -999.25    -999.25
 6350.00000   38.89170  255.57610    -999.25   52.52050    -999.25    2.82910    2.71290    2.73310  -34.88350    8.22390    -999.25    -999.25
 6400.00000   31.09000  446.84380    -999.25   54.24140    -999.25    3.51670    3.41880    3.44670  -34.53750    8.36690    -999.25    -999.25
 6450.00000   39.87770  379.78480    -999.25   76.33500    -999.25    2.98060    2.96460    2.98060  -33.39810    8.37640    -999.25    -999.25
 6500.00000   42.28150  317.31580    -999.25   84.32160    -999.25    2.49420    2.30000    2.41240  -30.33900    8.20850    -999.25    -999.25
 6550.00000   41.28210  167.91090    -999.25   87.04380    -999.25    2.75970    2.57740    2.60940  -30.35740    8.40880    -999.25    -999.25
 6600.00000   54.91510  200.51260    -999.25   90.00110    -999.25    2.52400    2.32830    2.29230  -30.92810    8.56280    -999.25    -999.25
 6650.00000   42.68410  176.75760    -999.25   82.03060    -999.25    2.53670    2.26810    2.45940  -28.50870    8.32950    -999.25    -999.25
 6700.00000   45.51080  101.41740    -999.25   92.99450    -999.25    2.13270    1.68400    1.81540  -31.31270    8.57930    -999.25    -999.25
 6750.00000   46.90550   92.81640    -999.25  105.03980    -999.25    1.76070    1.32350    1.44020  -32.49230    9.09900    -999.25    -999.25
 6800.00000   46.05140  127.84140    -999.25   99.77990    -999.25    2.05520    1.59860    1.82190  -29.97530    8.37650    -999.25    -999.25
 6850.00000   55.10710  110.70880    -999.25  105.11590    -999.25    1.96860    1.53800    1.68090  -31.47640    8.55940    -999.25    -999.25
 6900.00000   45.22420  125.94980    -999.25   94.65870    -999.25    1.89010    1.44760    1.58370  -30.39980    8.52960    -999.25    -999.25
 6950.00000   53.61940   96.45970    -999.25   96.23260    -999.25    1.97730    1.51740    1.66160  -29.19160    8.28140    -999.25    -999.25
 7000.00000   45.30890  100.16240    -999.25  104.27100    -999.25    1.90040    1.48630    1.62030  -29.61550    8.31140    -999.25    -999.25
 7050.00000   51.95450   93.52970    -999.25   93.81970    -999.25    1.83990    1.40760    1.53090  -30.09690    8.29310    -999.25    -999.25
 7100.00000   49.99030   58.47790    -999.25  105.17480    -999.25    1.83160    1.39210    1.50720  -28.67140    8.37190    -999.25    -999.25
 7150.00000   44.12290  123.43920    -999.25  102.06760    -999.25    1.78550    1.34580    1.46080  -28.54930    8.32030    -999.25    -999.25
 7200.00000   43.28650  112.46940    -999.25   96.17470    -999.25    2.07030    1.63590    1.79730  -26.35470    7.89730    -999.25    -999.25
 7250.00000   40.68170  163.08530    -999.25  100.60970    -999.25    2.12290    1.63610    1.81750  -24.43350    7.94770    -999.25    -999.25
 7300.00000   42.73100  103.51660    -999.25  101.11860    -999.25    2.01810    1.59660    1.73940  -23.94370    8.04760    -999.25    -999.25
 7350.00000   42.27260  155.66680    -999.25   95.42940    -999.25    2.85380    2.28650    2.50520  -18.77290    7.92040   -0.08440    -999.25
 7400.00000   50.66420  187.02070    -999.25   85.14570    -999.25    2.41740    1.90160    2.09590  -17.49290    7.78350   -0.04200    0.11760
 7450.00000   24.51630  421.23920    -999.25   34.49200    -999.25    9.00300    7.22180    7.60230  -26.99450    7.82350   -0.11210   -0.07020
 7500.00000   26.25530  350.95480    -999.25   30.80380    -999.25   14.67110   15.75360   16.06840  -37.57070    7.54560   -0.07150   -0.10250
 7550.00000   26.99080  428.54120    -999.25   18.86780    -999.25   23.77660   23.83650   27.21570  -41.65620    7.75070   -0.02230   -0.10590
 7600.00000   64.95280   61.01570    -999.25  119.95880    -999.25    2.21230    1.51320    1.52610  -17.86680    8.59170    0.00020    0.25560
 7650.00000   51.99200   94.81000    -999.25  102.92120    -999.25    2.84130    2.07210    2.21160   -8.36010    8.15460   -0.05920    0.18730
 7700.00000   42.81650  123.88130    -999.25  115.11760    -999.25    4.13920    5.54930    5.79390  -12.16750    7.92830    0.28870    0.20790
 7750.00000   54.38510  179.09660    -999.25  111.39000    -999.25    9.05080    5.04300    5.46150   -5.14440    8.09970    0.04690    0.18640
 7800.00000   59.79190  123.92960    -999.25  120.32300    -999.25    4.20070    2.57900    2.59890  -14.85940    7.86430   -0.01380    0.26960
 7850.00000   46.16260  203.60320    -999.25  133.30530    -999.25    4.75680    3.52240    3.80010  -24.80640    8.33640    0.10160    0.29440
 7900.00000   12.32900  799.88370    -999.25   23.18910    -999.25   23.01170   19.81210   22.78650  -25.19850    7.76480   -0.20500   -0.10980
 7950.00000   19.88470  440.61070    -999.25   39.15550    -999.25   15.32180   10.84980   11.67690  -22.15450    7.72270   -0.17760   -0.06230
 8000.00000   18.93950  865.57580    -999.25    8.47790    -999.25   75.43020   58.80750   64.07160  -43.65080    7.72580   -0.12660   -0.19060
 8050.00000   17.62830  778.23320    -999.25   13.87350    -999.25   68.19350   60.49360   52.93400  -35.09770    7.70470   -0.19450   -0.18950
 8100.00000   23.39920  759.50260    -999.25   17.07680    -999.25   52.97420   47.19800   50.49610  -33.68150    7.50790   -0.19680   -0.16700
 8150.00000    -999.25    -999.25    -999.25   23.09110    -999.25   44.63110   36.12090   37.60090  -29.45670    7.44300   -0.05810   -0.13700
