~Version ---------------------------------------------------
VERS. 2.0 : CWLS log ASCII Standard -VERSION 2.0
WRAP.  NO : ONE LINE PER DEPTH STEP
~Well ------------------------------------------------------
STRT.F                   300.0 : START DEPTH
STOP.F                 13150.0 : STOP DEPTH
STEP.F                50.00000 : STEP LENGTH
NULL.                  -999.25 : NULL VALUE
COMP.     SUNDANCE OIL COMPANY : COMPANY
WELL.       PARKER AND SONS #1 : WELL
FLD .                  WILDCAT : FIELD
LOC .                          : LOCATION
CNTY.                LIMESTONE : COUNTY
STAT.                    TEXAS : STATE
CTRY. UNITED STATES OF AMERICA : COUNTRY
SRVC.            Dresser Atlas : SERVICE COMPANY
DATE.              01-Apr-1979 : LOGDATE
API .           42293304380000 : API NUMBER
UWI .           42293304380000 : UNIQUE WELL ID
SLAT.WGS84       31.3046679499 : SURFACE LATITUDE
SLON.WGS84      -96.4505702007 : SURFACE LONGITUDE
~Curve Information -----------------------------------------
DEPT.F                 : 
SPR .MV   07 010 01 00 : SPONTANEOUS POTENTIAL FROM RES. LOG
ILM .OHMM 07 120 44 00 : INDUCTION LOG MEDIUM
SFLU.OHMM 07 220 01 00 : SPHERICALLY FOCUSED LOG UNAVERAGED RESISTIVITY
ILD .OHMM 07 120 46 00 : INDUCTION LOG DEEP
CALS.IN   60 280 50 00 : CALIPER FROM DIL/SONIC
DT  .US/F 60 520 00 00 : INTERVAL TRANSIT TIME
CALD.IN   45 280 60 00 : CALIPER FROM DENSITY LOG
GRD .GAPI 45 310 01 00 : GAMMA RAY FROM DENSITY LOG
PORD.DEC  45 890 12 00 : POROSITY DENSITY SANDSTONE
NPOR.DEC  42 890 03 00 : NEUTRON POROSITY SANDSTONE
CORR.G/C3 45 356 01 00 : DENSITY CORRECTION
RHOB.G/C3 45 350 01 00 : BULK DENSITY
~Params ----------------------------------------------------
PD  .                     GL : PERMANENT DATUM
EPD .F                   393 : ELEVATION PERMANENT DATUM
LMF .                    RKB : LOG MEASURED FROM
DAPD.F                    19 : FEET ABOVE PERMANENT DATUM
DMF .                    RKB : DRILLING MEASURED FROM
EKB .F                   412 : KELLING BUSHING
EDF .F                   410 : DRILLING FLOOR
EGL .F                   393 : GROUND LEVEL
DATE.               4-1-1979 : RUN DATE
RUN .                      1 : RUN NUMBER
DD  .F                 13150 : DEPTH DRILLER
DL  .F                 13144 : DEPTH LOGGER
BLI .F                 13142 : BOTTOM LOG INTERVAL
TLI .F                  4648 : TOP LOG INTERVAL
CS  .IN                9.625 : CASING SIZE
CBD .F                  4647 : CASING BOTTOM DRILLER
CBL .F                  4648 : CASING BOTTOM LOGGER
BS  .IN                 8.75 : BIT SIZE
BSD .F                 13150 : BIT SIZE AT DEPTH
DFT .                 LIGNO. : DRILLING FLUID TYPE
DFD .                   11.1 : DRILLING FLUID DENSITY
DFV .                     40 : DRILLING FLUID VISCOSITY
DFPH.                     10 : DRILLING FLUID PH
DFL .                   11.4 : DRILLING FLUID LOSS
MSS .               MUD TANK : MUD SAMPLE SOURCE
RMS .OHMM               2.21 : RESISTIVITY MUD SAMPLE
MST .F                    92 : MUD SAMPLE TEMPERATURE
RMF .OHMM               1.72 : RESISTIVITY MUD FILTRATE SAMPLE
MFST.F                    92 : MUD FILTRATE SAMPLE TEMPERATURE
RMC .OHMM               2.42 : RESISTIVITY MUD CAKE
MCST.F                    92 : MUD CAKE SAMPLE TEMPERATURE
MFSS.                   CALC : MUD FILTRATE SAMPLE SOURCE
MCSS.                   CALC : MUD CAKE SAMPLE SOURCE
RMB .OHMM               0.81 : RESISTIVITY MUD AT BHT
TCS .HRS                   6 : TIME CURCULATED STOPPED
LUN .                   6209 : LOGGING UNIT NUMBER
LUL .                  TYLER : LOGGING UNIT LOCATION
ENGI.             S. LEONARD : RECORDING ENGINEER
WITN.                 DECKER : WITNESSED BY
CLNT.                A2DTECH : CLIENT CODE
ORIG.               5" PRICE : ORIGIN OF DATA
UWI .         42293304380000 : UNIQUE WELL ID
DICO. A2D Technologies, Inc. : DIGITIZING COMPANY
~Other -----------------------------------------------------
~ASCII -----------------------------------------------------
  300.00000  -32.93360    6.74750    6.77900    5.64570   13.32480  171.13530    -999.25    -999.25    -999.25    -999.25    -999.25    -999.25
  350.00000  -26.24390    9.97820    8.03990    9.69750   12.68510  147.97360    -999.25    -999.25    -999.25    -999.25    -999.25    -999.25
  400.00000  -24.91830   40.40490   38.78990   31.08820   12.40230  141.91900    -999.25    -999.25    -999.25    -999.25    -999.25    -999.25
  450.00000  -17.95440    4.44800    4.33450    4.42480   12.92010  146.24540    -999.25    -999.25    -999.25    -999.25    -999.25    -999.25
  500.00000  -21.34570   37.34950   36.64980   27.99040   12.18040  143.89410    -999.25    -999.25    -999.25    -999.25    -999.25    -999.25
  550.00000  -20.69460   11.01310   10.56750   10.14530   11.76620  134.64290    -999.25    -999.25    -999.25    -999.25    -999.25    -999.25
  600.00000  -27.02060   13.91870   16.68470   11.58280   11.91740  131.62950    -999.25    -999.25    -999.25    -999.25    -999.25    -999.25
  650.00000  -33.25340   22.31820   23.40430   15.10470   12.16910  131.07220    -999.25    -999.25    -999.25    -999.25    -999.25    -999.25
  700.00000  -36.10460    5.75250    5.86340    5.01800   12.25370  132.05110    -999.25    -999.25    -999.25    -999.25    -999.25    -999.25
  750.00000  -35.65700    5.10690    5.74120    5.22910   12.03620  128.81450    -999.25    -999.25    -999.25    -999.25    -999.25    -999.25
  800.00000  -33.87970    3.86360    4.26450    3.87790   11.92910  131.75530    -999.25    -999.25    -999.25    -999.25    -999.25    -999.25
  850.00000  -29.74930    3.35220    3.55560    3.21490   12.76460  132.79340    -999.25    -999.25    -999.25    -999.25    -999.25    -999.25
  900.00000  -28.81700    3.04560    2.97500    2.96990   13.25860  128.28770    -999.25    -999.25    -999.25    -999.25    -999.25    -999.25
  950.00000  -27.68150    2.84620    3.07330    2.72700   12.89970  128.85900    -999.25    -999.25    -999.25    -999.25    -999.25    -999.25
 1000.00000  -30.96300    2.29040    2.46240    2.10740   12.48260  136.66230    -999.25    -999.25    -999.25    -999.25    -999.25    -999.25
 1050.00000  -27.61620    2.31820    2.33520    2.24850   13.47990  137.90410    -999.25    -999.25    -999.25    -999.25    -999.25    -999.25
 1100.00000  -26.71160    2.88700    2.99250    2.62590   12.94020  129.07490    -999.25    -999.25    -999.25    -999.25    -999.25    -999.25
 1150.00000  -31.92870    2.64020    2.81480    2.51600   13.39930  130.02980    -999.25    -999.25    -999.25    -999.25    -999.25    -999.25
 1200.00000  -25.90610    1.94410    2.06330    1.77330   13.67160  134.19830    -999.25    -999.25    -999.25    -999.25    -999.25    -999.25
 1250.00000  -32.89850    3.06660    3.06370    2.86060   13.10450  122.52790    -999.25    -999.25    -999.25    -999.25    -999.25    -999.25
 1300.00000  -25.81710    2.90740    3.34520    2.63510   12.40310  111.55130    -999.25    -999.25    -999.25    -999.25    -999.25    -999.25
 1350.00000  -25.41090    2.39260    2.33600    2.31820   12.49470  117.91960    -999.25    -999.25    -999.25    -999.25    -999.25    -999.25
 1400.00000  -24.31250    2.39360    2.32550    2.22610   12.64590  117.42510    -999.25    -999.25    -999.25    -999.25    -999.25    -999.25
 1450.00000  -30.91450    2.53170    2.33610    2.36730   12.20880  113.69680    -999.25    -999.25    -999.25    -999.25    -999.25    -999.25
 1500.00000  -21.89500    1.55560    1.71870    1.49420   13.66320  130.17640    -999.25    -999.25    -999.25    -999.25    -999.25    -999.25
 1550.00000  -19.62680    1.29970    1.41520    1.20680   12.82950  135.77530    -999.25    -999.25    -999.25    -999.25    -999.25    -999.25
 1600.00000  -27.95600    2.18750    2.81600    2.23550   12.59690  115.03820    -999.25    -999.25    -999.25    -999.25    -999.25    -999.25
 1650.00000  -17.26430    1.62450    1.74230    1.56450   11.15880  137.88450    -999.25    -999.25    -999.25    -999.25    -999.25    -999.25
 1700.00000  -20.72130    1.56040    1.75160    1.38790   12.72640  140.54720    -999.25    -999.25    -999.25    -999.25    -999.25    -999.25
 1750.00000  -28.21590    1.68920    1.62030    1.61500   11.98120  129.19290    -999.25    -999.25    -999.25    -999.25    -999.25    -999.25
 1800.00000  -19.28050    1.76660    2.07730    1.65920   14.20890  125.91550    -999.25    -999.25    -999.25    -999.25    -999.25    -999.25
 1850.00000  -22.19510    2.44470    2.71120    2.21280   13.14790  119.60650    -999.25    -999.25    -999.25    -999.25    -999.25    -999.25
 1900.00000  -19.22210    2.58130    2.83930    2.31710   12.73130  119.34400    -999.25    -999.25    -999.25    -999.25    -999.25    -999.25
 1950.00000  -46.94250    3.14720    4.42540    2.48330   12.10020  101.05130    -999.25    -999.25    -999.25    -999.25    -999.25    -999.25
 2000.00000  -22.11890    1.51640    1.55980    1.41690   12.91040  120.06070    -999.25    -999.25    -999.25    -999.25    -999.25    -999.25
 2050.00000  -21.96930    2.05580    1.99920    1.89890   12.43300  111.01340    -999.25    -999.25    -999.25    -999.25    -999.25    -999.25
 2100.00000  -20.62060    1.76060    1.69520    1.58220   13.04470  113.41710    -999.25    -999.25    -999.25    -999.25    -999.25    -999.25
 2150.00000  -13.22600    1.46650    1.49140    1.34080   13.02990  114.70360    -999.25    -999.25    -999.25    -999.25    -999.25    -999.25
 2200.00000  -13.91110    2.35710    2.28820    2.13340   12.84550  105.31290    -999.25    -999.25    -999.25    -999.25    -999.25    -999.25
 2250.00000  -16.83310    1.52660    1.51270    1.31700   12.70860  113.59940    -999.25    -999.25    -999.25    -999.25    -999.25    -999.25
 2300.00000  -16.34880    1.52850    1.52100    1.29140   13.46210  121.11530    -999.25    -999.25    -999.25    -999.25    -999.25    -999.25
 2350.00000  -16.52170    1.51800    1.71110    1.38500   13.10490  121.00660    -999.25    -999.25    -999.25    -999.25    -999.25    -999.25
 2400.00000  -13.19760    1.76660    1.82830    1.64120   12.41780  116.22950    -999.25    -999.25    -999.25    -999.25    -999.25    -999.25
 2450.00000  -14.76490    2.02780    1.99300    1.84010   13.08970  111.62370    -999.25    -999.25    -999.25    -999.25    -999.25    -999.25
 2500.00000  -10.95860    2.07020    2.15430    1.85350   12.69170  107.24160    -999.25    -999.25    -999.25    -999.25    -999.25    -999.25
 2550.00000   -7.91740    1.70230    1.60910    1.49210   12.16610  116.56150    -999.25    -999.25    -999.25    -999.25    -999.25    -999.25
 2600.00000  -12.71370    2.30230    2.24130    2.00510   12.42730  106.24470    -999.25    -999.25    -999.25    -999.25    -999.25    -999.25
 2650.00000  -11.32870    1.90930    2.02080    1.74240   12.93450  110.71520    -999.25    -999.25    -999.25    -999.25    -999.25    -999.25
 2700.00000  -15.55020    1.61800    1.71220    1.49100   12.28880  113.84910    -999.25    -999.25    -999.25    -999.25    -999.25    -999.25
 2750.00000  -17.02140    1.39400    1.51480    1.25460   13.15910  118.28820    -999.25    -999.25    -999.25    -999.25    -999.25    -999.25
 2800.00000  -18.50440    1.28640    1.45070    1.15020   13.19880  120.70120    -999.25    -999.25    -999.25    -999.25    -999.25    -999.25
 2850.00000  -19.57510    1.37830    1.52700    1.26010   13.13600  119.58170    -999.25    -999.25    -999.25    -999.25    -999.25    -999.25
 2900.00000  -12.56160    1.29840    1.41120    1.17400   13.12600  119.78580    -999.25    -999.25    -999.25    -999.25    -999.25    -999.25
 2950.00000   -9.64770    1.48690    1.64270    1.36890   13.27460  116.23020    -999.25    -999.25    -999.25    -999.25    -999.25    -999.25
 3000.00000  -17.93090    1.43650    1.50820    1.28060   13.19390  119.69450    -999.25    -999.25    -999.25    -999.25    -999.25    -999.25
 3050.00000  -14.48970    1.77710    1.95560    1.71710   12.56080  107.60740    -999.25    -999.25    -999.25    -999.25    -999.25    -999.25
