~Version ---------------------------------------------------
VERS. 2.0 : CWLS log ASCII Standard -VERSION 2.0
WRAP. YES : MULTIPLE LINES PER DEPTH STEP
~Well ------------------------------------------------------
STRT.FT                  300.0 : START DEPTH
STOP.FT                18600.0 : STOP DEPTH
STEP.FT               50.00000 : STEP LENGTH
NULL.                  -999.25 : NULL VALUE
COMP.        SHELL OIL COMPANY : COMPANY
WELL. PAWELEK BEN A ET AL A #1 : WELL
FLD .    PERSON AREA (WILDCAT) : FIELD
LOC .                          : LOCATION
CNTY.                   KARNES : COUNTY
STAT.                    TEXAS : STATE
CTRY. UNITED STATES OF AMERICA : COUNTRY
SRVC.             Schlumberger : SERVICE COMPANY
DATE.              22-May-1978 : LOGDATE
API .           42255305980000 : API NUMBER
UWI .           42255305980000 : UNIQUE WELL ID
SLAT.WGS84       29.0241796548 : SURFACE LATITUDE
SLON.WGS84      -97.8796797249 : SURFACE LONGITUDE
~Curve Information -----------------------------------------
DEPT    .FT    : DEPTH FEET
CALDED  .IN    : CALIPER FROM DENSITY LOG [DEP ADJ TO GRSED]
CALMED  .IN    : CALIPER FROM MICROLOG [DEP ADJ TO SFLED]
CALSED  .IN    : CALIPER FROM SONIC LOG
CALWS   .IN    : CALIPER [10 CALDED 4845.5 CALMED 4849 CALDED 17451 CALSED 17577 CALDED]
CONDWS  .MMHO  : CONDUCTIVITY [1000/DRESWS]
DCORWS  .G/C3  : DENSITY CORRECTION [DRHOED]
DENWS   .G/C3  : BULK DENSITY [M=2.71 F=1.0] [RHOBED]
DPHILSED.V/V   : DENSITY POROSITY [M=2.71 F=1.0] FROM DENSITY LOG [DEP ADJ TO GRSED/RHOBED]
DPHISSED.V/V   : DENSITY POROSITY [M=2.65 F=1.0] FROM DENSITY LOG [DEP ADJ TO GRSED/RHOBED]
DPOLSWS .V/V   : DENSITY POROSITY [M=2.71 F=1.0] [CAL FR DENWS]
DRESWS  .OHMM  : DEEP RESISTIVITY [ILDED]
DRHOED  .G/C3  : DENSITY CORRECTION FROM DENSITY LOG [DEP ADJ TO GRSED]
DTED    .US/F  : DELTA TIME FROM SONIC LOG
DTWS    .US/F  : DELTA TIME [DTED]
GRDED   .GAPI  : GAMMA RAY FROM DENSITY LOG
GRRED   .GAPI  : GAMMA RAY FROM RESISTIVITY LOG [DEP ADJ TO GRSED]
GRSED   .GAPI  : GAMMA RAY FROM SONIC LOG
GRWS    .GAPI  : GAMMA RAY [70 GRDED 4800.5 GRDEDNRM [0-100 TO 0-140]4844.5 GRSED 4853.5 GRDED 12903.5 GRSED 12939.5 GRDED 12962 GRSED 17526 GRDED 17550 GRRED 18607 GRDED]
ILDED   .OHMM  : INDUCTION LOG DEEP RESISTIVITY
ILMED   .OHMM  : INDUCTION LOG MEDIUM RESISTIVITY
MRESWS  .OHMM  : MEDIUM RESISTIVITY [ILMED]
NPHILSED.V/V   : NEUTRON POROSITY LISTONE FROM DENSITY LOG [DEP ADJ TO GRSED/RHOBED]
NPHISSED.V/V   : NEUTRON POROSITY SANDSTONE FROM DENSITY LOG [DEP ADJ TO GRSED/RHOBED]
NPOLSWS .V/V   : NEUTRON POROSITY LIMESTONE [10 NPOLSCAL 9446 NPHILSED] [NPHISSED IS CONVERTED TO NPOLSCAL USING POWERLOG MODULE]
PROXED  .OHMM  : PROXIMITY RESISTIVITY FROM MICROLOG [DEP ADJ TO SFLED]
RHOBED  .G/C3  : BULK DENSITY FROM DENSITY LOG [DEP ADJ TO GRSED]
SFLED   .OHMM  : SPHERICALLY FOCUSED LOG RESISTIVITY
SPRED   .MV    : SPONTANEOUS POTENTIAL FROM RESISTIVITY LOG [SHIFTS ARE REMOVED]
SPWS    .MV    : SPONTANEOUS POTENTIAL [BASELINE 0 MV] [SPRED][PL. USE W/ RESERVATIONS]
SRESWS  .OHMM  : SHALLOW RESISTIVITY [SFLED]
TENDED  .LBF   : TENSION FROM DENSITY LOG [DEP ADJ TO GRSED]
~Params ----------------------------------------------------
PD  .                     GL : PERMANENT DATUM
EPD .FT                  335 : ELEVATION PERMANENT DATUM
LMF .                     KB : LOG MEASURED FROM
DAPD.FT                   28 : FEET ABOVE PERMANENT DATUM
DMF .                     KB : DRILLING MEASURED FROM
EKB .FT                  363 : KELLY BUSHING
EDF .FT                  362 : DRILLING FLOOR
EGL .FT                  335 : GROUND LEVEL
DATE.               05/22/78 : RUN DATE
RUN .                      4 : RUN NUMBER
DD  .FT                18626 : DEPTH DRILLER
DL  .FT                18642 : DEPTH LOGGER
BLI .FT                18637 : BOTTOM LOG INTERVAL
TLI .FT                17550 : TOP LOG INTERVAL
CS  .IN                    7 : CASING SIZE
CBD .FT                17544 : CASING BOTTOM DRILLER
CBL .FT                17550 : CASING BOTTOM LOGGER
BS  .IN                    6 : BIT SIZE
BSD .FT                18626 : BIT SIZE AT DEPTH
DFT .               INVERMUL : DRILLING FLUID TYPE
DFD .                   17.6 : DRILLING FLUID DENSITY
DFV .                     70 : DRILLING FLUID VISCOSITY
DFL .                      2 : DRILLING FLUID LOSS
LUN .                   7799 : LOGGING UNIT NUMBER
LUL .                  PLEAS : LOGGING UNIT LOCATION
ENGI.             TURBEVILLE : RECORDING ENGINEER
WITN.                JARRELL : WITNESSED BY
CLNT.                A2DTECH : CLIENT CODE
ORIG.            2" 5" PRINT : ORIGIN OF DATA
UWI .         42255305980000 : UNIQUE WELL ID
DICO. A2D Technologies, Inc. : DIGITIZING COMPANY
~Other -----------------------------------------------------
~ASCII -----------------------------------------------------
# ...
 2600.00000   16.22050    -999.25    -999.25   16.22050  562.36650    0.01460    2.24990    -999.25    -999.25    0.26910    1.77820    0.01460  113.21500  113.21500   52.78790    -999.25   50.85760   52.78790    1.77820    1.85200    1.85200    -999.25    -999.25    -999.25    -999.25    2.24990    1.94350  -84.51700  -14.81050    1.94350    -999.25
 2650.00000   16.32940    -999.25    -999.25   16.32940  795.79820    0.07670    2.23710    -999.25    -999.25    0.27650    1.25660    0.07670  125.83680  125.83680   52.26780    -999.25   51.47060   52.26780    1.25660    1.33550    1.33550    -999.25    -999.25    -999.25    -999.25    2.23710    1.41190  -77.98880   -8.28230    1.41190    -999.25
 2700.00000   16.09540    -999.25    -999.25   16.09540  598.51570    0.02540    2.20710    -999.25    -999.25    0.29410    1.67080    0.02540  113.79520  113.79520   59.35110    -999.25   53.87840   59.35110    1.67080    1.75670    1.75670    -999.25    -999.25    -999.25    -999.25    2.20710    1.94420  -87.39500  -17.68850    1.94420    -999.25
 2750.00000   15.99690    -999.25    -999.25   15.99690  617.32210    0.03490    2.22150    -999.25    -999.25    0.28570    1.61990    0.03490  118.42220  118.42220   66.64720    -999.25   59.93100   66.64720    1.61990    1.66340    1.66340    -999.25    -999.25    -999.25    -999.25    2.22150    1.73640  -85.68660  -15.98010    1.73640    -999.25
 2800.00000   15.55020    -999.25    -999.25   15.55020  569.44370    0.02800    2.24500    -999.25    -999.25    0.27190    1.75610    0.02800  108.77690  108.77690   70.70620    -999.25   64.17180   70.70620    1.75610    1.82570    1.82570    -999.25    -999.25    -999.25    -999.25    2.24500    2.07580  -81.68650  -11.98000    2.07580    -999.25
 2850.00000   16.29360    -999.25    -999.25   16.29360  718.18440    0.01720    2.23630    -999.25    -999.25    0.27700    1.39240    0.01720  112.38080  112.38080   56.23740    -999.25   50.35370   56.23740    1.39240    1.52280    1.52280    -999.25    -999.25    -999.25    -999.25    2.23630    2.05920 -107.98110  -38.27460    2.05920    -999.25
 2900.00000   15.63500    -999.25    -999.25   15.63500  803.53550    0.01880    2.10190    -999.25    -999.25    0.35560    1.24450    0.01880  112.72380  112.72380   51.89960    -999.25   47.34040   51.89960    1.24450    1.38820    1.38820    -999.25    -999.25    -999.25    -999.25    2.10190    1.88440 -115.27980  -45.57330    1.88440    -999.25
 2950.00000   15.70240    -999.25    -999.25   15.70240  595.37980    0.05560    2.27140    -999.25    -999.25    0.25650    1.67960    0.05560  112.44100  112.44100   60.01620    -999.25   51.88750   60.01620    1.67960    1.73100    1.73100    -999.25    -999.25    -999.25    -999.25    2.27140    1.83750  -77.51070   -7.80420    1.83750    -999.25
 3000.00000   15.79690    -999.25    -999.25   15.79690  875.73350    0.04860    2.22080    -999.25    -999.25    0.28610    1.14190    0.04860  125.36090  125.36090   72.82670    -999.25   56.55330   72.82670    1.14190    1.17280    1.17280    -999.25    -999.25    -999.25    -999.25    2.22080    1.19130  -71.42780   -1.88260    1.19130    -999.25
 3050.00000   15.97250    -999.25    -999.25   15.97250  622.35500    0.04160    2.25380    -999.25    -999.25    0.26680    1.60680    0.04160  113.50090  113.50090   56.90340    -999.25   49.92910   56.90340    1.60680    1.64710    1.64710    -999.25    -999.25    -999.25    -999.25    2.25380    1.61300  -75.57230   -6.21260    1.61300    -999.25
 3100.00000   16.00960    -999.25    -999.25   16.00960  827.67760    0.09150    2.31180    -999.25    -999.25    0.23290    1.20820    0.09150  120.66980  120.66980   64.40440    -999.25   59.11640   64.40440    1.20820    1.27600    1.27600    -999.25    -999.25    -999.25    -999.25    2.31180    1.51340  -78.88920   -9.71500    1.51340    -999.25
 3150.00000   16.48350    -999.25    -999.25   16.48350  684.13490    0.01630    2.23680    -999.25    -999.25    0.27670    1.46170    0.01630  121.67540  121.67540   61.04230    -999.25   55.68220   61.04230    1.46170    1.53230    1.53230    -999.25    -999.25    -999.25    -999.25    2.23680    1.81770  -98.32120  -29.33250    1.81770    -999.25
 3200.00000   15.84950    -999.25    -999.25   15.84950  652.40090    0.02170    2.23840    -999.25    -999.25    0.27580    1.53280    0.02170  111.61090  111.61090   59.24530    -999.25   51.78750   59.24530    1.53280    1.57390    1.57390    -999.25    -999.25    -999.25    -999.25    2.23840    1.74040  -84.75310  -15.95000    1.74040    -999.25
 3250.00000   15.66410    -999.25    -999.25   15.66410  952.65310    0.07000    2.27000    -999.25    -999.25    0.25730    1.04970    0.07000  127.32130  127.32130   66.91730    -999.25   61.25890   66.91730    1.04970    1.13810    1.13810    -999.25    -999.25    -999.25    -999.25    2.27000    1.01540  -76.84520   -8.22760    1.01540    -999.25
 3300.00000   15.58680    -999.25    -999.25   15.58680  637.95860    0.01690    2.16770    -999.25    -999.25    0.31710    1.56750    0.01690  113.63500  113.63500   49.55580    -999.25   48.23480   49.55580    1.56750    1.61000    1.61000    -999.25    -999.25    -999.25    -999.25    2.16770    1.77820  -91.02530  -22.59320    1.77820    -999.25
 3350.00000   15.36450    -999.25    -999.25   15.36450  814.06710    0.07350    2.15390    -999.25    -999.25    0.32520    1.22840    0.07350  122.07460  122.07460   54.57630    -999.25   49.37450   54.57630    1.22840    1.31810    1.31810    -999.25    -999.25    -999.25    -999.25    2.15390    1.28150  -74.67260   -6.42600    1.28150    -999.25
 3400.00000   15.20560    -999.25    -999.25   15.20560  731.68950    0.11910    2.06770    -999.25    -999.25    0.37560    1.36670    0.11910  127.71930  127.71930   48.52460    -999.25   49.48930   48.52460    1.36670    1.41300    1.41300    -999.25    -999.25    -999.25    -999.25    2.06770    1.50640  -74.46660   -6.40550    1.50640    -999.25
 3450.00000   14.87690    -999.25    -999.25   14.87690  636.01100    0.07400    2.10360    -999.25    -999.25    0.35460    1.57230    0.07400  124.59830  124.59830   48.38320    -999.25   46.76640   48.38320    1.57230    1.62320    1.62320    -999.25    -999.25    -999.25    -999.25    2.10360    1.65330  -74.28560   -6.41000    1.65330    -999.25
 3500.00000   15.20970    -999.25    -999.25   15.20970  487.87630    0.08640    2.12330    -999.25    -999.25    0.34310    2.04970    0.08640  111.78190  111.78190   44.15290    -999.25   40.28940   44.15290    2.04970    2.19700    2.19700    -999.25    -999.25    -999.25    -999.25    2.12330    3.66300  -81.04040  -13.35030    3.66300    -999.25
 3550.00000   15.33810    -999.25    -999.25   15.33810  318.81660    0.04360    2.12820    -999.25    -999.25    0.34020    3.13660    0.04360  107.60590  107.60590   56.25770    -999.25   49.68630   56.25770    3.13660    3.22060    3.22060    -999.25    -999.25    -999.25    -999.25    2.12820    3.45820  -90.87820  -23.37360    3.45820    -999.25
 3600.00000   15.40110    -999.25    -999.25   15.40110  309.64540    0.03030    2.15160    -999.25    -999.25    0.32650    3.22950    0.03030  105.59580  105.59580   47.76050    -999.25   38.27210   47.76050    3.22950    3.32080    3.32080    -999.25    -999.25    -999.25    -999.25    2.15160    3.41080  -96.68910  -29.37000    3.41080    -999.25
 3650.00000   15.78100    -999.25    -999.25   15.78100  271.61360    0.06630    2.45450    -999.25    -999.25    0.14940    3.68170    0.06630  105.46160  105.46160   77.25600    -999.25   60.16680   77.25600    3.68170    3.78740    3.78740    -999.25    -999.25    -999.25    -999.25    2.45450    3.30800  -78.41660  -11.28300    3.30800    -999.25
 3700.00000   15.61330    -999.25    -999.25   15.61330  252.42960    0.00840    2.12330    -999.25    -999.25    0.34310    3.96150    0.00840  108.37610  108.37610   35.88350    -999.25   32.34030   35.88350    3.96150    4.06350    4.06350    -999.25    -999.25    -999.25    -999.25    2.12330    4.14140  -95.66900  -28.72090    4.14140    -999.25
