~Version ---------------------------------------------------
VERS. 2.0 : CWLS log ASCII Standard -VERSION 2.0
WRAP. YES : MULTIPLE LINES PER DEPTH STEP
~Well ------------------------------------------------------
STRT.FT                   3500.0 : START DEPTH
STOP.FT                  16150.0 : STOP DEPTH
STEP.FT                 50.00000 : STEP LENGTH
NULL.                    -999.25 : NULL VALUE
COMP. CHEYENNE PETROLEUM COMPANY : COMPANY
WELL.              RUBY YOUNG #1 : WELL
FLD .                    WILDCAT : FIELD
LOC .                            : LOCATION
CNTY.                     KARNES : COUNTY
STAT.                      TEXAS : STATE
CTRY.   UNITED STATES OF AMERICA : COUNTRY
SRVC.               Schlumberger : SERVICE COMPANY
DATE.                06-Jan-1997 : LOGDATE
API .             42255313650000 : API NUMBER
UWI .             42255313650000 : UNIQUE WELL ID
SLAT.WGS84         28.8201979392 : SURFACE LATITUDE
SLON.WGS84        -97.8404688792 : SURFACE LONGITUDE
~Curve Information -----------------------------------------
DEPT    .FT    : DEPTH FEET
ASFLED  .OHMM  : AMPLIFIED SPHERICALLY FOCUSED LOG RESISTIVITY
CALWS   .IN    : CALIPER [DCALRED+9.875]<15054>[DCALRED+6.5]
CONDWS  .MMHO  : CONDUCTIVITY [1000/DRESWS]
DCALRED .IN    : DIFFERENTIAL CALIPER FROM RESISTIVITY LOG
DCORWS  .G/C3  : DENSITY CORRECTION [DRHOED]
DENWS   .G/C3  : BULK DENSITY [M=2.71 F=1.0] [CALCULATED FROM DPOWS]
DPHILSED.V/V   : DENSITY POROSITY LIMESTONE[M=2.71 F=1.0] FROM COMPOSITE RES. LOG
DPOWS   .V/V   : DENSITY POROSITY [DPHILSED]
DRESWS  .OHMM  : DEEP RESISTIVITY [IDPHED]
DRHOED  .G/C3  : DENSITY CORRECTION FROM COMPOSITE RES. LOG
DTLFED  .US/F  : DELTA TIME LONG SPACING FAR DETECTOR COMPOSITE RES. LOG
DTLNED  .US/F  : DELTA TIME LONG SPACING NEAR DETECTOR COMPOSITE RES. LOG
DTWS    .US/F  : DELTA TIME [DTLFED]
GRRED   .GAPI  : GAMMA RAY FROM RESISTIVITY LOG
GRWS    .GAPI  : GAMMA RAY [GRRED]
IDPHED  .OHMM  : INDUCTION DEEP PHASE RESISTIVITY
IMPHED  .OHMM  : INDUCTION MEDIUM PHASE RESISTIVITY
MRESWS  .OHMM  : MEDIUM RESISTIVITY [IMPHED]
NPHILSED.V/V   : NEUTRON POROSITY LIMESTONE FROM COMPOSITE RES. LOG
NPOWS   .V/V   : NEUTRON POROSITY LIMESTONE [NPHILSED]
SFLUED  .OHMM  : SPHERICALLY FOCUSED LOG RESISTIVITY
SPRED   .MV    : SPONTANEOUS POTENTIAL FROM RESISTIVITY LOG
SPWS    .MV    : SPONTANEOUS POTENTIAL [BASELINE 0 MV] [SPRED]
SRESWS  .OHMM  : SHALLOW RESISTIVITY [ASFLED], SPLICED WITH [SFLUED] AT 12400'
TENRED  .LBF   : TENSION FROM RESISTIVITY LOG
~Params ----------------------------------------------------
PD  .                     GL : PERMANENT DATUM
EPD .FT                258.6 : ELEVATION PERMANENT DATUM
LMF .                     KB : LOG MEASURED FROM
DAPD.FT                   25 : FEET ABOVE PERMANENT DATUM
DMF .                     KB : DRILLING MEASURED FROM
EKB .FT                284.5 : KELLY BUSHING
EDF .FT                283.6 : DRILLING FLOOR
EGL .FT                258.6 : GROUND LEVEL
DATE.               01/06/97 : RUN DATE
RUN .                      2 : RUN NUMBER
DD  .FT                16145 : DEPTH DRILLER
DL  .FT                16144 : DEPTH LOGGER
BLI .FT                16142 : BOTTOM LOG INTERVAL
TLI .FT                15080 : TOP LOG INTERVAL
CS  .IN                7.625 : CASING SIZE
CBD .FT                15084 : CASING BOTTOM DRILLER
CBL .FT                15080 : CASING BOTTOM LOGGER
BS  .IN                  6.5 : BIT SIZE
BSD .FT                16145 : BIT SIZE AT DEPTH
DFT .              LIG DESCO : DRILLING FLUID TYPE
DFD .                   15.9 : DRILLING FLUID DENSITY
DFV .                     47 : DRILLING FLUID VISCOSITY
DFPH.                   10.3 : DRILLING FLUID PH
DFL .                    5.2 : DRILLING FLUID LOSS
MSS .                MUD PIT : MUD SAMPLE SOURCE
RMS .OHMM                0.6 : RESISTIVITY MUD SAMPLE
MST .DEGF                 75 : MUD SAMPLE TEMPERATURE
RMF .OHMM                0.5 : RESISTIVITY MUD FILTRATE SAMPLE
MFST.DEGF                 75 : MUD FILTRATE SAMPLE TEMPERATURE
RMC .OHMM               0.92 : RESISTIVITY MUD CAKE
MCST.DEGF                 75 : MUD CAKE SAMPLE TEMPERATURE
MFSS.               MEASURED : MUD FILTRATE SAMPLE SOURCE
MCSS.             CALCULATED : MUD CAKE SAMPLE SOURCE
RMB .OHMM               0.13 : RESISTIVITY MUD AT BHT
TCS .HRS                   0 : TIME CIRCULATED STOPPED
TLAB.HRS                1530 : TIME LOGGER AT BOTTOM
LUN .                   2020 : LOGGING UNIT NUMBER
LUL .               VICTORIA : LOGGING UNIT LOCATION
ENGI.                  NAHRI : RECORDING ENGINEER
WITN.    ZAUNBRECHER BRANDON : WITNESSED BY
CLNT.                A2DTECH : CLIENT CODE
ORIG.               5" PRINT : ORIGIN OF DATA
UWI .         42255313650000 : UNIQUE WELL ID
DICO. A2D Technologies, Inc. : DIGITIZING COMPANY
~Other -----------------------------------------------------
MUD WEIGHT USED 9.6 TO 18.8 WHILE DRILLING
~ASCII -----------------------------------------------------
# ...
 13300.00000  970.11670    -999.25   19.85720    -999.25    -999.25    -999.25    -999.25    -999.25   50.35960    -999.25   96.57720   98.15860   96.57720   18.92010   18.92010   50.35960   21.77790   21.77790    -999.25    -999.25  228.89550    -999.25    -999.25  228.89550 4773.33790
 13350.00000  118.42280    -999.25   24.71410    -999.25    -999.25    -999.25    -999.25    -999.25   40.46270    -999.25  101.95540  100.05210  101.95540   20.85850   20.85850   40.46270   23.92160   23.92160    -999.25    -999.25   99.61350    -999.25    -999.25   99.61350 4829.49800
 13400.00000   29.13030    -999.25   89.49690    -999.25    -999.25    -999.25    -999.25    -999.25   11.17360    -999.25  107.49160  110.23040  107.49160   17.64490   17.64490   11.17360    9.91000    9.91000    -999.25    -999.25   34.84620    -999.25    -999.25   34.84620 4838.49320
 13450.00000   21.01160    -999.25  161.67290    -999.25    -999.25    -999.25    -999.25    -999.25    6.18530    -999.25  115.81560  114.95260  115.81560   17.06330   17.06330    6.18530    7.06040    7.06040    -999.25    -999.25   21.62490    -999.25    -999.25   21.62490 4824.98680
 13500.00000   18.58920    -999.25  103.07450    -999.25    -999.25    -999.25    -999.25    -999.25    9.70170    -999.25  114.65180  115.57650  114.65180   14.40500   14.40500    9.70170    8.34540    8.34540    -999.25    -999.25   17.57990    -999.25    -999.25   17.57990 4867.41990
 13550.00000  999.66810    -999.25   28.40050    -999.25    -999.25    -999.25    -999.25    -999.25   35.21070    -999.25   89.22100   90.87240   89.22100   16.91560   16.91560   35.21070   21.73340   21.73340    -999.25    -999.25  406.89430    -999.25    -999.25  406.89430 4840.92820
 13600.00000  409.31930    -999.25   27.44890    -999.25    -999.25    -999.25    -999.25    -999.25   36.43130    -999.25   94.08900   95.06130   94.08900   16.87070   16.87070   36.43130   21.13370   21.13370    -999.25    -999.25  136.70110    -999.25    -999.25  136.70110 4881.94090
 13650.00000   70.00970    -999.25   25.75920    -999.25    -999.25    -999.25    -999.25    -999.25   38.82110    -999.25   99.77180   97.60240   99.77180   15.46380   15.46380   38.82110   19.61360   19.61360    -999.25    -999.25   70.87620    -999.25    -999.25   70.87620 4948.38090
 13700.00000  148.78480    -999.25   24.26110    -999.25    -999.25    -999.25    -999.25    -999.25   41.21830    -999.25   97.32780   95.19860   97.32780   14.68690   14.68690   41.21830   20.60110   20.60110    -999.25    -999.25  114.46230    -999.25    -999.25  114.46230 4997.80420
 13750.00000    -999.25    -999.25   26.12410    -999.25    -999.25    -999.25    -999.25    -999.25   38.27890    -999.25   92.06710   90.44290   92.06710   28.10280   28.10280   38.27890   18.58780   18.58780    -999.25    -999.25  535.88390    -999.25    -999.25  535.88390 4944.04300
 13800.00000  963.14860    -999.25   18.27090    -999.25    -999.25    -999.25    -999.25    -999.25   54.73170    -999.25   92.56220   91.99720   92.56220   14.31950   14.31950   54.73170   22.30060   22.30060    -999.25    -999.25  228.68160    -999.25    -999.25  228.68160 4990.11570
 13850.00000    -999.25    -999.25   29.94530    -999.25    -999.25    -999.25    -999.25    -999.25   33.39420    -999.25   91.02790   89.34800   91.02790   15.51140   15.51140   33.39420   19.51320   19.51320    -999.25    -999.25  301.12370    -999.25    -999.25  301.12370 4956.63230
 13900.00000   79.10740    -999.25   20.30650    -999.25    -999.25    -999.25    -999.25    -999.25   49.24540    -999.25   93.88820   96.45440   93.88820   12.97460   12.97460   49.24540   21.21430   21.21430    -999.25    -999.25   87.11390    -999.25    -999.25   87.11390 4990.48190
 13950.00000  999.55570    -999.25   24.55600    -999.25    -999.25    -999.25    -999.25    -999.25   40.72330    -999.25   92.85100   91.34380   92.85100   14.26070   14.26070   40.72330   21.24290   21.24290    -999.25    -999.25  258.17910    -999.25    -999.25  258.17910 4981.08790
 14000.00000  998.08760    -999.25   22.09270    -999.25    -999.25    -999.25    -999.25    -999.25   45.26390    -999.25   93.58920   93.40510   93.58920   19.10760   19.10760   45.26390   22.20400   22.20400    -999.25    -999.25  272.97630    -999.25    -999.25  272.97630 5002.87260
 14050.00000  572.39620    -999.25   23.89910    -999.25    -999.25    -999.25    -999.25    -999.25   41.84260    -999.25   93.08540   92.49660   93.08540   22.54890   22.54890   41.84260   22.31480   22.31480    -999.25    -999.25  172.54760    -999.25    -999.25  172.54760 5037.14010
 14100.00000 1000.00000    -999.25   22.32320    -999.25    -999.25    -999.25    -999.25    -999.25   44.79650    -999.25   90.83310   91.74040   90.83310   20.31280   20.31280   44.79650   23.53590   23.53590    -999.25    -999.25  248.36440    -999.25    -999.25  248.36440 5031.70750
 14150.00000 1000.00000    -999.25   11.27560    -999.25    -999.25    -999.25    -999.25    -999.25   88.68670    -999.25   87.19360   89.99100   87.19360   24.19590   24.19590   88.68670   26.43970   26.43970    -999.25    -999.25  195.88990    -999.25    -999.25  195.88990 5052.74320
 14200.00000  307.87140    -999.25   12.54390    -999.25    -999.25    -999.25    -999.25    -999.25   79.72000    -999.25   89.82540   88.50000   89.82540   19.30470   19.30470   79.72000   30.10470   30.10470    -999.25    -999.25  127.80570    -999.25    -999.25  127.80570 5066.32320
 14250.00000  131.13930    -999.25   14.84530    -999.25    -999.25    -999.25    -999.25    -999.25   67.36160    -999.25   99.03060   97.31470   99.03060   22.46860   22.46860   67.36160   25.22170   25.22170    -999.25    -999.25   94.47110    -999.25    -999.25   94.47110 5093.89260
 14300.00000  996.01670    -999.25    4.97340    -999.25    -999.25    -999.25    -999.25    -999.25  201.07050    -999.25   92.32790   89.60510   92.32790   23.59980   23.59980  201.07050   27.14940   27.14940    -999.25    -999.25  336.19890    -999.25    -999.25  336.19890 5071.10010
 14350.00000    -999.25    -999.25   25.28580    -999.25    -999.25    -999.25    -999.25    -999.25   39.54800    -999.25   86.59180   89.36110   86.59180   18.80690   18.80690   39.54800   18.58390   18.58390    -999.25    -999.25  772.74340    -999.25    -999.25  772.74340 5115.52980
 14400.00000    -999.25    -999.25    9.56930    -999.25    -999.25    -999.25    -999.25    -999.25  104.50130    -999.25   89.03880   89.03880   89.03880   17.57370   17.57370  104.50130   27.04020   27.04020    -999.25    -999.25 1334.87650    -999.25    -999.25 1334.87650 5141.85450
 14450.00000    -999.25    -999.25    5.46390    -999.25    -999.25    -999.25    -999.25    -999.25  183.02080    -999.25   95.85760   94.88780   95.85760   20.74850   20.74850  183.02080   26.05210   26.05210    -999.25    -999.25 1297.22030    -999.25    -999.25 1297.22030 5141.39940
 14500.00000    -999.25    -999.25    4.65180    -999.25    -999.25    -999.25    -999.25    -999.25  214.97230    -999.25  108.19770  106.65050  108.19770   31.32770   31.32770  214.97230   39.67540   39.67540    -999.25    -999.25  284.10400    -999.25    -999.25  284.10400 5175.68160
 14550.00000  545.73730    -999.25    5.56290    -999.25    -999.25    -999.25    -999.25    -999.25  179.76210    -999.25  102.86040  104.12530  102.86040   18.88460   18.88460  179.76210   37.38900   37.38900    -999.25    -999.25  189.94040    -999.25    -999.25  189.94040 5204.60500
 14600.00000   77.75430    -999.25   17.51220    -999.25    -999.25    -999.25    -999.25    -999.25   57.10300    -999.25  101.62850  102.28330  101.62850   15.47360   15.47360   57.10300   25.75400   25.75400    -999.25    -999.25   80.75000    -999.25    -999.25   80.75000 5213.55860
 14650.00000  334.55310    -999.25    5.45340    -999.25    -999.25    -999.25    -999.25    -999.25  183.37320    -999.25  112.42040  113.87390  112.42040   21.02270   21.02270  183.37320   49.61530   49.61530    -999.25    -999.25  227.70360    -999.25    -999.25  227.70360 5270.59330
