~Version ---------------------------------------------------
VERS. 2.0 : CWLS log ASCII Standard -VERSION 2.0
WRAP.  NO : ONE LINE PER DEPTH STEP
~Well ------------------------------------------------------
STRT.F                  2500.0 : START DEPTH
STOP.F                 14650.0 : STOP DEPTH
STEP.F                50.00000 : STEP LENGTH
NULL.                  -999.25 : NULL VALUE
COMP.     MARATHON OIL COMPANY : COMPANY
WELL.           BROUNKOWSKI #1 : WELL
FLD .                  WILDCAT : FIELD
LOC .                          : LOCATION
CNTY.                ROBERTSON : COUNTY
STAT.                    TEXAS : STATE
CTRY. UNITED STATES OF AMERICA : COUNTRY
SRVC.             Schlumberger : SERVICE COMPANY
DATE.              02-Oct-1995 : LOGDATE
API .           42395304350000 : API NUMBER
UWI .           42395304350000 : UNIQUE WELL ID
SLAT.WGS84       31.2546896053 : SURFACE LATITUDE
SLON.WGS84      -96.3452160282 : SURFACE LONGITUDE
~Curve Information -----------------------------------------
DEPT.F                 : 
SPR .MV   06 010 01 00 : SPONTANEOUS POTENTIAL
AO20.OHMM 06 120 20 00 : 20-IN. RESISTIVITY, 1-FT RESOLUTION
AO30.OHMM 06 120 30 00 : 30-IN. RESISTIVITY, 1-FT RESOLUTION
AO90.OHMM 06 120 90 00 : 90-IN. RESISTIVITY, 1-FT RESOLUTION
IMPH.OHMM 06 120 44 00 : INDUCTION MEDIUM PHASOR RES.
IDPH.OHMM 06 120 46 00 : INDUCTION DEEP PHASOR RES.
SFLU.OHMM 06 220 01 00 : SPHERICALLY FOCUSED LOG RESISTIVITY
DCAL.IN   06 280 30 00 : DIFFERENTIAL CALIPER
GRR .GAPI 06 310 01 00 : GAMMA RAY
DTLN.US/F 60 523 00 00 : ACOUSTIC TRANSIT TIME, LONG SPACED, NEAR ARRAY
NPHI.DEC  42 890 01 00 : NEUTRON POROSITY LIMESTONE
DPHI.DEC  45 890 10 00 : DENSITY POROSITY LIMESTONE
PEF .B/E  45 358 01 00 : PHOTOELECTRIC FACTOR
DRHO.G/C3 45 356 01 00 : DENSITY CORRECTION
TEND.LB   45 635 01 00 : TENSION FROM DENSITY LOG
AO60.OHMM 06 120 60 00 : 60-IN. RESISTIVITY, 1-FT RESOLUTION
DTLF.US/F 60 523 00 00 : ACOUSTIC TRANSIT TIME, LONG SPACED, FAR ARRAY
~Params ----------------------------------------------------
EKB .F                    414.0 : Kelly bushing
EGL .F                    383.0 : Ground level
EDF .F                    413.0 : Drilling floor
EPD .F                    383.0 : Permanent datum
TD  .F                  14691.0 : Total depth
DATE.               02-OCT-1995 : DATE LOGGED
CLNT.                   A2DTECH : CLIENT CODE
SL  . 17650' FNWL & 22170' FNEL : SURFACE LOCATION
PD  .                        GL : PERMANENT DATUM
LMF .                       RKB : LOG MEASURED FROM
DMF .                       RKB : DRILLING MEASURED FROM
DL  .F                    14691 : DEPTH LOGGER
BLI .F                    14685 : BOTTOM LOG INTERVAL
CS1 .IN                       7 : CASING SIZE
CBD1.                7" @ 3340' : CASING DRILLER 1
BS1 .IN                   5.875 : BIT SIZE
DFT .                   THERMEX : TYPE FLUID IN HOLE
DFD .                      16.7 : DENSITY
DFV .                        44 : VISCOSITY
DFPH.                       9.1 : PH
DFL .                         3 : FLUID LOSS
MSS .                  FLOWLINE : SOURCE OF SAMPLE
RMS .OHMM                 1.665 : RM
RMF .OHMM                 0.856 : RMF
RMC .OHMM                 1.875 : RMC
MFSS.                      MEAS : SOURCE RMF.
MCSS.                      CALC : SOURCE RMC.
RMB .OHMM                 0.494 : RM. AT BHT
BHT .F                      323 : BHT.
TCS .HRS                    200 : TIME CIRC. STOPPED
TLAB.                      1530 : TIME LOGGER AT BOTTOM
LUN .                      2019 : LOGGING UNIT NUMBER
LUL .                     TYLER : LOGGING UNIT LOCATION
ENGI.                   GARDNER : RECORDED BY
WITN.              EICHELBERGER : WITNESSED BY
ORIG.                  5" PRINT : ORIGIN OF DATA
UWI .            42395304350000 : UNIQUE WELL ID
DICO.    A2D TECHNOLOGIES, INC. : DIGITIZING COMPANY
DD  .F                    14706 : Depth driller
TLI .F                    10122 : Top log interval
CBL1.F                    10322 : Casing logger 1
BSD1.F                    14706 : Depth drilled with bit1
~Other -----------------------------------------------------
~ASCII -----------------------------------------------------
# ...
 6600.00000  -24.03730    2.35400    3.74340    4.10020    -999.25    -999.25    -999.25    4.90710   31.00540   77.84780    -999.25    -999.25    -999.25    -999.25    -999.25    2.92720   76.39760
 6650.00000  -24.40820    0.58930    1.27950    1.48450    -999.25    -999.25    -999.25    6.48560   28.44920  112.46150    -999.25    -999.25    -999.25    -999.25    -999.25    3.92240  113.76860
 6700.00000  -24.24190    9.08720    8.59550    8.69640    -999.25    -999.25    -999.25    2.85500   24.19580   76.08670    -999.25    -999.25    -999.25    -999.25    -999.25   10.21900   81.62930
 6750.00000  -24.24190    3.57450    4.48990    3.93920    -999.25    -999.25    -999.25    2.18290   29.23680   73.46210    -999.25    -999.25    -999.25    -999.25    -999.25    3.93310   72.51120
 6800.00000  -22.62280    1.38550    1.61110    4.24810    -999.25    -999.25    -999.25    7.01210   32.27880   99.27070    -999.25    -999.25    -999.25    -999.25    -999.25    9.13490  114.19880
 6850.00000  -27.35470   19.51460   15.92620   13.09380    -999.25    -999.25    -999.25    1.73970   19.79810   57.27790    -999.25    -999.25    -999.25    -999.25    -999.25   15.98970   57.11510
 6900.00000  -25.66820   10.79560    6.92630    6.04760    -999.25    -999.25    -999.25    2.49200   23.29290   64.92490    -999.25    -999.25    -999.25    -999.25    -999.25    5.99620   64.38970
 6950.00000  -28.01220   14.58840    9.48020    8.05450    -999.25    -999.25    -999.25    2.24590   30.72380   61.07550    -999.25    -999.25    -999.25    -999.25    -999.25   10.87230   60.85200
 7000.00000  -24.39040   13.87500   10.96200    9.23310    -999.25    -999.25    -999.25    1.95120   26.24900   61.84620    -999.25    -999.25    -999.25    -999.25    -999.25    9.53290   61.15490
 7050.00000  -23.72570    2.36510    1.64260    1.38440    -999.25    -999.25    -999.25    3.38970   29.33220   74.92310    -999.25    -999.25    -999.25    -999.25    -999.25    1.53190   72.37580
 7100.00000  -24.65810   13.19090   14.07620   15.00950    -999.25    -999.25    -999.25    2.16220   29.07120   60.66500    -999.25    -999.25    -999.25    -999.25    -999.25   15.05350   59.99200
 7150.00000  -21.66810    9.30670    7.89980    6.51770    -999.25    -999.25    -999.25    2.34550   35.38610   61.89130    -999.25    -999.25    -999.25    -999.25    -999.25   11.60780   62.14350
 7200.00000  -21.86340    9.99140   11.12700   16.71210    -999.25    -999.25    -999.25    2.70470   33.12810   64.22040    -999.25    -999.25    -999.25    -999.25    -999.25    8.59240   63.99100
 7250.00000  -21.17930  256.48230    8.52020   13.38880    -999.25    -999.25    -999.25    3.77250   26.36270   59.69630    -999.25    -999.25    -999.25    -999.25    -999.25   11.31780   59.50860
 7300.00000  -23.94070   14.21330   14.74250   13.21780    -999.25    -999.25    -999.25    1.67170   32.46760   60.92310    -999.25    -999.25    -999.25    -999.25    -999.25   15.03320   60.77350
 7350.00000  -22.17840   21.74590   25.20790   19.41550    -999.25    -999.25    -999.25    1.87720   28.53230   59.41610    -999.25    -999.25    -999.25    -999.25    -999.25   21.37450   58.16280
 7400.00000  -23.56460 1618.31810   88.07470   63.84140    -999.25    -999.25    -999.25    2.04390   18.90470   52.54930    -999.25    -999.25    -999.25    -999.25    -999.25   26.65890   52.03420
 7450.00000  -21.24070   64.65290    9.08480   19.48600    -999.25    -999.25    -999.25    2.10890   20.28440   51.23050    -999.25    -999.25    -999.25    -999.25    -999.25   13.64260   49.67540
 7500.00000  -21.13170   26.15380   22.25080   23.10490    -999.25    -999.25    -999.25    1.53310   23.43710   56.92080    -999.25    -999.25    -999.25    -999.25    -999.25   19.89480   55.63490
 7550.00000  -18.88480    3.56170    3.99520    2.17940    -999.25    -999.25    -999.25    2.44120   28.73570   70.83490    -999.25    -999.25    -999.25    -999.25    -999.25    2.23390   40.66960
 7600.00000  -20.62110   22.95080   10.63330   12.74500    -999.25    -999.25    -999.25    2.99990   29.93900   60.61340    0.09770    0.11140    6.63170    0.00140 3118.38010   11.42750   60.42400
 7650.00000  -22.17960   15.14690   16.09900   27.32910    -999.25    -999.25    -999.25    1.44110   27.24850   56.20540    0.01780    0.01040    5.32940   -0.02590 3180.68580   25.84090   56.07040
 7700.00000  -22.03400   46.02340   52.64840   27.18500    -999.25    -999.25    -999.25    2.58760   29.27150   50.83190   -0.00070    0.00400    6.93670   -0.01080 3308.71560   38.90330   50.84080
 7750.00000  -34.06280    4.48720    3.55040    9.75920    -999.25    -999.25    -999.25    1.67230   16.23080   58.58330    0.07470    0.10170    8.57800   -0.02140 3086.90360    5.24350   57.86440
 7800.00000  -45.46410   36.30130   35.27030   25.36530    -999.25    -999.25    -999.25    1.77530   17.17580   56.46120    0.07000    0.06760    9.76050   -0.02250 2894.55740   27.78990   55.76980
 7850.00000  -29.82770  117.83930   92.69670  148.72530    -999.25    -999.25    -999.25    2.14100   31.25410   52.61260    0.00380    0.02480    7.07580   -0.00780 3180.68330  165.00760   52.21940
 7900.00000  -21.86450   16.19180   14.95920   10.63260    -999.25    -999.25    -999.25    2.35320   31.56010   65.12100    0.10030    0.02980    7.45870   -0.02590 3181.47170    6.86990   62.56950
 7950.00000  -23.95400   20.45760   15.59800   14.08140    -999.25    -999.25    -999.25    1.98180   26.11930   56.54580    0.02460    0.02440    6.43720   -0.01230 2962.34500    4.38550   56.13220
 8000.00000  -41.60710   46.08640   22.35380   35.01870    -999.25    -999.25    -999.25    1.79830   25.85160   54.44800    0.01940    0.03620    7.71940    0.02830 2836.12870   41.43610   53.63400
 8050.00000  -56.58830    2.31380    2.02270    1.28680    -999.25    -999.25    -999.25    1.87570   25.85740   65.62040    0.17390    0.15140    -999.25   -0.02140 3398.75320    1.31050   65.15550
 8100.00000  -31.07550   30.36980   15.42770   13.99850    -999.25    -999.25    -999.25    2.10280   29.52560   59.01460    0.05290    0.00540    5.67740   -0.01890 3128.72090   13.28930   58.43600
 8150.00000  -27.45220  101.96630  145.18970  111.10320    -999.25    -999.25    -999.25    1.74500   26.59520   50.87150    0.01390    0.01900    6.65140   -0.02290 3149.53270   87.70600   50.83710
 8200.00000  -10.99290    7.95010    6.56060    6.37080    -999.25    -999.25    -999.25    1.36230   34.93880   64.76760    0.10280    0.02350    5.39870   -0.02230 3305.29610    5.79300   64.14200
 8250.00000  -13.47830   49.84930   55.50320   37.22900    -999.25    -999.25    -999.25    1.19830   27.32910   53.78380    0.01690    0.01360    5.98490   -0.03240 3336.22270   41.26380   53.22870
 8300.00000   -8.19630    1.60850    4.73560   28.52670    -999.25    -999.25    -999.25    3.64650   47.49720   72.30770    0.29830    0.27170   10.02350    0.01920 3118.37870   34.70890   72.53730
 8350.00000   -9.85310   22.75240   23.02590   24.82990    -999.25    -999.25    -999.25    1.66090   32.72670   57.53780    0.06110    0.01170    5.74240   -0.01840 3398.63010   23.77800   56.22580
 8400.00000   -4.47460    3.05440    2.73250    7.01510    -999.25    -999.25    -999.25    5.80940   45.38570   93.99850    0.28410    0.37950    -999.25   -0.01990 3305.29590    4.94050   94.43800
 8450.00000   -1.67700   10.06070   11.00600    2.95620    -999.25    -999.25    -999.25    5.97010   57.87460   77.23080    0.40350    0.32800    -999.25   -0.00930 3326.06470    1.86240   86.08580
 8500.00000   -2.42690    2.37800    1.60780    2.43470    -999.25    -999.25    -999.25    7.43020   45.42260   88.45910    0.37950    0.39380    -999.25   -0.01050 3261.94970    2.50500   88.39860
 8550.00000   -2.29810    3.39780    3.47440    4.36060    -999.25    -999.25    -999.25    1.63830   39.86090   57.99880    0.04580    0.03700    5.67680   -0.01990 3679.12700    4.70340   58.00560
 8600.00000   -1.05590    8.16520    5.55800    7.09650    -999.25    -999.25    -999.25    3.10340   26.50470   69.32600    0.08230    0.03340    7.15190   -0.04510 3727.25020    9.76080   58.60990
