~Version ---------------------------------------------------
VERS.      2.0 : CWLS log ASCII Standard -VERSION 2.0
WRAP.      YES : Multiple lines per depth step
CREA. 03/30/13 : LAS Creation Date
~Well ------------------------------------------------------
STRT.FT                 1500.0 : START DEPTH
STOP.FT                10200.0 : STOP DEPTH
STEP.FT               50.00000 : STEP LENGTH
NULL.                  -999.25 : NULL VALUE
COMP.     MARATHON OIL COMPANY : COMPANY
WELL.   MARATHON MARSHALL A #7 : WELL
FLD .               BEAR GRASS : FIELD
LOC .                          : LOCATION
CNTY.                     LEON : COUNTY
STAT.                    TEXAS : STATE
CTRY. UNITED STATES OF AMERICA : COUNTRY
SRVC.             Schlumberger : SERVICE COMPANY
DATE.              17-Feb-1998 : LOGDATE
API .           42289312850000 : API NUMBER
UWI .           42289312850000 : UNIQUE WELL ID
SLAT.WGS84       31.3583372232 : SURFACE LATITUDE
SLON.WGS84      -96.2380251185 : SURFACE LONGITUDE
~Curve Information -----------------------------------------
DEPT    .FT    : DEPTH FEET
AHT10ED .OHMM  : 10 INCH RESISTIVITY TWO FOOT RESOLUTION FROM RESISTIVITY LOG
AHT20ED .OHMM  : 20 INCH RESISTIVITY TWO FOOT RESOLUTION FROM RESISTIVITY LOG
AHT30ED .OHMM  : 30 INCH RESISTIVITY TWO FOOT RESOLUTION FROM RESISTIVITY LOG
AHT60ED .OHMM  : 60 INCH RESISTIVITY TWO FOOT RESOLUTION FROM RESISTIVITY LOG
AHT90ED .OHMM  : 90 INCH RESISTIVITY TWO FOOT RESOLUTION FROM RESISTIVITY LOG
CALWS   .IN    : CALIPER [DCALRED+BITS]
CONDWS  .MMHO  : CONDUCTIVITY [1000/DRESWS]
DCALRED .IN    : DIFFERENTIAL CALIPER FROM RESISTIVITY LOG
DCORWS  .G/C3  : DENSITY CORRECTION [HDRAED]
DENWS   .G/C3  : FORMATION BULK DENSITY [CALC FROM DPOWS, M=2.71,F=1.0]
DPHZLSED.V/V   : DENSITY POROSITY LIMESTONE [M=2.71,F=1.0] FROM DENSITY LOG
DPOWS   .V/V   : DENSITY POROSITY LIMESTONE [DPHZLSED]
DRESWS  .OHMM  : DEEP RESISTIVITY [AHT90ED]
DTED    .US/F  : DELTA TIME FROM SONIC LOG
DTWS    .US/F  : COMPRESSIONAL SONIC [DTED]
GRMED   .GAPI  : GAMMA RAY FROM MICROLOG
GRRED   .GAPI  : GAMMA RAY FROM RESISTIVITY LOG
GRWS    .GAPI  : GAMMA RAY [GRRED SPL. TO GRMED @ 4602']
HDRAED  .G/C3  : DENSITY CORRECTION FROM DENSITY LOG
MCALED  .IN    : CALIPER FROM MICROLOG
MRESWS  .OHMM  : MEDIUM RESISTIVITY [AHT30ED]
NPHILSED.V/V   : NEUTRON POROSITY LIMESTONE FROM DENSITY LOG
NPOWS   .V/V   : NEUTRON POROSITY LIMESTONE [NPHILSED]
SPRED   .MV    : SPONTANEOUS POTENTIAL FROM RESISTIVITY LOG
SPWS    .MV    : SPONTANEOUS POTENTIAL [BASELINE 0 MV, SPRED]
SRESWS  .OHMM  : SHALLOW RESISTIVITY [AHT10ED]
TENRED  .LBF   : TENSION FROM RESISTIVITY LOG
~Params ----------------------------------------------------
PD  .                     GL : PERMANENT DATUM
EPD .FT                  472 : ELEVATION PERMANENT DATUM
LMF .                     KB : LOG MEASURED FROM
DAPD.FT                   17 : FEET ABOVE PERMANENT DATUM
DMF .                     KB : DRILLING MEASURED FROM
EKB .FT                  489 : KELLY BUSHING
EDF .FT                  488 : DRILLING FLOOR
EGL .FT                  472 : GROUND LEVEL
DATE.               02/17/98 : RUN DATE
RUN .                      1 : RUN NUMBER
DD  .FT                10250 : DEPTH DRILLER
DL  .FT                10240 : DEPTH LOGGER
BLI .FT                10240 : BOTTOM LOG INTERVAL
TLI .FT                 1610 : TOP LOG INTERVAL
MST .DEGF                110 : MUD SAMPLE TEMPERATURE
MFST.DEGF                109 : MUD FILTRATE SAMPLE TEMPERATURE
MCST.DEGF                109 : MUD CAKE SAMPLE TEMPERATURE
MFSS.                   CALC : MUD FILTRATE SAMPLE SOURCE
MCSS.                   CALC : MUD CAKE SAMPLE SOURCE
CLNT.                A2DTECH : CLIENT CODE
ORIG.         1" 2" 5" PRINT : ORIGIN OF DATA
UWI .         42289312850000 : UNIQUE WELL ID
DICO. A2D Technologies, Inc. : DIGITIZING COMPANY
~Other -----------------------------------------------------
AIT & LDT-CNL & BHC & ML RUN IN COMBO
~ASCII -----------------------------------------------------
# ...
 2800.00000    1.32290    1.42140    1.54580    1.66340    1.71540   10.31780  582.95440    2.44280    -999.25    -999.25    -999.25    -999.25    1.71540  109.69820  109.69820    -999.25   68.03400   68.03400    -999.25    -999.25    1.54580    -999.25    -999.25  -23.91770   -4.66300    1.32290 2116.55050
 2850.00000    0.94130    1.09970    1.18770    1.23060    1.25850    9.06810  794.59670    1.19310    -999.25    -999.25    -999.25    -999.25    1.25850  118.50150  118.50150    -999.25   86.77440   86.77440    -999.25    -999.25    1.18770    -999.25    -999.25  -24.10350   -3.74570    0.94130 2137.36890
 2900.00000    1.53790    1.56540    1.68620    1.75190    1.81050   10.84280  552.33360    2.96780    -999.25    -999.25    -999.25    -999.25    1.81050  126.10250  126.10250    -999.25   79.33640   79.33640    -999.25    -999.25    1.68620    -999.25    -999.25  -26.41130   -4.95030    1.53790 2065.59380
 2950.00000    0.84410    1.03360    1.07770    1.33670    1.36530    8.46520  732.43980    0.59020    -999.25    -999.25    -999.25    -999.25    1.36530  124.08310  124.08310    -999.25   90.17970   90.17970    -999.25    -999.25    1.07770    -999.25    -999.25  -25.13750   -2.51750    0.84410 2206.74510
 3000.00000    1.19930    1.34310    1.40910    1.44150    1.48270    9.88770  674.44530    2.01270    -999.25    -999.25    -999.25    -999.25    1.48270  115.28360  115.28360    -999.25   95.58190   95.58190    -999.25    -999.25    1.40910    -999.25    -999.25  -28.22420   -3.99290    1.19930 2171.94170
 3050.00000    0.83740    1.00780    1.08480    1.25650    1.28790   11.60550  776.45780    3.73050    -999.25    -999.25    -999.25    -999.25    1.28790  124.58280  124.58280    -999.25   75.03010   75.03010    -999.25    -999.25    1.08480    -999.25    -999.25  -31.52210   -5.67960    0.83740 2122.57200
 3100.00000    1.27030    1.36570    1.45290    1.48610    1.50820   10.65180  663.04200    2.77680    -999.25    -999.25    -999.25    -999.25    1.50820  114.47820  114.47820    -999.25   78.65390   78.65390    -999.25    -999.25    1.45290    -999.25    -999.25  -32.37950   -5.35420    1.27030 2136.03390
 3150.00000    1.14440    1.27500    1.33420    1.36510    1.38540   11.59140  721.81320    3.71640    -999.25    -999.25    -999.25    -999.25    1.38540  118.42610  118.42610    -999.25   75.76690   75.76690    -999.25    -999.25    1.33420    -999.25    -999.25  -31.96130   -4.66360    1.14440 2130.20340
 3200.00000    0.93420    1.01140    1.08290    1.15410    1.20910   10.98250  827.06150    3.10750    -999.25    -999.25    -999.25    -999.25    1.20910  116.96480  116.96480    -999.25   69.36300   69.36300    -999.25    -999.25    1.08290    -999.25    -999.25  -36.52050   -8.95030    0.93420 2139.00100
 3250.00000    0.76770    0.83840    0.89490    0.95150    0.98830   11.48050 1011.83850    3.60550    -999.25    -999.25    -999.25    -999.25    0.98830  125.28900  125.28900    -999.25  103.47870  103.47870    -999.25    -999.25    0.89490    -999.25    -999.25  -31.17610   -3.28920    0.76770 2236.76460
 3300.00000    1.11460    1.19780    1.26020    1.28820    1.30780   12.37990  764.64290    4.50490    -999.25    -999.25    -999.25    -999.25    1.30780  116.78120  116.78120    -999.25   78.94330   78.94330    -999.25    -999.25    1.26020    -999.25    -999.25  -37.84840   -7.47790    1.11460 2263.48850
 3350.00000    0.74050    0.82890    0.87890    0.91720    0.92940   12.15730 1075.96300    4.28230    -999.25    -999.25    -999.25    -999.25    0.92940  127.53950  127.53950    -999.25  101.70610  101.70610    -999.25    -999.25    0.87890    -999.25    -999.25  -36.98290   -4.50520    0.74050 2250.85160
 3400.00000    1.20490    1.34540    1.39740    1.46740    1.48920   11.90840  671.50150    4.03340    -999.25    -999.25    -999.25    -999.25    1.48920  114.79160  114.79160    -999.25   81.01120   81.01120    -999.25    -999.25    1.39740    -999.25    -999.25  -37.89030   -4.72100    1.20490 2231.42190
 3450.00000    1.00090    1.07900    1.12570    1.15150    1.16870   11.57580  855.65160    3.70080    -999.25    -999.25    -999.25    -999.25    1.16870  117.29060  117.29060    -999.25   82.58570   82.58570    -999.25    -999.25    1.12570    -999.25    -999.25  -38.28010   -4.41920    1.00090 2201.53100
 3500.00000    1.14820    1.17270    1.25230    1.28640    1.30570   10.94340  765.87270    3.06840    -999.25    -999.25    -999.25    -999.25    1.30570  113.82850  113.82850    -999.25   78.82920   78.82920    -999.25    -999.25    1.25230    -999.25    -999.25  -39.46700   -4.91450    1.14820 2222.38160
 3550.00000    0.91320    0.94020    0.95950    0.97230    1.00500   10.92690  995.02490    3.05190    -999.25    -999.25    -999.25    -999.25    1.00500  121.12650  121.12650    -999.25   86.33270   86.33270    -999.25    -999.25    0.95950    -999.25    -999.25  -38.36610   -3.12200    0.91320 2163.47440
 3600.00000    0.88100    0.97790    0.99700    1.02220    1.03820    9.93710  963.20550    2.06210    -999.25    -999.25    -999.25    -999.25    1.03820  119.52750  119.52750    -999.25   87.70090   87.70090    -999.25    -999.25    0.99700    -999.25    -999.25  -38.49640   -2.54230    0.88100 2287.43330
 3650.00000    3.24640    3.16980    3.09620    3.00050    2.92360    8.61340  342.04410    0.73840    -999.25    -999.25    -999.25    -999.25    2.92360   90.16640   90.16640    -999.25   75.00890   75.00890    -999.25    -999.25    3.09620    -999.25    -999.25  -63.25130  -24.76460    3.24640 2314.79660
 3700.00000    2.48870    2.56220    2.62750    2.65600    2.72960    7.97520  366.35400    0.10020    -999.25    -999.25    -999.25    -999.25    2.72960   92.82200   92.82200    -999.25   93.65970   93.65970    -999.25    -999.25    2.62750    -999.25    -999.25  -52.06870  -11.04940    2.48870 2477.36690
 3750.00000    1.51600    1.65700    1.69390    1.74040    1.77190    9.07960  564.36590    1.20460    -999.25    -999.25    -999.25    -999.25    1.77190  105.74380  105.74380    -999.25   94.50580   94.50580    -999.25    -999.25    1.69390    -999.25    -999.25  -44.33900   -1.52040    1.51600 2462.06050
 3800.00000    2.01970    2.09490    2.16520    2.24970    2.31990    9.88440  431.05310    2.00940    -999.25    -999.25    -999.25    -999.25    2.31990   99.62110   99.62110    -999.25   81.34320   81.34320    -999.25    -999.25    2.16520    -999.25    -999.25  -47.28130   -5.85100    2.01970 2357.78520
 3850.00000    1.13770    1.23530    1.31800    1.35850    1.38690   10.64170  721.03250    2.76670    -999.25    -999.25    -999.25    -999.25    1.38690  114.13920  114.13920    -999.25   86.83770   86.83770    -999.25    -999.25    1.31800    -999.25    -999.25  -44.95420   -2.85460    1.13770 2404.01440
 3900.00000    1.54140    1.58930    1.61030    1.62910    1.69190   10.36430  591.05150    2.48930    -999.25    -999.25    -999.25    -999.25    1.69190  103.32480  103.32480    -999.25   75.88670   75.88670    -999.25    -999.25    1.61030    -999.25    -999.25  -45.74400   -2.97520    1.54140 2367.71480
 3950.00000    1.72320    1.78090    1.86460    1.93570    1.95270    9.68770  512.11140    1.81270    -999.25    -999.25    -999.25    -999.25    1.95270  100.51540  100.51540    -999.25   83.21290   83.21290    -999.25    -999.25    1.86460    -999.25    -999.25  -47.47910   -4.04100    1.72320 2411.90500
 4000.00000    1.34800    1.43280    1.45310    1.47000    1.51870   10.57230  658.45790    2.69730    -999.25    -999.25    -999.25    -999.25    1.51870  106.34040  106.34040    -999.25   71.72350   71.72350    -999.25    -999.25    1.45310    -999.25    -999.25  -50.87020   -6.77160    1.34800 2415.92900
 4050.00000    1.12520    1.21700    1.25290    1.27190    1.29830   12.96990  770.23800    5.09490    -999.25    -999.25    -999.25    -999.25    1.29830  110.97610  110.97610    -999.25   82.51520   82.51520    -999.25    -999.25    1.25290    -999.25    -999.25  -50.46180   -5.76190    1.12520 2412.16870
