~Version ---------------------------------------------------
VERS. 2.0 : CWLS log ASCII Standard -VERSION 2.0
WRAP.  NO : One line per depth step
~Well ------------------------------------------------------
STRT.FT                       300.0 : START DEPTH
STOP.FT                     12600.0 : STOP DEPTH
STEP.FT                    50.00000 : STEP LENGTH
NULL.                       -999.25 : NULL VALUE
COMP. STANDARD OIL COMPANY OF TEXAS : COMPANY
WELL.               J T CALLIHAM #1 : WELL
FLD .                      CALLIHAM : FIELD
LOC .                               : LOCATION
CNTY.                     MC MULLEN : COUNTY
STAT.                         TEXAS : STATE
CTRY.      UNITED STATES OF AMERICA : COUNTRY
SRVC.                  Schlumberger : SERVICE COMPANY
DATE.                   25-Aug-1958 : LOGDATE
API .                42311006770000 : API NUMBER
UWI .                42311006770000 : UNIQUE WELL ID
SLAT.WGS84            28.4820300337 : SURFACE LATITUDE
SLON.WGS84           -98.3483794592 : SURFACE LONGITUDE
~Curve Information -----------------------------------------
DEPT  .FT    : DEPTH
ASNED .OHMM  : AMPLIFIED SHORT NORMAL 16 IN.
CILDED.MMHO  : CONDUCTIVITY FROM LOG
CONDWS.MMHO  : CONDUCTIVITY (1000/DRESWS)
DRESWS.OHMM  : DEEP RESISTIVITY (IF ILDED<1, THEN 1000/CILDED)
DTED  .US/F  : DELTA TIME  (ADJ TO RES.)
DTWS  .US/F  : DELTA TIME  (DTE)
ILDED .OHMM  : DEEP INDUCTION RESISTIVITY
SPWS  .MV    : SPONTANEOUS POTENTIAL BASELINE 0 MV (SPRED)
SPRED .MV    : SPONTANEOUS POTENTIAL FROM RESISTIVITY
SRESWS.OHMM  : SHALLOW RESISTIVITY (ASNED)
~Params ----------------------------------------------------
PD  .                     GL : PERMANENT DATUM
LMF .                     GL : LOG MEASURED FROM
DAPD.F                  16.0 : FEET ABOVE PERMANENT DATUM
DMF .                     GL : DRILLING MEASURED FROM
EKB .F                   244 : KELLING BUSHING
EGL .F                   228 : GROUND LEVEL
DATE.                8/25/58 : RUN DATE
RUN .                      2 : RUN NUMBER
DD  .F                 12605 : DEPTH DRILLER
DL  .F                 12632 : DEPTH LOGGER
BLI .F                 12628 : BOTTOM LOG INTERVAL
TLI .F                 12435 : TOP LOG INTERVAL
CBD .F                 12287 : CASING BOTTOM DRILLER
BS  .IN                6.125 : BIT SIZE
BSD .F                 12605 : BIT SIZE AT DEPTH
DFT .     L.B.-13% OIL  EMUL : DRILLING FLUID TYPE
DFD .                   10.3 : DRILLING FLUID DENSITY
DFV .                     71 : DRILLING FLUID VISCOSITY
DFPH.                      9 : DRILLING FLUID PH
DFL .                    3.4 : DRILLING FLUID LOSS
RMS .OHMM                0.6 : RESISTIVITY MUD SAMPLE
MST .F                   120 : MUD SAMPLE TEMPERATURE
RMF .OHMM               0.15 : RESISTIVITY MUD FILTRATE SAMPLE
MFST.F                   270 : MUD FILTRATE SAMPLE TEMPERATURE
RMB .OHMM               0.27 : RESISTIVITY MUD AT BHT
TCS .HRS                   2 : TIME CURCULATED STOPPED
LUN .                   2501 : LOGGING UNIT NUMBER
LUL .                  FREER : LOGGING UNIT LOCATION
ENGI.                  BRITT : RECORDING ENGINEER
WITN.               LINSCOMB : WITNESSED BY
CLNT.                A2DTECH : CLIENT CODE
ORIG.               5",PRINT : ORIGIN OF DATA
UWI .         42311006770000 : UNIQUE WELL ID
DICO. A2D Technologies, Inc. : DIGITIZING COMPANY
~Other -----------------------------------------------------
~ASCII -----------------------------------------------------
  300.00000    3.77540  256.27620  248.34230    4.02670    -999.25    -999.25    4.02670  -37.66460  -55.96210    3.77540
  350.00000    5.35740  209.68850  181.59700    5.50670    -999.25    -999.25    5.50670  -52.12890  -70.39290    5.35740
  400.00000    2.67380  304.38250  228.66030    4.37330    -999.25    -999.25    4.37330  -11.30890  -29.53930    2.67380
  450.00000    4.38730  327.96510  279.85340    3.57330    -999.25    -999.25    3.57330  -58.00000  -76.19690    4.38730
  500.00000    2.30480  391.31690  441.22840    2.26640    -999.25    -999.25    2.26640   -2.70390  -20.86720    2.30480
  550.00000    1.52720  486.89240  740.13770    1.35110    -999.25    -999.25    1.35110   -7.20900  -25.33870    1.52720
  600.00000    1.90370  435.25900  568.18180    1.76000    -999.25    -999.25    1.76000   -9.09430  -27.19050    1.90370
  650.00000    1.75400  470.51790  484.91900    2.06220    -999.25    -999.25    2.06220   -4.09180  -22.15440    1.75400
  700.00000    1.36900  619.76690  914.57840    1.09340    -999.25    -999.25    1.09340   -6.31600  -24.34510    1.36900
  750.00000    1.70060  583.80760  623.24710    1.60450    -999.25    -999.25    1.60450   -6.73350  -24.72900    1.70060
  800.00000    1.34760  595.18630  694.44440    1.44000    -999.25    -999.25    1.44000   -7.96390  -25.92590    1.34760
  850.00000    1.75490  523.87590  551.45030    1.81340    -999.25    -999.25    1.81340   -4.31640  -22.24480    1.75490
  900.00000    1.36720  621.71310  646.53780    1.54670    -999.25    -999.25    1.54670   -5.09520  -22.99010    1.36720
  950.00000    1.31460  677.49010  685.96510    1.45780    -999.25    -999.25    1.45780   -2.93810  -20.79940    1.31460
 1000.00000    3.61850  237.72750  240.38460    4.16000    -999.25    -999.25    4.16000  -47.19730  -65.04060    3.61850
 1050.00000    2.84850  288.37510  287.35630    3.48000    -999.25    -999.25    3.48000  -39.31980  -57.18150    2.84850
 1100.00000    1.96090  425.07630  707.51380    1.41340    -999.25    -999.25    1.41340   -8.04580  -25.92590    1.96090
 1150.00000    5.73530  222.98810  170.45360    5.86670    -999.25    -999.25    5.86670  -16.02220  -33.92060    5.73530
 1200.00000    2.16070  524.90040  393.60780    2.54060    -999.25    -999.25    2.54060  -11.80290  -29.71970    2.16070
 1250.00000    2.55550  318.72510  307.47470    3.25230    -999.25    -999.25    3.25230  -17.49860  -35.43370    2.55550
 1300.00000    1.59170  509.98710  474.33830    2.10820    -999.25    -999.25    2.10820   -6.03020  -23.98370    1.59170
 1350.00000    2.89700  265.35400  254.00700    3.93690    -999.25    -999.25    3.93690  -15.29370  -33.26550    2.89700
 1400.00000    2.46070  338.50530  306.62620    3.26130    -999.25    -999.25    3.26130  -12.63310  -30.62330    2.46070
 1450.00000    2.08490  349.20320  360.38630    2.77480    -999.25    -999.25    2.77480   -8.03050  -26.03900    2.08490
 1500.00000    1.60800  504.08760  486.83120    2.05410    -999.25    -999.25    2.05410   -8.26040  -26.28730    1.60800
 1550.00000    2.47700  291.83270  293.65120    3.40540    -999.25    -999.25    3.40540  -16.44010  -34.48530    2.47700
 1600.00000    1.07320  793.82470  793.82480    1.25970    -999.25    -999.25    0.75070   -1.90020  -19.96380    1.07320
 1650.00000    2.78340  275.20830  292.55160    3.41820    -999.25    -999.25    3.41820  -15.59080  -33.67280    2.78340
 1700.00000    3.25310  245.10460  237.58050    4.20910    -999.25    -999.25    4.20910  -26.57000  -44.67030    3.25310
 1750.00000    1.77630  342.03190  475.14970    2.10460    -999.25    -999.25    2.10460   -9.99850  -28.11720    1.77630
 1800.00000    2.43850  327.72370  310.82930    3.21720    -999.25    -999.25    3.21720  -27.39150  -45.52850    2.43850
 1850.00000    2.39220  418.22710  369.30350    2.70780    -999.25    -999.25    2.70780   -9.41900  -27.57440    2.39220
 1900.00000    2.99820  292.35220  266.42510    3.75340    -999.25    -999.25    3.75340  -41.13080  -59.30450    2.99820
 1950.00000    2.59900  322.31080  313.45010    3.19030    -999.25    -999.25    3.19030  -24.76190  -42.95400    2.59900
 2000.00000    2.12830  337.01200  360.97170    2.77030    -999.25    -999.25    2.77030  -10.15440  -28.36480    2.12830
 2050.00000    2.05080  377.88850  394.72640    2.53340    -999.25    -999.25    2.53340  -17.54360  -35.77240    2.05080
 2100.00000    2.01600  369.16710  394.74200    2.53330    -999.25    -999.25    2.53330  -20.77820  -39.02530    2.01600
 2150.00000    1.48930  555.37850  657.89480    1.52000    -999.25    -999.25    1.52000   -2.60170  -20.86720    1.48930
 2200.00000    2.01070  421.49680  497.78490    2.00890    -999.25    -999.25    2.00890  -10.71340  -28.99730    2.01070
 2250.00000    1.40380  632.47010  892.77740    1.12010    -999.25    -999.25    1.12010   -4.95880  -23.26100    1.40380
 2300.00000    1.49730  624.49920  715.41000    1.39780    -999.25    -999.25    1.39780   -4.98560  -23.30620    1.49730
 2350.00000    1.52140  575.09960  729.39460    1.37100    -999.25    -999.25    1.37100   -3.38650  -21.72540    1.52140
 2400.00000    0.98400  852.57090  852.57090    1.17290    -999.25    -999.25    0.68100   -0.34190  -18.69920    0.98400
 2450.00000    1.29680  669.52190  669.52190    1.49360    -999.25    -999.25    0.98120   -2.15280  -20.52840    1.29680
 2500.00000    -999.25    -999.25    -999.25    -999.25    -999.25    -999.25    -999.25    -999.25    -999.25    -999.25
 2550.00000    1.03210 1180.67720  966.18360    1.03500    -999.25    -999.25    1.03500   -2.03690  -19.42190    1.03210
 2600.00000    1.11230  990.75880  820.61380    1.21860    -999.25    -999.25    1.21860   -1.30920  -18.15720    1.11230
 2650.00000    1.27810  826.09560  783.14670    1.27690    -999.25    -999.25    1.27690   -8.43920  -25.36130    1.27810
 2700.00000    1.29410  802.93630  791.51500    1.26340    -999.25    -999.25    1.26340   -5.91390  -23.03520    1.29410
 2750.00000    1.16040  983.86460  835.98060    1.19620    -999.25    -999.25    1.19620   -4.15610  -21.47660    1.16040
 2800.00000    1.29410  815.33860  613.19600    1.63080    -999.25    -999.25    1.63080   -3.46110  -20.98090    1.29410
 2850.00000    1.34310  857.02190  808.66890    1.23660    -999.25    -999.25    1.23660   -7.39450  -25.11350    1.34310
 2900.00000    1.50270  694.75710  668.27050    1.49640    -999.25    -999.25    1.49640  -12.82630  -30.74450    1.50270
 2950.00000    2.07050  506.32020  462.10720    2.16400    -999.25    -999.25    2.16400  -18.93980  -37.05720    2.07050
 3000.00000    1.80410  625.42040  489.47630    2.04300    -999.25    -999.25    2.04300  -13.65450  -31.97110    1.80410
 3050.00000    1.36650  682.66930  775.01350    1.29030    -999.25    -999.25    1.29030  -12.64230  -31.15810    1.36650
 3100.00000    1.25250  879.88050  769.64520    1.29930    -999.25    -999.25    1.29930   -4.54560  -23.26070    1.25250
 3150.00000    1.29650  901.65050  788.64360    1.26800    -999.25    -999.25    1.26800   -2.87890  -21.79320    1.29650
 3200.00000    1.17160  919.32270  845.45140    1.18280    -999.25    -999.25    1.18280   -3.92180  -23.03530    1.17160
 3250.00000    1.81820  607.37050  531.40610    1.88180    -999.25    -999.25    1.88180  -14.71880  -34.03150    1.81820
 3300.00000    2.03920  501.62120  395.74180    2.52690    -999.25    -999.25    2.52690  -11.16350  -30.67540    2.03920
 3350.00000    2.43580  416.43430  350.93880    2.84950    -999.25    -999.25    2.84950  -10.22130  -29.93240    2.43580
 3400.00000    3.21930  453.39920  442.85020    2.25810    -999.25    -999.25    2.25810  -41.53130  -61.44170    3.21930
 3450.00000    2.15510  466.09560  422.72570    2.36560    -999.25    -999.25    2.36560  -10.90390  -31.01350    2.15510
 3500.00000    6.64170  420.91630  361.16730    2.76880    -999.25    -999.25    2.76880  -93.61010 -113.91890    6.64170
 3550.00000    2.59090  473.98410  366.50180    2.72850    -999.25    -999.25    2.72850  -43.52350  -64.03150    2.59090
