~Version ---------------------------------------------------
VERS. 2.0 : CWLS log ASCII Standard -VERSION 2.0
WRAP. YES : MULTIPLE LINES PER DEPTH STEP
~Well ------------------------------------------------------
STRT.FT                        2500.0 : START DEPTH
STOP.FT                       11350.0 : STOP DEPTH
STEP.FT                      50.00000 : STEP LENGTH
NULL.                         -999.25 : NULL VALUE
COMP. UNION PACIFIC RESOURCES COMPANY : COMPANY
WELL.             BOZKA-BOZKA UNIT #1 : WELL
FLD .                     PEACH CREEK : FIELD
LOC .                                 : LOCATION
CNTY.                        GONZALES : COUNTY
STAT.                           TEXAS : STATE
CTRY.        UNITED STATES OF AMERICA : COUNTRY
SRVC.                    Schlumberger : SERVICE COMPANY
DATE.                     08-Oct-1991 : LOGDATE
API .                  42177319460000 : API NUMBER
UWI .                  42177319460000 : UNIQUE WELL ID
SLAT.WGS84              29.4649895079 : SURFACE LATITUDE
SLON.WGS84             -97.2961371962 : SURFACE LONGITUDE
~Curve Information -----------------------------------------
DEPT    .FT    : DEPTH FEET
C1ED    .IN    : CALIPER 1 FROM CALIPER LOG
C2ED    .IN    : CALIPER 2 FROM CALIPER LOG
CALRED  .IN    : CALIPER FROM RESISTIVITY LOG
CALWS   .IN    : CALIPER [CALRED]
CONDWS  .MMHO  : CONDUCTIVITY [1000/DRESWS]
DCORWS  .G/C3  : DENSITY CORRECTION [DRHOED]
DENWS   .G/C3  : BULK DENSITY [M=2.65 F=1.0] [CALCULATED FROM DPOWS]
DPHISSED.V/V   : DENSITY POROSITY SANDSTONE [M=2.65 F=1.0] FROM DENSITY LOG, DEPTH ADJUSTED WITH [GRRED]
DPOWS   .V/V   : DENSITY POROSITY [DPHISSED]
DRESWS  .OHMM  : DEEP RESISTIVITY [ILDED]
DRHOED  .G/C3  : DENSITY CORRECTION FROM DENSITY LOG, DEPTH ADJUSTED WITH [GRRED]
GRDED   .GAPI  : GAMMA RAY FROM DENSITY LOG, DEPTH ADJUSTED WITH [GRRED]
GRRED   .GAPI  : GAMMA RAY FROM RESISTIVITY LOG
GRWS    .GAPI  : GAMMA RAY [GRRED]
ILDED   .OHMM  : INDUCTION LOG DEEP RESISTIVITY
ILMED   .OHMM  : INDUCTION LOG MEDIUM RESISTIVITY
MRESWS  .OHMM  : MEDIUM RESISTIVITY [ILMED]
NPHISSED.V/V   : NEUTRON POROSITY SANDSTONE FROM DENSITY LOG, DEPTH ADJUSTED WITH [GRRED]
NPOWS   .V/V   : NEUTRON POROSITY SANDSTONE [NPHISSED]
PEFED   .B/E   : PHOTOELECTRIC FACTOR FROM DENSITY LOG, DEPTH ADJUSTED WITH [GRRED]
PEFWS   .B/E   : PHOTOELECTRIC FACTOR [PEFED]
SFLUED  .OHMM  : SPHERICALLY FOCUSED LOG RESISTIVITY
SPRED   .MV    : SPONTANEOUS POTENTIAL FROM RESISTIVITY LOG
SPWS    .MV    : SPONTANEOUS POTENTIAL [BASELINE 0 MV] [SPRED]
SRESWS  .OHMM  : SHALLOW RESISTIVITY [SFLUED]
TENDED  .LBF   : TENSION FROM DENSITY LOG, DEPTH ADJUSTED WITH [GRRED]
TENRED  .LBF   : TENSION FROM RESISTIVITY LOG
~Params ----------------------------------------------------
PD  .                     GL : PERMANENT DATUM
EPD .FT                  312 : ELEVATION PERMANENT DATUM
LMF .                    RKB : LOG MEASURED FROM
DAPD.FT                   24 : FEET ABOVE PERMANENT DATUM
DMF .                    RKB : DRILLING MEASURED FROM
EKB .FT                  336 : KELLY BUSHING
EDF .FT                  335 : DRILLING FLOOR
EGL .FT                  312 : GROUND LEVEL
DATE.               10/09/91 : RUN DATE
RUN .                      1 : RUN NUMBER
DD  .FT                11400 : DEPTH DRILLER
DL  .FT                11376 : DEPTH LOGGER
BLI .FT                11370 : BOTTOM LOG INTERVAL
TLI .FT                 2518 : TOP LOG INTERVAL
CS  .IN                10.75 : CASING SIZE
CBD .FT                 2520 : CASING BOTTOM DRILLER
CBL .FT                 2518 : CASING BOTTOM LOGGER
BS  .IN                9.875 : BIT SIZE
BSD .FT                11400 : BIT SIZE AT DEPTH
DFT .          NEW DRILL GEL : DRILLING FLUID TYPE
DFD .                    9.6 : DRILLING FLUID DENSITY
MSS .              CIRC TANK : MUD SAMPLE SOURCE
MST .DEGF                 75 : MUD SAMPLE TEMPERATURE
RMF .OHMM               2.01 : RESISTIVITY MUD FILTRATE SAMPLE
MFST.DEGF                 75 : MUD FILTRATE SAMPLE TEMPERATURE
RMC .OHMM               4.02 : RESISTIVITY MUD CAKE
MCST.DEGF                 75 : MUD CAKE SAMPLE TEMPERATURE
MFSS.                   MEAS : MUD FILTRATE SAMPLE SOURCE
MCSS.                   CALC : MUD CAKE SAMPLE SOURCE
TCS .HRS                2200 : TIME CIRCULATED STOPPED
TLAB.HRS                2020 : TIME LOGGER AT BOTTOM
LUL .               ALICE TX : LOGGING UNIT LOCATION
ENGI.             ROTAN CAMP : RECORDING ENGINEER
WITN.                   SVOR : WITNESSED BY
CLNT.                A2DTECH : CLIENT CODE
ORIG.         1" 2" 5" PRINT : ORIGIN OF DATA
UWI .         42177319460000 : UNIQUE WELL ID
DICO. A2D Technologies, Inc. : DIGITIZING COMPANY
~Other -----------------------------------------------------
~ASCII -----------------------------------------------------
 2500.00000    -999.25    -999.25    -999.25    -999.25    -999.25    -999.25    -999.25    -999.25    -999.25    -999.25    -999.25    -999.25   39.44340   54.44340    -999.25    -999.25    -999.25    -999.25    -999.25    -999.25    -999.25    -999.25    -999.25    -999.25    -999.25    -999.25    -999.25
 2550.00000    -999.25    -999.25    -999.25    -999.25  741.94980    -999.25    -999.25    -999.25    -999.25    1.34780    -999.25   64.23650   64.49100   64.49100    1.34780    1.44470    1.44470    0.50680    0.50680    -999.25    -999.25    1.59630  -38.59570  -18.62710    1.59630 1988.82590 1166.51160
 2600.00000    -999.25    -999.25    -999.25    -999.25  598.80240    -999.25    -999.25    -999.25    -999.25    1.67000    -999.25   47.88480   47.43940   47.43940    1.67000    1.53100    1.53100    0.63590    0.63590    -999.25    -999.25    2.11590  -30.18120  -10.96250    2.11590 1948.04460 1155.55940
 2650.00000    -999.25    -999.25    -999.25    -999.25  944.28700    -999.25    -999.25    -999.25    -999.25    1.05900    -999.25   71.10500   71.98540   71.98540    1.05900    0.97880    0.97880    0.54420    0.54420    -999.25    -999.25    1.15950  -23.93390   -5.46510    1.15950 1932.55690 1151.09070
 2700.00000    -999.25    -999.25    -999.25    -999.25  545.16710    -999.25    -999.25    -999.25    -999.25    1.83430    -999.25   66.27750   66.37080   66.37080    1.83430    2.12200    2.12200    0.35370    0.35370    -999.25    -999.25    3.31880  -47.51260  -29.79380    3.31880 1970.69200 1152.00670
 2750.00000    -999.25    -999.25    -999.25    -999.25 1094.45120    -999.25    -999.25    -999.25    -999.25    0.91370    -999.25   82.49490   82.00230   82.00230    0.91370    0.96600    0.96600    0.46660    0.46660    -999.25    -999.25    1.07650  -21.30380   -4.33490    1.07650 1981.74740 1155.05140
 2800.00000    -999.25    -999.25    -999.25    -999.25  467.83620    -999.25    -999.25    -999.25    -999.25    2.13750    -999.25   73.60210   73.75430   73.75430    2.13750    2.43310    2.43310    0.33800    0.33800    -999.25    -999.25    3.43490  -44.08970  -27.87070    3.43490 2039.84380 1162.86890
 2850.00000    -999.25    -999.25    -999.25    -999.25  772.67820    -999.25    -999.25    -999.25    -999.25    1.29420    -999.25   76.58850   73.89430   73.89430    1.29420    1.35530    1.35530    0.39490    0.39490    -999.25    -999.25    1.51660  -28.58250  -13.11340    1.51660 2058.45310 1170.34350
 2900.00000    -999.25    -999.25    -999.25    -999.25  818.53160    -999.25    -999.25    -999.25    -999.25    1.22170    -999.25   72.27470   72.74750   72.74750    1.22170    1.15760    1.15760    0.53890    0.53890    -999.25    -999.25    1.74880  -21.21350   -6.49440    1.74880 2040.32950 1168.51650
 2950.00000    -999.25    -999.25    -999.25    -999.25  698.08030    -999.25    -999.25    -999.25    -999.25    1.43250    -999.25   61.50220   59.91130   59.91130    1.43250    1.29790    1.29790    0.50610    0.50610    -999.25    -999.25    1.56540  -21.01400   -7.04480    1.56540 2058.79980 1172.65690
 3000.00000    -999.25    -999.25    -999.25    -999.25  710.53000    -999.25    -999.25    -999.25    -999.25    1.40740    -999.25   66.58330   67.04660   67.04660    1.40740    1.50960    1.50960    0.43080    0.43080    -999.25    -999.25    2.12360  -27.36990  -14.15060    2.12360 2059.62770 1187.51290
 3050.00000    -999.25    -999.25    -999.25    -999.25  786.41080    -999.25    -999.25    -999.25    -999.25    1.27160    -999.25   68.56080   68.36880   68.36880    1.27160    1.33320    1.33320    0.46490    0.46490    -999.25    -999.25    1.56180  -21.03820   -8.56880    1.56180 2055.58230 1180.11460
 3100.00000    -999.25    -999.25    -999.25    -999.25 1180.08020    -999.25    -999.25    -999.25    -999.25    0.84740    -999.25   70.26900   70.85460   70.85460    0.84740    0.89560    0.89560    0.53080    0.53080    -999.25    -999.25    0.99610  -12.04540   -0.32600    0.99610 2090.60130 1184.93290
 3150.00000    -999.25    -999.25    -999.25    -999.25  923.10530    -999.25    -999.25    -999.25    -999.25    1.08330    -999.25   76.99550   76.83020   76.83020    1.08330    1.13270    1.13270    0.48940    0.48940    -999.25    -999.25    1.36590  -13.21170   -1.76900    1.36590 2084.36990 1185.62590
 3200.00000    -999.25    -999.25    -999.25    -999.25  810.24150    -999.25    -999.25    -999.25    -999.25    1.23420    -999.25   66.50840   66.17330   66.17330    1.23420    1.33380    1.33380    0.48870    0.48870    -999.25    -999.25    1.14110  -18.48200   -7.27490    1.14110 2134.19650 1186.79870
 3250.00000    -999.25    -999.25    -999.25    -999.25  686.01220    -999.25    -999.25    -999.25    -999.25    1.45770    -999.25   68.45740   69.34540   69.34540    1.45770    1.57750    1.57750    0.44830    0.44830    -999.25    -999.25    1.98430  -26.47620  -15.50470    1.98430 2125.29350 1189.73680
 3300.00000    -999.25    -999.25    -999.25    -999.25  393.06630    -999.25    -999.25    -999.25    -999.25    2.54410    -999.25   63.70960   63.07000   63.07000    2.54410    2.92370    2.92370    0.35180    0.35180    -999.25    -999.25    4.23550  -39.75870  -29.02280    4.23550 2180.21040 1204.46340
 3350.00000    -999.25    -999.25    -999.25    -999.25  507.45970    -999.25    -999.25    -999.25    -999.25    1.97060    -999.25   72.66260   72.36200   72.36200    1.97060    1.85090    1.85090    0.49180    0.49180    -999.25    -999.25    2.26320  -16.58650   -6.08620    2.26320 2204.74390 1206.87810
 3400.00000    -999.25    -999.25    -999.25    -999.25  335.17680    -999.25    -999.25    -999.25    -999.25    2.98350    -999.25   66.62500   66.05600   66.05600    2.98350    3.18470    3.18470    0.27710    0.27710    -999.25    -999.25    5.27160  -20.56360  -10.29890    5.27160 2261.30570 1202.89070
 3450.00000    -999.25    -999.25    -999.25    -999.25  360.97170    -999.25    -999.25    -999.25    -999.25    2.77030    -999.25   44.94130   44.38920   44.38920    2.77030    3.85570    3.85570    0.29670    0.29670    -999.25    -999.25    7.38700  -59.00900  -48.97980    7.38700 2212.97310 1205.00310
 3500.00000    -999.25    -999.25    -999.25    -999.25  586.44150    -999.25    -999.25    -999.25    -999.25    1.70520    -999.25   44.70610   43.45230   43.45230    1.70520    2.25460    2.25460    0.36480    0.36480    -999.25    -999.25    3.91400  -68.73330  -58.93970    3.91400 2240.94510 1205.17250
 3550.00000    -999.25    -999.25    -999.25    -999.25  463.77890    -999.25    -999.25    -999.25    -999.25    2.15620    -999.25   67.90990   66.93220   66.93220    2.15620    2.19310    2.19310    0.40270    0.40270    -999.25    -999.25    3.08450  -28.83650  -19.27850    3.08450 2285.39990 1220.06470
 3600.00000    -999.25    -999.25    -999.25    -999.25  598.15770    -999.25    -999.25    -999.25    -999.25    1.67180    -999.25   44.80110   45.70860   45.70860    1.67180    2.13570    2.13570    0.34800    0.34800    -999.25    -999.25    3.55440  -76.40640  -67.08400    3.55440 2254.85160 1221.17440
 3650.00000    -999.25    -999.25    -999.25    -999.25  710.22730    -999.25    -999.25    -999.25    -999.25    1.40800    -999.25   41.97620   42.66210   42.66210    1.40800    1.75790    1.75790    0.40080    0.40080    -999.25    -999.25    3.35240  -70.18980  -61.10300    3.35240 2284.97090 1223.29680
 3700.00000    -999.25    -999.25    -999.25    -999.25  706.86360    -999.25    -999.25    -999.25    -999.25    1.41470    -999.25   34.14480   34.05040   34.05040    1.41470    1.72710    1.72710    0.36700    0.36700    -999.25    -999.25    2.73000  -73.64110  -64.78990    2.73000 2294.95210 1220.58460
 3750.00000    -999.25    -999.25    -999.25    -999.25  475.96380    -999.25    -999.25    -999.25    -999.25    2.10100    -999.25   52.84130   54.65350   54.65350    2.10100    2.84280    2.84280    0.37290    0.37290    -999.25    -999.25    4.81570  -56.04670  -47.43110    4.81570 2329.58540 1217.24150
