~Version ---------------------------------------------------
VERS. 2.0 : CWLS log ASCII Standard -VERSION 2.0
WRAP.  NO : ONE LINE PER DEPTH STEP
~Well ------------------------------------------------------
STRT.F                    950.0 : START DEPTH
STOP.F                   6250.0 : STOP DEPTH
STEP.F                 50.00000 : STEP LENGTH
NULL.                   -999.25 : NULL VALUE
COMP. EVERGREEN OIL CORPORATION : COMPANY
WELL.         S. A. MCKNIGHT #1 : WELL
FLD .                        WC : FIELD
LOC .                           : LOCATION
CNTY.                    DIMMIT : COUNTY
STAT.                     TEXAS : STATE
CTRY.  UNITED STATES OF AMERICA : COUNTRY
SRVC.              Schlumberger : SERVICE COMPANY
DATE.               05-Dec-1981 : LOGDATE
API .            42127322920000 : API NUMBER
UWI .            42127322920000 : UNIQUE WELL ID
SLAT.WGS84        28.4681241354 : SURFACE LATITUDE
SLON.WGS84      -100.0190376104 : SURFACE LONGITUDE
~Curve Information -----------------------------------------
DEPT.F                 : 
GRR .GAPI 07 310 01 00 : GAMMA RAY FROM RES. LOG
SPR .MV   07 010 01 00 : SPONTANEOUS POTENTIAL FROM RES. LOG
ASFL.OHMM 07 221 06 00 : AMPLIFIED SHALLOW FOCUSED LOG RESISTIVITY
ILD .OHMM 07 120 46 00 : INDUCTION LOG DEEP
CILD.MMHO 07 110 46 00 : CONDUCTIVITY INDUCTION LOG DEEP
~Params ----------------------------------------------------
PD  .                     GL : PERMANENT DATUM
EPD .FT                  784 : ELEVATION PERMANENT DATUM
LMF .                     KB : LOG MEASURED FROM
DAPD.FT                   13 : FEET ABOVE PERMANENT DATUM
DMF .                     KB : DRILLING MEASURED FROM
EKB .FT                  797 : KELLY BUSHING
EDF .FT                  796 : DRILLING FLOOR
EGL .FT                  784 : GROUND LEVEL
DATE.               12/05/81 : RUN DATE
RUN .                      1 : RUN NUMBER
DD  .FT                 6300 : DEPTH DRILLER
DL  .FT                 6296 : DEPTH LOGGER
BLI .FT                 6293 : BOTTOM LOG INTERVAL
TLI .FT                  941 : TOP LOG INTERVAL
CS  .IN                8.625 : CASING SIZE
CBD .FT                  921 : CASING BOTTOM DRILLER
CBL .FT                  941 : CASING BOTTOM LOGGER
BS  .IN                7.875 : BIT SIZE
BSD .FT                 6300 : BIT SIZE AT DEPTH
DFT .               SALT GEL : DRILLING FLUID TYPE
DFD .                    9.6 : DRILLING FLUID DENSITY
DFV .                     70 : DRILLING FLUID VISCOSITY
DFPH.                     11 : DRILLING FLUID PH
DFL .                    8.8 : DRILLING FLUID LOSS
MSS .                MUD PIT : MUD SAMPLE SOURCE
RMS .OHMM                0.8 : RESISTIVITY MUD SAMPLE
MST .FT                   75 : MUD SAMPLE TEMPERATURE
RMF .OHMM                0.6 : RESISTIVITY MUD FILTRATE SAMPLE
MFST.FT                   75 : MUD FILTRATE SAMPLE TEMPERATURE
RMC .OHMM                1.2 : RESISTIVITY MUD CAKE
MCST.FT                   75 : MUD CAKE SAMPLE TEMPERATURE
MFSS.                      M : MUD FILTRATE SAMPLE SOURCE
MCSS.                      C : MUD CAKE SAMPLE SOURCE
RMB .OHMM               0.38 : RESISTIVITY MUD AT BHT
TCS .HRS                 530 : TIME CURCULATED STOPPED
LUN .                   1268 : LOGGING UNIT NUMBER
LUL .                 LAREDO : LOGGING UNIT LOCATION
ENGI.                KEMNITZ : RECORDING ENGINEER
WITN.               FARQUNAR : WITNESSED BY
CLNT.                A2DTECH : CLIENT CODE
ORIG.               1" PRINT : ORIGIN OF DATA
UWI .         42127322920000 : UNIQUE WELL ID
DICO. A2D Technologies, Inc. : DIGITIZING COMPANY
~Other -----------------------------------------------------
~ASCII -----------------------------------------------------
  950.00000   84.15900  -20.75740    3.69840    3.87910  252.98410
 1000.00000   79.52020  -21.63480    3.40560    3.43270  291.31910
 1050.00000   73.43730  -21.64930    3.42090    4.09820  244.71190
 1100.00000   66.03770  -23.26970    4.90530    4.92980  202.97120
 1150.00000   83.68390  -19.26170    1.91540    1.77060  565.37680
 1200.00000   87.32370  -19.03990    2.63330    1.48580  673.03190
 1250.00000   51.97130  -27.65850    4.64460    4.62500  206.41330
 1300.00000   49.17780  -22.03690    8.16760    8.36620  123.31560
 1350.00000   66.07680  -20.58950    5.73680    6.15170  163.34040
 1400.00000   61.88670  -19.11320    6.76790    7.14180  140.03590
 1450.00000   57.14950  -14.73210    5.83980    6.24360  160.16460
 1500.00000   43.86710  -15.97410   10.83310   10.66300   95.07310
 1550.00000   72.51850  -10.00560    3.67590    3.80820  262.58850
 1600.00000   30.55540  -37.16120    6.13480    3.99510  243.34600
 1650.00000   82.24890  -13.47840    4.28980    4.25420  235.06680
 1700.00000   52.27430  -11.08320    9.45190    6.11880  165.23900
 1750.00000   68.85010   -8.56440    6.21810    4.67560  213.87860
 1800.00000   71.01720   -6.67420    6.60820    5.14060  194.56690
 1850.00000   64.28920   -7.50720    5.17090    5.13110  195.25270
 1900.00000   73.35340   -7.87600    4.63360    3.84510  260.07280
 1950.00000   62.65510   -7.04860    5.76150    5.27220  190.08000
 2000.00000   64.01260   -7.38710    3.77120    3.66810  273.04990
 2050.00000   73.02840   -6.71330    2.64610    2.45410  407.52290
 2100.00000   73.62510   -7.47170    3.95930    3.72570  268.40900
 2150.00000   81.28510   -6.70460    2.50710    2.39060  418.30680
 2200.00000   65.56900   -7.82920    7.25130    6.82530  146.85090
 2250.00000   51.73250   -6.78890   12.92050   10.01820   99.81860
 2300.00000   65.70550   -8.23180    6.45480    6.28230  159.17790
 2350.00000   68.79780   -7.72880    5.91900    5.30300  188.58910
 2400.00000   91.04620  -13.57300    3.68640    4.12350  243.07410
 2450.00000   24.72800  -45.71670    6.81500    3.94580  254.16300
 2500.00000   61.73610  -21.19640    3.59870    3.29980  304.02770
 2550.00000   93.22070  -10.60690    3.75130    3.47430  288.90740
 2600.00000   69.33640  -14.42660    6.52840    6.92500  162.13360
 2650.00000   80.00960  -16.86800    6.06890    5.75070  173.89140
 2700.00000   77.16730  -14.32780    2.77940    3.63440  284.86830
 2750.00000   72.85000  -10.03160    3.22140    2.90640  355.88090
 2800.00000   42.37840  -31.84390    7.83820    4.32030  231.56150
 2850.00000   37.22060  -32.70140    7.29100    4.01220  249.48170
 2900.00000   66.55370   -9.49560    6.58790    5.44050  183.80810
 2950.00000   56.61300  -24.86560    5.94870    4.00050  254.89310
 3000.00000   90.65050   -5.71820    2.90190    2.65210  377.06380
 3050.00000   92.64010   -4.43820    3.58380    3.17180  316.21040
 3100.00000   83.61260  -13.30340    4.42350    4.30510  232.58590
 3150.00000   84.14480   -7.34470    5.48300    5.01240  199.50710
 3200.00000   95.69310   -7.29630    4.45140    4.32330  231.30710
 3250.00000   97.09270   -6.98060    3.86890    3.73920  267.51540
 3300.00000   77.50980  -13.60100    6.75110    4.62990  216.44560
 3350.00000   93.43760  -13.48270    4.50410    4.27010  234.31150
 3400.00000   93.72220  -11.43850    4.72150    4.53070  222.86220
 3450.00000   94.93940  -10.51110    4.69030    4.25020  228.06030
 3500.00000   78.93350  -11.19010    5.87960    5.24480  189.95240
 3550.00000   91.70160  -12.08710    5.84230    5.45130  178.32530
 3600.00000   89.59590  -12.78970    5.07690    4.29890  232.70830
 3650.00000   87.93280  -14.14290    5.25730    4.81490  207.69050
 3700.00000   98.55540  -13.00210    4.14950    3.67330  266.90190
 3750.00000   94.37020  -13.18370    3.39990    3.17660  314.79940
 3800.00000   89.50250  -13.46230    4.60200    4.04390  247.29440
 3850.00000   97.64700  -17.50890    3.65740    3.31930  301.60730
 3900.00000  105.14490  -17.18870    3.56540    3.25530  307.21510
 3950.00000   93.71640  -16.81260    3.79640    3.27760  305.11720
 4000.00000   88.16250  -17.27720    3.94970    3.11990  321.63770
 4050.00000   84.09070  -17.69690    3.02950    2.82150  354.45240
 4100.00000   80.74080  -18.74170    3.67540    2.99850  314.46990
 4150.00000   78.16540  -18.30190    4.42460    3.92230  268.56110
 4200.00000   76.15360  -21.29310    3.47580    3.12570  319.95350
 4250.00000   72.47190  -22.44930    4.97410    4.26610  234.41420
 4300.00000   44.47370  -24.93000   14.48250   12.45680   80.32520
 4350.00000   39.66240  -26.82610   15.14160   14.03710   71.53060
 4400.00000   52.55400  -24.11400    7.73160   11.01460   86.77950
 4450.00000   52.19900  -24.65710    9.45250    8.04190  124.36510
 4500.00000   36.54520  -28.08440   15.51320   12.41360   78.62500
 4550.00000   39.82370  -24.42110   12.07240    9.59930  104.32040
 4600.00000   26.23080  -27.64850   12.74670   11.72680   85.38380
 4650.00000   22.49310  -27.01500   22.38900   15.77100   56.54410
 4700.00000   20.79240  -29.36440   18.01290  308.80980    3.80300
 4750.00000   22.55290  -27.11410   42.87320   30.07230   33.70530
 4800.00000   31.32050  -27.72520    9.96350   28.97750   34.88510
 4850.00000   34.35090  -30.86500   20.59490   20.20740   50.73450
 4900.00000   17.84060  -31.23870   59.13620   48.47500   19.87440
 4950.00000   16.28680  -28.15790   47.76530   32.65200   28.97510
 5000.00000   16.13090  -26.44840   27.14630   28.65880   35.12690
 5050.00000   17.42660  -32.74760   23.71520   22.71790   43.84160
 5100.00000   17.63860  -29.67230   30.14130   18.66060   49.35910
 5150.00000   23.93770  -32.30520   16.85000   14.96850   67.08950
 5200.00000   24.84640  -29.94140   57.36320   38.02700   27.51920
 5250.00000   29.70880  -26.42470   78.28550   53.04380   15.19210
 5300.00000   41.74630  -33.58940  142.40490  170.97150    7.50360
 5350.00000   61.82290  -20.47450  162.10200   48.46620   13.36580
 5400.00000   44.44220  -27.21510  123.91640   70.98810   13.17420
 5450.00000   40.48420  -24.75540   52.53530   36.83050   26.80330
 5500.00000   51.48800  -18.87800   24.13430   18.34260   53.59600
 5550.00000   55.88840  -16.56950   17.30020   12.78640   76.99960
 5600.00000   81.75030  -23.76170   58.26850   37.83840   27.37120
 5650.00000   74.09460  -18.65420   74.15210   43.39680   22.63300
 5700.00000   77.08800  -26.13920   63.80700   40.55220   19.32650
 5750.00000   13.23660  -22.93250  347.21930  347.37800    2.95630
 5800.00000   14.21180  -41.30080  366.82180  339.36640    2.58750
 5850.00000   15.08080  -37.12330  447.02370  380.95460    4.61310
 5900.00000   69.32820   -4.17590    4.63640    3.66580  276.16110
 5950.00000   74.03070   -4.57750    4.05280    3.14320  321.75470
 6000.00000   82.68650   -5.03050    3.59950    3.05680  340.62700
 6050.00000   74.97960   -2.58480    6.75710    4.15950  221.44290
 6100.00000   31.25480   -2.60080   34.73150   16.93760   61.54160
 6150.00000   14.39270  -14.71660   76.76940   57.70010   15.38950
 6200.00000   16.40820   -9.07570  151.44860   74.82150   13.57860
 6250.00000    0.01000   -0.32120  109.50620   46.35810   21.26350
