~Version ---------------------------------------------------
VERS.      2.0 : CWLS log ASCII Standard -VERSION 2.0
WRAP.      YES : Multiple lines per depth step
CREA. 01/04/13 : LAS Creation Date
~Well ------------------------------------------------------
STRT.FT                 2000.0 : START DEPTH
STOP.FT                 9700.0 : STOP DEPTH
STEP.FT               50.00000 : STEP LENGTH
NULL.                  -999.25 : NULL VALUE
COMP.   TXO PRODUCTION COMPANY : COMPANY
WELL.              TXO HULL #1 : WELL
FLD .                  BRANTON : FIELD
LOC .                          : LOCATION
CNTY.                     LEON : COUNTY
STAT.                    TEXAS : STATE
CTRY. UNITED STATES OF AMERICA : COUNTRY
SRVC.             Schlumberger : SERVICE COMPANY
DATE.              17-Jul-1985 : LOGDATE
API .           42289306650000 : API NUMBER
UWI .           42289306650000 : UNIQUE WELL ID
SLAT.WGS84       31.3703569787 : SURFACE LATITUDE
SLON.WGS84      -96.2242249712 : SURFACE LONGITUDE
~Curve Information -----------------------------------------
DEPT    .FT    : DEPTH FEET
CALDED  .IN    : CALIPER FROM CNLD LOG [ADJ.TO GRRED]
CALRED  .IN    : CALIPER FROM DIL-SFL-SONIC LOG
CALWS   .IN    : CALIPER [CALRED SPL.TO CALDED @ 9704']
CONDWS  .MMHO  : CONDUCTIVITY [1000/DRESWS]
DCORWS  .G/C3  : DENSITY CORRECTION [DRHOED]
DENWS   .G/C3  : FORMATION BULK DENSITY [CALCULATED FROM DPOWS, M=2.71, F=1.0]
DPHILSED.V/V   : DENSITY POROSITY LIMESTONE [M=2.71, F=1.0] FROM CNLD LOG [ADJ.TO GRRED]
DPOWS   .V/V   : DENSITY POROSITY LIMESTONE [DPHILSED]
DRESWS  .OHMM  : DEEP RESISTIVITY [ILMED]
DRHOED  .G/C3  : DENSITY CORRECTION FROM CNLD LOG [ADJ.TO GRRED]
DTED    .US/F  : DELTA-T FROM DIL-SFL-SONIC LOG
DTWS    .US/F  : COMPRESSIONAL SONIC [DTED]
GRDED   .GAPI  : GAMMA RAY FROM CNLD LOG [ADJ.TO GRRED]
GRRED   .GAPI  : GAMMA RAY FROM DIL-SFL-SONIC LOG
GRWS    .GAPI  : GAMMA RAY [GRRED]
ILDED   .OHMM  : DEEP INDUCTION FROM DIL-SFL-SONIC LOG
ILMED   .OHMM  : MEDIUM INDUCTION FROM DIL-SFL-SONIC LOG
MRESWS  .OHMM  : MEDIUM RESISTIVITY [ILMED]
NPHILSED.V/V   : NEUTRON POROSITY LIMESTONE FROM CNLD LOG [ADJ.TO GRRED]
NPOWS   .V/V   : NEUTRON POROSITY LIMESTONE [NPHILSED]
SFLUED  .OHMM  : SHALLOW FOCUSED FROM DIL-SFL-SONIC LOG
SPRED   .MV    : SPONTANEOUS POTENTIAL FROM DIL-SFL-SONIC LOG
SPWS    .MV    : SPONTANEOUS POTENTIAL [BASELINE 0 MV, SPRED]
SRESWS  .OHMM  : SHALLOW RESISTIVITY [SFLUED]
TENDED  .LBF   : TENSION FROM CNLD LOG [ADJ.TO GRRED]
TENRED  .LBF   : TENSION FROM DIL-SFL-SONIC LOG
~Params ----------------------------------------------------
PD  .                     GL : PERMANENT DATUM
EPD .FT                  503 : ELEVATION PERMANENT DATUM
LMF .                    RKB : LOG MEASURED FROM
DAPD.FT                 13.5 : FEET ABOVE PERMANENT DATUM
DMF .                    RKB : DRILLING MEASURED FROM
EKB .FT                516.5 : KELLY BUSHING
EDF .FT                515.5 : DRILLING FLOOR
EGL .FT                  503 : GROUND LEVEL
DATE.               07/17/85 : RUN DATE
RUN .                      2 : RUN NUMBER
DD  .FT                 9750 : DEPTH DRILLER
DL  .FT                 9736 : DEPTH LOGGER
BLI .FT                 9730 : BOTTOM LOG INTERVAL
TLI .FT                 8100 : TOP LOG INTERVAL
CS  .IN                8.625 : CASING SIZE
CBD .FT                 2000 : CASING BOTTOM DRILLER
CBL .FT                 2000 : CASING BOTTOM LOGGER
BS  .IN                7.875 : BIT SIZE
BSD .FT                 9750 : BIT SIZE AT DEPTH
DFT .         LIGNOSULFONATE : DRILLING FLUID TYPE
DFD .                    9.9 : DRILLING FLUID DENSITY
DFV .                     45 : DRILLING FLUID VISCOSITY
DFPH.                    9.5 : DRILLING FLUID PH
DFL .                   11.4 : DRILLING FLUID LOSS
MSS .               CIR TANK : MUD SAMPLE SOURCE
RMS .OHMM               2.23 : RESISTIVITY MUD SAMPLE
MST .DEGF                 75 : MUD SAMPLE TEMPERATURE
RMF .OHMM               1.99 : RESISTIVITY MUD FILTRATE SAMPLE
MFST.DEGF                 75 : MUD FILTRATE SAMPLE TEMPERATURE
RMC .OHMM               3.34 : RESISTIVITY MUD CAKE
MCST.DEGF                 75 : MUD CAKE SAMPLE TEMPERATURE
MFSS.                   MEAS : MUD FILTRATE SAMPLE SOURCE
MCSS.                   CALC : MUD CAKE SAMPLE SOURCE
RMB .OHMM               1.11 : RESISTIVITY MUD AT BHT
TCS .HRS                 100 : TIME CIRCULATED STOPPED
TLAB.HRS                1000 : TIME LOGGER AT BOTTOM
LUN .                   8276 : LOGGING UNIT NUMBER
LUL .                   3808 : LOGGING UNIT LOCATION
ENGI.              LANGHAMER : RECORDING ENGINEER
WITN.              GILLESPIE : WITNESSED BY
CLNT.                A2DTECH : CLIENT CODE
ORIG.            2" 5" PRINT : ORIGIN OF DATA
UWI .         42289306650000 : UNIQUE WELL ID
DICO. A2D Technologies, Inc. : DIGITIZING COMPANY
~Other -----------------------------------------------------
~ASCII -----------------------------------------------------
# ...
 6050.00000    -999.25   11.15180   11.15180   69.17210    -999.25    -999.25    -999.25    -999.25   14.45670    -999.25   59.10470   59.10470    -999.25   20.17960   20.17960   14.45670   15.26020   15.26020    -999.25    -999.25   12.63440  -49.87740  -22.15390   12.63440    -999.25    -999.25
 6100.00000    -999.25   11.14490   11.14490   75.14620    -999.25    -999.25    -999.25    -999.25   13.30740    -999.25   59.17330   59.17330    -999.25   17.15850   17.15850   13.30740   14.62290   14.62290    -999.25    -999.25   18.84960  -42.76160  -13.08940   18.84960    -999.25    -999.25
 6150.00000    -999.25   11.14980   11.14980   85.30090    -999.25    -999.25    -999.25    -999.25   11.72320    -999.25   57.98650   57.98650    -999.25   15.30410   15.30410   11.72320   13.44990   13.44990    -999.25    -999.25   24.21190  -43.00840  -12.78730   24.21190    -999.25    -999.25
 6200.00000    -999.25   11.03130   11.03130   52.65680    -999.25    -999.25    -999.25    -999.25   18.99090    -999.25   56.35530   56.35530    -999.25   16.59700   16.59700   18.99090   20.02790   20.02790    -999.25    -999.25   26.27990  -48.72180  -19.14410   26.27990    -999.25    -999.25
 6250.00000    -999.25   12.12840   12.12840  208.78570    -999.25    -999.25    -999.25    -999.25    4.78960    -999.25   69.60600   69.60600    -999.25   35.62380   35.62380    4.78960    5.13110    5.13110    -999.25    -999.25    5.69940  -32.01340   -3.07920    5.69940    -999.25    -999.25
 6300.00000    -999.25   11.60110   11.60110  131.44920    -999.25    -999.25    -999.25    -999.25    7.60750    -999.25   66.45830   66.45830    -999.25   30.71810   30.71810    7.60750    7.71200    7.71200    -999.25    -999.25    8.58640  -32.74880   -4.45810    8.58640    -999.25    -999.25
 6350.00000    -999.25   10.89740   10.89740   85.60320    -999.25    -999.25    -999.25    -999.25   11.68180    -999.25   63.40220   63.40220    -999.25   32.00930   32.00930   11.68180   10.52950   10.52950    -999.25    -999.25    8.11930  -33.38930   -5.74200    8.11930    -999.25    -999.25
 6400.00000    -999.25   14.48750   14.48750 1261.98890    -999.25    -999.25    -999.25    -999.25    0.79240    -999.25  136.86220  136.86220    -999.25   84.44560   84.44560    0.79240    0.86450    0.86450    -999.25    -999.25    1.15160  -30.31710   -3.31330    1.15160    -999.25    -999.25
 6450.00000    -999.25   11.08400   11.08400   74.32900    -999.25    -999.25    -999.25    -999.25   13.45370    -999.25   57.66560   57.66560    -999.25   23.76430   23.76430   13.45370   13.99890   13.99890    -999.25    -999.25   14.95850  -56.90990  -30.54950   14.95850    -999.25    -999.25
 6500.00000    -999.25   11.99520   11.99520   90.59200    -999.25    -999.25    -999.25    -999.25   11.03850    -999.25   58.95800   58.95800    -999.25   34.89620   34.89620   11.03850   12.15540   12.15540    -999.25    -999.25   19.12180  -39.23570  -13.51390   19.12180    -999.25    -999.25
 6550.00000    -999.25   10.95650   10.95650   50.75760    -999.25    -999.25    -999.25    -999.25   19.70150    -999.25   57.90840   57.90840    -999.25   37.31520   37.31520   19.70150   20.88700   20.88700    -999.25    -999.25   21.15480  -36.45270  -11.32000   21.15480    -999.25    -999.25
 6600.00000    -999.25   12.38460   12.38460  162.85850    -999.25    -999.25    -999.25    -999.25    6.14030    -999.25   69.10310   69.10310    -999.25   50.23710   50.23710    6.14030    6.62210    6.62210    -999.25    -999.25    7.15780  -27.48900   -2.94540    7.15780    -999.25    -999.25
 6650.00000    -999.25   12.26030   12.26030  217.73210    -999.25    -999.25    -999.25    -999.25    4.59280    -999.25   72.26290   72.26290    -999.25   56.55880   56.55880    4.59280    4.25320    4.25320    -999.25    -999.25    4.13140  -27.45850   -3.50400    4.13140    -999.25    -999.25
 6700.00000    -999.25   12.52920   12.52920  308.80400    -999.25    -999.25    -999.25    -999.25    3.23830    -999.25   86.20010   86.20010    -999.25   88.92000   88.92000    3.23830    3.32380    3.32380    -999.25    -999.25    3.46280  -25.51620   -2.15080    3.46280    -999.25    -999.25
 6750.00000    -999.25   10.79540   10.79540   91.30340    -999.25    -999.25    -999.25    -999.25   10.95250    -999.25   56.92440   56.92440    -999.25   36.35740   36.35740   10.95250   14.19640   14.19640    -999.25    -999.25   19.33420  -33.69810  -10.92180   19.33420    -999.25    -999.25
 6800.00000    -999.25   10.68360   10.68360   52.20350    -999.25    -999.25    -999.25    -999.25   19.15580    -999.25   56.59820   56.59820    -999.25   32.89560   32.89560   19.15580   23.19600   23.19600    -999.25    -999.25   31.83070  -33.35290  -11.16570   31.83070    -999.25    -999.25
 6850.00000    -999.25   12.69290   12.69290  347.31870    -999.25    -999.25    -999.25    -999.25    2.87920    -999.25   75.08070   75.08070    -999.25   49.43450   49.43450    2.87920    3.03100    3.03100    -999.25    -999.25    4.30800  -24.61380   -2.96670    4.30800    -999.25    -999.25
 6900.00000    -999.25   13.27630   13.27630  745.60100    -999.25    -999.25    -999.25    -999.25    1.34120    -999.25   82.40730   82.40730    -999.25   63.59080   63.59080    1.34120    1.28260    1.28260    -999.25    -999.25    2.19700  -25.31120   -4.16870    2.19700    -999.25    -999.25
 6950.00000    -999.25   12.18390   12.18390  423.13710    -999.25    -999.25    -999.25    -999.25    2.36330    -999.25   79.93950   79.93950    -999.25   40.31100   40.31100    2.36330    2.06580    2.06580    -999.25    -999.25    2.16500  -23.09240   -2.45450    2.16500    -999.25    -999.25
 7000.00000    -999.25   11.33790   11.33790  141.89430    -999.25    -999.25    -999.25    -999.25    7.04750    -999.25   63.06850   63.06850    -999.25   32.40370   32.40370    7.04750    7.97150    7.97150    -999.25    -999.25    9.62490  -25.11210   -4.97880    9.62490    -999.25    -999.25
 7050.00000    -999.25   13.24980   13.24980  304.09000    -999.25    -999.25    -999.25    -999.25    3.28850    -999.25   75.76800   75.76800    -999.25   47.15590   47.15590    3.28850    3.47940    3.47940    -999.25    -999.25    4.96620  -22.52310   -2.89440    4.96620    -999.25    -999.25
 7100.00000    -999.25   11.05690   11.05690   55.69730    -999.25    -999.25    -999.25    -999.25   17.95420    -999.25   56.09040   56.09040    -999.25   24.91840   24.91840   17.95420   19.43400   19.43400    -999.25    -999.25   21.28370  -26.32670   -7.20260   21.28370    -999.25    -999.25
 7150.00000    -999.25   11.27650   11.27650  132.33640    -999.25    -999.25    -999.25    -999.25    7.55650    -999.25   64.47320   64.47320    -999.25   29.84310   29.84310    7.55650    8.21420    8.21420    -999.25    -999.25   11.32150  -22.94730   -3.88380   11.32150    -999.25    -999.25
 7200.00000    -999.25   11.74220   11.74220  243.34450    -999.25    -999.25    -999.25    -999.25    4.10940    -999.25   68.60850   68.60850    -999.25   42.24110   42.24110    4.10940    4.58730    4.58730    -999.25    -999.25    6.03940  -23.77360   -4.71010    6.03940    -999.25    -999.25
 7250.00000    -999.25   11.48800   11.48800   91.04570    -999.25    -999.25    -999.25    -999.25   10.98350    -999.25   56.33360   56.33360    -999.25   40.02600   40.02600   10.98350   12.90010   12.90010    -999.25    -999.25   17.31310  -23.12960   -4.06610   17.31310    -999.25    -999.25
 7300.00000    -999.25   11.85260   11.85260  313.77470    -999.25    -999.25    -999.25    -999.25    3.18700    -999.25   81.14060   81.14060    -999.25   60.43680   60.43680    3.18700    3.27020    3.27020    -999.25    -999.25    3.66460  -23.74440   -4.68090    3.66460    -999.25    -999.25
 7350.00000    -999.25   11.46050   11.46050   72.73890    -999.25    -999.25    -999.25    -999.25   13.74780    -999.25   59.75960   59.75960    -999.25   33.65660   33.65660   13.74780   16.56340   16.56340    -999.25    -999.25   19.33640  -30.30960  -10.97380   19.33640    -999.25    -999.25
