~Version ---------------------------------------------------
VERS.      2.0 : CWLS log ASCII Standard -VERSION 2.0
WRAP.      YES : Multiple lines per depth step
CREA. 03/30/13 : LAS Creation Date
~Well ------------------------------------------------------
STRT.FT                 1500.0 : START DEPTH
STOP.FT                10200.0 : STOP DEPTH
STEP.FT               50.00000 : STEP LENGTH
NULL.                  -999.25 : NULL VALUE
COMP.     MARATHON OIL COMPANY : COMPANY
WELL.   MARATHON MARSHALL A #7 : WELL
FLD .               BEAR GRASS : FIELD
LOC .                          : LOCATION
CNTY.                     LEON : COUNTY
STAT.                    TEXAS : STATE
CTRY. UNITED STATES OF AMERICA : COUNTRY
SRVC.             Schlumberger : SERVICE COMPANY
DATE.              17-Feb-1998 : LOGDATE
API .           42289312850000 : API NUMBER
UWI .           42289312850000 : UNIQUE WELL ID
SLAT.WGS84       31.3583372232 : SURFACE LATITUDE
SLON.WGS84      -96.2380251185 : SURFACE LONGITUDE
~Curve Information -----------------------------------------
DEPT    .FT    : DEPTH FEET
AHT10ED .OHMM  : 10 INCH RESISTIVITY TWO FOOT RESOLUTION FROM RESISTIVITY LOG
AHT20ED .OHMM  : 20 INCH RESISTIVITY TWO FOOT RESOLUTION FROM RESISTIVITY LOG
AHT30ED .OHMM  : 30 INCH RESISTIVITY TWO FOOT RESOLUTION FROM RESISTIVITY LOG
AHT60ED .OHMM  : 60 INCH RESISTIVITY TWO FOOT RESOLUTION FROM RESISTIVITY LOG
AHT90ED .OHMM  : 90 INCH RESISTIVITY TWO FOOT RESOLUTION FROM RESISTIVITY LOG
CALWS   .IN    : CALIPER [DCALRED+BITS]
CONDWS  .MMHO  : CONDUCTIVITY [1000/DRESWS]
DCALRED .IN    : DIFFERENTIAL CALIPER FROM RESISTIVITY LOG
DCORWS  .G/C3  : DENSITY CORRECTION [HDRAED]
DENWS   .G/C3  : FORMATION BULK DENSITY [CALC FROM DPOWS, M=2.71,F=1.0]
DPHZLSED.V/V   : DENSITY POROSITY LIMESTONE [M=2.71,F=1.0] FROM DENSITY LOG
DPOWS   .V/V   : DENSITY POROSITY LIMESTONE [DPHZLSED]
DRESWS  .OHMM  : DEEP RESISTIVITY [AHT90ED]
DTED    .US/F  : DELTA TIME FROM SONIC LOG
DTWS    .US/F  : COMPRESSIONAL SONIC [DTED]
GRMED   .GAPI  : GAMMA RAY FROM MICROLOG
GRRED   .GAPI  : GAMMA RAY FROM RESISTIVITY LOG
GRWS    .GAPI  : GAMMA RAY [GRRED SPL. TO GRMED @ 4602']
HDRAED  .G/C3  : DENSITY CORRECTION FROM DENSITY LOG
MCALED  .IN    : CALIPER FROM MICROLOG
MRESWS  .OHMM  : MEDIUM RESISTIVITY [AHT30ED]
NPHILSED.V/V   : NEUTRON POROSITY LIMESTONE FROM DENSITY LOG
NPOWS   .V/V   : NEUTRON POROSITY LIMESTONE [NPHILSED]
SPRED   .MV    : SPONTANEOUS POTENTIAL FROM RESISTIVITY LOG
SPWS    .MV    : SPONTANEOUS POTENTIAL [BASELINE 0 MV, SPRED]
SRESWS  .OHMM  : SHALLOW RESISTIVITY [AHT10ED]
TENRED  .LBF   : TENSION FROM RESISTIVITY LOG
~Params ----------------------------------------------------
PD  .                     GL : PERMANENT DATUM
EPD .FT                  472 : ELEVATION PERMANENT DATUM
LMF .                     KB : LOG MEASURED FROM
DAPD.FT                   17 : FEET ABOVE PERMANENT DATUM
DMF .                     KB : DRILLING MEASURED FROM
EKB .FT                  489 : KELLY BUSHING
EDF .FT                  488 : DRILLING FLOOR
EGL .FT                  472 : GROUND LEVEL
DATE.               02/17/98 : RUN DATE
RUN .                      1 : RUN NUMBER
DD  .FT                10250 : DEPTH DRILLER
DL  .FT                10240 : DEPTH LOGGER
BLI .FT                10240 : BOTTOM LOG INTERVAL
TLI .FT                 1610 : TOP LOG INTERVAL
MST .DEGF                110 : MUD SAMPLE TEMPERATURE
MFST.DEGF                109 : MUD FILTRATE SAMPLE TEMPERATURE
MCST.DEGF                109 : MUD CAKE SAMPLE TEMPERATURE
MFSS.                   CALC : MUD FILTRATE SAMPLE SOURCE
MCSS.                   CALC : MUD CAKE SAMPLE SOURCE
CLNT.                A2DTECH : CLIENT CODE
ORIG.         1" 2" 5" PRINT : ORIGIN OF DATA
UWI .         42289312850000 : UNIQUE WELL ID
DICO. A2D Technologies, Inc. : DIGITIZING COMPANY
~Other -----------------------------------------------------
AIT & LDT-CNL & BHC & ML RUN IN COMBO
~ASCII -----------------------------------------------------
# ...
 6700.00000    4.04760    4.48120    4.93100    5.24750    5.59990    9.91120  178.57460    2.03620    0.07070    2.55460    0.09090    0.09090    5.59990   68.77640   68.77640   48.09770   47.15470   48.09770    0.07070    9.99110    4.93100    0.18150    0.18150  -69.91720   -2.87190    4.04760 3296.55400
 6750.00000   33.44880   34.47720   35.48870   35.95430   36.76300    9.12180   27.20130    1.24680   -0.00090    2.69630    0.00800    0.00800   36.76300   55.05040   55.05040   30.33840   31.42680   30.33840   -0.00090    9.06810   35.48870    0.04710    0.04710  -77.39260  -10.97930   33.44880 3305.41890
 6800.00000    2.19380    2.24380    2.32820    2.39200    2.49040   10.22060  401.54190    2.34560    0.09020    2.55270    0.09200    0.09200    2.49040   77.92020   77.92020   45.78340   46.13550   45.78340    0.09020   10.12010    2.32820    0.23030    0.23030  -70.11910   -4.33780    2.19380 3310.72120
 6850.00000    1.69920    1.87610    1.97200    2.06510    2.14620   11.70410  465.93980    3.82910    0.19710    2.24250    0.27340    0.27340    2.14620   96.50810   96.50810   54.89990   54.86030   54.89990    0.19710   11.39390    1.97200    0.36700    0.36700  -72.88070   -7.83780    1.69920 3416.13550
 6900.00000    2.13730    2.35760    2.60920    2.97650    3.78850   10.78170  263.95670    2.90670    0.17950    2.38100    0.19240    0.19240    3.78850   57.51150   57.51150   41.83760   44.73900   41.83760    0.17950   10.61640    2.60920    0.21600    0.21600  -69.57030   -5.30920    2.13730 3372.68600
 6950.00000    6.97910    7.19800    7.59470    8.01130    8.39780    9.44810  119.07880    1.57310    0.00390    2.66880    0.02410    0.02410    8.39780   58.06480   58.06480   38.52510   38.40310   38.52510    0.00390    9.42730    7.59470    0.11090    0.11090  -68.56520   -5.08590    6.97910 3383.50290
 7000.00000    4.12640    3.62920    3.27120    3.05580    2.84820   10.78160  351.09890    2.90660    0.03480    2.58810    0.07130    0.07130    2.84820   55.04420   55.04420   42.51560   42.37630   42.51560    0.03480   10.71210    3.27120    0.21660    0.21660  -67.52690   -4.82940    4.12640 3390.11400
 7050.00000   30.72500   27.61030   24.83740   24.25170   23.74530    9.42920   42.11360    1.55420    0.00950    2.71020   -0.00010   -0.00010   23.74530   55.57250   55.57250   21.72630   21.72450   21.72630    0.00950    9.36540   24.83740    0.04440    0.04440  -70.11140   -8.19570   30.72500 3356.99050
 7100.00000    6.92580    6.49710    5.65830    5.22970    4.79480    9.63830  208.55930    1.76330    0.01820    2.68110    0.01690    0.01690    4.79480   61.63930   61.63930   34.24220   34.11970   34.24220    0.01820    9.58020    5.65830    0.10010    0.10010  -66.98530   -5.85140    6.92580 3367.57370
 7150.00000    3.16190    3.39690    3.55000    3.75660    4.07070    9.86190  245.65800    1.98690    0.02110    2.67200    0.02220    0.02220    4.07070   68.88610   68.88610   41.64410   40.79040   41.64410    0.02110    9.80810    3.55000    0.12970    0.12970  -65.06460   -4.71250    3.16190 3380.05200
 7200.00000   19.81580   18.24420   16.83280   15.65850   14.85400    9.47670   67.32190    1.60170    0.00160    -999.25    -999.25    -999.25   14.85400   55.49990   55.49990   40.68010   39.78080   40.68010    0.00160    9.45660   16.83280    0.05160    0.05160  -65.30300   -5.73270   19.81580 3370.86870
 7250.00000    2.18580    2.29370    2.41550    2.56560    2.67500    9.77680  373.83180    1.90180    0.09840    2.49950    0.12310    0.12310    2.67500   81.27140   81.27140   61.43410   61.62600   61.43410    0.09840    9.84200    2.41550    0.22840    0.22840  -62.76910   -4.26050    2.18580 3405.04930
 7300.00000   23.77090   16.59540   15.96110   15.18990   14.59770    9.67260   68.50390    1.79760    0.02840    2.70140    0.00500    0.00500   14.59770   50.45120   50.45120   33.42130   33.53220   33.42130    0.02840    9.59400   15.96110    0.08170    0.08170  -60.40790   -3.10520   23.77090 3444.10500
 7350.00000    8.23300    6.32310    4.84620    4.19340    3.91160   10.10120  255.64990    2.22620    0.10200    2.64950    0.03540    0.03540    3.91160   58.93360   58.93360   47.71130   46.60930   47.71130    0.10200   10.07590    4.84620    0.24410    0.24410  -58.62730   -2.53050    8.23300 3385.34380
 7400.00000   14.52440   13.21710   12.20530   10.95070   10.20590    9.51540   97.98250    1.64040    0.00110    2.69390    0.00940    0.00940   10.20590   52.27190   52.27190   50.61640   50.80510   50.61640    0.00110    9.45050   12.20530    0.09520    0.09520  -61.21810   -6.32720   14.52440 3375.60550
 7450.00000   50.02570   33.89240   29.17970   25.58950   24.42470    9.69380   40.94220    1.81880    0.00880    2.74040   -0.01780   -0.01780   24.42470   46.13660   46.13660   31.99610   32.02720   31.99610    0.00880    9.65900   29.17970    0.05480    0.05480  -57.40320   -3.71820   50.02570 3436.92820
 7500.00000    1.88720    1.88990    1.82190    1.79210    1.71410   12.94120  583.39650    5.06620    0.15010    2.49710    0.12450    0.12450    1.71410   79.87690   79.87690   72.66570   72.63450   72.66570    0.15010   13.10570    1.82190    0.33550    0.33550  -58.26960   -5.79050    1.88720 3460.64400
 7550.00000    7.86670    7.08800    6.39510    5.83290    5.46360    9.96930  183.02950    2.09430    0.00620    2.70350    0.00380    0.00380    5.46360   57.85710   57.85710   53.19580   53.70240   53.19580    0.00620    9.92030    6.39510    0.11000    0.11000  -55.15740   -3.88420    7.86670 3389.61500
 7600.00000    4.83170    4.59660    4.36690    4.19200    4.00870    9.81230  249.45740    1.93730    0.02730    2.67480    0.02060    0.02060    4.00870   62.65140   62.65140   62.15970   63.55610   62.15970    0.02730    9.76340    4.36690    0.16120    0.16120  -52.15610   -2.04650    4.83170 3460.10620
 7650.00000   31.36910   25.87670   20.43770   17.16330   14.18700    9.86900   70.48710    1.99400    0.04120    2.67260    0.02190    0.02190   14.18700   51.74500   51.74500   40.86750   44.11900   40.86750    0.04120    9.85750   20.43770    0.05050    0.05050  -56.07990   -7.13160   31.36910 3487.18700
 7700.00000   27.63590   21.00990   19.96490   16.43490   13.27250   10.23530   75.34380    2.36030    0.12560    2.62300    0.05090    0.05090   13.27250   51.96080   51.96080   32.99650   34.82500   32.99650    0.12560   10.17950   19.96490    0.09900    0.09900  -55.53160   -7.74460   27.63590 3430.94410
 7750.00000   14.33270   25.81480   22.40280   16.10190   11.41920    9.62000   87.57180    1.74500    0.00560    2.70080    0.00540    0.00540   11.41920   59.74030   59.74030   31.55050   31.91820   31.55050    0.00560    9.55130   22.40280    0.05100    0.05100  -53.92340   -7.29780   14.33270 3514.30000
 7800.00000   12.27940   12.83900   13.63220   14.10530   15.23280    9.59270   65.64780    1.71770   -0.00160    2.69650    0.00790    0.00790   15.23280   59.43550   59.43550   43.88520   43.20090   43.88520   -0.00160    9.54590   13.63220    0.07700    0.07700  -49.72190   -4.25760   12.27940 3576.24020
 7850.00000   16.65490   15.78600   15.38840   14.57330   14.09270    9.12970   70.95870    1.25470   -0.00240    2.71100   -0.00060   -0.00060   14.09270   58.99300   58.99300   35.60710   34.75540   35.60710   -0.00240    9.06620   15.38840    0.07340    0.07340  -50.89530   -6.59230   16.65490 3518.77590
 7900.00000    7.61430    8.37690    8.45090    9.40340   10.96020    9.83320   91.23920    1.95820    0.03830    2.71430   -0.00250   -0.00250   10.96020   62.80110   62.80110   54.02550   54.68950   54.02550    0.03830    9.71030    8.45090    0.07970    0.07970  -48.95390   -5.81230    7.61430 3527.45360
 7950.00000   25.92170   21.23030   19.00410   17.21910   14.42450    9.61970   69.32650    1.74470    0.00280    2.71620   -0.00360   -0.00360   14.42450   57.63640   57.63640   40.82620   40.64130   40.82620    0.00280    9.53640   19.00410    0.07600    0.07600  -47.31790   -5.33760   25.92170 3519.84420
