~Version ---------------------------------------------------
VERS.      2.0 : CWLS log ASCII Standard -VERSION 2.0
WRAP.      YES : Multiple lines per depth step
CREA. 08/24/12 : LAS Creation Date
~Well ------------------------------------------------------
STRT.FT                   3950.0 : START DEPTH
STOP.FT                   8050.0 : STOP DEPTH
STEP.FT                 50.00000 : STEP LENGTH
NULL.                    -999.25 : NULL VALUE
COMP. CHAMPLIN PETROLEUM COMPANY : COMPANY
WELL.      JAMES SEBESTA UNIT #1 : WELL
FLD .                   GIDDINGS : FIELD
LOC .                            : LOCATION
CNTY.                   BURLESON : COUNTY
STAT.                      TEXAS : STATE
CTRY.   UNITED STATES OF AMERICA : COUNTRY
SRVC.               Schlumberger : SERVICE COMPANY
DATE.                21-Jun-1980 : LOGDATE
API .             42051307260000 : API NUMBER
UWI .             42051307260000 : UNIQUE WELL ID
SLAT.WGS84         30.5300439853 : SURFACE LATITUDE
SLON.WGS84         -96.633329984 : SURFACE LONGITUDE
~Curve Information -----------------------------------------
DEPT    .FT    : DEPTH FEET
CALDED  .IN    : CALIPER FROM COMPENSATED NEUTRON FORMATION DENSITY LOG
CALWS   .IN    : CALIPER [CALDED]
CONDWS  .MMHO  : CONDUCTIVITY [1000/DRESWS]
DCORWS  .G/C3  : DENSITY CORRECTION [DRHOED]
DENWS   .G/C3  : BULK DENSITY [RHOBED]
DPHILSED.V/V   : DENSITY POROSITY LIMESTONE [M=2.65 F=1.0] FROM COMPENSATED NEUTRON FORMATION DENSITY LOG
DPHISSED.V/V   : DENSITY POROSITY SANDSTONE [M=2.65 F=1.0] FROM COMPENSATED NEUTRON FORMATION DENSITY LOG
DPOWS   .V/V   : DENSITY POROSITY LIMESTONE [M=2.71, F=1.0] [CALCULATED FROM DENWS]
DRESWS  .OHMM  : DEEP RESISTIVITY [ILDED]
DRHOED  .G/C3  : BULK DENSITY CORRECTION FROM COMPENSATED NEUTRON FORMATION DENSITY LOG
DTED    .US/F  : ACOUSTIC TRANSIT TIME SLOWNESS FROM DUAL INDUCTION-SFL-SONIC LOG
DTWS    .US/F  : COMPRESSIONAL SONIC [DTED]
GRDED   .GAPI  : GAMMA RAY FROM COMPENSATED NEUTRON FORMATION DENSITY LOG [ADJ. TO GRRED]
GRRED   .GAPI  : GAMMA RAY FROM RESISTIVITY FROM DUAL INDUCTION-SFL-SONIC LOG
GRWS    .GAPI  : GAMMA RAY [GRRED]
ILDED   .OHMM  : DEEP INDUCTION RESISTIVITY FROM DUAL INDUCTION-SFL-SONIC LOG
ILMED   .OHMM  : INDUCTION LOG MEDIUM RESISTIVITY FROM DUAL INDUCTION-SFL-SONIC LOG
MRESWS  .OHMM  : MEDIUM RESISTIVITY [ILMED]
NPHILSED.V/V   : NEUTRON POROSITY LIMESTONE FROM COMPENSATED NEUTRON FORMATION DENSITY LOG [ADJ. TO GRDED/DTWS]
NPHISSED.V/V   : NEUTRON POROSITY SANDSTONE FROM COMPENSATED NEUTRON FORMATION DENSITY LOG  [ADJ. TO GRDED/DTWS]
NPOWS   .V/V   : NEUTRON POROSITY LIMESTONE [NPHISSED MATRIX CONVERTED TO LIMESTONE & SPL. TO NPHILSED @ 6003.5' ]
RHOBED  .G/C3  : BULK DENSITY FROM COMPENSATED NEUTRON FORMATION DENSITY LOG
SFLUED  .OHMM  : SPHERICALLY FOCUSED LOG FROM DUAL INDUCTION-SFL-SONIC LOG
SPHILSED.V/V   : SONIC POROSITY LIMESTONE FROM SONIC DENSITY LOG
SPOWS   .V/V   : SONIC POROSITY LIMESTONE [SPHIED]
SPRED   .MV    : SPONTANEOUS POTENTIAL FROM DUAL INDUCTION-SFL-SONIC LOG
SPWS    .MV    : SPONTANEOUS POTENTIAL [BASELINE 0 MV, SPRED]
SRESWS  .OHMM  : SHALLOW RESISTIVITY [SFLUED]
~Params ----------------------------------------------------
PD  .                     GL : PERMANENT DATUM
EPD .FT                  379 : ELEVATION PERMANENT DATUM
LMF .                     KB : LOG MEASURED FROM
DAPD.FT                   17 : FEET ABOVE PERMANENT DATUM
DMF .                     KB : DRILLING MEASURED FROM
EKB .FT                  396 : KELLY BUSHING
EDF .FT                  395 : DRILLING FLOOR
EGL .FT                  379 : GROUND LEVEL
DATE.               06/21/80 : RUN DATE
RUN .                      1 : RUN NUMBER
DD  .FT                 8065 : DEPTH DRILLER
DL  .FT                 8061 : DEPTH LOGGER
BLI .FT                 8054 : BOTTOM LOG INTERVAL
TLI .FT                 3977 : TOP LOG INTERVAL
CS  .IN                9.625 : CASING SIZE
CBD .FT                 3968 : CASING BOTTOM DRILLER
CBL .FT                 3977 : CASING BOTTOM LOGGER
BS  .IN                  8.5 : BIT SIZE
BSD .FT                 8065 : BIT SIZE AT DEPTH
DFT .             BEN EX GEL : DRILLING FLUID TYPE
DFD .                    9.9 : DRILLING FLUID DENSITY
DFV .                     46 : DRILLING FLUID VISCOSITY
DFPH.                    9.5 : DRILLING FLUID PH
DFL .                    9.5 : DRILLING FLUID LOSS
MSS .               CIRC PIT : MUD SAMPLE SOURCE
RMS .OHMM               1.86 : RESISTIVITY MUD SAMPLE
MST .DEGF                 80 : MUD SAMPLE TEMPERATURE
RMF .OHMM               1.81 : RESISTIVITY MUD FILTRATE SAMPLE
MFST.DEGF                 80 : MUD FILTRATE SAMPLE TEMPERATURE
RMC .OHMM               2.29 : RESISTIVITY MUD CAKE
MCST.DEGF                 80 : MUD CAKE SAMPLE TEMPERATURE
MFSS.                      M : MUD FILTRATE SAMPLE SOURCE
MCSS.                      C : MUD CAKE SAMPLE SOURCE
RMB .OHMM               0.76 : RESISTIVITY MUD AT BHT
TCS .HRS                2000 : TIME CIRCULATED STOPPED
TLAB.HRS                 130 : TIME LOGGER AT BOTTOM
LUN .                   8096 : LOGGING UNIT NUMBER
LUL .                BRENHAM : LOGGING UNIT LOCATION
ENGI.               HENDRICK : RECORDING ENGINEER
WITN.                CAMERON : WITNESSED BY
CLNT.                A2DTECH : CLIENT CODE
ORIG.          1" 2.5" PRINT : ORIGIN OF DATA
UWI .         42051307260000 : UNIQUE WELL ID
DICO. A2D Technologies, Inc. : DIGITIZING COMPANY
~Other -----------------------------------------------------
ALL CNFD CURVES NOT SHIFTED TO GRDED AS THEY ARE ON-DEPTH WITH GRDED.
~ASCII -----------------------------------------------------
# ...
 6450.00000    9.46660    9.46660  274.15290    0.01370    2.56970    0.07650    -999.25    0.08200    3.64760    0.01370   77.47870   77.47870   57.56470   53.10940   53.10940    3.64760    3.50520    3.50520    0.14110    -999.25    0.14470    2.56970    4.06980    0.21270    0.21270    0.88830   -2.88300    4.06980
 6500.00000    9.27340    9.27340  223.81880    0.00310    2.56140    0.07390    -999.25    0.08690    4.46790    0.00310   74.81590   74.81590   55.46240   49.29840   49.29840    4.46790    4.23140    4.23140    0.11700    -999.25    0.11550    2.56140    4.66070    0.18450    0.18450   -7.23230  -11.54250    4.66070
 6550.00000    9.57750    9.57750  453.47360    0.01070    2.51290    0.10780    -999.25    0.11530    2.20520    0.01070   88.12230   88.12230  101.28230   92.12920   92.12920    2.20520    2.11820    2.11820    0.20330    -999.25    0.18920    2.51290    2.30740    0.28510    0.28510    3.19460   -1.59420    2.30740
 6600.00000    9.81100    9.81100  293.26370    0.01540    2.51940    0.10410    -999.25    0.11150    3.40990    0.01540   77.92530   77.92530   83.28560   84.70280   84.70280    3.40990    3.17110    3.17110    0.15320    -999.25    0.16390    2.51940    3.66760    0.21700    0.21700   -4.16030   -9.42770    3.66760
 6650.00000    9.58450    9.58450  400.80160    0.01130    2.52700    0.10010    -999.25    0.10700    2.49500    0.01130   85.49100   85.49100  106.99330  105.37390  105.37390    2.49500    2.39090    2.39090    0.20050    -999.25    0.20230    2.52700    2.71220    0.26660    0.26660    3.75500   -1.99090    2.71220
 6700.00000    9.29160    9.29160  453.10380    0.06410    2.50400    0.11640    -999.25    0.12050    2.20700    0.06410   89.55650   89.55650  103.75300   94.47160   94.47160    2.20700    2.12150    2.12150    0.23650    -999.25    0.24070    2.50400    2.31440    0.29130    0.29130    1.79270   -4.43180    2.31440
 6750.00000    9.17450    9.17450  346.76470    0.04710    2.55970    0.08150    -999.25    0.08790    2.88380    0.04710   84.27900   84.27900   90.51060   85.50950   85.50950    2.88380    2.73990    2.73990    0.19830    -999.25    0.20000    2.55970    3.25750    0.25970    0.25970    4.34540   -2.35770    3.25750
 6800.00000    9.27150    9.27150  555.27790    0.15650    2.53370    0.09270    -999.25    0.10310    1.80090    0.15650   90.34230   90.34230  101.99940   92.99370   92.99370    1.80090    1.73750    1.73750    0.24260    -999.25    0.24440    2.53370    2.39250    0.29950    0.29950    3.07460   -3.64130    2.39250
 6850.00000   10.69640   10.69640  786.28720    0.12440    2.45430    0.14620    -999.25    0.14950    1.27180    0.12440   97.24410   97.24410  117.60760  120.46220  120.46220    1.27180    1.22170    1.22170    0.34580    -999.25    0.34750    2.45430    1.56570    0.35030    0.35030   -1.32260   -7.89600    1.56570
 6900.00000    9.38320    9.38320  565.29110    0.12880    2.49640    0.12550    -999.25    0.12490    1.76900    0.12880   92.60820   92.60820  111.07230   91.95580   91.95580    1.76900    1.70000    1.70000    0.28360    -999.25    0.27910    2.49640    2.10070    0.31730    0.31730    3.54470   -2.88620    2.10070
 6950.00000   10.21570   10.21570  669.56810    0.10950    2.46790    0.13410    -999.25    0.14160    1.49350    0.10950   93.61250   93.61250  113.63560  110.20560  110.20560    1.49350    1.43590    1.43590    0.26230    -999.25    0.27030    2.46790    1.79180    0.32470    0.32470    3.82380   -2.46470    1.79180
 7000.00000   10.24830   10.24830  634.27630    0.16680    2.50380    0.11230    -999.25    0.12060    1.57660    0.16680   95.38850   95.38850  110.41210  102.17120  102.17120    1.57660    1.53820    1.53820    0.30710    -999.25    0.30790    2.50380    1.90800    0.33830    0.33830    3.50130   -2.64470    1.90800
 7050.00000   10.07560   10.07560  606.20760    0.16470    2.50950    0.11270    -999.25    0.11730    1.64960    0.16470   93.46870   93.46870  108.65990   97.60600   97.60600    1.64960    1.58560    1.58560    0.28790    -999.25    0.29460    2.50950    2.00920    0.32690    0.32690    5.58160   -0.42200    2.00920
 7100.00000   10.63760   10.63760  654.32180    0.09680    2.50610    0.12460    -999.25    0.11920    1.52830    0.09680   96.94330   96.94330  112.30540  103.54520  103.54520    1.52830    1.46890    1.46890    0.31550    -999.25    0.31890    2.50610    1.82920    0.34840    0.34840    3.41170   -2.44940    1.82920
 7150.00000   10.53830   10.53830  622.85890    0.12770    2.51860    0.10500    -999.25    0.11190    1.60550    0.12770   94.05010   94.05010  108.81590   99.29680   99.29680    1.60550    1.54350    1.54350    0.28260    -999.25    0.27520    2.51860    2.04510    0.32860    0.32860    0.46590   -5.25270    2.04510
 7200.00000    9.76020    9.76020  549.75260    0.12450    2.52470    0.10420    -999.25    0.10840    1.81900    0.12450   92.29380   92.29380  108.98640  106.10010  106.10010    1.81900    1.74870    1.74870    0.26550    -999.25    0.26720    2.52470    2.21220    0.31560    0.31560    4.56340   -1.01280    2.21220
 7250.00000    9.92900    9.92900  561.45080    0.10380    2.52820    0.10070    -999.25    0.10630    1.78110    0.10380   91.51630   91.51630  110.05210  101.66850  101.66850    1.78110    1.71230    1.71230    0.25730    -999.25    0.26000    2.52820    2.19310    0.31050    0.31050    0.89470   -4.53900    2.19310
 7300.00000   10.34410   10.34410  569.96300    0.10000    2.53660    0.09890    -999.25    0.10140    1.75450    0.10000   92.69520   92.69520  112.46370  108.71500  108.71500    1.75450    1.68650    1.68650    0.27810    -999.25    0.27110    2.53660    2.15730    0.31760    0.31760    1.95060   -3.34070    2.15730
 7350.00000   10.50590   10.50590  577.60060    0.13690    2.55520    0.08520    -999.25    0.09050    1.73130    0.13690   92.30640   92.30640  107.18180  101.02480  101.02480    1.73130    1.66450    1.66450    0.26420    -999.25    0.25760    2.55520    2.11180    0.31480    0.31480   -0.12640   -5.27520    2.11180
 7400.00000   10.60540   10.60540  540.01510    0.08850    2.51640    0.10800    -999.25    0.11320    1.85180    0.08850   91.05410   91.05410  114.58900  107.53660  107.53660    1.85180    1.77940    1.77940    0.26520    -999.25    0.27320    2.51640    2.22290    0.30760    0.30760    2.10540   -2.90090    2.22290
 7450.00000   10.22410   10.22410  492.12600    0.04910    2.55550    0.08330    -999.25    0.09040    2.03200    0.04910   90.27690   90.27690   99.68290   95.08460   95.08460    2.03200    1.95340    1.95340    0.26260    -999.25    0.26470    2.55550    2.48270    0.30240    0.30240    1.51980   -3.19460    2.48270
 7500.00000   10.43920   10.43920  360.78940    0.22480    2.45740    0.17130    -999.25    0.14770    2.77170    0.22480   80.23360   80.23360  135.35860  112.98180  112.98180    2.77170    2.36730    2.36730    0.14220    -999.25    0.06220    2.45740    2.44310    0.23030    0.23030  -14.28050  -18.33710    2.44310
 7550.00000    9.54710    9.54710   85.08900    0.19660    2.53770    0.12560    -999.25    0.10080   11.75240    0.19660   66.62060   66.62060   55.35690   51.78910   51.78910   11.75240    9.26560    9.26560    0.10560    -999.25    0.10060    2.53770   10.48570    0.12960    0.12960  -29.00280  -32.40160   10.48570
 7600.00000    9.09570    9.09570   32.51630   -0.00700    2.53520    0.09480    -999.25    0.10220   30.75380   -0.00700   59.64930   59.64930   28.84810   26.67360   26.67360   30.75380   26.57980   26.57980    0.07470    -999.25    0.07780    2.53520   98.21490    0.09240    0.09240  -23.77760  -26.51860   98.21490
 7650.00000    9.23730    9.23730   35.75220    0.00060    2.52760    0.09890    -999.25    0.10670   27.97030    0.00060   64.38250   64.38250   26.14180   22.02740   22.02740   27.97030   26.41490   26.41490    0.09100    -999.25    0.08590    2.52760   64.82470    0.11890    0.11890  -28.02070  -30.10390   64.82470
