~Version ---------------------------------------------------
VERS. 2.0 : CWLS log ASCII Standard -VERSION 2.0
WRAP. YES : MULTIPLE LINES PER DEPTH STEP
~Well ------------------------------------------------------
STRT.FT                  300.0 : START DEPTH
STOP.FT                15250.0 : STOP DEPTH
STEP.FT               50.00000 : STEP LENGTH
NULL.                  -999.25 : NULL VALUE
COMP.  CONTINENTAL OIL COMPANY : COMPANY
WELL.    HALSELL FOUNDATION #1 : WELL
FLD .                  WILDCAT : FIELD
LOC .                          : LOCATION
CNTY.                 MAVERICK : COUNTY
STAT.                    TEXAS : STATE
CTRY. UNITED STATES OF AMERICA : COUNTRY
SRVC.             Schlumberger : SERVICE COMPANY
DATE.              02-Apr-1972 : LOGDATE
API .           42323300720000 : API NUMBER
UWI .           42323300720000 : UNIQUE WELL ID
SLAT.WGS84       28.6077848095 : SURFACE LATITUDE
SLON.WGS84     -100.3259081005 : SURFACE LONGITUDE
~Curve Information -----------------------------------------
DEPT    .FT    : DEPTH FEET
ALL8ED  .MV    : AMPLIFIED LATARLOG 8 FROM RES. LOG
ASNED   .OHMM  : 16 INCH AMPLIFIED SHORT NORMAL RESISTIVITY FROM IEL
CALDED  .IN    : CALIPER FROM DENSITY LOG, DEPTH ADJUSTED WITH [ILDED]
CALSED  .IN    : CALIPER FROM SONIC LOG, DEPTH ADJUSTED WITH [ILDED]
CALWS   .IN    : CALIPER [CALSED]
CILDED  .MMHO  : CONDUCTIVITY FROM RESISTIVITY LOG
CONDWS  .MMHO  : CONDUCTIVITY [1000/DRESWS]
DENWS   .G/C3  : BULK DENSITY [M=2.71 F=1.0] [CALCULATED FROM DPOWS]
DPHILSED.V/V   : DENSITY POROSITY [M=2.71 F=1.0] FROM DENSITY LOG, DEPTH ADJUSTED WITH [ILDED]
DPOWS   .V/V   : DENSITY POROSITY [DPHILSED]
DRESWS  .OHMM  : DEEP RESISTIVITY [ILDED] IF DRESWS<1;1000/CONDWS
DTED    .US/F  : DELTA TIME FROM SONIC LOG, DEPTH ADJUSTED WITH [ILDED]
DTWS    .US/F  : DELTA TIME [DTED]
GRDED   .GAPI  : GAMMA RAY FROM DENSITY LOG, DEPTH ADJUSTED WITH [ILDED]
GRRED   .GAPI  : GAMMA RAY FROM RESISTIVITY LOG
GRSED   .GAPI  : GAMMA RAY FROM SONIC LOG, DEPTH ADJUSTED WITH [ILDED]
GRWS    .GAPI  : GAMMA RAY [GRSED]
ILDED   .OHMM  : INDUCTION LOG DEEP RESISTIVITY
NPHILSED.V/V   : NEUTRON POROSITY LIMESTONE FROM DENSITY LOG, DEPTH ADJUSTED WITH [ILDED]
NPOWS   .V/V   : NEUTRON POROSITY SANDSTONE [NPHILSED]
SPRED   .MV    : SPONTANEOUS POTENTIAL FROM RESISTIVITY LOG
SPWS    .MV    : SPONTANEOUS POTENTIAL [BASELINE 0 MV] [SPRED]
SRESWS  .OHMM  : SHALLOW RESISTIVITY [ASNED], SPLICED WITH [ALL8ED] AT 8750'
~Params ----------------------------------------------------
PD  .                     GL : PERMANENT DATUM
EPD .F                 749.4 : ELEVATION PERMANENT DATUM
LMF .                     KB : LOG MEASURED FROM
DAPD.F                  25.2 : FEET ABOVE PERMANENT DATUM
DMF .                     KB : DRILLING MEASURED FROM
EKB .F                 775.4 : KELLING BUSHING
EDF .F                 774.6 : DRILLING FLOOR
EGL .F                 749.4 : GROUND LEVEL
DATE.               04/02/72 : RUN DATE
RUN .                      8 : RUN NUMBER
DD  .F                 15250 : DEPTH DRILLER
DL  .F                 15273 : DEPTH LOGGER
BLI .F                 15266 : BOTTOM LOG INTERVAL
TLI .F                 14800 : TOP LOG INTERVAL
CS  .IN                9.625 : CASING SIZE
CBD .F                  8736 : CASING BOTTOM DRILLER
CBL .F                  8748 : CASING BOTTOM LOGGER
BS  .IN                  8.5 : BIT SIZE
BSD .F                 15250 : BIT SIZE AT DEPTH
DFT .             LIGNO SULF : DRILLING FLUID TYPE
DFD .                   14.5 : DRILLING FLUID DENSITY
DFV .                     49 : DRILLING FLUID VISCOSITY
DFPH.                     12 : DRILLING FLUID PH
DFL .                    1.6 : DRILLING FLUID LOSS
MSS .               CIRC PIT : MUD SAMPLE SOURCE
RMS .OHMM               0.55 : RESISTIVITY MUD SAMPLE
MST .F                    75 : MUD SAMPLE TEMPERATURE
RMF .OHMM               0.17 : RESISTIVITY MUD FILTRATE SAMPLE
MFST.F                    75 : MUD FILTRATE SAMPLE TEMPERATURE
RMC .OHMM                1.1 : RESISTIVITY MUD CAKE
MCST.F                    75 : MUD CAKE SAMPLE TEMPERATURE
MFSS.                      M : MUD FILTRATE SAMPLE SOURCE
MCSS.                      C : MUD CAKE SAMPLE SOURCE
RMB .OHMM                0.1 : RESISTIVITY MUD AT BHT
TCS .HRS                 4.5 : TIME CURCULATED STOPPED
LUN .                   7029 : LOGGING UNIT NUMBER
LUL .                   VICT : LOGGING UNIT LOCATION
ENGI.               BRADFORD : RECORDING ENGINEER
CLNT.                A2DTECH : CLIENT CODE
ORIG.            2" 5" PRINT : ORIGIN OF DATA
UWI .         42323300720000 : UNIQUE WELL ID
DICO. A2D Technologies, Inc. : DIGITIZING COMPANY
~Other -----------------------------------------------------
~ASCII -----------------------------------------------------
# ...
 8050.00000    -999.25    -999.25    -999.25   12.14950   12.14950   26.44680   16.19560    -999.25    -999.25    -999.25   61.74510   58.05760   58.05760    -999.25   27.50890   33.45010   33.45010   61.74510    -999.25    -999.25    -999.25    -999.25    -999.25
 8100.00000    -999.25    -999.25    -999.25   11.99810   11.99810   25.21920   18.70530    -999.25    -999.25    -999.25   53.46070   56.52860   56.52860    -999.25   24.27740   34.05290   34.05290   53.46070    -999.25    -999.25    -999.25    -999.25    -999.25
 8150.00000    -999.25    -999.25    -999.25   11.95000   11.95000   99.42760  103.64310    -999.25    -999.25    -999.25    9.64850   69.09100   69.09100    -999.25   33.63210   37.45560   37.45560    9.64850    -999.25    -999.25    -999.25    -999.25    -999.25
 8200.00000    -999.25    -999.25    -999.25   12.01050   12.01050   63.12430   62.38610    -999.25    -999.25    -999.25   16.02920   63.50600   63.50600    -999.25   31.56170   39.47530   39.47530   16.02920    -999.25    -999.25    -999.25    -999.25    -999.25
 8250.00000    -999.25    -999.25    -999.25   12.03240   12.03240   56.02780   51.64040    -999.25    -999.25    -999.25   19.36470   60.47720   60.47720    -999.25   32.44040   40.28640   40.28640   19.36470    -999.25    -999.25    -999.25    -999.25    -999.25
 8300.00000    -999.25    -999.25    -999.25   11.97560   11.97560   42.57780   37.81920    -999.25    -999.25    -999.25   26.44160   73.73800   73.73800    -999.25   31.27120   41.65640   41.65640   26.44160    -999.25    -999.25    -999.25    -999.25    -999.25
 8350.00000    -999.25    -999.25    -999.25   12.05030   12.05030  148.52190  154.65270    -999.25    -999.25    -999.25    6.46610   79.31430   79.31430    -999.25   35.50140   40.11580   40.11580    6.46610    -999.25    -999.25    -999.25    -999.25    -999.25
 8400.00000    -999.25    -999.25    -999.25   11.96210   11.96210   26.02670   19.30300    -999.25    -999.25    -999.25   51.80540   72.06360   72.06360    -999.25   27.08440   34.72120   34.72120   51.80540    -999.25    -999.25    -999.25    -999.25    -999.25
 8450.00000    -999.25    -999.25    -999.25   12.00680   12.00680   32.24410   26.74410    -999.25    -999.25    -999.25   37.39140   72.54560   72.54560    -999.25   25.03950   29.20090   29.20090   37.39140    -999.25    -999.25    -999.25    -999.25    -999.25
 8500.00000    -999.25    -999.25    -999.25   11.94970   11.94970   58.66010   53.67920    -999.25    -999.25    -999.25   18.62920   70.43860   70.43860    -999.25   31.98200   38.07580   38.07580   18.62920    -999.25    -999.25    -999.25    -999.25    -999.25
 8550.00000    -999.25    -999.25    -999.25   12.08520   12.08520   44.23710   38.64910    -999.25    -999.25    -999.25   25.87380   61.10570   61.10570    -999.25   27.81910   39.72470   39.72470   25.87380    -999.25    -999.25    -999.25    -999.25    -999.25
 8600.00000    -999.25    -999.25    -999.25   12.08120   12.08120   61.38420   55.93900    -999.25    -999.25    -999.25   17.87660   84.12490   84.12490    -999.25   35.53250   42.67720   42.67720   17.87660    -999.25    -999.25    -999.25    -999.25    -999.25
 8650.00000    -999.25    -999.25    -999.25   12.57100   12.57100   49.23160   42.73520    -999.25    -999.25    -999.25   23.39990   76.31310   76.31310    -999.25   29.95900   38.15490   38.15490   23.39990    -999.25    -999.25    -999.25    -999.25    -999.25
 8700.00000    -999.25    -999.25    -999.25   12.41520   12.41520   57.46320   47.05530    -999.25    -999.25    -999.25   21.25160   65.38460   65.38460    -999.25   26.25250   32.88950   32.88950   21.25160    -999.25    -999.25    -999.25    -999.25    -999.25
 8750.00000    -999.25    -999.25    9.49140    9.20760    9.20760    -999.25    -999.25    -999.25    -999.25    -999.25    -999.25    -999.25    -999.25   42.39800    -999.25   32.79210   32.79210    -999.25   -0.02340   -0.02340    -999.25    -999.25    -999.25
 8800.00000   88.76430    -999.25   11.45870    9.53960    9.53960    7.33220   10.42940    2.69560    0.00840    0.00840   95.88290   52.02930   52.02930   38.08850    -999.25   24.95950   24.95950   95.88290   -0.04200   -0.04200    2.73790    0.33510   88.76430
 8850.00000  122.45600    -999.25   10.86430    9.71410    9.71410    6.50100   10.00120    -999.25    -999.25    -999.25   99.98780   49.88970   49.88970   11.26850    -999.25    8.58450    8.58450   99.98780   -0.07540   -0.07540   -3.82140   -5.15960  122.45600
 8900.00000  148.37430    -999.25   10.70610    9.54030    9.54030    8.88670    9.99270    2.80180   -0.05370   -0.05370  100.07280   50.26130   50.26130   24.88830    -999.25   20.16680   20.16680  100.07280   -0.06660   -0.06660    2.78540    2.51170  148.37430
 8950.00000   63.61560    -999.25   11.36900    9.45710    9.45710   19.85390   10.03310    2.69820    0.00690    0.00690   99.66990   53.52470   53.52470   23.33350    -999.25   17.30900   17.30900   99.66990   -0.00560   -0.00560  -15.84020  -15.04930   63.61560
 9000.00000  383.96430    -999.25   10.97620    9.65660    9.65660    6.58030   10.00280    2.68710    0.01340    0.01340   99.97220   48.84690   48.84690   21.90860    -999.25   16.29650   16.29650   99.97220   -0.04690   -0.04690  -17.36300  -15.50760  383.96430
 9050.00000   81.69120    -999.25   12.75950    9.76410    9.76410    6.90810   10.00980    2.67840    0.01850    0.01850   99.90170   49.15150   49.15150   17.44700    -999.25   16.50280   16.50280   99.90170   -0.04640   -0.04640   -6.88310   -3.96310   81.69120
 9100.00000   98.50010    -999.25   10.74230    9.42530    9.42530   15.72340   11.02550    2.73720   -0.01590   -0.01590   90.69880   57.34490   57.34490   50.88420    -999.25   38.71100   38.71100   90.69880    0.01510    0.01510  -34.00810  -28.80870   98.50010
 9150.00000   17.90330    -999.25   10.11150    9.57680    9.57680  113.28640  122.67830    2.78130   -0.04170   -0.04170    8.15140   56.05840   56.05840   40.76680    -999.25   37.19720   37.19720    8.15140    0.00510    0.00510  -44.30260  -28.69340   17.90330
 9200.00000   32.65010    -999.25   11.08890   11.61350   11.61350   76.17350   61.04600    2.76540   -0.03240   -0.03240   16.38110   59.27050   59.27050   46.24500    -999.25   37.62950   37.62950   16.38110    0.03110    0.03110  -33.86330  -15.57430   32.65010
 9250.00000  105.01910    -999.25   10.46910    9.55220    9.55220   16.87700   13.17710    2.73330   -0.01360   -0.01360   75.88900   51.77870   51.77870   38.33360    -999.25   30.23840   30.23840   75.88900   -0.03550   -0.03550  -52.00960  -34.51370  105.01910
 9300.00000   96.47450    -999.25   10.21810    9.63090    9.63090   21.25360   13.05270    2.79580   -0.05020   -0.05020   76.61230   51.84050   51.84050   39.49950    -999.25   27.08400   27.08400   76.61230    0.01770    0.01770  -51.15490  -34.45220   96.47450
 9350.00000    7.31740    -999.25   10.76330    9.86330    9.86330  248.35050  311.90540    -999.25    -999.25    -999.25    3.20610   51.24500   51.24500   18.93400    -999.25   15.09130   15.09130    3.20610   -0.05420   -0.05420  -43.28300  -27.37340    7.31740
 9400.00000   68.45950    -999.25   11.33070    9.98570    9.98570   12.43980   10.04180    2.76350   -0.03130   -0.03130   99.58350   53.09900   53.09900   33.22460    -999.25   29.15230   29.15230   99.58350   -0.04190   -0.04190  -47.16320  -32.04670   68.45950
 9450.00000   10.12600    -999.25   10.62080    9.78250    9.78250  102.89860  114.30010    2.78080   -0.04140   -0.04140    8.74890   54.26510   54.26510   29.80410    -999.25   19.09350   19.09350    8.74890    0.00520    0.00520  -49.18020  -34.85690   10.12600
 9500.00000    6.12000    -999.25   10.73980   10.10660   10.10660  237.43240  340.25180    2.75550   -0.02660   -0.02660    2.93900   66.12500   66.12500   55.72550    -999.25   44.16170   44.16170    2.93900    0.02340    0.02340  -29.42430  -15.89410    6.12000
 9550.00000   17.51460    -999.25   10.42300    9.92830    9.92830   73.94200   72.38090    2.64430    0.03840    0.03840   13.81580   60.32120   60.32120   55.78560    -999.25   62.04580   62.04580   13.81580   -0.01610   -0.01610  -41.02230  -28.28530   17.51460
