~Version ---------------------------------------------------
VERS. 2.0 : CWLS log ASCII Standard -VERSION 2.0
WRAP.  NO : ONE LINE PER DEPTH STEP
~Well ------------------------------------------------------
STRT.F                     300.0 : START DEPTH
STOP.F                   14450.0 : STOP DEPTH
STEP.F                  50.00000 : STEP LENGTH
NULL.                    -999.25 : NULL VALUE
COMP. CHAMPLIN PETROLEUM COMPANY : COMPANY
WELL.          LEDWIG CAROLYN #1 : WELL
FLD .      YORKTOWN-N.E. EDWARDS : FIELD
LOC .                            : LOCATION
CNTY.                    DE WITT : COUNTY
STAT.                      TEXAS : STATE
CTRY.   UNITED STATES OF AMERICA : COUNTRY
SRVC.               Schlumberger : SERVICE COMPANY
DATE.                01-Jan-1979 : LOGDATE
API .             42123309360000 : API NUMBER
UWI .             42123309360000 : UNIQUE WELL ID
SLAT.WGS84         29.0138346697 : SURFACE LATITUDE
SLON.WGS84        -97.4746712486 : SURFACE LONGITUDE
~Curve Information -----------------------------------------
DEPT .F                 : 
CILD .MMHO 07 110 46 00 : CONDUCTIVITY INDUCTION LOG DEEP
LL8  .OHMM 07 220 08 00 : LATEROLOG-8 RES.
GRR  .GAPI 07 310 01 00 : GAMMA RAY FROM RES. LOG
ILM  .OHMM 07 120 44 00 : INDUCTION LOG MEDIUM
SFLU .OHMM 07 220 01 00 : SPHERICALLY FOCUSED LOG UNAVERAGED RESISTIVITY
ILD  .OHMM 07 120 46 00 : INDUCTION LOG DEEP
DT   .US/F 60 520 00 00 : INTERVAL TRANSIT TIME
SPR  .MV   07 010 01 00 : SPONTANEOUS POTENTIAL FROM RES. LOG
CALD .IN   45 280 60 00 : CALIPER FROM DENSITY LOG
CORR .G/C3 45 356 01 00 : DENSITY CORRECTION
GRD  .GAPI 45 310 01 00 : GAMMA RAY FROM DENSITY LOG
DPHI .DEC  45 890 12 00 : DENSITY POROSITY SANDSTONE MATRIX CHANGE TO AT 13170 LIMESTONE
NPHI .DEC  42 890 03 00 : NEUTRON POROSITY SANDSTONE MATRIX CHANGE AT 13170 TO LIMESTONE
RHOB .G/C3 45 350 01 00 : BULK DENSITY
ASFL .OHMM 07 221 06 00 : AMPLIFIED SHALLOW FOCUSED LOG RESISTIVITY
RILD .OHMM 07 120 46 00 : INDUCTION LOG DEEP RESISTIVITY
NEUT .NAPI 35 330 01 00 : NEUTRON
GRN  .GAPI 35 310 01 00 : GAMMA RAY
NEUT1.NAPI 35 330 01 00 : NEUTRON DEFAULT SCALE & UNIT 0/1000
GRN1 .GAPI 35 310 01 00 : GAMMA RAY DEFAULT SCALE & UNIT 0/100
~Params ----------------------------------------------------
PD  .                     GL : PERMANENT DATUM
EPD .FT                355.1 : ELEVATION PERMANENT DATUM
LMF .                     KB : LOG MEASURED FROM
DAPD.FT                   20 : FEET ABOVE PERMANENT DATUM
DMF .                     KB : DRILLING MEASURED FROM
EKB .FT                375.1 : KELLY BUSHING
EDF .FT                374.1 : DRILLING FLOOR
EGL .FT                355.1 : GROUND LEVEL
DATE.               01/01/79 : RUN DATE
RUN .                      3 : RUN NUMBER
DD  .FT                14460 : DEPTH DRILLER
DL  .FT                14470 : DEPTH LOGGER
BLI .FT                14460 : BOTTOM LOG INTERVAL
TLI .FT                 9970 : TOP LOG INTERVAL
CS  .IN                10.75 : CASING SIZE
CBD .FT                 2500 : CASING BOTTOM DRILLER
BS  .IN                 8.75 : BIT SIZE
BSD .FT                14460 : BIT SIZE AT DEPTH
DFT .        IMCO SALT WATER : DRILLING FLUID TYPE
DFD .                   11.3 : DRILLING FLUID DENSITY
DFV .                     60 : DRILLING FLUID VISCOSITY
DFPH.                  11.35 : DRILLING FLUID PH
DFL .                    7.6 : DRILLING FLUID LOSS
MSS .               CIRC PIT : MUD SAMPLE SOURCE
RMS .OHMM              0.104 : RESISTIVITY MUD SAMPLE
MST .DEGF                 48 : MUD SAMPLE TEMPERATURE
RMF .OHMM              0.079 : RESISTIVITY MUD FILTRATE SAMPLE
MFST.DEGF                 48 : MUD FILTRATE SAMPLE TEMPERATURE
RMC .OHMM              0.156 : RESISTIVITY MUD CAKE
MCST.DEGF                 48 : MUD CAKE SAMPLE TEMPERATURE
MFSS.                      M : MUD FILTRATE SAMPLE SOURCE
MCSS.                      C : MUD CAKE SAMPLE SOURCE
RMB .OHMM              0.016 : RESISTIVITY MUD AT BHT
MRT .DEGF                304 : MAXIMUM RECORDED TEMPERATURE
LUN .                   8015 : LOGGING UNIT NUMBER
LUL .               VICTORIA : LOGGING UNIT LOCATION
ENGI.               BUCHANAN : RECORDING ENGINEER
WITN.              PRITCHARD : WITNESSED BY
CLNT.                A2DTECH : CLIENT CODE
ORIG.            2" 5" PRINT : ORIGIN OF DATA
UWI .         42123309360000 : UNIQUE WELL ID
DICO. A2D Technologies, Inc. : DIGITIZING COMPANY
~Other -----------------------------------------------------
~ASCII -----------------------------------------------------
  300.00000  182.60600    -999.25    -999.25    -999.25    -999.25    -999.25    -999.25  -57.63220   16.15470    0.04340   73.97240    0.35360    0.57370    2.06450    4.38740    4.92050    -999.25    -999.25    -999.25    -999.25
  350.00000   67.72910    -999.25    -999.25    -999.25    -999.25    -999.25    -999.25  -60.69900   15.15070    0.05360   38.01330    0.29640    0.52630    2.16230   14.04040   15.81030    -999.25    -999.25    -999.25    -999.25
  400.00000  287.88510    -999.25    -999.25    -999.25    -999.25    -999.25    -999.25  -57.94760   15.15770    0.00080   49.44950    0.36800    0.56660    2.04080    3.01980    3.35970    -999.25    -999.25    -999.25    -999.25
  450.00000   16.93230    -999.25    -999.25    -999.25    -999.25    -999.25    -999.25  -62.50000   15.03690    0.04930   46.60360    0.22750    0.49730    2.28610   28.45850   28.26090    -999.25    -999.25    -999.25    -999.25
  500.00000  126.82600    -999.25    -999.25    -999.25    -999.25    -999.25    -999.25  -56.82840   14.87700    0.01640   64.94920    0.37230    0.57780    2.03540    5.51670    5.58780    -999.25    -999.25    -999.25    -999.25
  550.00000   67.72910    -999.25    -999.25    -999.25    -999.25    -999.25    -999.25  -56.26650   15.10610    0.01440   45.10510    0.24350    0.46380    2.25110   11.12650   12.01020    -999.25    -999.25    -999.25    -999.25
  600.00000  126.85740    -999.25    -999.25    -999.25    -999.25    -999.25    -999.25  -56.94440   15.23220    0.00380   46.22730    0.26740    0.44930    2.21410    5.96840    6.52170    -999.25    -999.25    -999.25    -999.25
  650.00000  270.34720    -999.25    -999.25    -999.25    -999.25    -999.25    -999.25  -56.25000   14.93910    0.01130   62.95290    0.32930    0.55310    2.10940    3.26480    3.83400    -999.25    -999.25    -999.25    -999.25
  700.00000  253.98410    -999.25    -999.25    -999.25    -999.25    -999.25    -999.25  -55.14150   16.08930    0.03280   67.53450    0.29900    0.54000    2.14910    3.19110    3.85270    -999.25    -999.25    -999.25    -999.25
  750.00000  318.72510    -999.25    -999.25    -999.25    -999.25    -999.25    -999.25  -55.97040   15.00940    0.01270   61.99150    0.34110    0.55000    2.08160    2.73780    3.00400    -999.25    -999.25    -999.25    -999.25
  800.00000  276.20020    -999.25    -999.25    -999.25    -999.25    -999.25    -999.25  -57.11450   15.72530    0.02480   60.68330    0.38710    0.53870    2.01280    3.39890    4.00170    -999.25    -999.25    -999.25    -999.25
  850.00000  286.40990    -999.25    -999.25    -999.25    -999.25    -999.25    -999.25  -56.00650   15.57130    0.02320   67.05270    0.29710    0.52480    2.15860    3.20950    3.52220    -999.25    -999.25    -999.25    -999.25
  900.00000  236.29320    -999.25    -999.25    -999.25    -999.25    -999.25    -999.25  -55.16020   16.06420    0.03590   89.58600    0.24860    0.43730    2.24230    3.94470    4.03160    -999.25    -999.25    -999.25    -999.25
  950.00000   35.85660    -999.25    -999.25    -999.25    -999.25    -999.25    -999.25  -65.01320   15.97760    0.01460   54.20820    0.36300    0.46930    2.04240   19.20950   28.26090    -999.25    -999.25    -999.25    -999.25
 1000.00000   83.22270    -999.25    -999.25    -999.25    -999.25    -999.25    -999.25  -57.88210   15.18080    0.01260   56.89310    0.33990    0.44630    2.08780   11.98950   12.92490    -999.25    -999.25    -999.25    -999.25
 1050.00000  154.38250    -999.25    -999.25    -999.25    -999.25    -999.25    -999.25  -60.20720   18.68220    0.03110   50.85660    0.62750    0.69760    1.61820    4.86170    5.80530    -999.25    -999.25    -999.25    -999.25
 1100.00000  107.56970    -999.25    -999.25    -999.25    -999.25    -999.25    -999.25  -61.18640   17.58030    0.12320   49.98720    0.41540    0.56480    1.96430    5.96840    9.16810    -999.25    -999.25    -999.25    -999.25
 1150.00000  147.41040    -999.25    -999.25    -999.25    -999.25    -999.25    -999.25  -60.11900   15.13370    0.01140   52.49160    0.35720    0.55830    2.05800    4.98810    6.83790    -999.25    -999.25    -999.25    -999.25
 1200.00000  466.87570    -999.25    -999.25    -999.25    -999.25    -999.25    -999.25  -55.23990   14.92120    0.00820   76.79410    0.40070    0.55640    1.97890    2.06880    1.95490    -999.25    -999.25    -999.25    -999.25
 1250.00000  372.66320    -999.25    -999.25    -999.25    -999.25    -999.25    -999.25  -55.62170   15.16020    0.00410   74.74970    0.38020    0.51750    2.02190    2.44580    2.66800    -999.25    -999.25    -999.25    -999.25
 1300.00000  244.47240    -999.25    -999.25    -999.25    -999.25    -999.25    -999.25  -54.16670   15.27880    0.02670   78.13560    0.37960    0.55780    2.01760    3.97630    3.59680    -999.25    -999.25    -999.25    -999.25
 1350.00000  196.98980    -999.25    -999.25    -999.25    -999.25    -999.25    -999.25  -60.35050   15.07490    0.07480   86.97390    0.40950    0.54340    1.98640    4.38740    4.61260    -999.25    -999.25    -999.25    -999.25
 1400.00000  350.59760    -999.25    -999.25    -999.25    -999.25    -999.25    -999.25  -52.04080   15.16400    0.00390   76.31210    0.38150    0.54600    2.02270    2.60080    2.83410    -999.25    -999.25    -999.25    -999.25
 1450.00000  470.11950    -999.25    -999.25    -999.25    -999.25    -999.25    -999.25  -51.95580   15.48540    0.03600   76.86960    0.35550    0.57060    2.06120    2.14070    2.06850    -999.25    -999.25    -999.25    -999.25
 1500.00000  281.13080    -999.25    -999.25    -999.25    -999.25    -999.25    -999.25  -54.25900   15.15030    0.03040   65.14630    0.30280    0.46900    2.16010    3.22230    3.40070    -999.25    -999.25    -999.25    -999.25
 1550.00000  546.38590    -999.25    -999.25    -999.25    -999.25    -999.25    -999.25  -49.28570   14.97900    0.02600   72.07150    0.36160    0.56170    2.05660    1.79640    1.81600    -999.25    -999.25    -999.25    -999.25
 1600.00000  170.30060    -999.25    -999.25    -999.25    -999.25    -999.25    -999.25  -50.19840   15.34490    0.05160   40.40620    0.31170    0.40830    2.13710    2.91700    5.18210    -999.25    -999.25    -999.25    -999.25
 1650.00000  187.25100    -999.25    -999.25    -999.25    -999.25    -999.25    -999.25  -59.92060   14.75680    0.03750   47.02430    0.34840    0.55130    2.07220    5.67850    5.62340    -999.25    -999.25    -999.25    -999.25
 1700.00000  139.44220    -999.25    -999.25    -999.25    -999.25    -999.25    -999.25  -58.90080   17.61530    0.03310   42.55050    0.48120    0.53990    1.79210    3.89720    5.68500    -999.25    -999.25    -999.25    -999.25
 1750.00000  495.51790    -999.25    -999.25    -999.25    -999.25    -999.25    -999.25  -42.79880   15.85420    0.09510   73.80970    0.35890    0.51040    2.02960    2.02110    1.95780    -999.25    -999.25    -999.25    -999.25
 1800.00000  479.92880    -999.25    -999.25    -999.25    -999.25    -999.25    -999.25  -43.84920   15.30360    0.02530   86.76810    0.35110    0.49700    2.06820    2.03880    2.14150    -999.25    -999.25    -999.25    -999.25
 1850.00000  410.35860    -999.25    -999.25    -999.25    -999.25    -999.25    -999.25  -44.13270   15.47350    0.01350   74.15790    0.34390    0.44160    2.08670    2.36210    2.26170    -999.25    -999.25    -999.25    -999.25
 1900.00000  521.89220    -999.25    -999.25    -999.25    -999.25    -999.25    -999.25  -41.86510   15.61260    0.01470   95.34790    0.33140    0.53880    2.10360    1.95270    1.80480    -999.25    -999.25    -999.25    -999.25
 1950.00000  450.19920    -999.25    -999.25    -999.25    -999.25    -999.25    -999.25  -46.03170   15.08970    0.02500   88.07520    0.34900    0.48450    2.08140    2.18970    2.09490    -999.25    -999.25    -999.25    -999.25
 2000.00000  450.74060    -999.25    -999.25    -999.25    -999.25    -999.25    -999.25  -40.22800   15.38290    0.01570   92.95040    0.33490    0.41640    2.09710    2.27560    2.19530    -999.25    -999.25    -999.25    -999.25
