~Version ---------------------------------------------------
VERS. 2.0 : CWLS log ASCII Standard -VERSION 2.0
WRAP.  NO : ONE LINE PER DEPTH STEP
~Well ------------------------------------------------------
STRT.F                      1050.0 : START DEPTH
STOP.F                     12900.0 : STOP DEPTH
STEP.F                    50.00000 : STEP LENGTH
NULL.                      -999.25 : NULL VALUE
COMP.         MARATHON OIL COMPANY : COMPANY
WELL.                    WILLIS #1 : WELL
FLD . BOB HEND (COTTON VALLEYLIME) : FIELD
LOC .                              : LOCATION
CNTY.                    LIMESTONE : COUNTY
STAT.                        TEXAS : STATE
CTRY.     UNITED STATES OF AMERICA : COUNTRY
SRVC.                              : SERVICE COMPANY
DATE.                              : LOGDATE
API .               42293312300000 : API NUMBER
UWI .               42293312300000 : UNIQUE WELL ID
SLAT.WGS84           31.3874962389 : SURFACE LATITUDE
SLON.WGS84           -96.295097431 : SURFACE LONGITUDE
~Curve Information -----------------------------------------
DEPT.F                 : 
SPR .MV   06 010 01 00 : SPONTANEOUS POTENTIAL
AH20.OHMM 06 120 20 00 : 10-IN. RESISTIVITY, 1-FT RESOLUTION
AH30.OHMM 06 120 30 00 : 30-IN. RESISTIVITY, 2-FT RESOLUTION
AH90.OHMM 06 120 90 00 : 90-IN. RESISTIVITY, 2-FT RESOLUTION
DCAL.IN   06 280 30 00 : DIFFERENTIAL CALIPER
GRR .GAPI 06 310 01 00 : GAMMA RAY FROM RESISTIVITY
DTLN.US/F 60 523 00 00 : ACOUSTIC TRANSIT TIME, LONG SPACED, NEAR ARRAY
PEF .B/E  45 358 01 00 : PHOTOELECTRIC FACTOR
NPHI.DEC  42 890 01 00 : NEUTRON POROSITY LIMESTONE
DPHZ.DEC  45 890 10 00 : DENSITY POROSITY LIMESTONE
DT4P.US/F 60 532 00 00 : COMPRESSIONAL-WAVE INTERVAL TRANSIT TIME ACOUSTIC SLOWNESS, P&S MODE
IMPH.OHMM 07 120 44 00 : INDUCTION MEDIUM PHASOR RES.
IDPH.OHMM 07 120 46 00 : INDUCTION DEEP PHASOR RES
SFL .OHMM 07 220 01 00 : SPHERICALLY FOCUSED LOG UNAVERAGED RESISTIVITY
~Params ----------------------------------------------------
EKB .F                 407.0 : KELLY BUSHING
EGL .F                   376 : ELEVATION GROUND LEVEL
EDF .F                   405 : ELEVATION DERRICK FLOOR
EPD .F                   376 : ELEVATION PERMANENT DATUM
TD  .F               12902.0 : TOTAL DEPTH
DATE.            05-DEC-1997 : DATE LOGGED
CLNT.                A2DTECH : CLIENT CODE
PD  .                     GL : PERMANENT DATUM
LMF .                     KB : LOG MEASURED FROM
DMF .                     KB : DRILLING MEASURED FROM
DAPD.F                    31 : FEET ABOVE PERMANENT DATUM
DD  .F                 12900 : DEPTH DRILLER
DL  .F                 12902 : DEPTH LOGGER
BLI .F                 12986 : BOTTOM LOG INTERVAL
TLI .F                  8600 : TOP LOG INTERVAL
CS1 .IN                9.625 : CASING SIZE
CBD1.         9.625" @ 9480' : CASING DRILLER 1
CBL1.F                  9480 : CASING LOGGER 1
BS1 .IN                12.25 : BIT SIZE
BSD1.F                 12900 : DEPTH DRILLED WITH BIT1
DFT .           LIGNOSULFATE : TYPE FLUID IN HOLE
DFD .                   11.4 : DENSITY
DFV .                     36 : VISCOSITY
DFPH.                     10 : PH
DFL .                    120 : FLUID LOSS
MSS .       CIRCULATION TANK : SOURCE OF SAMPLE
RMS .OHMM               2.76 : RM
RMF .OHMM               2.29 : RMF
RMC .OHMM              3.588 : RMC
MFSS.                   CALC : SOURCE RMF.
MCSS.                   CALC : SOURCE RMC.
RMB .OHMM              0.835 : RM. AT BHT
BHT .F                   260 : BHT.
TCS .HRS                1530 : TIME CIRC. STOPPED
TLAB.HRS                 300 : TIME LOGGER AT BOTTOM
LUN .                   8400 : LOGGING UNIT NUMBER
LUL .                  TYLER : LOGGING UNIT LOCATION
ENGI.        SKRBICH GARDNER : RECORDED BY
WITN.                EW BANK : WITNESSED BY
ORIG.               5" PRINT : ORIGIN OF DATA
UWI .         42293312300000 : UNIQUE WELL ID
DICO. A2D TECHNOLOGIES, INC. : DIGITIZING COMPANY
~Other -----------------------------------------------------
~ASCII -----------------------------------------------------
# ...
 8400.00000   -5.11180    4.23320    8.87860    2.59420    0.00000   74.08470   80.35000    4.16330    0.33600    0.35220    -999.25    -999.25    -999.25    -999.25
 8450.00000   -3.29770    3.01390    3.57830    3.59830    0.00000   89.51610   86.32470    3.73360    0.35000    0.34920    -999.25    -999.25    -999.25    -999.25
 8500.00000   -1.81060    8.08790    3.37230    3.36280    0.00000   48.04750   95.59610    3.76340    -999.25    -999.25    -999.25    -999.25    -999.25    -999.25
 8550.00000   -0.58190   14.92060    9.87060    7.04570    0.98310   60.02300   63.81490    3.21460    0.26630   -0.16380    -999.25    -999.25    -999.25    -999.25
 8600.00000    0.95380    3.11230    3.01340    2.98300    3.39310  114.63140   86.32460    3.27190    -999.25    0.24800   89.38660    -999.25    -999.25    -999.25
 8650.00000    0.03490    5.52000    4.02110    4.10110    0.00030   32.60370   50.79450    4.92300    0.02240   -0.00540   80.03070    -999.25    -999.25    -999.25
 8700.00000   -1.49650   22.85480   33.45170   27.68540    0.02980   75.65900   54.16010    4.86940    0.09730   -0.00420   97.01240    -999.25    -999.25    -999.25
 8750.00000   -3.33840  167.90420  129.49630  114.24740    0.00000   55.87840   50.02860    4.83870    0.06240    0.02100   96.90360    -999.25    -999.25    -999.25
 8800.00000   -2.72230   51.69840   50.45520   22.35960    0.00000   56.60130   54.31850    4.90020    0.11360    0.00260   98.12880    -999.25    -999.25    -999.25
 8850.00000   -1.93260   41.01130   57.44310   86.06120   -8.81700   29.83870   51.87960    4.37870    0.13300    -999.25   95.98160    -999.25    -999.25    -999.25
 8900.00000    0.33690   27.75210   26.28400   29.18310    -999.25   51.95860   54.47010    4.40890    0.20740    -999.25   94.88940    -999.25    -999.25    -999.25
 8950.00000    -999.25    -999.25    -999.25    -999.25    -999.25   29.49980    -999.25    -999.25    0.12090    -999.25   83.76940    -999.25    -999.25    -999.25
 9000.00000    -999.25    -999.25    -999.25    -999.25    -999.25   32.92980    -999.25    -999.25    0.06240    -999.25   65.53240    -999.25    -999.25    -999.25
 9050.00000    -999.25    -999.25    -999.25    -999.25    -999.25   28.12770    -999.25    -999.25    0.16290    -999.25   61.77910    -999.25    -999.25    -999.25
 9100.00000    -999.25    -999.25    -999.25    -999.25    -999.25   38.19000    -999.25    -999.25    0.14980    -999.25   69.34600    -999.25    -999.25    -999.25
 9150.00000    -999.25    -999.25    -999.25    -999.25    -999.25   54.19540    -999.25    -999.25    0.20430    -999.25   69.13730    -999.25    -999.25    -999.25
 9200.00000    -999.25    -999.25    -999.25    -999.25    -999.25   29.73040    -999.25    -999.25    0.14130    -999.25   63.92390    -999.25    -999.25    -999.25
 9250.00000    -999.25    -999.25    -999.25    -999.25    -999.25   34.30370    -999.25    -999.25    0.15140    -999.25   61.16560    -999.25    -999.25    -999.25
 9300.00000    -999.25    -999.25    -999.25    -999.25    -999.25   48.70430    -999.25    -999.25    0.16450    -999.25   66.53120    -999.25    -999.25    -999.25
 9350.00000    -999.25    -999.25    -999.25    -999.25    -999.25   40.01440    -999.25    -999.25    0.12910    -999.25   62.55030    -999.25    -999.25    -999.25
 9400.00000    -999.25    -999.25    -999.25    -999.25    -999.25   22.63720    -999.25    -999.25    0.06780    -999.25   61.16090    -999.25    -999.25    -999.25
 9450.00000    -999.25    -999.25    -999.25    -999.25    -999.25   32.24080    -999.25    -999.25    0.05680    -999.25   85.55220    -999.25    -999.25    -999.25
 9500.00000   11.75570    -999.25    -999.25    -999.25    0.27650   55.11050    -999.25    -999.25    0.03250    0.04190   61.77910    9.68720    9.55060   11.60160
 9550.00000   -3.98340    -999.25    -999.25    -999.25    0.42940   81.58740    -999.25    -999.25    0.08930    0.05310   61.93050    5.58540    5.88520    5.75930
 9600.00000   -3.81150    -999.25    -999.25    -999.25    0.21570   96.00070    -999.25    -999.25    0.09420    0.10670   66.16940   15.02170    8.71500   15.07800
 9650.00000  -41.45060    -999.25    -999.25    -999.25    0.00000   26.07070    -999.25    -999.25    0.07050    0.07710   62.83240   21.22020   16.32340   20.41190
 9700.00000  -39.23210    -999.25    -999.25    -999.25    0.24280   30.41480    -999.25    -999.25    0.05380    0.07380   62.39260   17.20070   12.98370   44.31850
 9750.00000  -32.17010    -999.25    -999.25    -999.25    0.61450   21.26190    -999.25    -999.25    0.01340    0.06400   58.55830   13.17140   12.76170   37.28290
 9800.00000    9.00760    -999.25    -999.25    -999.25    0.49040   85.74700    -999.25    -999.25    0.08850    0.01450   60.24330    8.10830    8.06710    8.44120
 9850.00000  -20.16470    -999.25    -999.25    -999.25    0.42990   66.53500    -999.25    -999.25    0.02410    0.05550   61.57180   12.89360   12.97670   18.22090
 9900.00000    9.31770    -999.25    -999.25    -999.25    0.17400   93.09290    -999.25    -999.25    0.13320    0.01970   62.54600    9.58630    9.60550    9.72900
 9950.00000  -46.25960    -999.25    -999.25    -999.25    0.22580   21.49650    -999.25    -999.25    0.01030    0.06940   58.40140   13.74020   13.89520   26.89400
 10000.00000  -43.90590    -999.25    -999.25    -999.25   -0.13770   56.47870    -999.25    -999.25    0.10950    0.10090   58.86500   23.61750   21.15520   44.65800
 10050.00000  -22.13740    -999.25    -999.25    -999.25    0.30660   30.91910    -999.25    -999.25    0.01140    0.08320   57.03230   20.49780   15.97220   31.70210
 10100.00000  -50.21790    -999.25    -999.25    -999.25    0.00040   26.98170    -999.25    -999.25    0.00940    0.07200   57.82680   32.53490   32.45060   46.09770
 10150.00000   -7.84920    -999.25    -999.25    -999.25    0.95090   82.32380    -999.25    -999.25    0.08390    0.02060   61.48270    7.92090    7.48890   10.08650
 10200.00000  -23.12960    -999.25    -999.25    -999.25    0.28390   53.24880    -999.25    -999.25    0.01490    0.07920   61.06280   15.27740   15.12120   18.50470
 10250.00000  -34.04370    -999.25    -999.25    -999.25    0.33780   32.01840    -999.25    -999.25    0.01030    0.06540   58.71290   19.74840   20.08810   29.51530
 10300.00000  -24.87690    -999.25    -999.25    -999.25    0.24510   34.07600    -999.25    -999.25    0.02100    0.09320   59.47350   20.55680   20.13520   31.08090
 10350.00000  -37.40460    -999.25    -999.25    -999.25    0.24580   28.35370    -999.25    -999.25    0.00650    0.06710   59.83200   18.78520   20.13610   22.10460
 10400.00000  -40.97430    -999.25    -999.25    -999.25    0.00000   31.90260    -999.25    -999.25    0.05840    0.06100   58.98640   29.46630   30.37830   34.43070
 10450.00000  -44.47290    -999.25    -999.25    -999.25    0.35300   26.75660    -999.25    -999.25    0.01410    0.05830   57.73610   36.83090   34.92000   31.64440
 10500.00000   -6.56490    -999.25    -999.25    -999.25    0.30680   57.75550    -999.25    -999.25    0.01850    0.05220   57.22630   22.52070   22.86790   24.12620
 10550.00000  -14.79770    -999.25    -999.25    -999.25    0.29990   25.60830    -999.25    -999.25    0.00320    0.05800   56.75350   46.47050   44.47070   62.28230
 10600.00000  -45.33900    -999.25    -999.25    -999.25    0.30670   18.97340    -999.25    -999.25    0.00180    0.06720   57.22820   49.51000   51.17100   54.05190
 10650.00000  -30.28970    -999.25    -999.25    -999.25    0.15760   26.97710    -999.25    -999.25    0.00200    0.08210   56.92420   66.62410   67.54910   80.96560
 10700.00000  -18.15750    -999.25    -999.25    -999.25    0.17500   28.99300    -999.25    -999.25    0.00410    0.05950   57.38130   43.70720   31.77950  110.40420
 10750.00000   -1.97470    -999.25    -999.25    -999.25    0.33740   60.36840    -999.25    -999.25    0.02940    0.02230   58.90850   27.46320   28.70700   34.26650
 10800.00000  -53.58780    -999.25    -999.25    -999.25    0.30690   18.97870    -999.25    -999.25    0.00110    0.06540   58.14320   36.64850   33.66750   50.72230
