~Version ---------------------------------------------------
VERS. 2.0 : CWLS log ASCII Standard -VERSION 2.0
WRAP.  NO : ONE LINE PER DEPTH STEP
~Well ------------------------------------------------------
STRT.F                     450.0 : START DEPTH
STOP.F                    6500.0 : STOP DEPTH
STEP.F                  50.00000 : STEP LENGTH
NULL.                    -999.25 : NULL VALUE
COMP. LONGHORN OIL & GAS COMPANY : COMPANY
WELL.          DUGI DANIEL D. #1 : WELL
FLD .                STOCKDALE S : FIELD
LOC .                            : LOCATION
CNTY.                     WILSON : COUNTY
STAT.                      TEXAS : STATE
CTRY.   UNITED STATES OF AMERICA : COUNTRY
SRVC.              Dresser Atlas : SERVICE COMPANY
DATE.                22-Feb-1981 : LOGDATE
API .             42493307780000 : API NUMBER
UWI .             42493307780000 : UNIQUE WELL ID
SLAT.WGS84         29.1323653489 : SURFACE LATITUDE
SLON.WGS84        -97.9937322187 : SURFACE LONGITUDE
~Curve Information -----------------------------------------
DEPT.F                 : 
SPR .MV   07 010 01 00 : SPONTANEOUS POTENTIAL FROM RESISTIVITY LOG
CALR.IN   07 280 01 00 : CALIPER FROM RESISTIVITY LOG
AC  .MS/F 60 500 00 00 : ACOUSTIC
ILD .OHMM 07 120 46 00 : INDUCTION DEEP RESISTIVITY
ILM .OHMM 07 120 44 00 : INDUCTION MEDIUM RESISTIVITY
SFLU.OHMM 07 220 01 00 : SPHERICALLY FOCUSED LOG UNAVERAGED RESISTIVITY
GRR .GAPI 07 310 01 00 : GAMMA RAY FROM RESISTIVITY LOG
GR  .CPS  81 310 30 00 : GAMMA RAY
~Params ----------------------------------------------------
PD  .                     GL : PERMANENT DATUM
EPD .FT                  362 : ELEVATION PERMANENT DATUM
LMF .                     KB : LOG MEASURED FROM
DAPD.FT                   16 : FEET ABOVE PERMANENT DATUM
DMF .                     KB : DRILLING MEASURED FROM
EKB .FT                  378 : KELLY BUSHING
EDF .FT                  377 : DRILLING FLOOR
EGL .FT                  362 : GROUND LEVEL
DATE.               02/22/81 : RUN DATE
RUN .                      2 : RUN NUMBER
DD  .FT                 6557 : DEPTH DRILLER
DL  .FT                 6546 : DEPTH LOGGER
BLI .FT                 6544 : BOTTOM LOG INTERVAL
TLI .FT                 6013 : TOP LOG INTERVAL
CS  .IN                7.625 : CASING SIZE
CBD .FT                 6025 : CASING BOTTOM DRILLER
CBL .FT                 6013 : CASING BOTTOM LOGGER
BS  .IN                  6.5 : BIT SIZE
BSD .FT                 6557 : BIT SIZE AT DEPTH
DFT .                    KCL : DRILLING FLUID TYPE
DFD .                    9.6 : DRILLING FLUID DENSITY
DFV .                     44 : DRILLING FLUID VISCOSITY
DFPH.                    9.5 : DRILLING FLUID PH
DFL .                      6 : DRILLING FLUID LOSS
MSS .               FLOWLINE : MUD SAMPLE SOURCE
RMS .OHMM               0.35 : RESISTIVITY MUD SAMPLE
MST .DEGF                 75 : MUD SAMPLE TEMPERATURE
RMF .OHMM               0.26 : RESISTIVITY MUD FILTRATE SAMPLE
MFST.DEGF                 75 : MUD FILTRATE SAMPLE TEMPERATURE
RMC .OHMM               0.44 : RESISTIVITY MUD CAKE
MCST.DEGF                 75 : MUD CAKE SAMPLE TEMPERATURE
MFSS.                   MEAS : MUD FILTRATE SAMPLE SOURCE
MCSS.                   CACL : MUD CAKE SAMPLE SOURCE
RMB .OHMM               0.15 : RESISTIVITY MUD AT BHT
TCS .HRS                   3 : TIME CIRCULATED STOPPED
LUL .                    VIC : LOGGING UNIT LOCATION
CLNT.                A2DTECH : CLIENT CODE
ORIG.               5" PRINT : ORIGIN OF DATA
UWI .         42493307780000 : UNIQUE WELL ID
DICO. A2D Technologies, Inc. : DIGITIZING COMPANY
~Other -----------------------------------------------------
~ASCII -----------------------------------------------------
  450.00000  -30.42010   13.22890  160.54190    2.75980    2.71690    3.01600    -999.25    -999.25
  500.00000  -41.80300   12.99700  131.60260    4.42390    4.30880    3.97540    -999.25    -999.25
  550.00000  -40.90250   11.48860  149.84940    1.73530    1.74880    2.73820    -999.25    -999.25
  600.00000  -41.20200   11.45180  129.66870    3.39710    3.38900    3.36820    -999.25    -999.25
  650.00000  -42.10530   10.49690  140.21050    1.94310    2.13510    2.99520    -999.25    -999.25
  700.00000  -37.89470   11.16570  138.55420    3.59060    3.50490    3.27670    -999.25    -999.25
  750.00000  -44.21300   10.23190  127.25900    3.30420    3.62750    3.36830    -999.25    -999.25
  800.00000  -42.40750    9.75000  129.96990    3.10460    3.40970    3.07920    -999.25    -999.25
  850.00000  -34.88720   10.62950  140.66340    1.64180    1.78520    2.40150    -999.25    -999.25
  900.00000  -39.69780   10.35240  132.37950    1.72330    2.07090    2.81490    -999.25    -999.25
  950.00000  -39.09700   10.13260  100.00050    2.12150    2.37740    3.32220    -999.25    -999.25
 1000.00000  -39.09920   10.68780  137.04310    2.25760    2.39850    2.52110    -999.25    -999.25
 1050.00000  -46.61650   10.01260  129.66870    2.30510    2.69810    2.89360    -999.25    -999.25
 1100.00000  -39.40050   10.44280  145.93420    1.39030    1.58810    2.21070    -999.25    -999.25
 1150.00000  -40.60100   10.75900  145.63250    1.23600    1.37060    1.99310    -999.25    -999.25
 1200.00000  -38.49280   10.55960  162.50120    1.55310    1.80670    2.27260    -999.25    -999.25
 1250.00000  -39.09720   11.52710  142.70310    2.87690    3.13910    3.16530    -999.25    -999.25
 1300.00000  -29.77320   10.86450  125.45180    8.47390    6.92820    5.16800    -999.25    -999.25
 1350.00000  -43.90980   11.18070  119.30270    7.88100    7.44870    4.79010    -999.25    -999.25
 1400.00000  -31.27820   10.68370  120.18070   13.01840    9.64120    5.97420    -999.25    -999.25
 1450.00000  -44.81300   12.02800  123.79520   10.57660    8.00570    5.77180    -999.25    -999.25
 1500.00000  -33.68420   14.16270  123.49370   15.80440    7.84250    6.90650    -999.25    -999.25
 1550.00000  -33.08420   11.04520  112.50000   71.02370   13.78840    8.99150    -999.25    -999.25
 1600.00000  -30.07490    9.59940  118.52410   20.27790   13.60250    8.20760    -999.25    -999.25
 1650.00000  -26.76740   13.60540  115.96290   17.41360    6.03740    8.03950    -999.25    -999.25
 1700.00000  -32.33800   13.71620  113.55420   12.14750    5.26060    6.49040    -999.25    -999.25
 1750.00000  -34.88720   12.05420  122.28920   10.87350    5.95470    7.00240    -999.25    -999.25
 1800.00000  -27.96840   11.78310  124.39580   12.82540    6.64800    7.55510    -999.25    -999.25
 1850.00000  -16.84290   10.08130  104.21690   20.84800   11.93460   12.59310    -999.25    -999.25
 1900.00000  -28.27070    9.36310  116.41520   13.95190    9.84270    8.15130    -999.25    -999.25
 1950.00000  -22.55600    9.97770  112.65060   15.69490   11.69070    9.48130    -999.25    -999.25
 2000.00000  -20.75190    9.53870  114.32970   13.38400   10.47110    8.98530    -999.25    -999.25
 2050.00000  -21.14000   10.63570   99.89220   23.13130   19.32360   11.99880    -999.25    -999.25
 2100.00000  -20.41760    9.79160  119.51880    7.38710    6.45700    5.77160    -999.25    -999.25
 2150.00000  -26.98650    9.84030  123.42380    4.05170    3.91290    4.62740    -999.25    -999.25
 2200.00000  -29.38460    9.87050  126.12590    1.55330    1.76090    2.33620    -999.25    -999.25
 2250.00000  -21.28940    9.10250  112.65060    6.42390    6.07910    4.62750    -999.25    -999.25
 2300.00000  -32.39190    9.49410  118.97580    2.45330    2.95080    3.55970    -999.25    -999.25
 2350.00000  -36.26240    9.42260  118.52410    2.55740    2.53620    2.85400    -999.25    -999.25
 2400.00000  -30.58470    9.22490  109.03580    3.10460    3.93440    4.28910    -999.25    -999.25
 2450.00000  -32.83860    9.34260  117.16870    2.24210    2.25600    2.30410    -999.25    -999.25
 2500.00000  -33.86400    9.32690  121.21150    1.88570    2.04880    2.68200    -999.25    -999.25
 2550.00000  -34.72790    9.35840  118.28940    1.84690    2.14990    3.03690    -999.25    -999.25
 2600.00000  -36.31840    9.41870  124.15330    1.43940    1.62120    2.04890    -999.25    -999.25
 2650.00000  -78.27900    9.20890  118.15960    2.64750    2.69830    2.79540    -999.25    -999.25
 2700.00000  -56.97150    9.24710  116.26510    2.56720    2.62920    2.68680    -999.25    -999.25
 2750.00000  -57.45060    9.14980  113.70480    4.05740    4.09560    3.90970    -999.25    -999.25
 2800.00000  -51.87410    9.41870  110.24100    6.02470    5.55440    4.46110    -999.25    -999.25
 2850.00000  -49.32390    9.76140  112.19850    3.78560    4.80270    4.71600    -999.25    -999.25
 2900.00000  -38.38080    9.08730  115.05960    7.47830    7.17660    6.76770    -999.25    -999.25
 2950.00000  -53.97300    9.05530  101.65720    5.66030    5.75010    5.64960    -999.25    -999.25
 3000.00000  -56.67170    9.47890  110.31220    4.96140    4.67140    4.84890    -999.25    -999.25
 3050.00000  -41.07900    9.02540  112.64350    8.12180    6.88450    6.22300    -999.25    -999.25
 3100.00000  -58.32150    9.44880  108.43370    4.50240    4.48130    4.39770    -999.25    -999.25
 3150.00000  -31.48430    9.26790  112.89920    8.64100    7.07780    5.27040    -999.25    -999.25
 3200.00000  -59.09070    9.41870  105.12050    5.17230    4.84380    4.01970    -999.25    -999.25
 3250.00000  -44.71240    9.05820   99.27380   10.06550    9.06220    7.30510    -999.25    -999.25
 3300.00000  -36.64210    9.13480  108.43300    8.89510    7.07310    6.67420    -999.25    -999.25
 3350.00000  -56.01790    9.26650  106.92770    4.86960    4.71220    4.36910    -999.25    -999.25
 3400.00000  -40.46630    9.26950  101.20480    9.93760    8.06130    6.49130    -999.25    -999.25
 3450.00000  -43.47830    9.28310  108.61970    7.27670    7.01500    5.84910    -999.25    -999.25
 3500.00000  -46.50060    9.25300  104.21790    6.10150    5.62630    5.58980    -999.25    -999.25
 3550.00000  -39.60950    9.31330  105.67770    8.35740    7.39600    6.14060    -999.25    -999.25
 3600.00000  -55.17460    9.17770  102.86320    7.85290    7.32990    6.26960    -999.25    -999.25
 3650.00000  -58.17140    9.28470  107.53010    5.44010    5.52060    5.41880    -999.25    -999.25
 3700.00000  -63.87630    9.65960  102.85940    2.81770    3.07520    3.64720    -999.25    -999.25
 3750.00000  -61.20540    9.35840  106.17370    1.82780    2.07710    2.59760    -999.25    -999.25
 3800.00000  -66.36020    9.20860   97.89160    5.87080    5.75320    5.30700    -999.25    -999.25
 3850.00000  -60.29990   10.09640  114.60810    1.21900    1.31870    2.47190    -999.25    -999.25
 3900.00000  -61.18550    9.87050  107.83080    1.78400    2.03470    2.64970    -999.25    -999.25
 3950.00000  -61.16700    9.86810  112.32980    1.30470    1.56780    2.18230    -999.25    -999.25
 4000.00000  -60.29960    9.59640  105.37060    2.68680    3.12610    3.24990    -999.25    -999.25
 4050.00000  -56.07070    9.93960   98.92270    2.02790    2.38630    2.74080    -999.25    -999.25
 4100.00000  -56.95260    9.43480   95.83940    2.23470    2.55730    2.64750    -999.25    -999.25
 4150.00000  -56.29730    9.41830   95.46490    2.10760    2.43480    2.47030    -999.25    -999.25
 4200.00000  -57.60990   10.10330  108.21050    1.64700    1.77170    2.18080    -999.25    -999.25
 4250.00000  -55.77210   10.09450  107.61030    1.28310    1.42940    1.77170    -999.25    -999.25
 4300.00000  -56.93170    9.88430  105.22520    1.32840    1.51960    1.77260    -999.25    -999.25
 4350.00000  -56.67170   10.04840  108.55790    1.09420    1.21890    1.59690    -999.25    -999.25
 4400.00000  -53.65370    9.83810  108.39640    1.07920    1.24460    1.60800    -999.25  135.35540
