~Version ---------------------------------------------------
VERS. 2.0 : CWLS log ASCII Standard -VERSION 2.0
WRAP. YES : MULTIPLE LINES PER DEPTH STEP
~Well ------------------------------------------------------
STRT.FT                           350.0 : START DEPTH
STOP.FT                          6650.0 : STOP DEPTH
STEP.FT                        50.00000 : STEP LENGTH
NULL.                           -999.25 : NULL VALUE
COMP. ENERGY RESOURCES  OIL & GAS CORP. : COMPANY
WELL.           LITTLE J LAND CO LTD #1 : WELL
FLD .                                WC : FIELD
LOC .                                   : LOCATION
CNTY.                          ATASCOSA : COUNTY
STAT.                             TEXAS : STATE
CTRY.          UNITED STATES OF AMERICA : COUNTRY
SRVC.                      Schlumberger : SERVICE COMPANY
DATE.                       11-Jul-1981 : LOGDATE
API .                    42013312950000 : API NUMBER
UWI .                    42013312950000 : UNIQUE WELL ID
SLAT.WGS84                28.9291009186 : SURFACE LATITUDE
SLON.WGS84               -98.5772566693 : SURFACE LONGITUDE
~Curve Information -----------------------------------------
DEPT    .FT    : DEPTH FEET
ASFLED  .OHMM  : AMPLIFIED SPHERICALLY FOCUSED LOG RESISTIVITY
CALDED  .IN    : CALIPER FROM DENSITY LOG [DEPTH ADJ. TO GRRED]
CALWS   .IN    : CALIPER [CALDED]
CILDED  .MMHO  : CONDUCTIVITY FROM RESISTIVITY LOG
CONDWS  .MMHO  : CONDUCTIVITY [1000/DRESWS]
DCORWS  .G/C3  : DENSITY CORRECTION [DRHOED]
DENWS   .G/C3  : BULK DENSITY [M=2.68 F=1.0] [RHOBED]
DPHISSED.V/V   : DENSITY POROSITY [M=2.68 F=1.0] FROM DENSITY LOG [DEPTH ADJ. TO GRRED]
DPOWS   .V/V   : DENSITY POROSITY [M=2.68 F=1.0] [CALCULATED FROM DENWS]
DRESWS  .OHMM  : DEEP RESISTIVITY [MERGED IF ILDED<1;THEN 1000/CILDED;ELSE ILDED/ILDED at 4650]
DRHOED  .G/C3  : DENSITY CORRECTION FROM DENSITY LOG [DEPTH ADJ. TO GRRED]
DTED    .US/F  : DELTA TIME FROM SONIC LOG
DTWS    .US/F  : DELTA TIME [DTED]
GRDED   .GAPI  : GAMMA RAY FROM DENSITY LOG [DEPTH ADJ. TO GRRED]
GRRED   .GAPI  : GAMMA RAY FROM RESISTIVITY LOG
GRWS    .GAPI  : GAMMA RAY [308 GRRED 4660.5 GRDED]
ILDED   .OHMM  : INDUCTION LOG DEEP RESISTIVITY
ILMED   .OHMM  : INDUCTION LOG MEDIUM RESISTIVITY
MRESWS  .OHMM  : MEDIUM RESISTIVITY [ILMED]
NPHISSED.V/V   : NEUTRON POROSITY SANDSTONE FROM DENSITY LOG [DEPTH ADJ. TO GRRED]
NPOWS   .V/V   : NEUTRON POROSITY SANDSTONE [NPHISSED]
RHOBED  .G/C3  : BULK DENSITY FROM DENSITY LOG [DEPTH ADJ. TO GRRED]
SFLUED  .OHMM  : SPHERICALLY FOCUSED LOG RESISTIVITY
SPRED   .MV    : SPONTANEOUS POTENTIAL FROM RESISTIVITY LOG
SPWS    .MV    : SPONTANEOUS POTENTIAL [BASELINE 0 MV] [SPRED]
SRESWS  .OHMM  : SHALLOW RESISTIVITY [MERGED ASFLED/SFLUED at 4650]
TENDED  .LBF   : TENSION FROM DENSITY LOG [DEPTH ADJ. TO GRRED]
~Params ----------------------------------------------------
PD  .                     GL : PERMANENT DATUM
EPD .FT                  492 : ELEVATION PERMANENT DATUM
LMF .                    RKB : LOG MEASURED FROM
DAPD.FT                   11 : FEET ABOVE PERMANENT DATUM
DMF .                    RKB : DRILLING MEASURED FROM
EKB .FT                  503 : KELLY BUSHING
EDF .FT                  502 : DRILLING FLOOR
EGL .FT                  492 : GROUND LEVEL
DATE.               07/11/81 : RUN DATE
RUN .                      2 : RUN NUMBER
DD  .FT                 6670 : DEPTH DRILLER
DL  .FT                 6660 : DEPTH LOGGER
BLI .FT                 6660 : BOTTOM LOG INTERVAL
TLI .FT                 4660 : TOP LOG INTERVAL
CS  .IN                10.75 : CASING SIZE
CBD .FT                  325 : CASING BOTTOM DRILLER
CBL .FT                  316 : CASING BOTTOM LOGGER
BS  .IN                9.875 : BIT SIZE
BSD .FT                 6670 : BIT SIZE AT DEPTH
DFT .              LIGNO GEL : DRILLING FLUID TYPE
DFD .                    9.3 : DRILLING FLUID DENSITY
DFV .                     36 : DRILLING FLUID VISCOSITY
DFPH.                   10.5 : DRILLING FLUID PH
DFL .                     10 : DRILLING FLUID LOSS
MSS .                    PIT : MUD SAMPLE SOURCE
RMS .OHMM               2.24 : RESISTIVITY MUD SAMPLE
MST .DEGF                109 : MUD SAMPLE TEMPERATURE
RMF .OHMM               1.68 : RESISTIVITY MUD FILTRATE SAMPLE
MFST.DEGF                109 : MUD FILTRATE SAMPLE TEMPERATURE
RMC .OHMM               2.58 : RESISTIVITY MUD CAKE
MCST.DEGF                109 : MUD CAKE SAMPLE TEMPERATURE
MFSS.                  PRESS : MUD FILTRATE SAMPLE SOURCE
MCSS.                   CACL : MUD CAKE SAMPLE SOURCE
RMB .OHMM              1.709 : RESISTIVITY MUD AT BHT
TCS .HRS                1200 : TIME CIRCULATED STOPPED
TLAB.HRS                1800 : TIME LOGGER AT BOTTOM
LUN .                   8145 : LOGGING UNIT NUMBER
LUL .             PLEASANTON : LOGGING UNIT LOCATION
ENGI.                  LEWIS : RECORDING ENGINEER
WITN.         WHITE WILLIAMS : WITNESSED BY
CLNT.                A2DTECH : CLIENT CODE
ORIG.               5" PRINT : ORIGIN OF DATA
UWI .         42013312950000 : UNIQUE WELL ID
DICO. A2D Technologies, Inc. : DIGITIZING COMPANY
~Other -----------------------------------------------------
~ASCII -----------------------------------------------------
# ...
 5550.00000    -999.25    9.33850    9.33850    -999.25 1331.20340    0.05560    2.10130    0.34230    0.34450    0.75120    0.05560  109.71020  109.71020   71.63930  104.75390   71.63930    0.75120    0.89430    0.89430    0.55010    0.55010    2.10130    1.00680  -36.86790  -22.72600    1.00680 2089.95530
 5600.00000    -999.25   10.66260   10.66260    -999.25  458.69450    0.22450    2.31540    0.21760    0.21700    2.18010    0.22450   92.80790   92.80790   80.77280  105.00310   80.77280    2.18010    2.24270    2.24270    0.36430    0.36430    2.31540    2.28460  -18.28570   -4.32070    2.28460 2145.70240
 5650.00000    -999.25   11.06930   11.06930    -999.25  550.90350    0.22730    2.36390    0.18530    0.18820    1.81520    0.22730   95.97880   95.97880   82.71610  107.54550   82.71610    1.81520    1.86660    1.86660    0.48650    0.48650    2.36390    1.80810  -21.58530   -7.55030    1.80810 2109.80570
 5700.00000    -999.25   12.10910   12.10910    -999.25  672.31410    0.16690    2.41380    0.15910    0.15850    1.48740    0.16690  101.15360  101.15360   69.25570  106.57740   69.25570    1.48740    1.62360    1.62360    0.51480    0.51480    2.41380    1.63000  -28.01200  -13.84130    1.63000 2099.39140
 5750.00000    -999.25   10.96420   10.96420    -999.25  890.31340    0.18040    2.38660    0.17670    0.17460    1.12320    0.18040  110.29440  110.29440   76.54340  121.02690   76.54340    1.12320    1.18690    1.18690    0.50590    0.50590    2.38660    1.27100  -33.74940  -19.44310    1.27100 2163.28150
 5800.00000    -999.25    9.53640    9.53640    -999.25  375.00940    0.00800    2.49410    0.11120    0.11070    2.66660    0.00800   87.31680   87.31680   63.78330   75.58380   63.78330    2.66660    2.79330    2.79330    0.31640    0.31640    2.49410    2.87050   -5.95390   -6.88810    2.87050 2226.69920
 5850.00000    -999.25    9.35680    9.35680    -999.25  117.39290   -0.01030    2.51420    0.10000    0.09870    8.51840   -0.01030   70.69800   70.69800   29.72130   35.25880   29.72130    8.51840   10.78980   10.78980    0.14230    0.14230    2.51420   13.46390   -9.89140  -10.82560   13.46390 2225.69040
 5900.00000    -999.25    9.69790    9.69790    -999.25  241.73860    0.01190    2.57320    0.06210    0.06360    4.13670    0.01190   79.19670   79.19670   42.89260   63.17980   42.89260    4.13670    4.29800    4.29800    0.23310    0.23310    2.57320    4.08670   -1.92940   -2.86360    4.08670 2253.22830
 5950.00000    -999.25    9.84360    9.84360    -999.25  230.26090    0.01380    2.58410    0.05300    0.05710    4.34290    0.01380   76.34070   76.34070   43.98620   58.44510   43.98620    4.34290    4.46720    4.46720    0.18890    0.18890    2.58410    4.50320   -5.32320   -6.25740    4.50320 2266.60250
 6000.00000    -999.25    9.67970    9.67970    -999.25  270.12430    0.01360    2.55290    0.07670    0.07570    3.70200    0.01360   80.64100   80.64100   47.22400   63.78310   47.22400    3.70200    3.81710    3.81710    0.22700    0.22700    2.55290    3.42500   -0.09790   -1.03210    3.42500 2266.98680
 6050.00000    -999.25    9.90490    9.90490    -999.25  406.63630    0.13430    2.51220    0.09630    0.09990    2.45920    0.13430   86.87640   86.87640   56.88080   81.89930   56.88080    2.45920    2.56430    2.56430    0.25490    0.25490    2.51220    2.96120   -5.82950   -6.76370    2.96120 2289.46530
 6100.00000    -999.25    9.57830    9.57830    -999.25  171.44720    0.02110    2.60450    0.04320    0.04490    5.83270    0.02110   72.79350   72.79350   34.05480   49.24070   34.05480    5.83270    5.74930    5.74930    0.19670    0.19670    2.60450    5.91410  -11.97530  -12.90950    5.91410 2274.61790
 6150.00000    -999.25    9.64790    9.64790    -999.25  144.18780   -0.00380    2.58290    0.06030    0.05780    6.93540   -0.00380   67.31540   67.31540   59.69000   56.72110   59.69000    6.93540    7.13870    7.13870    0.21900    0.21900    2.58290    7.69290  -13.57210  -14.50630    7.69290 2274.95140
 6200.00000    -999.25    9.45450    9.45450    -999.25   41.64380   -0.00150    2.59640    0.04920    0.04980   24.01320   -0.00150   61.31380   61.31380   22.89460   30.62470   22.89460   24.01320   25.78010   25.78010    0.11780    0.11780    2.59640   28.27530  -12.18110  -13.11530   28.27530 2311.46850
 6250.00000    -999.25    9.59000    9.59000    -999.25   86.33270   -0.00140    2.61920    0.03570    0.03620   11.58310   -0.00140   65.11420   65.11420   27.98540   27.20750   27.98540   11.58310   11.92150   11.92150    0.15040    0.15040    2.61920   10.30910   -5.78330   -8.12990   10.30910 2318.79930
 6300.00000    -999.25    9.56640    9.56640    -999.25  110.77390    0.02040    2.61380    0.03640    0.03940    9.02740    0.02040   65.88110   65.88110   29.88870   29.63830   29.88870    9.02740    9.28750    9.28750    0.15140    0.15140    2.61380    9.91390  -12.62390  -16.90520    9.91390 2342.96560
 6350.00000    -999.25    9.47300    9.47300    -999.25   38.52440   -0.01400    2.56110    0.06960    0.07080   25.95760   -0.01400   66.54350   66.54350   54.03380   39.94720   54.03380   25.95760   28.68550   28.68550    0.15950    0.15950    2.56110   27.01430   -8.50890  -14.72500   27.01430 2361.73440
 6400.00000    -999.25    9.35300    9.35300    -999.25   49.00040    0.00530    2.48760    0.11150    0.11450   20.40800    0.00530   78.17980   78.17980   88.14580   88.64050   88.14580   20.40800   23.60420   23.60420    0.25720    0.25720    2.48760   33.47690   -5.01540  -13.16620   33.47690 2355.86500
 6450.00000    -999.25    9.17460    9.17460    -999.25   30.17180   -0.00350    2.62100    0.03620    0.03510   33.14350   -0.00350   54.42160   54.42160   13.84820   16.35150   13.84820   33.14350   36.88170   36.88170    0.07000    0.07000    2.62100   36.36610  -66.28450  -73.16000   36.36610 2396.85960
 6500.00000    -999.25    9.24870    9.24870    -999.25   34.13090    0.00640    2.66300    0.00890    0.01010   29.29900    0.00640   54.68770   54.68770   15.52390   17.03980   15.52390   29.29900   29.87480   29.87480    0.07450    0.07450    2.66300   23.52930  -44.93770  -48.01570   23.52930 2390.90040
 6550.00000    -999.25    9.80030    9.80030    -999.25  366.78410    0.07820    2.59690    0.05110    0.04950    2.72640    0.07820   80.11160   80.11160   70.98250   72.58250   70.98250    2.72640    2.96530    2.96530    0.30250    0.30250    2.59690    3.51060  -20.07710  -19.35760    3.51060 2406.88840
 6600.00000    -999.25    9.15380    9.15380    -999.25  210.53960    0.00840    2.65930    0.00310    0.01230    4.74970    0.00840   70.44470   70.44470   55.44810   53.96200   55.44810    4.74970    5.02470    5.02470    0.22670    0.22670    2.65930    4.96790   -7.55110   -3.03420    4.96790 2429.89210
 6650.00000    -999.25    8.93420    8.93420    -999.25   23.85270    0.01880    2.69550   -0.00950   -0.00920   41.92390    0.01880    -999.25    -999.25   32.99090   30.23430   32.99090   41.92390   45.34630   45.34630    -999.25    -999.25    2.69550   80.74650  -23.86710  -18.85650   80.74650 2444.83420
