~Version ---------------------------------------------------
VERS. 2.0 : CWLS log ASCII Standard -VERSION 2.0
WRAP. YES : Multiple lines per depth step
~Well ------------------------------------------------------
STRT.FT                    300.0 : START DEPTH
STOP.FT                   7750.0 : STOP DEPTH
STEP.FT                 50.00000 : STEP LENGTH
NULL.                    -999.25 : NULL VALUE
COMP. CHAMPLIN PETROLEUM COMPANY : COMPANY
WELL.             ALVIN DRGAC #1 : WELL
FLD .                CALDWELL NE : FIELD
LOC .                            : LOCATION
CNTY.                   BURLESON : COUNTY
STAT.                      TEXAS : STATE
CTRY.   UNITED STATES OF AMERICA : COUNTRY
SRVC.               Schlumberger : SERVICE COMPANY
DATE.                03-Apr-1981 : LOGDATE
API .             42051312420000 : API NUMBER
UWI .             42051312420000 : UNIQUE WELL ID
SLAT.WGS84         30.6064505753 : SURFACE LATITUDE
SLON.WGS84        -96.6018284968 : SURFACE LONGITUDE
~Curve Information -----------------------------------------
DEPT    .FT    : DEPTH FEET
CALRED  .IN    : CALIPER FROM RESISTIVITY FROM DUAL INDUCTION-SFL-COMPENSATED NEUTRON-FORMATION DENSITY LOG
CALWS   .IN    : CALIPER [CALRED SPL. TO DCALED+BIT SIZE @ 3487']
CONDWS  .MMHO  : CONDUCTIVITY [1000/DRESWS]
DCALED  .IN    : DIFFERENTIAL CALIPER FROM DUAL INDUCTION-SFL-COMPENSATED NEUTRON-FORMATION DENSITY LOG
DCORWS  .G/C3  : DENSITY CORRECTION [DRHOED]
DENWS   .G/C3  : BULK DENSITY [M=2.71 F=1.0] [CALCULATED FROM DPOWS]
DPHILSED.V/V   : DENSITY POROSITY LIMESTONE [M=2.71 F=1.0] FROM DUAL INDUCTION-SFL-COMPENSATED NEUTRON-FORMATION DENSITY LOG
DPHISSED.V/V   : DENSITY POROSITY SANDSTONE [M=2.65 F=1.0]  FROM DUAL INDUCTION-SFL-COMPENSATED NEUTRON-FORMATION DENSITY LOG
DPOWS   .V/V   : DENSITY POROSITY [DPHISSED  CONVERTED TO LIMESTONE (M=2.71, F=1.0) SPL. TO DPHILSED @ 6250']
DRESWS  .OHMM  : DEEP RESISTIVITY [ILDED]
DRHOED  .G/C3  : DENSITY CORRECTION FROM DUAL INDUCTION-SFL-COMPENSATED NEUTRON-FORMATION DENSITY LOG
DTED    .US/F  : COMPRESSIONAL SONIC FROM INDUCTION-VELOCITY LOG
DTWS    .US/F  : COMPRESSIONAL SONIC [VELED]
GRRED   .GAPI  : GAMMA RAY FROM FROM DUAL INDUCTION-SFL-COMPENSATED NEUTRON-FORMATION DENSITY-VELOCITY LOG [ GRRED IN CASING FROM 67' - 90']
GRWS    .GAPI  : GAMMA RAY [GRRED, GRRED+30 FROM 3520' to 3542']
GUARDED .OHMM  : GUARD RESISTIVITY FROM INDUCTION-VELOCITY LOG
ILDED   .OHMM  : DEEP INDUCTION FROM DUAL INDUCTION-SFL-COMPENSATED NEUTRON-FORMATION DENSITY-VELOCITY LOG
ILMED   .OHMM  : MEDIUM INDUCTION FROM DUAL INDUCTION-SFL-COMPENSATED NEUTRON-FORMATION DENSITY-VELOCITY LOG
MRESWS  .OHMM  : MEDIUM RESISTIVITY [ILMED]
NPHILSED.V/V   : NEUTRON POROSITY LIMESTONE FROM DUAL INDUCTION-SFL-COMPENSATED NEUTRON-FORMATION DENSITY LOG
NPHISSED.V/V   : NEUTRON POROSITY SANDSTONE FROM DUAL INDUCTION-SFL-COMPENSATED NEUTRON-FORMATION DENSITY LOG
NPOWS   .V/V   : NEUTRON POROSITY LIMESTONE[NPHISSED MATRIX CONVERTED TO LIMESTONE SPL. TO NPHILSED @ 6250']
SFLUED  .OHMM  : SHALLOW FOCUS RESISTIVITY UNAVERAGED FROM DUAL INDUCTION-SFL-COMPENSATED NEUTRON-FORMATION DENSITY-VELOCITY LOG
SPRED   .MV    : SPONTANEOUS POTENTIAL ROM DUAL INDUCTION-SFL-COMPENSATED NEUTRON-FORMATION DENSITY-VELOCITY LOG
SPWS    .MV    : SPONTANEOUS POTENTIAL [BASELINE 0 MV] [SPRED]
SRESWS  .OHMM  : SHALLOW RESISTIVITY [SFLUED SPLICED GUARDED AT 3540']
~Params ----------------------------------------------------
PD  .                     GL : PERMANENT DATUM
EPD .FT                  353 : ELEVATION PERMANENT DATUM
LMF .                     KB : LOG MEASURED FROM
DAPD.FT                   18 : FEET ABOVE PERMANENT DATUM
DMF .                     KB : DRILLING MEASURED FROM
EKB .FT                  371 : KELLY BUSHING
EDF .FT                  370 : DRILLING FLOOR
EGL .FT                  353 : GROUND LEVEL
DATE.               04/03/81 : RUN DATE
RUN .                      1 : RUN NUMBER
DD  .FT                 7797 : DEPTH DRILLER
DL  .FT                 7760 : DEPTH LOGGER
BLI .FT                 7754 : BOTTOM LOG INTERVAL
TLI .FT                 3537 : TOP LOG INTERVAL
CS  .IN                9.625 : CASING SIZE
CBD .FT                 3543 : CASING BOTTOM DRILLER
CBL .FT                 3537 : CASING BOTTOM LOGGER
BS  .IN                 8.75 : BIT SIZE
BSD .FT                 7797 : BIT SIZE AT DEPTH
DFT .             LOW SOLIDS : DRILLING FLUID TYPE
DFD .                    9.4 : DRILLING FLUID DENSITY
DFV .                     43 : DRILLING FLUID VISCOSITY
DFPH.                    9.5 : DRILLING FLUID PH
DFL .                    6.8 : DRILLING FLUID LOSS
MSS .               FLOWLINE : MUD SAMPLE SOURCE
RMS .OHMM               1.99 : RESISTIVITY MUD SAMPLE
MST .DEGF                 75 : MUD SAMPLE TEMPERATURE
RMF .OHMM               1.49 : RESISTIVITY MUD FILTRATE SAMPLE
MFST.DEGF                 75 : MUD FILTRATE SAMPLE TEMPERATURE
RMC .OHMM               2.98 : RESISTIVITY MUD CAKE
MCST.DEGF                 75 : MUD CAKE SAMPLE TEMPERATURE
MFSS.                      M : MUD FILTRATE SAMPLE SOURCE
MCSS.                      C : MUD CAKE SAMPLE SOURCE
RMB .OHMM               0.87 : RESISTIVITY MUD AT BHT
TCS .HRS                 700 : TIME CIRCULATED STOPPED
TLAB.HRS                1430 : TIME LOGGER AT BOTTOM
LUN .                   8138 : LOGGING UNIT NUMBER
LUL .                BRENHAM : LOGGING UNIT LOCATION
ENGI.              STAVINOHA : RECORDING ENGINEER
WITN.                  VODAK : WITNESSED BY
CLNT.                A2DTECH : CLIENT CODE
ORIG.            2" 5" PRINT : ORIGIN OF DATA
UWI .         42051312420000 : UNIQUE WELL ID
DICO. A2D Technologies, Inc. : DIGITIZING COMPANY
~Other -----------------------------------------------------
~ASCII -----------------------------------------------------
# ...
 1650.00000   12.59940   12.59940  174.29190    -999.25    -999.25    -999.25    -999.25    -999.25    -999.25    5.73750    -999.25  128.84250  128.84250   83.94270   83.94270    8.34270    5.73750    5.89970    5.89970    -999.25    -999.25    -999.25    -999.25  -59.31830  -36.43850    8.34270
 1700.00000   12.48170   12.48170  114.59740    -999.25    -999.25    -999.25    -999.25    -999.25    -999.25    8.72620    -999.25  124.45150  124.45150   70.07900   70.07900   10.35760    8.72620    9.02580    9.02580    -999.25    -999.25    -999.25    -999.25  -59.05260  -36.21880   10.35760
 1750.00000   13.16340   13.16340  289.09250    -999.25    -999.25    -999.25    -999.25    -999.25    -999.25    3.45910    -999.25  131.25710  131.25710   91.97380   91.97380    6.36900    3.45910    3.53180    3.53180    -999.25    -999.25    -999.25    -999.25  -49.63470  -26.84690    6.36900
 1800.00000   12.92490   12.92490  182.70850    -999.25    -999.25    -999.25    -999.25    -999.25    -999.25    5.47320    -999.25  122.52370  122.52370   93.93240   93.93240    7.68190    5.47320    5.41830    5.41830    -999.25    -999.25    -999.25    -999.25  -60.05770  -37.31590    7.68190
 1850.00000   12.80710   12.80710  108.37760    -999.25    -999.25    -999.25    -999.25    -999.25    -999.25    9.22700    -999.25  127.23850  127.23850   80.34630   80.34630   11.46960    9.22700    9.68020    9.68020    -999.25    -999.25    -999.25    -999.25  -59.46500  -36.76910   11.46960
 1900.00000   12.64830   12.64830  115.49080    -999.25    -999.25    -999.25    -999.25    -999.25    -999.25    8.65870    -999.25  122.05460  122.05460   75.93530   75.93530   10.52990    8.65870    9.02120    9.02120    -999.25    -999.25    -999.25    -999.25  -59.54970  -36.89980   10.52990
 1950.00000   13.33670   13.33670   94.22940    -999.25    -999.25    -999.25    -999.25    -999.25    -999.25   10.61240    -999.25  124.60880  124.60880   68.08750   68.08750   12.79530   10.61240   11.13470   11.13470    -999.25    -999.25    -999.25    -999.25  -61.36570  -38.76180   12.79530
 2000.00000   14.14510   14.14510   88.86990    -999.25    -999.25    -999.25    -999.25    -999.25    -999.25   11.25240    -999.25  127.47440  127.47440   75.36420   75.36420   12.96650   11.25240   12.41570   12.41570    -999.25    -999.25    -999.25    -999.25  -61.04530  -38.48730   12.96650
 2050.00000   12.91740   12.91740  121.52290    -999.25    -999.25    -999.25    -999.25    -999.25    -999.25    8.22890    -999.25  119.23200  119.23200   69.93500   69.93500   10.91970    8.22890    8.66110    8.66110    -999.25    -999.25    -999.25    -999.25  -60.48760  -37.97560   10.91970
 2100.00000   12.73300   12.73300  136.55230    -999.25    -999.25    -999.25    -999.25    -999.25    -999.25    7.32320    -999.25  120.24240  120.24240   90.81170   90.81170    9.56120    7.32320    7.54960    7.54960    -999.25    -999.25    -999.25    -999.25  -61.44650  -38.98050    9.56120
 2150.00000   13.41140   13.41140  151.66910    -999.25    -999.25    -999.25    -999.25    -999.25    -999.25    6.59330    -999.25  116.39660  116.39660   90.01880   90.01880   10.35980    6.59330    7.27560    7.27560    -999.25    -999.25    -999.25    -999.25  -56.27140  -33.85140   10.35980
 2200.00000   13.07680   13.07680   61.17780    -999.25    -999.25    -999.25    -999.25    -999.25    -999.25   16.34580    -999.25  120.22140  120.22140   76.20010   76.20010   18.20140   16.34580   17.21270   17.21270    -999.25    -999.25    -999.25    -999.25  -52.19590  -29.82180   18.20140
 2250.00000   13.41200   13.41200  205.13660    -999.25    -999.25    -999.25    -999.25    -999.25    -999.25    4.87480    -999.25  117.37490  117.37490  104.13990  104.13990    7.43910    4.87480    5.26880    5.26880    -999.25    -999.25    -999.25    -999.25  -48.91640  -26.58830    7.43910
 2300.00000   14.91120   14.91120  242.42420    -999.25    -999.25    -999.25    -999.25    -999.25    -999.25    4.12500    -999.25  103.80930  103.80930  100.59680  100.59680    6.97890    4.12500    4.38950    4.38950    -999.25    -999.25    -999.25    -999.25  -47.07280  -24.79070    6.97890
 2350.00000   16.25160   16.25160   45.67920    -999.25    -999.25    -999.25    -999.25    -999.25    -999.25   21.89180    -999.25  120.09450  120.09450   51.51310   51.51310   19.78260   21.89180   18.75700   18.75700    -999.25    -999.25    -999.25    -999.25  -44.22340  -21.98730   19.78260
 2400.00000   12.52980   12.52980   48.54510    -999.25    -999.25    -999.25    -999.25    -999.25    -999.25   20.59940    -999.25  118.57050  118.57050   87.88830   87.88830   19.99060   20.59940   22.07330   22.07330    -999.25    -999.25    -999.25    -999.25  -49.93000  -27.73980   19.99060
 2450.00000   14.78510   14.78510   49.08550    -999.25    -999.25    -999.25    -999.25    -999.25    -999.25   20.37260    -999.25  131.92050  131.92050   61.51190   61.51190   17.39500   20.37260   18.75580   18.75580    -999.25    -999.25    -999.25    -999.25  -53.66340  -31.51920   17.39500
 2500.00000   15.54780   15.54780   49.97300    -999.25    -999.25    -999.25    -999.25    -999.25    -999.25   20.01080    -999.25  119.25420  119.25420   63.07490   63.07490   20.78520   20.01080   21.63280   21.63280    -999.25    -999.25    -999.25    -999.25  -47.89010  -25.79190   20.78520
 2550.00000   13.02900   13.02900   55.71030    -999.25    -999.25    -999.25    -999.25    -999.25    -999.25   17.95000    -999.25  119.51940  119.51940   71.67390   71.67390   20.28940   17.95000   18.47440   18.47440    -999.25    -999.25    -999.25    -999.25  -43.27310  -21.22090   20.28940
 2600.00000   14.54100   14.54100   48.76310    -999.25    -999.25    -999.25    -999.25    -999.25    -999.25   20.50730    -999.25  125.13980  125.13980   61.72340   61.72340   19.11970   20.50730   16.08610   16.08610    -999.25    -999.25    -999.25    -999.25  -43.71310  -21.70680   19.11970
 2650.00000   13.77980   13.77980   47.35840    -999.25    -999.25    -999.25    -999.25    -999.25    -999.25   21.11560    -999.25  123.62500  123.62500   58.43780   58.43780   22.43320   21.11560   21.99160   21.99160    -999.25    -999.25    -999.25    -999.25  -41.73210  -19.77180   22.43320
 2700.00000   13.84780   13.84780   50.56170    -999.25    -999.25    -999.25    -999.25    -999.25    -999.25   19.77780    -999.25  122.86910  122.86910   59.47950   59.47950   21.22590   19.77780   21.04500   21.04500    -999.25    -999.25    -999.25    -999.25  -41.17500  -19.26070   21.22590
 2750.00000   13.29010   13.29010   57.66780    -999.25    -999.25    -999.25    -999.25    -999.25    -999.25   17.34070    -999.25  116.47220  116.47220   71.93870   71.93870   18.58820   17.34070   19.56220   19.56220    -999.25    -999.25    -999.25    -999.25  -43.77710  -21.90880   18.58820
 2800.00000   12.89420   12.89420  214.50940    -999.25    -999.25    -999.25    -999.25    -999.25    -999.25    4.66180    -999.25   96.29230   96.29230   99.65480   99.65480    8.75620    4.66180    4.94760    4.94760    -999.25    -999.25    -999.25    -999.25  -46.04330  -24.22090    8.75620
 2850.00000   13.52190   13.52190   76.10290    -999.25    -999.25    -999.25    -999.25    -999.25    -999.25   13.14010    -999.25  117.93750  117.93750   66.99700   66.99700   14.31370   13.14010   15.24950   15.24950    -999.25    -999.25    -999.25    -999.25  -57.27670  -35.50030   14.31370
 2900.00000   13.51600   13.51600   71.96830    -999.25    -999.25    -999.25    -999.25    -999.25    -999.25   13.89500    -999.25  115.51170  115.51170   66.63300   66.63300   15.38880   13.89500   14.72230   14.72230    -999.25    -999.25    -999.25    -999.25  -55.02050  -33.29010   15.38880
 2950.00000   12.09010   12.09010   77.12840    -999.25    -999.25    -999.25    -999.25    -999.25    -999.25   12.96540    -999.25  116.47530  116.47530   73.20480   73.20480   15.04010   12.96540   14.29320   14.29320    -999.25    -999.25    -999.25    -999.25  -59.83380  -38.14930   15.04010
