~Version ---------------------------------------------------
VERS. 2.0 : CWLS log ASCII Standard -VERSION 2.0
WRAP. YES : MULTIPLE LINES PER DEPTH STEP
~Well ------------------------------------------------------
STRT.FT                       800.0 : START DEPTH
STOP.FT                      3900.0 : STOP DEPTH
STEP.FT                    50.00000 : STEP LENGTH
NULL.                       -999.25 : NULL VALUE
COMP.        GENESIS GAS & OIL, LLC : COMPANY
WELL.                BENNETT GGO #1 : WELL
FLD .                       WILDCAT : FIELD
LOC .                               : LOCATION
CNTY.                        ZAVALA : COUNTY
STAT.                         TEXAS : STATE
CTRY.      UNITED STATES OF AMERICA : COUNTRY
SRVC. Weatherford Drilling Services : SERVICE COMPANY
DATE.                   14-Jun-2006 : LOGDATE
API .                42507326870000 : API NUMBER
UWI .                42507326870000 : UNIQUE WELL ID
SLAT.WGS84            29.0017265012 : SURFACE LATITUDE
SLON.WGS84           -99.5866782349 : SURFACE LONGITUDE
~Curve Information -----------------------------------------
DEPT    .FT    : DEPTH FEET
CALWS   .IN    : CALIPER [DCALED+BITED]
CONDWS  .MMHO  : CONDUCTIVITY [1000/DRESWS]
DCALRED .IN    : DIFFERENTIAL CALIPER FROM RESISTIVITY LOG
DCORED  .G/C3  : DENSITY CORRECTION FROM DENSITY LOG
DCORWS  .G/C3  : DENSITY CORRECTION [DCORED]
DENWS   .G/C3  : BULK DENSITY [M=2.71 F=1.0] [CALCULATED FROM DPOWS]
DPORLSED.V/V   : DENSITY POROSITY [M=2.71 F=1.0]
DPOWS   .V/V   : DENSITY POROSITY [M=2.71 F=1.0] [DPORLSED]
DRESWS  .OHMM  : DEEP RESISTIVITY [ILDED]
GRRED   .GAPI  : GAMMA RAY FROM RESISTIVITY LOG
GRWS    .GAPI  : GAMMA RAY [GRRED]
ILDED   .OHMM  : INDUCTION LOG DEEP RESISTIVITY
ILMED   .OHMM  : INDUCTION LOG MEDIUM RESISTIVITY
MRESWS  .OHMM  : MEDIUM RESISTIVITY [ILMED]
NPORLSED.V/V   : NEUTRON POROSITY LIMESTONE FROM DENSITY LOG
NPOWS   .V/V   : NEUTRON POROSITY LIMESTONE [NPORLSED]
PEED    .B/E   : PHOTOELECTRIC FACTOR FROM DENSITY LOG
PEFWS   .B/E   : PHOTOELECTRIC FACTOR [PEED]
SFEED   .OHMM  : SHALLOW FOCUSSED ELECTRIC RESISTIVITY
SPRED   .MV    : SPONTANEOUS POTENTIAL FROM RESISTIVITY LOG
SPWS    .MV    : SPONTANEOUS POTENTIAL [BASELINE 0 MV] [SPRED]
SRESWS  .OHMM  : SHALLOW RESISTIVITY [SFEED]
TENRED  .LBF   : TENSION FROM RESISTIVITY LOG
~Params ----------------------------------------------------
PD  .                     GL : PERMANENT DATUM
EPD .FT                  758 : ELEVATION PERMANENT DATUM
LMF .                     KB : LOG MEASURED FROM
DAPD.FT                 11.5 : FEET ABOVE PERMANENT DATUM
DMF .                     KB : DRILLING MEASURED FROM
EKB .FT                769.5 : KELLY BUSHING
EDF .FT                768.5 : DRILLING FLOOR
EGL .FT                758.0 : GROUND LEVEL
DATE.               06/14/06 : RUN DATE
RUN .                      1 : RUN NUMBER
DD  .FT                 4016 : DEPTH DRILLER
DL  .FT                 3949 : DEPTH LOGGER
BLI .FT                 3948 : BOTTOM LOG INTERVAL
TLI .FT                  812 : TOP LOG INTERVAL
CS  .IN                8.625 : CASING SIZE
CBD .FT                  812 : CASING BOTTOM DRILLER
CBL .FT                  807 : CASING BOTTOM LOGGER
BS  .IN                 7.88 : BIT SIZE
BSD .FT                 4016 : BIT SIZE AT DEPTH
DFT .            WATER BASED : DRILLING FLUID TYPE
DFD .                   10.3 : DRILLING FLUID DENSITY
DFV .                     46 : DRILLING FLUID VISCOSITY
MSS .               FLOWLINE : MUD SAMPLE SOURCE
RMS .OHMM                1.0 : RESISTIVITY MUD SAMPLE
MST .DEGF                102 : MUD SAMPLE TEMPERATURE
RMF .OHMM               0.78 : RESISTIVITY MUD FILTRATE SAMPLE
MFST.DEGF                102 : MUD FILTRATE SAMPLE TEMPERATURE
RMC .OHMM               1.25 : RESISTIVITY MUD CAKE
MCST.DEGF                102 : MUD CAKE SAMPLE TEMPERATURE
MFSS.                   CALC : MUD FILTRATE SAMPLE SOURCE
MCSS.                   CALC : MUD CAKE SAMPLE SOURCE
RMB .OHMM               0.84 : RESISTIVITY MUD AT BHT
TCS .HRS                   2 : TIME CIRCULATED STOPPED
LUN .                    367 : LOGGING UNIT NUMBER
LUL .                  ALICE : LOGGING UNIT LOCATION
ENGI.                 CALLIS : RECORDING ENGINEER
WITN.                 MADDOX : WITNESSED BY
CLNT.                A2DTECH : CLIENT CODE
ORIG.         1" 2" 5" PRINT : ORIGIN OF DATA
UWI .         42507326870000 : UNIQUE WELL ID
DICO. A2D Technologies, Inc. : DIGITIZING COMPANY
~Other -----------------------------------------------------
~ASCII -----------------------------------------------------
# ...
 2350.00000    9.79650  445.11710    1.91650    0.05190    0.05190    2.28110    0.25080    0.25080    2.24660  105.95880  105.95880    2.24660    2.28770    2.28770    0.36150    0.36150    2.53480    2.53480    2.38370  -21.92850   -2.99300    2.38370 1053.94730
 2400.00000    8.30000  363.54380    0.42000    0.02090    0.02090    2.17960    0.31020    0.31020    2.75070   93.36970   93.36970    2.75070    2.82290    2.82290    0.30750    0.30750    2.22740    2.22740    3.48390  -29.60390  -10.74250    3.48390 1051.27800
 2450.00000    9.49240  502.05840    1.61240    0.09140    0.09140    2.21680    0.28840    0.28840    1.99180  103.71230  103.71230    1.99180    2.01800    2.01800    0.30700    0.30700    2.54660    2.54660    2.11490  -22.63620   -3.84890    2.11490 1121.13880
 2500.00000    8.22120  196.36720    0.34120    0.02210    0.02210    2.52120    0.11040    0.11040    5.09250   73.94770   73.94770    5.09250    5.15530    5.15530    0.17280    0.17280    4.29920    4.29920    5.49590  -20.13950   -1.42620    5.49590 1114.08070
 2550.00000    9.27550  293.25510    1.39550    0.16230    0.16230    2.34370    0.21420    0.21420    3.41000   84.47760   84.47760    3.41000    3.60710    3.60710    0.25340    0.25340    3.26090    3.26090    3.85150  -21.39530   -2.75610    3.85150 1121.19030
 2600.00000    8.23260  226.59810    0.35260   -0.00590   -0.00590    2.29530    0.24250    0.24250    4.41310   55.93420   55.93420    4.41310    4.44330    4.44330    0.52930    0.52930    4.47190    4.47190    5.88910  -21.30420   -2.73910    5.88910 1177.31650
 2650.00000   10.73260  463.77890    2.85260    0.07820    0.07820    1.87590    0.48780    0.48780    2.15620   52.85920   52.85920    2.15620    2.20710    2.20710    0.68370    0.68370    4.13050    4.13050    4.16730  -22.82630   -4.33530    4.16730 1135.06680
 2700.00000    8.15900  109.14650    0.27900   -0.00500   -0.00500    2.54040    0.09920    0.09920    9.16200   64.70580   64.70580    9.16200    8.99400    8.99400    0.11260    0.11260    4.53410    4.53410    9.00930  -23.05220   -4.63530    9.00930 1147.27440
 2750.00000    8.99620  233.19260    1.11620    0.00220    0.00220    2.50220    0.12150    0.12150    4.28830   79.36100   79.36100    4.28830    4.39580    4.39580    0.19160    0.19160    3.74040    3.74040    4.79520  -19.93730   -1.59440    4.79520 1150.22690
 2800.00000    8.87240  155.51130    0.99240   -0.00280   -0.00280    2.53230    0.10390    0.10390    6.43040   54.29110   54.29110    6.43040    6.36920    6.36920    0.15560    0.15560    4.59630    4.59630    6.98060  -22.23510   -3.96630    6.98060 1148.91980
 2850.00000    9.33740  267.17970    1.45740    0.04840    0.04840    2.38340    0.19100    0.19100    3.74280   44.46370   44.46370    3.74280    3.75130    3.75130    0.24280    0.24280    4.22360    4.22360    4.60670  -21.17500   -2.98030    4.60670 1228.90450
 2900.00000    8.25200  562.71450    0.37200    0.00970    0.00970    2.38490    0.19010    0.19010    1.77710   66.22460   66.22460    1.77710    1.81880    1.81880    0.19350    0.19350    3.47810    3.47810    4.50890  -19.11650   -0.99590    4.50890 1194.39010
 2950.00000    8.85020  102.59150    0.97020   -0.00220   -0.00220    2.53230    0.10390    0.10390    9.74740   31.82600   31.82600    9.74740    9.92070    9.92070    0.10510    0.10510    4.87580    4.87580   10.27430  -30.88000  -12.83680   10.27430 1233.65080
 3000.00000    8.77930  146.39140    0.89930   -0.00680   -0.00680    2.49150    0.12780    0.12780    6.83100   29.48560   29.48560    6.83100    7.35870    7.35870    0.12680    0.12680    4.80120    4.80120    7.77060  -37.69690  -19.84030    7.77060 1239.78630
 3050.00000    8.62420  138.24570    0.74420   -0.00310   -0.00310    2.50290    0.12110    0.12110    7.23350   25.97500   25.97500    7.23350    7.41140    7.41140    0.12360    0.12360    4.82630    4.82630    7.93940  -39.25230  -21.58230    7.93940 1271.35280
 3100.00000    8.34500  151.73120    0.46500   -0.00220   -0.00220    2.50620    0.11920    0.11920    6.59060   34.86740   34.86740    6.59060    6.89850    6.89850    0.15160    0.15160    4.78270    4.78270    7.13090  -33.02180  -15.53850    7.13090 1282.42690
 3150.00000    8.24590  145.34460    0.36590   -0.00130   -0.00130    2.50310    0.12100    0.12100    6.88020   54.05620   54.05620    6.88020    7.43430    7.43430    0.14040    0.14040    4.98130    4.98130    7.44550  -35.54030  -18.24360    7.44550 1315.42900
 3200.00000    8.18990  137.52320    0.30990   -0.00590   -0.00590    2.46920    0.14080    0.14080    7.27150   56.91860   56.91860    7.27150    7.68210    7.68210    0.17930    0.17930    4.84480    4.84480    7.98560  -29.90650  -12.79640    7.98560 1324.57840
 3250.00000    8.09710   96.63240    0.21710    0.00340    0.00340    2.54190    0.09830    0.09830   10.34850   42.92610   42.92610   10.34850   11.39440   11.39440    0.11810    0.11810    5.28920    5.28920   11.68820  -33.13610  -16.21260   11.68820 1322.10470
 3300.00000    7.94200  135.11140    0.06200   -0.01000   -0.01000    2.45500    0.14910    0.14910    7.40130   44.55680   44.55680    7.40130    7.96210    7.96210    0.14600    0.14600    4.90680    4.90680   12.92090  -45.98120  -29.24430   12.92090 1320.67900
 3350.00000    7.88000   50.36110    0.00000    0.00030    0.00030    2.53220    0.10400    0.10400   19.85660  102.84770  102.84770   19.85660   22.18970   22.18970    0.16530    0.16530    4.62730    4.62730   26.25580  -20.17740   -3.62710   26.25580 1375.32390
 3400.00000    8.12810  179.13440    0.24810    0.06880    0.06880    2.52160    0.11020    0.11020    5.58240   48.90720   48.90720    5.58240    5.99530    5.99530    0.17950    0.17950    4.41000    4.41000   11.17480  -22.22210   -5.85840   11.17480 1349.49210
 3450.00000    7.94180    5.41200    0.06180    0.00030    0.00030    2.37060    0.19850    0.19850  184.77360   79.27180   79.27180  184.77360  658.47570  658.47570    0.28000    0.28000    3.72670    3.72670  342.39960  -42.08460  -25.90750  342.39960 1373.07950
 3500.00000    7.94200   51.81940    0.06200    0.02060    0.02060    2.54460    0.09670    0.09670   19.29780   19.65750   19.65750   19.29780   21.34040   21.34040    0.08650    0.08650    4.81320    4.81320   33.23270  -55.76430  -39.77390   33.23270 1405.99620
 3550.00000    7.94210   43.01820    0.06210    0.00190    0.00190    2.57250    0.08040    0.08040   23.24600   22.29680   22.29680   23.24600   27.96030   27.96030    0.07070    0.07070    4.96140    4.96140   29.17460  -49.06540  -33.26160   29.17460 1401.76880
 3600.00000    8.93430  212.47660    1.05430    0.09530    0.09530    2.54520    0.09640    0.09640    4.70640  120.07060  120.07060    4.70640    4.78660    4.78660    0.32790    0.32790    3.66460    3.66460    6.34170  -18.69160   -3.07440    6.34170 1372.79130
 3650.00000    8.74820  175.09450    0.86820    0.03300    0.03300    2.59750    0.06580    0.06580    5.71120  109.87250  109.87250    5.71120    5.97730    5.97730    0.26420    0.26420    3.35400    3.35400    7.36990  -18.38110   -2.46630    7.36990 1391.74440
 3700.00000    7.91100   16.47570    0.03100   -0.00260   -0.00260    2.62350    0.05060    0.05060   60.69530   29.95360   29.95360   60.69530   91.07430   91.07430    0.05630    0.05630    5.25480    5.25480   64.44340  -39.87590  -23.64330   64.44340 1443.87000
 3750.00000    7.88820   13.48150    0.00820    0.00410    0.00410    2.62590    0.04920    0.04920   74.17580   23.69870   23.69870   74.17580  131.27010  131.27010    0.04370    0.04370    5.27950    5.27950   99.49110  -54.36260  -37.81220   99.49110 1406.61060
 3800.00000    7.69400  250.49470   -0.18600    0.02110    0.02110    2.30660    0.23590    0.23590    3.99210   21.49590   21.49590    3.99210    4.22910    4.22910    0.21120    0.21120    4.20890    4.20890   11.20190  -73.20890  -56.34070   11.20190 1430.99830
 3850.00000    7.60090  251.80670   -0.27910    0.04690    0.04690    2.35380    0.20830    0.20830    3.97130   20.12480   20.12480    3.97130    4.28100    4.28100    0.20740    0.20740    4.47180    4.47180   11.71960  -73.02350  -55.83750   11.71960 1449.03780
