~Version ---------------------------------------------------
VERS. 2.0 : CWLS log ASCII Standard -VERSION 2.0
WRAP. YES : Multiple lines per depth step
~Well ------------------------------------------------------
STRT.FT                   2500.0 : START DEPTH
STOP.FT                  17250.0 : STOP DEPTH
STEP.FT                 50.00000 : STEP LENGTH
NULL.                    -999.25 : NULL VALUE
COMP. CHAMPLIN PETROLEUM COMPANY : COMPANY
WELL.    FRIAR RANCH GAS UNIT #1 : WELL
FLD .                    WILDCAT : FIELD
LOC .                            : LOCATION
CNTY.                    DE WITT : COUNTY
STAT.                      TEXAS : STATE
CTRY.   UNITED STATES OF AMERICA : COUNTRY
SRVC.                    Unknown : SERVICE COMPANY
DATE.                27-Nov-1979 : LOGDATE
API .             42123309830000 : API NUMBER
UWI .             42123309830000 : UNIQUE WELL ID
SLAT.WGS84           29.12059862 : SURFACE LATITUDE
SLON.WGS84          -97.21043026 : SURFACE LONGITUDE
~Curve Information -----------------------------------------
DEPT    .FT    : DEPTH FEET
ACED    .US/F  : DELTA TIME (ACOUSTIC) FROM SONIC LOG [DEP ADJ TO DTED]
CALDED  .IN    : CALIPER FROM DENSITY LOG [DEP ADJ TO GRRED]
CALRED  .IN    : CALIPER FROM RESISTIVITY LOG
CALWS   .IN    : CALIPER [CALDED]
CONDWS  .MMHO  : CONDUCTIVITY [1000/DRESWS]
CORRED  .G/C3  : DENSITY CORRECTION FROM DENSITY LOG
DCORWS  .G/C3  : DENSITY CORRECTION [CORRED]
DENWS   .G/C3  : BULK DENSITY [M=2.71 F=1.0] [RHOBED]
DPHILSED.V/V   : DENSITY POROSITY [M=2.71 F=1.0] FROM DENSITY LOG [DEP ADJ TO GRRED]
DPHISSED.V/V   : DENSITY POROSITY [M=2.65 F=1.0][7100-10800F M=2.68] FROM DENSITY LOG
DPOLSWS .V/V   : DENSITY POROSITY [M=2.71 F=1.0] [CAL FR DENWS]
DRESWS  .OHMM  : DEEP RESISTIVITY [ILDED]
DTED    .US/F  : DELTA TIME FROM SONIC LOG
DTWS    .US/F  : DELTA TIME [2490 DTED 15878 ACED]
GRDED   .GAPI  : GAMMA RAY FROM DENSITY LOG [DEP ADJ TO GRRED]
GRRED   .GAPI  : GAMMA RAY FROM RESISTIVITY LOG
GRWS    .GAPI  : GAMMA RAY [2490 GRDED 17231 GRRED]
ILDED   .OHMM  : INDUCTION LOG DEEP RESISTIVITY
ILMED   .OHMM  : INDUCTION LOG MEDIUM RESISTIVITY
MRESWS  .OHMM  : MEDIUM RESISTIVITY [ILMED]
NPHILSED.V/V   : NEUTRON POROSITY LIMESTONE FROM DENSITY LOG [DEP ADJ TO GRRED]
NPHISSED.V/V   : NEUTRON POROSITY SANDSTONE FROM DENSITY LOG
NPOLSWS .V/V   : NEUTRON POROSITY LIMESTONE [2490 NPOLSCAL 14943 NPHILSED] [NPHISSED WAS CONVERTED TO NPOLSCAL USING POWERLOG MODULE]
RHOBED  .G/C3  : BULK DENSITY FROM DENSITY LOG [DEP ADJ TO GRRED]
SFLED   .OHMM  : SPHERICALLY FOCUSED LOG RESISTIVITY
SPHILSED.V/V   : SONIC POROSITY FROM SONIC LOG [DEP ADJ TO DTED] [LIMESTONE M=47.5, F=189]
SPOWS   .V/V   : SONIC POROSITY [CAL FR DTWS] [LIMESTONE M=47.5, F=189]
SPRED   .MV    : SPONTANEOUS POTENTIAL FROM RESISTIVITY LOG [SHIFTS ARE REMOVED]
SPWS    .MV    : SPONTANEOUS POTENTIAL [BASELINE 0 MV] [SPRED]
SRESWS  .OHMM  : SHALLOW RESISTIVITY [SFLED]
~Params ----------------------------------------------------
PD  .                     GL : PERMANENT DATUM
EPD .FT                223.8 : ELEVATION PERMANENT DATUM
LMF .                     KB : LOG MEASURED FROM
DAPD.FT                   26 : FEET ABOVE PERMANENT DATUM
DMF .                     KB : DRILLING MEASURED FROM
EKB .FT                249.8 : KELLY BUSHING
EDF .FT                248.8 : DRILLING FLOOR
EGL .FT                223.8 : GROUND LEVEL
DATE.               11/27/79 : RUN DATE
RUN .                      1 : RUN NUMBER
DD  .FT                17252 : DEPTH DRILLER
DL  .FT                17259 : DEPTH LOGGER
BLI .FT                17258 : BOTTOM LOG INTERVAL
TLI .FT                15013 : TOP LOG INTERVAL
CS  .IN                    7 : CASING SIZE
CBD .FT                15015 : CASING BOTTOM DRILLER
CBL .FT                15018 : CASING BOTTOM LOGGER
BS  .IN                5.875 : BIT SIZE
BSD .FT                17252 : BIT SIZE AT DEPTH
DFT .               OIL FAZE : DRILLING FLUID TYPE
DFD .                   12.8 : DRILLING FLUID DENSITY
DFV .                     45 : DRILLING FLUID VISCOSITY
DFL .                   13.6 : DRILLING FLUID LOSS
TCS .HRS                 545 : TIME CIRCULATED STOPPED
TLAB.HRS                1500 : TIME LOGGER AT BOTTOM
LUN .                   8011 : LOGGING UNIT NUMBER
LUL .                   VICT : LOGGING UNIT LOCATION
ENGI.                   SHEA : RECORDING ENGINEER
WITN.            BLANKENSHIP : WITNESSED BY
CLNT.                A2DTECH : CLIENT CODE
ORIG.            1" 5" PRINT : ORIGIN OF DATA
UWI .         42123309830000 : UNIQUE WELL ID
DICO. A2D Technologies, Inc. : DIGITIZING COMPANY
~Other -----------------------------------------------------
~ASCII -----------------------------------------------------
# ...
 9700.00000    -999.25   12.84560    -999.25   12.84560  115.67110    0.02560    0.02560    2.53040    -999.25    0.09420    0.10500    8.64520   65.37770   65.37770   45.23460    -999.25   45.23460    8.64520   12.79950   12.79950    -999.25    0.13770    0.09530    2.53040   25.71900    -999.25    0.12630  -68.45190  -46.53690   25.71900
 9750.00000    -999.25   13.23580    -999.25   13.23580  119.84950    0.07420    0.07420    2.43580    -999.25    0.14670    0.16040    8.34380   70.33940   70.33940   46.39900    -999.25   46.39900    8.34380    9.40990    9.40990    -999.25    0.24500    0.20110    2.43580   11.86700    -999.25    0.16140  -40.45030  -18.40230   11.86700
 9800.00000    -999.25   13.16430    -999.25   13.16430  161.87520    0.04490    0.04490    2.56880    -999.25    0.07670    0.08260    6.17760   69.70150   69.70150   40.73180    -999.25   40.73180    6.17760    8.34360    8.34360    -999.25    0.17350    0.13050    2.56880   15.08800    -999.25    0.15690  -75.98190  -53.80080   15.08800
 9850.00000    -999.25   11.96460    -999.25   11.96460  184.76770    0.07580    0.07580    2.47610    -999.25    0.12730    0.13680    5.41220   74.25860   74.25860   41.80250    -999.25   41.80250    5.41220    8.53300    8.53300    -999.25    0.14840    0.10590    2.47610   14.83850    -999.25    0.18910  -89.94130  -67.62710   14.83850
 9900.00000    -999.25   12.33580    -999.25   12.33580  153.90530    0.04620    0.04620    2.43370    -999.25    0.14540    0.16160    6.49750   74.87470   74.87470   45.07120    -999.25   45.07120    6.49750    9.32340    9.32340    -999.25    0.17110    0.12810    2.43370   16.56950    -999.25    0.19350  -84.59310  -62.14590   16.56950
 9950.00000    -999.25   19.45340    -999.25   19.45340  388.77220    0.06630    0.06630    2.26500    -999.25    0.24870    0.26020    2.57220   94.93060   94.93060   80.20920    -999.25   80.20920    2.57220    2.21180    2.21180    -999.25    0.48780    0.44610    2.26500    2.70300    -999.25    0.33520  -23.64860   -1.11120    2.70300
 10000.00000    -999.25   13.18700    -999.25   13.18700  130.37300    0.08770    0.08770    2.49760    -999.25    0.11250    0.12420    7.67030   71.44860   71.44860   45.99760    -999.25   45.99760    7.67030    9.68750    9.68750    -999.25    0.16610    0.12320    2.49760   13.05780    -999.25    0.16920  -73.60520  -51.41130   13.05780
 10050.00000    -999.25   15.02170    -999.25   15.02170  115.15700    0.12820    0.12820    2.44360    -999.25    0.14310    0.15580    8.68380   70.92830   70.92830   41.41390    -999.25   41.41390    8.68380   11.75840   11.75840    -999.25    0.17690    0.13380    2.44360   20.35200    -999.25    0.16560  -70.51950  -48.66910   20.35200
 10100.00000    -999.25   13.78670    -999.25   13.78670  147.13020    0.05620    0.05620    2.44870    -999.25    0.13870    0.15280    6.79670   73.68360   73.68360   50.29480    -999.25   50.29480    6.79670    9.32590    9.32590    -999.25    0.14780    0.10530    2.44870   13.63590    -999.25    0.18500  -85.39220  -63.88530   13.63590
 10150.00000    -999.25   15.55830    -999.25   15.55830  153.15110    0.06960    0.06960    2.45500    -999.25    0.13570    0.14910    6.52950   72.53930   72.53930   55.28010    -999.25   55.28010    6.52950    8.46520    8.46520    -999.25    0.17760    0.13450    2.45500   11.92640    -999.25    0.17700  -63.57800  -42.41470   11.92640
 10200.00000    -999.25   15.82240    -999.25   15.82240  117.85500    0.04140    0.04140    2.45180    -999.25    0.13260    0.15100    8.48500   69.21530   69.21530   41.46610    -999.25   41.46610    8.48500    9.96060    9.96060    -999.25    0.14910    0.10660    2.45180   13.98640    -999.25    0.15350  -61.94590  -41.12610   13.98640
 10250.00000    -999.25   12.81070    -999.25   12.81070  117.91760    0.08770    0.08770    2.46850    -999.25    0.12810    0.14120    8.48050   69.86370   69.86370   34.20980    -999.25   34.20980    8.48050   10.78970   10.78970    -999.25    0.17550    0.13240    2.46850   15.56500    -999.25    0.15800  -72.13010  -51.65380   15.56500
 10300.00000    -999.25   15.31190    -999.25   15.31190  146.20310    0.05880    0.05880    2.41560    -999.25    0.15240    0.17220    6.83980   75.44270   75.44270   85.76560    -999.25   85.76560    6.83980    7.07300    7.07300    -999.25    0.26680    0.22280    2.41560    7.54910    -999.25    0.19750  -37.37730  -17.24450    7.54910
 10350.00000    -999.25   13.18070    -999.25   13.18070  112.84900    0.00460    0.00460    2.49630    -999.25    0.11270    0.12500    8.86140   73.35840   73.35840   74.05780    -999.25   74.05780    8.86140    9.86270    9.86270    -999.25    0.17640    0.13330    2.49630   12.75250    -999.25    0.18270  -38.67260  -18.88330   12.75250
 10400.00000    -999.25   16.96350    -999.25   16.96350  228.43050    0.08380    0.08380    2.45000    -999.25    0.14170    0.15200    4.37770   77.02830   77.02830   63.95830    -999.25   63.95830    4.37770    4.66710    4.66710    -999.25    0.41590    0.37340    2.45000    4.74530    -999.25    0.20870  -25.28050   -5.83470    4.74530
 10450.00000    -999.25   14.73160    -999.25   14.73160  282.18300    0.09220    0.09220    2.38860    -999.25    0.17790    0.18800    3.54380   83.56790   83.56790   76.66680    -999.25   76.66680    3.54380    3.81230    3.81230    -999.25    0.37050    0.32710    2.38860    4.03820    -999.25    0.25490  -26.35280   -7.25050    4.03820
 10500.00000    -999.25   14.62020    -999.25   14.62020  285.82050    0.10520    0.10520    2.24350    -999.25    0.27960    0.27280    3.49870   82.90650   82.90650   87.21000    -999.25   87.21000    3.49870    3.76350    3.76350    -999.25    0.35190    0.30830    2.24350    5.08280    -999.25    0.25020  -24.37440   -5.62840    5.08280
 10550.00000    -999.25   13.71990    -999.25   13.71990  222.74200    0.02860    0.02860    2.49690    -999.25    0.11440    0.12460    4.48950   76.66440   76.66440   68.86820    -999.25   68.86820    4.48950    4.28390    4.28390    -999.25    0.24580    0.20190    2.49690    5.52600    -999.25    0.20610  -34.17210  -15.78670    5.52600
 10600.00000    -999.25   16.93530    -999.25   16.93530  372.64760    0.10300    0.10300    2.26120    -999.25    0.25580    0.26250    2.68350   87.87190   87.87190   84.19390    -999.25   84.19390    2.68350    2.84830    2.84830    -999.25    0.40120    0.35830    2.26120    3.13040    -999.25    0.28530  -22.83150   -4.80660    3.13040
 10650.00000    -999.25   13.85500    -999.25   13.85500  451.08030    0.14260    0.14260    2.51530    -999.25    0.09910    0.11390    2.21690   85.99390   85.99390   98.63460    -999.25   98.63460    2.21690    2.31890    2.31890    -999.25    0.30480    0.26080    2.51530    2.75020    -999.25    0.27200  -22.07700   -4.41270    2.75020
 10700.00000    -999.25   13.38700    -999.25   13.38700  474.58590    0.12110    0.12110    2.54530    -999.25    0.07910    0.09630    2.10710   85.04900   85.04900   88.97060    -999.25   88.97060    2.10710    2.20880    2.20880    -999.25    0.27200    0.22800    2.54530    2.67770    -999.25    0.26540  -22.38200   -5.07830    2.67770
 10750.00000    -999.25   12.72070    -999.25   12.72070  605.47340    0.09460    0.09460    2.54730    -999.25    0.08060    0.09510    1.65160   90.93560   90.93560  119.70780    -999.25  119.70780    1.65160    1.70920    1.70920    -999.25    0.35170    0.30810    2.54730    2.62520    -999.25    0.30700  -22.54900   -5.60580    2.62520
 10800.00000    -999.25   15.06070    -999.25   15.06070    -999.25   -0.10510   -0.10510    2.25440    -999.25    0.24800    0.26640    -999.25   89.23570   89.23570   47.83610    -999.25   47.83610    -999.25    -999.25    -999.25    -999.25    0.37940    0.33620    2.25440    1.83730    -999.25    0.29500  -17.57990   -0.99720    1.83730
 10850.00000    -999.25   13.99060    -999.25   13.99060  439.56040   -0.04660   -0.04660    2.54160    -999.25    0.07160    0.09850    2.27500   81.83150   81.83150   43.71270    -999.25   43.71270    2.27500    2.03100    2.03100    -999.25    0.30860    0.26470    2.54160    2.63690    -999.25    0.24260  -24.89100   -8.40180    2.63690
