~Version ---------------------------------------------------
VERS. 2.0 : CWLS log ASCII Standard -VERSION 2.0
WRAP. YES : MULTIPLE LINES PER DEPTH STEP
~Well ------------------------------------------------------
STRT.FT                           3600.0 : START DEPTH
STOP.FT                           8500.0 : STOP DEPTH
STEP.FT                         50.00000 : STEP LENGTH
NULL.                            -999.25 : NULL VALUE
COMP. SANTA FE-WINDSOR PRODUCING COMPANY : COMPANY
WELL.                        ALBRECHT #1 : WELL
FLD .                           GIDDINGS : FIELD
LOC .                                    : LOCATION
CNTY.                                LEE : COUNTY
STAT.                              TEXAS : STATE
CTRY.           UNITED STATES OF AMERICA : COUNTRY
SRVC.                       Schlumberger : SERVICE COMPANY
DATE.                        08-Jun-1982 : LOGDATE
API .                     42287312490000 : API NUMBER
UWI .                     42287312490000 : UNIQUE WELL ID
SLAT.WGS84                 30.1138880763 : SURFACE LATITUDE
SLON.WGS84                -96.9639704608 : SURFACE LONGITUDE
~Curve Information -----------------------------------------
DEPT    .FT    : DEPTH FEET
CALWS   .IN    : CALIPER [DCALED+9.625]
CONDWS  .MMHO  : CONDUCTIVITY [1000/DRESWS]
DCALED  .IN    : DIFFERENTIAL CALIPER FROM DENSITY LOG
DCORWS  .G/C3  : DENSITY CORRECTION [DRHOED]
DENWS   .G/C3  : BULK DENSITY [M=2.71 F=1.0] [CALCULATED FROM DPOWS]
DPHILSED.V/V   : DENSITY POROSITY [M=2.71 F=1.0] FROM DENSITY LOG
DPOWS   .V/V   : DENSITY POROSITY [M=2.71 F=1.0] [DPHILSED]
DRESWS  .OHMM  : DEEP RESISTIVITY [ILDED]
DRHOED  .G/C3  : DENSITY CORRECTION FROM DENSITY LOG
GRNED   .GAPI  : GAMMA RAY FROM NEUTRON LOG [DEPTH ADJ. TO GRRED]
GRRED   .GAPI  : GAMMA RAY FROM RESISTIVITY LOG
GRWS    .GAPI  : GAMMA RAY [GRNED]
ILDED   .OHMM  : INDUCTION LOG DEEP RESISTIVITY
ILMED   .OHMM  : INDUCTION LOG MEDIUM RESISTIVITY
MRESWS  .OHMM  : MEDIUM RESISTIVITY [ILMED]
NEUTED  .NAPI  : NEUTRON FROM NEUTRON LOG [DEPTH ADJ. TO GRRED]
NEUTWS  .NAPI  : NEUTRON [NEUTED]
SFLUED  .OHMM  : SPHERICALLY FOCUSED LOG RESISTIVITY
SPRED   .MV    : SPONTANEOUS POTENTIAL FROM RESISTIVITY LOG
SPWS    .MV    : SPONTANEOUS POTENTIAL [BASELINE 0 MV] [SPRED]
SRESWS  .OHMM  : SHALLOW RESISTIVITY [SFLUED]
~Params ----------------------------------------------------
PD  .                     GL : PERMANENT DATUM
EPD .FT                  440 : ELEVATION PERMANENT DATUM
LMF .                    RKB : LOG MEASURED FROM
DAPD.FT                   17 : FEET ABOVE PERMANENT DATUM
DMF .                    RKB : DRILLING MEASURED FROM
EKB .FT                  457 : KELLY BUSHING
EDF .FT                  456 : DRILLING FLOOR
EGL .FT                  440 : GROUND LEVEL
DATE.               06/08/82 : RUN DATE
RUN .                      1 : RUN NUMBER
DD  .FT                 8565 : DEPTH DRILLER
DL  .FT                 8550 : DEPTH LOGGER
BLI .FT                 8544 : BOTTOM LOG INTERVAL
TLI .FT                 3611 : TOP LOG INTERVAL
CS  .IN                9.625 : CASING SIZE
CBD .FT                 3650 : CASING BOTTOM DRILLER
CBL .FT                 3611 : CASING BOTTOM LOGGER
BS  .IN                 8.75 : BIT SIZE
BSD .FT                 8565 : BIT SIZE AT DEPTH
DFT .                    LNS : DRILLING FLUID TYPE
DFD .                    9.6 : DRILLING FLUID DENSITY
DFV .                     42 : DRILLING FLUID VISCOSITY
DFPH.                    9.5 : DRILLING FLUID PH
DFL .                    7.4 : DRILLING FLUID LOSS
MSS .                   TANK : MUD SAMPLE SOURCE
RMS .OHMM               1.54 : RESISTIVITY MUD SAMPLE
MST .DEGF                104 : MUD SAMPLE TEMPERATURE
RMF .OHMM               2.06 : RESISTIVITY MUD FILTRATE SAMPLE
MFST.DEGF                 87 : MUD FILTRATE SAMPLE TEMPERATURE
RMC .OHMM               4.12 : RESISTIVITY MUD CAKE
MCST.DEGF                 87 : MUD CAKE SAMPLE TEMPERATURE
MFSS.                   MEAS : MUD FILTRATE SAMPLE SOURCE
MCSS.                   CALC : MUD CAKE SAMPLE SOURCE
RMB .OHMM              0.858 : RESISTIVITY MUD AT BHT
TCS .HRS                 800 : TIME CIRCULATED STOPPED
TLAB.HRS                1300 : TIME LOGGER AT BOTTOM
LUN .                   8262 : LOGGING UNIT NUMBER
LUL .                BRENHAM : LOGGING UNIT LOCATION
ENGI.                MARFICE : RECORDING ENGINEER
WITN.                  IRVIN : WITNESSED BY
CLNT.                A2DTECH : CLIENT CODE
ORIG.               5" PRINT : ORIGIN OF DATA
UWI .         42287312490000 : UNIQUE WELL ID
DICO. A2D Technologies, Inc. : DIGITIZING COMPANY
~Other -----------------------------------------------------
~ASCII -----------------------------------------------------
# ...
 5250.00000   10.72350  590.04010    1.09850    -999.25    -999.25    -999.25    -999.25    1.69480    -999.25    -999.25   90.86460   90.86460    1.69480    1.73190    1.73190    -999.25    -999.25    1.76340  -81.09540   -2.92000    1.76340
 5300.00000   11.00690  549.99450    1.38190    -999.25    -999.25    -999.25    -999.25    1.81820    -999.25    -999.25   85.80700   85.80700    1.81820    1.85860    1.85860    -999.25    -999.25    2.09110  -80.85690   -3.69760    2.09110
 5350.00000   10.97920  585.54860    1.35420    -999.25    -999.25    -999.25    -999.25    1.70780    -999.25    -999.25   89.36960   89.36960    1.70780    1.74500    1.74500    -999.25    -999.25    2.01230  -78.96300   -2.81990    2.01230
 5400.00000   10.35160  685.77700    0.72660    -999.25    -999.25    -999.25    -999.25    1.45820    -999.25    -999.25  104.67610  104.67610    1.45820    1.49690    1.49690    -999.25    -999.25    1.70760  -77.63780   -2.51080    1.70760
 5450.00000   11.17960  655.95280    1.55460    -999.25    -999.25    -999.25    -999.25    1.52450    -999.25    -999.25   92.16540   92.16540    1.52450    1.57470    1.57470    -999.25    -999.25    1.74370  -78.07310   -3.96230    1.74370
 5500.00000   11.44580  688.51560    1.82080    -999.25    -999.25    -999.25    -999.25    1.45240    -999.25    -999.25   93.27100   93.27100    1.45240    1.51460    1.51460    -999.25    -999.25    1.66660  -77.83910   -4.74440    1.66660
 5550.00000   11.66840  712.86000    2.04340    -999.25    -999.25    -999.25    -999.25    1.40280    -999.25    -999.25   89.63350   89.63350    1.40280    1.46900    1.46900    -999.25    -999.25    1.60180  -77.27190   -5.19340    1.60180
 5600.00000   10.65960  636.98320    1.03460    -999.25    -999.25    -999.25    -999.25    1.56990    -999.25    -999.25   91.79670   91.79670    1.56990    1.63810    1.63810    -999.25    -999.25    1.82960  -76.52270   -5.46030    1.82960
 5650.00000   11.03300  852.73300    1.40800    -999.25    -999.25    -999.25    -999.25    1.17270    -999.25    -999.25   90.21970   90.21970    1.17270    1.22740    1.22740    -999.25    -999.25    1.32000  -74.56430   -4.51810    1.32000
 5700.00000   10.60940  817.59470    0.98440    0.06260    2.39600    0.18360    0.18360    1.22310    0.06260    -999.25   91.25330   91.25330    1.22310    1.23480    1.23480    -999.25    -999.25    1.26400  -72.82230   -3.79220    1.26400
 5750.00000   10.90850  807.68910    1.28350    0.06610    2.45400    0.14970    0.14970    1.23810    0.06610    -999.25   83.21030   83.21030    1.23810    1.27020    1.27020    -999.25    -999.25    1.33050  -71.06980   -2.68540    1.33050
 5800.00000   10.78920  703.03710    1.16420    0.09780    2.54450    0.09680    0.09680    1.42240    0.09780    -999.25   81.84680   81.84680    1.42240    1.49000    1.49000    -999.25    -999.25    1.65440  -74.77850   -6.86550    1.65440
 5850.00000    9.56980  487.16320   -0.05520    0.01720    2.47660    0.13650    0.13650    2.05270    0.01720    -999.25   48.13050   48.13050    2.05270    2.41150    2.41150    -999.25    -999.25   15.52150  -87.01590  -19.57420   15.52150
 5900.00000   10.00950  674.53630    0.38450    0.07730    2.48960    0.12890    0.12890    1.48250    0.07730    -999.25   69.68520   69.68520    1.48250    1.53630    1.53630    -999.25    -999.25    1.58650  -79.44210  -12.47170    1.58650
 5950.00000   10.02020  455.00050    0.39520    0.00330    2.53420    0.10280    0.10280    2.19780    0.00330    -999.25   64.64130   64.64130    2.19780    2.25830    2.25830    -999.25    -999.25    2.38320  -72.78240   -6.28340    2.38320
 6000.00000   11.58520  746.04600    1.96020    0.09710    2.51230    0.11560    0.11560    1.34040    0.09710    -999.25   76.63320   76.63320    1.34040    1.42550    1.42550    -999.25    -999.25    1.52990  -72.30810   -6.28040    1.52990
 6050.00000   12.05290  954.10740    2.42790    0.04000    2.51900    0.11170    0.11170    1.04810    0.04000    -999.25   87.21060   87.21060    1.04810    1.11140    1.11140    -999.25    -999.25    1.26180  -69.96210   -4.40570    1.26180
 6100.00000   12.74660  790.13910    3.12160    0.09930    2.53440    0.10270    0.10270    1.26560    0.09930    -999.25   78.21860   78.21860    1.26560    1.34520    1.34520    -999.25    -999.25    1.44770  -74.22210   -9.13710    1.44770
 6150.00000   12.51390  898.23050    2.88890    0.07550    2.48150    0.13360    0.13360    1.11330    0.07550    -999.25   79.75510   79.75510    1.11330    1.19050    1.19050    -999.25    -999.25    1.30250  -71.44890   -6.83520    1.30250
 6200.00000   12.53850  878.42590    2.91350    0.05740    2.49080    0.12820    0.12820    1.13840    0.05740    -999.25   82.80970   82.80970    1.13840    1.20270    1.20270    -999.25    -999.25    1.33200  -67.50380   -3.36140    1.33200
 6250.00000   12.91210  812.87590    3.28710    0.09270    2.52340    0.10910    0.10910    1.23020    0.09270    -999.25   85.92040   85.92040    1.23020    1.29750    1.29750    -999.25    -999.25    1.38870  -72.85810   -9.11780    1.38870
 6300.00000   12.30310 1048.98770    2.67810    0.10000    2.50100    0.12220    0.12220    0.95330    0.10000    -999.25   86.57950   86.57950    0.95330    1.02250    1.02250    -999.25    -999.25    1.13210  -76.60190  -13.24300    1.13210
 6350.00000   10.43690  578.40250    0.81190    0.06110    2.44320    0.15600    0.15600    1.72890    0.06110    -999.25   85.67450   85.67450    1.72890    1.78660    1.78660    -999.25    -999.25    1.57630  -82.27220  -19.29470    1.57630
 6400.00000   10.03660  741.01520    0.41160    0.00010    2.43790    0.15910    0.15910    1.34950    0.00010    -999.25   65.76690   65.76690    1.34950    1.38130    1.38130    -999.25    -999.25    1.73960  -84.28030  -21.68420    1.73960
 6450.00000   12.38710  839.70110    2.76210    0.07570    2.44970    0.15220    0.15220    1.19090    0.07570    -999.25   79.21490   79.21490    1.19090    1.27020    1.27020    -999.25    -999.25    1.38640  -69.40120   -7.18650    1.38640
 6500.00000   13.05310  931.70590    3.42810    0.09960    2.41900    0.17020    0.17020    1.07330    0.09960    -999.25   82.75010   82.75010    1.07330    1.15750    1.15750    -999.25    -999.25    1.25620  -69.08100   -7.24770    1.25620
 6550.00000   12.85220  899.44240    3.22720    -999.25    -999.25    -999.25    -999.25    1.11180    -999.25    -999.25   83.31750   83.31750    1.11180    1.18080    1.18080    -999.25    -999.25    1.40820  -68.04510   -6.59320    1.40820
 6600.00000   12.74660  657.41890    3.12160    -999.25    -999.25    -999.25    -999.25    1.52110    -999.25    -999.25   75.56810   75.56810    1.52110    1.56750    1.56750    -999.25    -999.25    1.58630  -70.84030   -9.76980    1.58630
 6650.00000   12.83770 1037.45200    3.21270    -999.25    -999.25    -999.25    -999.25    0.96390    -999.25    -999.25   87.66820   87.66820    0.96390    1.05980    1.05980    -999.25    -999.25    1.18930  -66.27840   -5.58930    1.18930
 6700.00000   12.61470  884.72080    2.98970    -999.25    -999.25    -999.25    -999.25    1.13030    -999.25    -999.25   79.33100   79.33100    1.13030    1.20880    1.20880    -999.25    -999.25    1.39030  -65.48230   -5.17460    1.39030
 6750.00000   13.28210  819.20210    3.65710    -999.25    -999.25    -999.25    -999.25    1.22070    -999.25    -999.25   76.05350   76.05350    1.22070    1.29810    1.29810    -999.25    -999.25    1.37650  -71.28730  -10.50520    1.37650
 6800.00000   13.52320  860.14110    3.89820    -999.25    -999.25    -999.25    -999.25    1.16260    -999.25    -999.25   89.67090   89.67090    1.16260    1.24940    1.24940    -999.25    -999.25    1.34760  -68.32780   -6.78590    1.34760
 6850.00000   13.31000  818.26360    3.68500    -999.25    -999.25    -999.25    -999.25    1.22210    -999.25    -999.25  102.47370  102.47370    1.22210    1.28570    1.28570    -999.25    -999.25    1.31960  -67.88310   -5.58140    1.31960
