~Version ---------------------------------------------------
VERS. 2.0 : CWLS log ASCII Standard -VERSION 2.0
WRAP. YES : MULTIPLE LINES PER DEPTH STEP
~Well ------------------------------------------------------
STRT.FT                 1150.0 : START DEPTH
STOP.FT                 8650.0 : STOP DEPTH
STEP.FT               50.00000 : STEP LENGTH
NULL.                  -999.25 : NULL VALUE
COMP. FLAG-REDFERN OIL COMPANY : COMPANY
WELL.          WILCO SUPPLY #1 : WELL
FLD .                 GIDDINGS : FIELD
LOC .                          : LOCATION
CNTY.                      LEE : COUNTY
STAT.                    TEXAS : STATE
CTRY. UNITED STATES OF AMERICA : COUNTRY
SRVC.             Schlumberger : SERVICE COMPANY
DATE.              22-Jun-1982 : LOGDATE
API .           42287312020000 : API NUMBER
UWI .           42287312020000 : UNIQUE WELL ID
SLAT.WGS84           30.100566 : SURFACE LATITUDE
SLON.WGS84          -96.965706 : SURFACE LONGITUDE
~Curve Information -----------------------------------------
DEPT    .FT    : DEPTH FEET
CALWS   .IN    : CALIPER [DCALED+BITED]
CONDWS  .MMHO  : CONDUCTIVITY [1000/DRESWS]
DCALED  .IN    : DIFFERENTIAL CALIPER FROM DENSITY LOG
DCORWS  .G/C3  : DENSITY CORRECTION [DRHOED]
DENWS   .G/C3  : BULK DENSITY [M=2.71 F=1.0] [CALCULATED FROM DPOWS]
DPHILSED.V/V   : DENSITY POROSITY [M=2.71 F=1.0] FROM DENSITY LOG
DPHISSED.V/V   : DENSITY POROSITY [M=2.65 F=1.0] FROM DENSITY LOG
DPOLSWS .V/V   : DENSITY POROSITY [M=2.71 F=1.0] [1121 DPOLSCAL 7198 DPHILSED]
DRESWS  .OHMM  : DEEP RESISTIVITY [ILDED]
DRHOED  .G/C3  : DENSITY CORRECTION FROM DENSITY LOG
GRRED   .GAPI  : GAMMA RAY FROM RESISTIVITY LOG
GRWS    .GAPI  : GAMMA RAY [GRRED]
ILDED   .OHMM  : INDUCTION LOG DEEP RESISTIVITY
ILMED   .OHMM  : INDUCTION LOG MEDIUM RESISTIVITY
MRESWS  .OHMM  : MEDIUM RESISTIVITY [ILMED]
NPHILSED.V/V   : NEUTRON POROSITY LIMESTONE FROM DENSITY LOG
NPHISSED.V/V   : NEUTRON POROSITY SANDSTONE FROM DENSITY LOG
NPOLSWS .V/V   : NEUTRON POROSITY LIMESTONE [1121 NPOLSCAL 7198 NPHILSED] [NPHISSED WAS CONVERTED TO NPOLSCAL USING POWERLOG MODULE]
SFLUED  .OHMM  : SPHERICALLY FOCUSED LOG RESISTIVITY
SPRED   .MV    : SPONTANEOUS POTENTIAL FROM RESISTIVITY LOG [SHIFTS ARE REMOVED]
SPWS    .MV    : SPONTANEOUS POTENTIAL [BASELINE 0 MV] [SPRED][POSITIVE VALUES, PL. USE W/ RESERVATIONS]
SRESWS  .OHMM  : SHALLOW RESISTIVITY [SFLUED]
~Params ----------------------------------------------------
PD  .                     GL : PERMANENT DATUM
EPD .FT                  478 : ELEVATION PERMANENT DATUM
LMF .                     KB : LOG MEASURED FROM
DAPD.FT                   17 : FEET ABOVE PERMANENT DATUM
DMF .                     KB : DRILLING MEASURED FROM
EKB .FT                  495 : KELLY BUSHING
EDF .FT                  494 : DRILLING FLOOR
EGL .FT                  478 : GROUND LEVEL
DATE.               06/22/82 : RUN DATE
RUN .                      2 : RUN NUMBER
DD  .FT                 8700 : DEPTH DRILLER
DL  .FT                 8700 : DEPTH LOGGER
BLI .FT                 8694 : BOTTOM LOG INTERVAL
TLI .FT                 7748 : TOP LOG INTERVAL
CS  .IN                    7 : CASING SIZE
CBD .FT                 7749 : CASING BOTTOM DRILLER
CBL .FT                 7748 : CASING BOTTOM LOGGER
BS  .IN                6.125 : BIT SIZE
BSD .FT                 8700 : BIT SIZE AT DEPTH
DFT .         LIGNOSULFONATE : DRILLING FLUID TYPE
DFD .                    9.9 : DRILLING FLUID DENSITY
DFV .                     41 : DRILLING FLUID VISCOSITY
DFPH.                     11 : DRILLING FLUID PH
DFL .                    5.2 : DRILLING FLUID LOSS
MSS .                   TANK : MUD SAMPLE SOURCE
RMS .OHMM               1.05 : RESISTIVITY MUD SAMPLE
MST .DEGF                107 : MUD SAMPLE TEMPERATURE
RMF .OHMM               0.77 : RESISTIVITY MUD FILTRATE SAMPLE
MFST.DEGF                107 : MUD FILTRATE SAMPLE TEMPERATURE
RMC .OHMM               1.54 : RESISTIVITY MUD CAKE
MCST.DEGF                107 : MUD CAKE SAMPLE TEMPERATURE
MFSS.                   MEAS : MUD FILTRATE SAMPLE SOURCE
MCSS.                   CALC : MUD CAKE SAMPLE SOURCE
RMB .OHMM              0.598 : RESISTIVITY MUD AT BHT
TCS .HRS                 700 : TIME CIRCULATED STOPPED
TLAB.HRS                1130 : TIME LOGGER AT BOTTOM
LUN .                   8096 : LOGGING UNIT NUMBER
LUL .                BRENHAM : LOGGING UNIT LOCATION
ENGI.                   HALL : RECORDING ENGINEER
WITN.                 PARKER : WITNESSED BY
CLNT.                A2DTECH : CLIENT CODE
ORIG.            2" 5" PRINT : ORIGIN OF DATA
UWI .         42287312020000 : UNIQUE WELL ID
DICO. A2D Technologies, Inc. : DIGITIZING COMPANY
~Other -----------------------------------------------------
~ASCII -----------------------------------------------------
# ...
 5950.00000    9.86330  658.06790    1.11330    0.10070    2.49130    -999.25    0.09620    0.12790    1.51960    0.10070   91.19380   91.19380    1.51960    1.60320    1.60320    -999.25    0.30660    0.26260    1.70060  -86.52630   -8.59910    1.70060
 6000.00000    9.44110  623.48030    0.69110    0.09760    2.49690    -999.25    0.09280    0.12460    1.60390    0.09760   71.38940   71.38940    1.60390    1.81140    1.81140    -999.25    0.26180    0.21780    2.79830  -96.89430  -18.42800    2.79830
 6050.00000    9.38850  694.92700    0.63850    0.08180    2.40350    -999.25    0.14940    0.17920    1.43900    0.08180   68.00130   68.00130    1.43900    1.51600    1.51600    -999.25    0.31180    0.26790    1.51630  -98.59880  -19.59340    1.51630
 6100.00000    9.69180  580.38310    0.94180    0.09820    2.47760    -999.25    0.10450    0.13590    1.72300    0.09820   81.75600   81.75600    1.72300    1.85450    1.85450    -999.25    0.30890    0.26500    1.70950  -87.30130   -7.72510    1.70950
 6150.00000   10.61600  790.32640    1.86600    0.09810    2.50120    -999.25    0.09020    0.12210    1.26530    0.09810   84.80310   84.80310    1.26530    1.32850    1.32850    -999.25    0.34200    0.29830    1.48410  -87.47290   -7.23990    1.48410
 6200.00000   10.67640  907.02950    1.92640    0.08520    2.47890    -999.25    0.10370    0.13510    1.10250    0.08520   84.46410   84.46410    1.10250    1.13930    1.13930    -999.25    0.36500    0.32150    1.28310  -85.68910   -4.79930    1.28310
 6250.00000   10.46690  791.32700    1.71690    0.09720    2.48650    -999.25    0.09910    0.13070    1.26370    0.09720   82.75490   82.75490    1.26370    1.32640    1.32640    -999.25    0.35360    0.31000    1.48660  -88.64720   -7.10060    1.48660
 6300.00000   10.82270  810.76700    2.07270    0.09760    2.51270    -999.25    0.08320    0.11540    1.23340    0.09760   86.33050   86.33050    1.23340    1.25830    1.25830    -999.25    0.35430    0.31070    1.42730  -91.81660   -9.61320    1.42730
 6350.00000   10.94370  913.99320    2.19370    0.09790    2.46550    -999.25    0.11180    0.14300    1.09410    0.09790   83.07630   83.07630    1.09410    1.14420    1.14420    -999.25    0.38810    0.34500    1.29430  -88.34240   -5.48220    1.29430
 6400.00000   11.06040 1009.69310    2.31040    0.10190    2.50400    -999.25    0.08850    0.12050    0.99040    0.10190   90.00250   90.00250    0.99040    1.05930    1.05930    -999.25    0.37340    0.33010    1.30400  -85.50160   -2.04490    1.30400
 6450.00000    9.99670  950.84150    1.24670    0.09780    2.45810    -999.25    0.11630    0.14730    1.05170    0.09780   84.50560   84.50560    1.05170    1.11180    1.11180    -999.25    0.39050    0.34740    1.32580  -92.42280  -10.31920    1.32580
 6500.00000   10.17990  703.08650    1.42990    0.10000    2.52180    -999.25    0.07770    0.11010    1.42230    0.10000   93.04480   93.04480    1.42230    1.50160    1.50160    -999.25    0.31450    0.27060    1.66160  -89.27650   -8.52600    1.66160
 6550.00000   10.36620  698.08030    1.61620    0.09900    2.50560    -999.25    0.08750    0.11950    1.43250    0.09900   91.30980   91.30980    1.43250    1.48150    1.48150    -999.25    0.32070    0.27680    1.50110  -93.98050  -14.58320    1.50110
 6600.00000   10.92540  669.61300    2.17540    0.09710    2.49230    -999.25    0.09560    0.12730    1.49340    0.09710   93.46390   93.46390    1.49340    1.51840    1.51840    -999.25    0.32360    0.27970    1.55060  -88.11290  -10.06870    1.55060
 6650.00000    9.25330  579.30710    0.50330    0.03750    2.51700    -999.25    0.08060    0.11290    1.72620    0.03750   82.81390   82.81390    1.72620    1.79000    1.79000    -999.25    0.27190    0.22790    2.04610  -78.47960   -1.78850    2.04610
 6700.00000   10.93100  871.91550    2.18100    0.09840    2.47820    -999.25    0.10410    0.13550    1.14690    0.09840   86.54070   86.54070    1.14690    1.24820    1.24820    -999.25    0.37350    0.33020    1.34040  -82.90320   -6.92190    1.34040
 6750.00000   10.98620  769.70440    2.23620    0.09940    2.53480    -999.25    0.06980    0.10240    1.29920    0.09940  102.27440  102.27440    1.29920    1.36220    1.36220    -999.25    0.34040    0.29670    1.48120  -85.20960   -9.75660    1.48120
 6800.00000   10.82950  923.87290    2.07950    0.09750    2.43300    -999.25    0.13150    0.16200    1.08240    0.09750  106.76830  106.76830    1.08240    1.11460    1.11460    -999.25    0.38770    0.34460    1.18990  -81.58820   -6.66350    1.18990
 6850.00000   10.04300  768.40330    1.29300    0.10160    2.42350    -999.25    0.13730    0.16760    1.30140    0.10160  115.35060  115.35060    1.30140    1.38540    1.38540    -999.25    0.31960    0.27570    1.43140  -76.29600   -1.80370    1.43140
 6900.00000   12.42480  792.58140    3.67480    0.10150    2.36830    -999.25    0.17070    0.19980    1.26170    0.10150   86.27210   86.27210    1.26170    1.33790    1.33790    -999.25    0.43910    0.39710    1.36870  -82.50900   -7.94540    1.36870
 6950.00000   11.82540  848.46430    3.07540    0.09740    2.47460    -999.25    0.10630    0.13770    1.17860    0.09740   89.38190   89.38190    1.17860    1.23690    1.23690    -999.25    0.38930    0.34620    1.35490  -86.56580  -11.93080    1.35490
 7000.00000   10.93780  690.41700    2.18780    0.09910    2.54440    -999.25    0.06400    0.09680    1.44840    0.09910   93.48950   93.48950    1.44840    1.53390    1.53390    -999.25    0.33150    0.28770    1.71160  -83.36600   -8.65970    1.71160
 7050.00000   10.01280  550.05500    1.26280    0.03690    2.28540    -999.25    0.22100    0.24830    1.81800    0.03690  106.00890  106.00890    1.81800    1.90200    1.90200    -999.25    0.36310    0.31960    2.07580  -80.84000   -6.82340    2.07580
 7100.00000   10.05420  708.41600    1.30420    0.07870    2.52030    -999.25    0.07860    0.11090    1.41160    0.07870  109.02470  109.02470    1.41160    1.47410    1.47410    -999.25    0.30440    0.26040    1.59730  -78.37590   -6.59400    1.59730
 7150.00000   11.14060  717.00010    2.39060    0.07890    2.50690    -999.25    0.08670    0.11870    1.39470    0.07890  101.82720  101.82720    1.39470    1.46660    1.46660    -999.25    0.31640    0.27250    1.65650  -80.46290  -10.91580    1.65650
 7200.00000   10.96200  774.65330    2.21200    0.10470    2.51610    0.11340    -999.25    0.11340    1.29090    0.10470   94.12850   94.12850    1.29090    1.35780    1.35780    0.28940    -999.25    0.28940    1.62190  -78.62180  -11.30940    1.62190
 7250.00000   11.02580  772.79750    2.27580    0.09660    2.51920    0.11160    -999.25    0.11160    1.29400    0.09660   98.53400   98.53400    1.29400    1.36170    1.36170    0.29590    -999.25    0.29590    1.53420  -80.52790  -15.45020    1.53420
 7300.00000    9.34560  634.71910    0.59560    0.08790    2.57130    0.08110    -999.25    0.08110    1.57550    0.08790   89.49430   89.49430    1.57550    1.65430    1.65430    0.25710    -999.25    0.25710    1.97660  -72.63840   -9.79550    1.97660
 7350.00000    9.43540  398.24770    0.68540    0.03400    2.58110    0.07540    -999.25    0.07540    2.51100    0.03400   73.81280   73.81280    2.51100    2.71610    2.71610    0.16450    -999.25    0.16450    4.14900  -64.74090   -4.13270    4.14900
 7400.00000    9.76210  409.09830    1.01210    0.02680    2.57340    0.07990    -999.25    0.07990    2.44440    0.02680   77.07490   77.07490    2.44440    2.57840    2.57840    0.21030    -999.25    0.21030    3.58950  -63.27680   -4.90340    3.58950
 7450.00000   10.04290  298.45400    1.29290    0.03170    2.62540    0.04950    -999.25    0.04950    3.35060    0.03170   67.06360   67.06360    3.35060    3.40220    3.40220    0.17490    -999.25    0.17490    4.14000  -59.43130   -3.29260    4.14000
 7500.00000    9.68140  458.33720    0.93140    0.00910    2.53300    0.10350    -999.25    0.10350    2.18180    0.00910   87.09310   87.09310    2.18180    2.20740    2.20740    0.22720    -999.25    0.22720    2.59370  -58.67390   -4.77000    2.59370
