~Version ---------------------------------------------------
VERS. 2.0 : CWLS log ASCII Standard -VERSION 2.0
WRAP.  NO : ONE LINE PER DEPTH STEP
~Well ------------------------------------------------------
STRT.F                    1650.0 : START DEPTH
STOP.F                    8150.0 : STOP DEPTH
STEP.F                  50.00000 : STEP LENGTH
NULL.                    -999.25 : NULL VALUE
COMP. CHAMPLIN PETROLEUM COMPANY : COMPANY
WELL. STEDMAN RANCH BETTY ANN #1 : WELL
FLD .                    WILDCAT : FIELD
LOC .                            : LOCATION
CNTY.                     DIMMIT : COUNTY
STAT.                      TEXAS : STATE
CTRY.   UNITED STATES OF AMERICA : COUNTRY
SRVC.               Schlumberger : SERVICE COMPANY
DATE.                02-May-1978 : LOGDATE
API .             42127316900000 : API NUMBER
UWI .             42127316900000 : UNIQUE WELL ID
SLAT.WGS84         28.2409522221 : SURFACE LATITUDE
SLON.WGS84        -99.9298835912 : SURFACE LONGITUDE
~Curve Information -----------------------------------------
DEPT.F                 : 
CALD.IN   45 280 60 00 : CALIPER FDC LOG
GRD .GAPI 45 310 01 00 : GAMMA RAY FROM DENSITY LOG
CORR.G/C3 45 356 01 00 : DENSITY CORRECTION
RHOB.G/C3 45 350 01 00 : BULK DENSITY
NPHI.DEC  42 890 03 00 : NEUTRON POROSITY SANDSTONE(1606-5820) LIMESTONE (5820-8152)
DPHI.DEC  45 890 12 00 : DENSITY POROSITY SANDSTONE(1612-5836) LIMESTONE (5836-8167)
SPR .MV   07 010 01 00 : SPONTANEOUS POTENTIAL FROM RES.
DT  .US/F 60 520 00 00 : INTERVAL TRANSIT TIME
LL8 .OHMM 07 220 08 00 : LATEROLOG-8 RES.
ILD .OHMM 07 120 46 00 : INDUCTION LOG DEEP
ILM .OHMM 07 120 44 00 : INDUCTION LOG MEDIUM
~Params ----------------------------------------------------
PD  .                     GL : PERMANENT DATUM
EPD .FT                  821 : ELEVATION PERMANENT DATUM
LMF .                     KB : LOG MEASURED FROM
DAPD.FT                  9.7 : FEET ABOVE PERMANENT DATUM
DMF .                     KB : DRILLING MEASURED FROM
EKB .FT                830.7 : KELLY BUSHING
EDF .FT                829.7 : DRILLING FLOOR
EGL .FT                821.0 : GROUND LEVEL
DATE.               05/02/78 : RUN DATE
RUN .                      1 : RUN NUMBER
DD  .FT                 8186 : DEPTH DRILLER
DL  .FT                 8167 : DEPTH LOGGER
BLI .FT                 8166 : BOTTOM LOG INTERVAL
TLI .FT                 1612 : TOP LOG INTERVAL
CS  .IN                8.625 : CASING SIZE
CBD .FT                 1610 : CASING BOTTOM DRILLER
CBL .FT                 1612 : CASING BOTTOM LOGGER
BS  .IN                7.875 : BIT SIZE
BSD .FT                 8186 : BIT SIZE AT DEPTH
DFT .   SPER GEL  SALT WATER : DRILLING FLUID TYPE
DFD .                    9.5 : DRILLING FLUID DENSITY
DFV .                     45 : DRILLING FLUID VISCOSITY
DFPH.                    8.5 : DRILLING FLUID PH
MSS .               FLOWLINE : MUD SAMPLE SOURCE
RMS .OHMM              0.456 : RESISTIVITY MUD SAMPLE
MST .FT                   86 : MUD SAMPLE TEMPERATURE
RMF .OHMM                378 : RESISTIVITY MUD FILTRATE SAMPLE
MFST.FT                   86 : MUD FILTRATE SAMPLE TEMPERATURE
RMC .OHMM               0.41 : RESISTIVITY MUD CAKE
MCST.FT                   86 : MUD CAKE SAMPLE TEMPERATURE
MFSS.                      M : MUD FILTRATE SAMPLE SOURCE
MCSS.                      C : MUD CAKE SAMPLE SOURCE
RMB .OHMM               0.24 : RESISTIVITY MUD AT BHT
TCS .HRS                 100 : TIME CURCULATED STOPPED
TLAB.HRS                 700 : TIME LOGGER AT BOTTOM
LUN .                   7769 : LOGGING UNIT NUMBER
LUL .                 LAREDO : LOGGING UNIT LOCATION
ENGI.                  FOGAL : RECORDING ENGINEER
WITN.                 PONDER : WITNESSED BY
CLNT.                A2DTECH : CLIENT CODE
ORIG.               5" PRINT : ORIGIN OF DATA
UWI .         42127316900000 : UNIQUE WELL ID
DICO. A2D Technologies, Inc. : DIGITIZING COMPANY
~Other -----------------------------------------------------
~ASCII -----------------------------------------------------
# ...
 4700.00000   14.00590   85.29200    0.19340    2.21650    0.26830    0.24720  -23.27190   82.77480    5.42540    4.47640    4.19850
 4750.00000   10.16600   97.15930    0.20800    2.47920    0.25420    0.15480  -22.21120   94.81040    4.59960    6.22400    4.25290
 4800.00000   12.06150   97.14660    0.19480    2.36790    0.27810    0.22440  -23.71860   83.03390    5.00120    4.72420    4.55430
 4850.00000   14.52180   93.84190    0.12820    2.14950    0.33680    0.30870  -24.68080   89.02200    4.12850    3.92300    3.58800
 4900.00000   10.85120   95.68450    0.18980    2.32910    0.27000    0.17630  -24.61700   82.89650    5.03420    4.49840    4.34270
 4950.00000   13.22810   96.40750    0.19880    2.07990    0.30550    0.31140  -23.45630   87.64390    4.47130    4.10920    3.82970
 5000.00000   12.75030  108.64720    0.20290    2.22550    0.31280    0.27540  -23.40610   87.23940    4.46050    4.13560    3.98690
 5050.00000   13.09330  105.00120    0.22220    2.19080    0.30910    0.26470  -24.80080   89.20190    4.23240    4.08030    3.93350
 5100.00000   12.34420  124.30250    0.16700    2.16930    0.29380    0.31050  -25.96340   91.32080    4.15180    4.00320    3.78090
 5150.00000    9.20860   84.64260    0.01590    2.54170    0.21080    0.07410  -25.39840   77.89420    6.33900    5.45610    4.98590
 5200.00000    9.00590   84.61750    0.02290    2.48240    0.24400    0.09880  -26.75730   80.32630    5.30660    4.99750    4.81780
 5250.00000    9.82250   95.23810    0.04370    2.43990    0.22180    0.14020  -24.44230   78.57010    5.71260    5.15340    5.04220
 5300.00000   12.04170   99.86660    0.15730    2.28150    0.27370    0.22980  -42.73620   83.83110    4.57800    4.03940    4.28380
 5350.00000   11.37700   99.65210    0.11830    2.37290    0.22430    0.20030  -42.33070   81.45130    5.57640    4.73110    4.95070
 5400.00000   12.09610   97.31830    0.19580    2.24930    0.31110    0.26550  -41.79430   86.91470    4.10230    3.97410    3.67610
 5450.00000   11.07960   90.55020    0.10140    2.33490    0.23410    0.16380  -41.72620   80.43910    5.10270    4.45850    4.67420
 5500.00000   13.15280   92.70830    0.18790    2.16790    0.30210    0.29310  -42.13150   87.32610    4.08480    3.86610    3.80080
 5550.00000   12.18060   92.36490    0.10840    2.28960    0.24450    0.26200  -40.85560   82.21270    4.97860    4.14780    4.27270
 5600.00000   10.95040   95.41610    0.18790    2.26700    0.27160    0.20150  -41.27390   84.23460    4.62020    3.98740    4.16370
 5650.00000   12.39040   94.79790    0.17200    2.26800    0.25960    0.25640  -41.71370   85.46110    4.47640    3.82830    4.08170
 5700.00000   10.67500   85.55210    0.17500    2.44740    0.24580    0.13920  -57.48670   79.14020    7.52880    5.72570    6.19110
 5750.00000    9.79960   85.89570    0.05270    2.44840    0.25270    0.11220  -57.40530   81.81210    5.25520    4.22440    4.46080
 5800.00000   11.67750   87.25960    0.13820    2.33810    0.30200    0.21540  -57.05770   88.80720    3.47630    3.02200    3.22430
 5850.00000    8.90140   62.77340    0.01120    2.59750    0.12800    0.06380  -56.79170   70.67460   11.91050    9.32800    9.99540
 5900.00000    8.61430   48.75750    0.01250    2.61780    0.09720    0.04730  -58.74890   70.41480   12.46960    8.68780    9.53700
 5950.00000    8.48920   44.10930   -0.00150    2.57460    0.08270    0.06710  -59.53590   66.10860   19.27940   15.48420   16.26520
 6000.00000    8.63050   38.12130    0.00970    2.62410    0.08190    0.04750  -61.47540   59.23100   31.09820   23.91770   25.62050
 6050.00000    8.80520   59.83390   -0.00180    2.61540    0.11600    0.05070  -57.46630   67.76770   17.83320   10.25980   11.74400
 6100.00000    8.89260   52.52720   -0.00440    2.61230    0.12180    0.06920  -56.85880   66.23900   20.46400   10.23580   12.03340
 6150.00000    8.68350   55.01990    0.00950    2.61680    0.11280    0.05490  -56.83410   70.67180   14.04890   11.64620   12.54830
 6200.00000    8.65580   78.18090    0.03040    2.58920    0.10470    0.03820  -58.64280   65.71250   17.90180   13.24540   13.91840
 6250.00000    8.48920   69.33400    0.01270    2.62540    0.06140    0.10440  -57.85290   55.01010   80.65060   22.12350   31.20740
 6300.00000    8.31800   28.90250    0.00660    2.66030    0.04910    0.04750  -58.64810   56.79920   69.96080   23.05600   26.83060
 6350.00000    8.46210   26.02400   -0.00130    2.62640    0.03880    0.05640  -57.45530   59.18490   58.23360   16.39230   19.00150
 6400.00000    8.30530   29.04530    0.00910    2.65490    0.04350    0.05030  -61.79090   58.88880  114.81380   59.96030   78.82200
 6450.00000    8.35450   18.63820    0.01320    2.53180    0.08250    0.09370  -66.70470   59.88020   72.57570   54.67860   59.02240
 6500.00000    8.53420   30.56660    0.00170    2.62770    0.06230    0.02620  -59.15510   58.09220   33.58380   23.73100   20.84290
 6550.00000    8.51240   29.28100    0.01460    2.61140    0.06790    0.04650  -66.16950   65.31010   14.37490   22.84540   14.24360
 6600.00000    8.46430   31.48070   -0.00350    2.60750    0.04650    0.04580  -63.81710   59.02580   48.91880   30.92240   31.78520
 6650.00000    8.49500   42.46200    0.01440    2.62620    0.04870    0.05290  -62.75690   61.22560   56.19390   42.13750   47.37310
 6700.00000    8.59470   37.57460   -0.00110    2.59180    0.05730    0.05980  -59.73520   60.37770   74.60070   41.65630   44.12560
 6750.00000    8.56910   36.83080    0.01020    2.54580    0.06620    0.09480  -67.84650   61.35220  124.69550  156.83840  148.22180
 6800.00000    8.66320   39.51290    0.01580    2.55190    0.09510    0.08290  -60.93040   73.30310   43.41940   38.01270   33.89330
 6850.00000    8.81260   40.21590    0.00100    2.55850    0.08500    0.08520  -59.07530   73.10140   44.07460   31.96750   29.89510
 6900.00000    8.73860   41.50100    0.01390    2.57760    0.07010    0.07120  -57.52820   67.90910   54.30420   35.81110   38.34110
 6950.00000    8.80890   32.35590    0.00150    2.56960    0.10520    0.10020  -57.69360   74.09540   35.83660   18.28810   20.88180
 7000.00000    8.96230   67.65380    0.00190    2.40100    0.17590    0.16100  -58.82580   81.19320   79.54840   42.53510   43.41940
 7050.00000    9.29560   63.54740    0.02560    2.42890    0.15310    0.15170  -58.81900   82.13380   80.87210   55.11490   56.00650
 7100.00000    9.07560   88.08500    0.04920    2.49120    0.14960    0.12580  -57.76150   78.88090   44.49450   34.05370   39.76260
 7150.00000    9.99780   11.18650    0.24500    2.60250    0.00460    0.05840  -63.05460   51.63440  217.61690  208.42910  112.72650
 7200.00000    9.54440    8.78250    0.23410    2.58650    0.00700    0.04080  -67.75530   52.61340  292.66350  139.38740  708.34960
 7250.00000    8.39080   20.72570    0.03180    2.65720    0.01550    0.03220  -62.77390   54.41350   60.41010   58.59010   54.31820
 7300.00000   10.25270   77.08750    0.15190    2.10900    0.29340    0.16400  -51.10800   73.99410    7.39200    3.35840    4.17020
 7350.00000    8.97220   68.83760    0.04130    2.40650    0.15540    0.14850  -51.09340   71.76170    4.50420    4.59670    4.91350
 7400.00000    8.50220   50.99630    0.07780    2.56070    0.14180    0.16700  -50.73410   73.77200    7.20150    6.87030    6.26850
 7450.00000   11.99400   25.19880    0.19360    2.51930    0.01110    0.09160  -59.43340   56.79920  106.68950   58.63560   17.83320
 7500.00000    8.17190    9.09540    0.01540    2.60020    0.02610    0.08110  -77.68490   56.89860   88.20150  134.19090  114.04910
 7550.00000   14.36150   11.74470    0.14990    2.45920    0.01100    0.16210  -78.87410   53.61830  144.32460  264.57210   33.89330
 7600.00000   13.26640   15.72770    0.18420    2.54680    0.00220    0.11850  -67.64610   56.80160  309.06940  132.96560   94.32150
 7650.00000   20.21970   16.10340    0.17180    2.33180    0.00370    0.15900  -84.49300   56.33680  354.84120  162.74300   85.60600
 7700.00000   16.00990   10.52530    0.16650    2.34380    0.01330    0.19460  -84.02940   55.40760  236.99280  188.42290  111.31120
