~Version ---------------------------------------------------
VERS. 2.0 : CWLS log ASCII Standard -VERSION 2.0
WRAP.  NO : ONE LINE PER DEPTH STEP
~Well ------------------------------------------------------
STRT.F                    2550.0 : START DEPTH
STOP.F                   14550.0 : STOP DEPTH
STEP.F                  50.00000 : STEP LENGTH
NULL.                    -999.25 : NULL VALUE
COMP. CHAMPLIN PETROLEUM COMPANY : COMPANY
WELL.             G.M. BRANDT #1 : WELL
FLD .              N.E. YORKTOWN : FIELD
LOC .                            : LOCATION
CNTY.                    DE WITT : COUNTY
STAT.                      TEXAS : STATE
CTRY.   UNITED STATES OF AMERICA : COUNTRY
SRVC.               Schlumberger : SERVICE COMPANY
DATE.                24-Jul-1979 : LOGDATE
API .             42123309750000 : API NUMBER
UWI .             42123309750000 : UNIQUE WELL ID
SLAT.WGS84         28.9985450189 : SURFACE LATITUDE
SLON.WGS84        -97.4898616308 : SURFACE LONGITUDE
~Curve Information -----------------------------------------
DEPT   .F                 : 
NPHI_SS.DEC  42 890 03 00 : NEUTRON POROSITY SANDSTONE
DPHI_SS.DEC  45 890 12 00 : DENSITY POROSITY SANDSTONE
CALD   .IN   45 280 60 00 : CALIPER FROM DENSITY LOG
GRD    .GAPI 45 310 01 00 : GAMMA RAY FROM DENSITY LOG
CORR   .G/C3 45 356 01 00 : DENSITY CORRECTION
RHOB   .G/C3 45 350 01 00 : BULK DENSITY
GRN    .GAPI 35 310 01 00 : GAMMA RAY FROM GRN LOG
NEUT   .NAPI 35 330 01 00 : NEUTRON
ILD    .OHMM 07 120 46 00 : INDUCTION DEEP RESISTIVITY
ILM    .OHMM 07 120 44 00 : INDUCTION MEDIUM RESISTIVITY
LL8    .OHMM 07 220 08 00 : LATEROLOG 8
DT     .MS/F 60 500 00 00 : DELTA-T (INTERVAL TRANSIT TIME)
SFL    .OHMM 07 220 01 00 : SPHERICALLY FOCUSED LOG
SFL2   .OHMM 07 220 01 00 : SPHERICALLY FOCUSED LOG
CILD   .MMHO 07 110 46 00 : INDUCTION DEEP CONDUCTIVITY
ASFL   .OHMM 07 221 01 00 : AMPLIFIED SPHERICALLY FOCUSED LOG
SPR    .MV   07 010 01 00 : SPONTANEOUS POTENTIAL FROM RESISTIVITY LOG
~Params ----------------------------------------------------
PD  .                     GL : PERMANENT DATUM
EPD .FT                319.9 : ELEVATION PERMANENT DATUM
LMF .                     KB : LOG MEASURED FROM
DAPD.FT                   17 : FEET ABOVE PERMANENT DATUM
DMF .                     KB : DRILLING MEASURED FROM
EKB .FT                336.9 : KELLY BUSHING
EDF .FT                335.9 : DRILLING FLOOR
EGL .FT                319.9 : GROUND LEVEL
DATE.               07/23/79 : RUN DATE
RUN .                      2 : RUN NUMBER
DD  .FT                14600 : DEPTH DRILLER
BLI .FT                14576 : BOTTOM LOG INTERVAL
TLI .FT                 9030 : TOP LOG INTERVAL
CS  .IN                10.75 : CASING SIZE
CBD .FT                 2535 : CASING BOTTOM DRILLER
BS  .IN                 8.75 : BIT SIZE
BSD .FT                14600 : BIT SIZE AT DEPTH
DFT .            IMCO LOGGED : DRILLING FLUID TYPE
DFD .                   12.1 : DRILLING FLUID DENSITY
DFV .                     47 : DRILLING FLUID VISCOSITY
DFPH.                      8 : DRILLING FLUID PH
DFL .                    6.8 : DRILLING FLUID LOSS
MSS .               CIRC PIT : MUD SAMPLE SOURCE
RMS .OHMM               2.85 : RESISTIVITY MUD SAMPLE
MST .DEGF                 75 : MUD SAMPLE TEMPERATURE
RMF .OHMM               1.85 : RESISTIVITY MUD FILTRATE SAMPLE
MFST.DEGF                 75 : MUD FILTRATE SAMPLE TEMPERATURE
RMC .OHMM               4.35 : RESISTIVITY MUD CAKE
MCST.DEGF                 75 : MUD CAKE SAMPLE TEMPERATURE
MFSS.                      M : MUD FILTRATE SAMPLE SOURCE
MCSS.                      C : MUD CAKE SAMPLE SOURCE
RMB .OHMM               0.73 : RESISTIVITY MUD AT BHT
TLAB.HRS                1530 : TIME LOGGER AT BOTTOM
LUN .                   8011 : LOGGING UNIT NUMBER
LUL .               VICTORIA : LOGGING UNIT LOCATION
ENGI.                  GARZA : RECORDING ENGINEER
WITN.         JOHNSTONE HALE : WITNESSED BY
CLNT.                A2DTECH : CLIENT CODE
ORIG.            2" 5" PRINT : ORIGIN OF DATA
UWI .         42123309750000 : UNIQUE WELL ID
DICO. A2D Technologies, Inc. : DIGITIZING COMPANY
~Other -----------------------------------------------------
~ASCII -----------------------------------------------------
# ...
 8700.00000    0.43450    0.23050   13.72340  100.44860    0.25100    2.33230   61.28520  114.05690    2.35870    2.30160    2.46720   95.80840    -999.25    -999.25    -999.25    -999.25  -41.19160
 8750.00000    0.18780    0.14780   10.60580   49.11100    0.24880    2.43370   28.99960  205.24470    2.37500    4.02320   14.97850   73.50310    -999.25    -999.25    -999.25    -999.25 -138.20900
 8800.00000    0.27630    0.14820   12.48830   93.74620    0.22500    2.43890   53.51450  167.53930    2.66940    3.26290    4.84380   81.13750    -999.25    -999.25    -999.25    -999.25  -68.65620
 8850.00000    0.26940    0.10860   13.06820   83.48510    0.21080    2.49250   48.28140  124.07140    4.17300    4.26940    4.62750   77.24550    -999.25    -999.25    -999.25    -999.25  -53.73010
 8900.00000    0.41310    0.10280   15.13680   94.41710    0.31810    2.50600   57.40020   96.80470    2.74370    2.92790    3.41530   81.58630    -999.25    -999.25    -999.25    -999.25  -51.93930
 8950.00000    0.27520    0.13020   12.94950   82.59180    0.20190    2.45450   53.36320  148.32660    3.46270    3.90330    4.30880   79.89540    -999.25    -999.25    -999.25    -999.25  -64.17910
 9000.00000    0.22330    0.14310   11.11920  100.67220    0.23320    2.45010   50.37320  226.54480    2.87390    4.44510    9.06230   78.40080    -999.25    -999.25    -999.25    -999.25 -111.63740
 9050.00000    0.33970    0.13510   14.98820   97.02090    0.31210    2.48290   55.01000  122.70140    2.70620    3.04550    3.40990   85.02990    -999.25    -999.25    -999.25    -999.25  -53.73130
 9100.00000    0.35300    0.08160   16.07460   93.22060    0.37180    2.55120   60.53980  119.10240    2.42440    2.63510    3.78060   77.39450    -999.25    -999.25    -999.25    -999.25  -57.91240
 9150.00000    0.19750    0.11590   12.93460   61.15820    0.26520    2.48990   46.04140  173.91860    3.17000    3.95760    8.28700   66.31740    -999.25    -999.25    -999.25    -999.25  -76.41790
 9200.00000    0.33590    0.14670   13.91690   89.28900    0.21230    2.43140   52.76620  194.15840    2.61490    2.75780    3.24930   79.63970    -999.25    -999.25    -999.25    -999.25  -53.73140
 9250.00000    0.25960    0.13150   11.98230   94.19940    0.25480    2.42470   43.34880  268.16300    3.66200    4.77040    8.57680   79.78990    -999.25    -999.25    -999.25    -999.25  -73.13310
 9300.00000    0.19850    0.15510   12.10110   51.11730    0.22570    2.42850   33.68480  241.84160    4.78790    7.73760   14.67240   75.14900    -999.25    -999.25    -999.25    -999.25  -91.04140
 9350.00000    0.07810    0.03480   11.35720   42.18900    0.21150    2.63260   25.74630  522.46670    6.56870   13.00090   71.95880   55.83830    -999.25    -999.25    -999.25    -999.25  -99.70150
 9400.00000    0.49030    0.30670   14.75010  103.79690    0.32560    2.16320   55.45400   95.48050    1.69590    1.71000    2.00690   89.82080    -999.25    -999.25    -999.25    -999.25  -80.59460
 9450.00000    0.18510    0.13370   11.68440   59.73510    0.22650    2.47540   47.53240  374.53550    3.86890    4.73460    7.95140   75.29940    -999.25    -999.25    -999.25    -999.25  -98.80500
 9500.00000    0.38010    0.16580   14.76510  101.78770    0.35540    2.37700   57.54960  134.08240    2.42460    2.76530    3.18290   84.28140    -999.25    -999.25    -999.25    -999.25  -54.92250
 9550.00000    0.22800    0.09540   14.22920   75.67110    0.45000    2.50820   38.56180  173.91300    3.15260    4.08380    5.26100   76.64570    -999.25    -999.25    -999.25    -999.25  -59.99670
 9600.00000    0.16280    0.15070   10.76200   69.42220    0.25850    2.44710   42.60090  502.99850    4.26960    7.63420   18.54150   74.55090    -999.25    -999.25    -999.25    -999.25 -125.37310
 9650.00000    0.21320    0.13370   12.62210   91.29850    0.19670    2.46500   54.70690  374.81380    5.05850    5.68660    7.95120   74.21520    -999.25    -999.25    -999.25    -999.25  -70.44580
 9700.00000    0.32430    0.15600   14.37810  100.67090    0.40380    2.41280   56.35360  235.20780    2.93910    3.18990    3.70330   85.12710    -999.25    -999.25    -999.25    -999.25  -48.95520
 9750.00000    0.39120    0.33070   16.78880   85.93640    0.29670    2.09990   66.51890  170.78290    1.46290    1.51790    1.74880  104.94010    -999.25    -999.25    -999.25    -999.25  -48.35820
 9800.00000    0.25030    0.13770   12.84550   87.50130    0.40910    2.37930   57.10270  249.44180    2.72490    2.87250    5.18900   74.10230    -999.25    -999.25    -999.25    -999.25  -51.94030
 9850.00000    0.35060    0.15380   12.44350   95.31380    0.44930    2.41060   60.98470  176.52610    1.77950    1.89790    2.62490   89.81920    -999.25    -999.25    -999.25    -999.25  -52.83490
 9900.00000    0.38410    0.29550   14.34840  105.57650    0.38220    2.19300   58.14590  125.83720    1.80420    1.86670    2.22520   94.61130    -999.25    -999.25    -999.25    -999.25  -49.55220
 9950.00000    0.15840    0.13740   11.46150   50.33720    0.18990    2.44340   30.34330  817.97940    4.78780    5.19200    8.45940   73.53800   13.15880    -999.25    -999.25    -999.25  -83.28360
 10000.00000    0.33490    0.11410   12.99410  118.30590    0.25330    2.49180   54.89590  121.34950    1.71930    1.89270    2.54390   89.72990    2.25850    -999.25    -999.25    -999.25  -46.56330
 10050.00000    0.39350    0.11810   11.77380  106.69770    0.29280    2.48860   60.86970  137.08010    1.40860    1.42940    1.81650   94.67770    1.67800    -999.25    -999.25    -999.25  -52.53920
 10100.00000    0.28860    0.07490   10.64300  123.21810    0.22500    2.56060   68.16140  329.58920    2.63300    2.67840    2.80100   83.58320    5.11290    -999.25    -999.25    -999.25  -44.77230
 10150.00000    -999.25    -999.25    -999.25    -999.25    -999.25    -999.25   67.26240  123.59720    1.61130    1.58970    -999.25   94.28220    1.71230    -999.25    -999.25    -999.25  -60.99470
 10200.00000    -999.25    -999.25    -999.25    -999.25    -999.25    -999.25   69.60540  141.20350    2.40000    2.55910    -999.25   79.96840    4.09150    -999.25    -999.25    -999.25  -61.81240
 10250.00000    -999.25    -999.25    -999.25    -999.25    -999.25    -999.25   58.59750   99.71550    1.28310    1.28950    -999.25   77.41940    1.67800    -999.25    -999.25    -999.25  -60.70570
 10300.00000    -999.25    -999.25    -999.25    -999.25    -999.25    -999.25   64.36630  102.62170    2.28230    2.27370    -999.25   86.07010    3.12300    -999.25    -999.25    -999.25  -59.82400
 10350.00000    -999.25    -999.25    -999.25    -999.25    -999.25    -999.25   60.38960  116.10430    2.80320    2.82220    -999.25   83.86070    3.59890    -999.25    -999.25    -999.25  -62.46340
 10400.00000    -999.25    -999.25    -999.25    -999.25    -999.25    -999.25   64.82150   95.13350    1.52660    1.51630    -999.25   90.68490    1.93360    -999.25    -999.25    -999.25  -60.70380
 10450.00000    -999.25    -999.25    -999.25    -999.25    -999.25    -999.25   58.08710   97.38070    1.55780    1.55780    -999.25   94.57490    1.74730    -999.25    -999.25    -999.25  -61.86260
 10500.00000    -999.25    -999.25    -999.25    -999.25    -999.25    -999.25   66.32100   97.38260    1.46600    1.45610    -999.25   93.37170    1.80730    -999.25    -999.25    -999.25  -60.11800
 10550.00000    -999.25    -999.25    -999.25    -999.25    -999.25    -999.25   58.08460  104.41950    1.44630    1.44630    -999.25   94.86780    1.80730    -999.25    -999.25    -999.25  -60.99710
 10600.00000    -999.25    -999.25    -999.25    -999.25    -999.25    -999.25   64.67290  162.54680    2.21320    2.19830    -999.25   86.51040    2.74240    -999.25    -999.25    -999.25  -63.62040
 10650.00000    -999.25    -999.25    -999.25    -999.25    -999.25    -999.25   50.60100  130.16320    1.67340    1.68930    -999.25   89.58940    2.02730    -999.25    -999.25    -999.25  -62.54690
 10700.00000    -999.25    -999.25    -999.25    -999.25    -999.25    -999.25   62.59950  165.17030    1.77110    1.75720    -999.25   91.34900    2.21320    -999.25    -999.25    -999.25  -64.51610
