~Version ---------------------------------------------------
VERS.      2.0 : CWLS log ASCII Standard -VERSION 2.0
WRAP.      YES : Multiple lines per depth step
CREA. 10/06/20 : LAS Creation Date
~Well ------------------------------------------------------
STRT.FT                 3150.0 : START DEPTH
STOP.FT                18400.0 : STOP DEPTH
STEP.FT               50.00000 : STEP LENGTH
NULL.                  -999.25 : NULL VALUE
COMP. AMOCO PRODUCTION COMPANY : COMPANY
WELL.       MARTIN GAS UNIT #1 : WELL
FLD .                  WILDCAT : FIELD
LOC .                          : LOCATION
CNTY.                     LEON : COUNTY
STAT.                    TEXAS : STATE
CTRY. UNITED STATES OF AMERICA : COUNTRY
SRVC.             Schlumberger : SERVICE COMPANY
DATE.              06-Oct-1998 : LOGDATE
API .           42289312900000 : API NUMBER
UWI .           42289312900000 : UNIQUE WELL ID
SLAT.WGS84       31.2448401024 : SURFACE LATITUDE
SLON.WGS84      -96.2384028977 : SURFACE LONGITUDE
~Curve Information -----------------------------------------
DEPT    .FT    : DEPTH FEET
AT20ED  .OHMM  : 20 INCH ARRAY RESISTIVITY TWO FOOT RESOLUTION FROM AIT LOG
AT30ED  .OHMM  : 30 INCH ARRAY RESISTIVITY TWO FOOT RESOLUTION FROM AIT LOG
AT60ED  .OHMM  : 60 INCH ARRAY RESISTIVITY TWO FOOT RESOLUTION FROM AIT LOG
AT90ED  .OHMM  : 90 INCH ARRAY RESISTIVITY TWO FOOT RESOLUTION FROM AIT LOG
BITSED  .IN    : BIT SIZE FROM RUN HEADERS
CALDED  .IN    : CALIPER FROM DENSITY LOG [DSH. TO GRRED]
CALWS   .IN    : CALIPER [TOP CALDED 14108' (DCALDED+BITSED) TD]
CONDWS  .MMHO  : DEEP CONDUCTIVITY [1000/DRESWS]
DCALDED .IN    : DIFFERENTIAL CALIPER FROM DENSITY LOG [DSH. TO GRRED]
DCORWS  .G/C3  : DENSITY CORRECTION [TOP DRHOED 16650' DRHED TD]
DENWS   .G/C3  : BULK DENSITY [CALC. FROM DPOLSWS]
DPHILSED.V/V   : DENSITY POROSITY (LS) [M=2.71 F=1.00] [DSH. TO GRRED]
DPOLSED .V/V   : DENSITY POROSITY (LS) [M=2.71 F=1.00] [DSH. TO GRRED]
DPOLSWS .V/V   : DENSITY POROSITY (LS) [M=2.71 F=1.00] [TOP DPHILSED 16650' DPOLSED TD]
DRESWS  .OHMM  : DEEP RESISTIVITY [TOP AT90ED 14100' ILDED 16650' IDPHED TD]
DRHED   .G/C3  : DENSITY CORRECTION FROM DENSITY LOG [DSH. TO GRRED]
DRHOED  .G/C3  : DENSITY CORRECTION FROM DENSITY LOG [DSH. TO GRRED]
DTCOED  .US/F  : DELTA TIME COMPRESSIONAL FROM SONIC LOG
DTLFED  .US/F  : DELTA TIME LONG SPACING FAR DETECTOR FROM SONIC LOG
DTLNED  .US/F  : DELTA TIME LONG SPACING NEAR DETECTOR FROM SONIC LOG
DTSMED  .US/F  : DELTA TIME SHEAR WAVE FROM SONIC LOG
DTSWS   .US/F  : DELTA TIME SHEAR [DTSMED]
DTWS    .US/F  : DELTA TIME COMPRESSIONAL [TOP DTCOED 16650' DTLNED TD]
GRDED   .GAPI  : GAMMA RAY FROM DENSITY LOG [DSH. TO GRRED]
GRRED   .GAPI  : GAMMA RAY FROM RESISTIVITY LOG
GRWS    .GAPI  : GAMMA RAY [GRRED][RESCALED GRWS IN CSG )14030-14106' & 16606-16645') FROM 0/90-0/150]
IDPHED  .OHMM  : DEEP INDUCTION PHASE RESISTIVITY
ILDED   .OHMM  : DEEP INDUCTION RESISTIVITY
ILMED   .OHMM  : MEDIUM INDUCTION RESISTIVITY
IMPHED  .OHMM  : MEDIUM INDUCTION PHASE RESISTIVITY
MRESWS  .OHMM  : MEDIUM RESISTIVITY [TOP AT30ED 14100' ILMED 16650' IMPHED TD]
NPHILSED.V/V   : NEUTRON POROSITY (LS) [DSH. TO GRRED]
NPOLSWS .V/V   : NEUTRON POROSITY (LS) [NPHILSED]
PEFED   .B/E   : PHOTOELECTRIC FACTOR FROM DENSITY LOG [DSH. TO GRRED]
PEFWS   .B/E   : PHOTOELECTRIC FACTOR [PEFED]
SFLUED  .OHMM  : SPHERICALLY FOCUSED UNAVERAGED RESISTIVITY
SPWS    .MV    : SPONTANEOUS POTENTIAL [BASELINE 0 MV] [SPRED]
SPRED   .MV    : SPONTANEOUS POTENTIAL FROM RESISTIVITY LOG
SRESWS  .OHMM  : SHALLOW RESISTIVITY [TOP AT20ED 14100' SFLUED TD]
TENDED  .LBF   : TENSION FROM DENSITY LOG [DSH. TO GRRED]
TENRED  .LBF   : TENSION FROM RESISTIVITY LOG
~Params ----------------------------------------------------
PD  .                     GL : PERMANENT DATUM
EPD .FT                389.3 : ELEVATION PERMANENT DATUM
LMF .                     KB : LOG MEASURED FROM
DAPD.FT                 33.7 : MEASUREMENT ABOVE PERMANENT DATUM
DMF .                     KB : DRILLING MEASURED FROM
EKB .FT                  423 : KELLY BUSHING
EDF .FT                  422 : DRILLING FLOOR
EGL .FT                389.3 : GROUND LEVEL
DATE.               10/06/98 : RUN DATE
RUN .                      3 : RUN NUMBER
DD  .FT                18400 : DEPTH DRILLER
DL  .FT                18391 : DEPTH LOGGER
BLI .FT                18381 : BOTTOM LOG INTERVAL
TLI .FT                16646 : TOP LOG INTERVAL
CS  .IN                7.625 : CASING SIZE
CBD .FT                16650 : CASING BOTTOM DRILLER
CBL .FT                16646 : CASING BOTTOM LOGGER
BS  .IN                 6.25 : BIT SIZE
BSD .FT                18400 : BIT SIZE AT DEPTH
DFT .             VERSADRILL : DRILLING FLUID TYPE
DFD .                   17.9 : DRILLING FLUID DENSITY
DFV .                     45 : DRILLING FLUID VISCOSITY
MSS .                MUD PIT : MUD SAMPLE SOURCE
MFSS.                   CALC : MUD FILTRATE SAMPLE SOURCE
MCSS.                   CALC : MUD CAKE SAMPLE SOURCE
TCS .HRS                 830 : TIME CIRCULATED STOPPED
TLAB.HRS                2357 : TIME LOGGER AT BOTTOM
LUN .                   2142 : LOGGING UNIT NUMBER
LUL .                  TYLER : LOGGING UNIT LOCATION
ENGI.                SKRBICH : RECORDING ENGINEER
WITN.       WALKER WYSZYNSKI : WITNESSED BY
CLNT.                A2DTECH : CLIENT CODE
ORIG.         1" 2" 5" PRINT : ORIGIN OF DATA
UWI .         42289312900000 : UNIQUE WELL ID
DICO. A2D Technologies, Inc. : DIGITIZING COMPANY
~Other -----------------------------------------------------
1) RESISTIVITY INVALID 14360-14404', 15400-15475 NULLED (REPEAT LOG N/A). PATCHED FROM REPEAT LOG 15950-15980' & 16590-16645'.
2) GRRED PATCHED FROM REPEAT LOG 15400-15500 & 16550-16606'.
3) SONIC NOT LOGGED 14100-16650' AND ERRATIC ON SOME AREAS ABOVE 6300' WITH SOME GAPS AND SPIKES HENCE PATCHED SOME SMALL AREAS.
4) LDL/CNL STICKING TOOL ENTIRE RUN2 - NULLED PEF INVALID @ 15410-15625' & 15730-15410', PATCHED DENSITY@16025-16040', PATCHED NEUTRON@14295-14320' & PATCHED GRDED@VARIOUS DEPTHS BASED ON GRRED. ANY DOUBTS, PLEASE REFER TO ORIGINAL CURVES IN STANDARD LAS. STICKING TOOL MAY SLIGHTLY AFFECT LOG QUALITY ON OTHER AREAS, PLEASE USE WITH CAUTIONS.
~ASCII -----------------------------------------------------
# ...
 7650.00000    6.13760    6.56630    7.09320    6.98100   12.25000   13.16860   13.16860  143.24600    -999.25   -0.01100    2.65780    0.03050    -999.25    0.03050    6.98100    -999.25   -0.01100   62.15480    -999.25    -999.25  123.37040  123.37040   62.15480   29.89430   23.65250   23.65250    -999.25    -999.25    -999.25    -999.25    6.56630    0.06630    0.06630    6.44480    6.44480    -999.25   -5.80950  -48.09430    6.13760 3228.26880 3459.87820
 7700.00000    1.50960    1.82570    2.35590    2.25770   12.25000   14.27540   14.27540  442.92860    -999.25   -0.02740    1.94030    0.45010    -999.25    0.45010    2.25770    -999.25   -0.02740   44.49370    -999.25    -999.25   85.31340   85.31340   44.49370   34.95810   29.31930   29.31930    -999.25    -999.25    -999.25    -999.25    1.82570    0.32040    0.32040    9.26210    9.26210    -999.25   -4.86480  -48.62180    1.50960 3288.08810 3417.24610
 7750.00000    3.30510    5.62720    4.64310    5.09380   12.25000   12.99370   12.99370  196.31710    -999.25   -0.01060    2.30970    0.23410    -999.25    0.23410    5.09380    -999.25   -0.01060   69.62340    -999.25    -999.25  145.04360  145.04360   69.62340   45.47130   40.64700   40.64700    -999.25    -999.25    -999.25    -999.25    5.62720    0.17830    0.17830    6.60930    6.60930    -999.25   -4.77110  -50.00040    3.30510 3310.22660 3492.75730
 7800.00000    1.89790    2.35190    2.53660    2.69210   12.25000   13.14100   13.14100  371.45720    -999.25   -0.00700    2.14590    0.32990    -999.25    0.32990    2.69210    -999.25   -0.00700   44.65190    -999.25    -999.25   79.91900   79.91900   44.65190   46.34210   38.69430   38.69430    -999.25    -999.25    -999.25    -999.25    2.35190    0.22500    0.22500    8.00450    8.00450    -999.25   -4.97960  -51.68110    1.89790 3315.47900 3550.51170
 7850.00000    6.69250    4.73950    5.64360    7.39800   12.25000   12.71300   12.71300  135.17170    -999.25    0.00840    2.42670    0.16570    -999.25    0.16570    7.39800    -999.25    0.00840   73.18080    -999.25    -999.25  118.06950  118.06950   73.18080   44.51850   38.26550   38.26550    -999.25    -999.25    -999.25    -999.25    4.73950    0.19200    0.19200    6.86350    6.86350    -999.25   -4.59820  -52.77190    6.69250 3309.47560 3484.56450
 7900.00000   11.98010   13.98590   14.27720   13.09910   12.25000   12.65830   12.65830   76.34110    -999.25   -0.00070    2.71430   -0.00250    -999.25   -0.00250   13.09910    -999.25   -0.00070   62.57870    -999.25    -999.25  113.39870  113.39870   62.57870   40.29380   35.65640   35.65640    -999.25    -999.25    -999.25    -999.25   13.98590    0.05730    0.05730    5.36140    5.36140    -999.25   -6.13130  -55.77720   11.98010 3325.83940 3551.70120
 7950.00000   28.20840   38.25660   59.54160   49.08550   12.25000   13.27620   13.27620   20.37260    -999.25   -0.00980    2.72280   -0.00750    -999.25   -0.00750   49.08550    -999.25   -0.00980   53.05790    -999.25    -999.25  101.35440  101.35440   53.05790   35.24150   34.90650   34.90650    -999.25    -999.25    -999.25    -999.25   38.25660    0.00820    0.00820    6.20720    6.20720    -999.25   -7.45150  -58.56960   28.20840 3349.30130 3557.09570
 8000.00000    3.52290    3.26060    3.34830    3.41080   12.25000   12.58000   12.58000  293.18630    -999.25    0.05390    2.64350    0.03890    -999.25    0.03890    3.41080    -999.25    0.05390   73.93450    -999.25    -999.25  148.51190  148.51190   73.93450   64.66790   60.31180   60.31180    -999.25    -999.25    -999.25    -999.25    3.26060    0.21500    0.21500    6.27380    6.27380    -999.25   -4.62850  -57.21880    3.52290 3387.57520 3583.56490
 8050.00000    5.31370    5.45320    5.75970    6.00350   12.25000   14.35250   14.35250  166.56950    -999.25   -0.00210    2.66330    0.02730    -999.25    0.02730    6.00350    -999.25   -0.00210   65.58470    -999.25    -999.25   89.42570   89.42570   65.58470   38.40260   49.08480   49.08480    -999.25    -999.25    -999.25    -999.25    5.45320    0.30720    0.30720    5.31950    5.31950    -999.25   -4.45180  -57.47470    5.31370 3343.74000 3577.23580
 8100.00000    4.43960    5.01900    5.81780    7.02710   12.25000   15.34710   15.34710  142.30620    -999.25    0.03010    2.36660    0.20080    -999.25    0.20080    7.02710    -999.25    0.03010  105.70860    -999.25    -999.25  155.72380  155.72380  105.70860   35.20940   38.34840   38.34840    -999.25    -999.25    -999.25    -999.25    5.01900    0.22770    0.22770    7.57550    7.57550    -999.25   -6.07630  -58.21570    4.43960 3382.13550 3621.08590
 8150.00000   20.17380   22.66670   23.42580   28.05940   12.25000   13.13250   13.13250   35.63870    -999.25    0.00030    2.70590    0.00240    -999.25    0.00240   28.05940    -999.25    0.00030   56.25360    -999.25    -999.25  108.70660  108.70660   56.25360   37.54400   35.60480   35.60480    -999.25    -999.25    -999.25    -999.25   22.66670    0.02170    0.02170    6.10440    6.10440    -999.25  -11.73880  -62.99470   20.17380 3301.75240 3610.55640
 8200.00000   22.66610   25.88740   33.66380   37.94090   12.25000   12.92800   12.92800   26.35680    -999.25    0.02450    2.73090   -0.01220    -999.25   -0.01220   37.94090    -999.25    0.02450   56.62750    -999.25    -999.25  104.89840  104.89840   56.62750   24.17220   25.34750   25.34750    -999.25    -999.25    -999.25    -999.25   25.88740    0.00540    0.00540    6.04920    6.04920    -999.25  -14.35380  -64.72620   22.66610 3383.97440 3647.67550
 8250.00000    4.03970    7.09250    8.67790    9.96250   12.25000   13.34710   13.34710  100.37640    -999.25    0.02100    2.30370    0.23760    -999.25    0.23760    9.96250    -999.25    0.02100   60.28870    -999.25    -999.25  105.59220  105.59220   60.28870   33.69380   32.07850   32.07850    -999.25    -999.25    -999.25    -999.25    7.09250    0.06420    0.06420    6.45840    6.45840    -999.25  -13.38190  -62.87080    4.03970 3365.39160 3651.80270
 8300.00000   21.00170   23.31120   24.64980   30.53190   12.25000   12.54370   12.54370   32.75260    -999.25   -0.00480    2.69550    0.00850    -999.25    0.00850   30.53190    -999.25   -0.00480   56.17320    -999.25    -999.25  109.06920  109.06920   56.17320   25.18480   23.74070   23.74070    -999.25    -999.25    -999.25    -999.25   23.31120    0.00980    0.00980    6.37550    6.37550    -999.25   -6.18410  -54.78950   21.00170 3348.15940 3653.30080
 8350.00000    3.93930    5.63370    8.48200   10.48280   12.25000   13.48970   13.48970   95.39440    -999.25    0.01400    2.13100    0.33860    -999.25    0.33860   10.48280    -999.25    0.01400   86.43220    -999.25    -999.25  142.05770  142.05770   86.43220   33.30890   32.93700   32.93700    -999.25    -999.25    -999.25    -999.25    5.63370    0.24230    0.24230    8.37890    8.37890    -999.25   -4.30460  -52.02660    3.93930 3462.45360 3670.93310
 8400.00000    1.75670    2.17460    2.54430    2.74440   12.25000   15.07980   15.07980  364.37840    -999.25   -0.01560    1.93980    0.45040    -999.25    0.45040    2.74440    -999.25   -0.01560   80.40550    -999.25    -999.25  120.58980  120.58980   80.40550   45.30770   38.11480   38.11480    -999.25    -999.25    -999.25    -999.25    2.17460    0.40600    0.40600    9.99600    9.99600    -999.25   -7.69600  -54.53450    1.75670 3423.59890 3696.22120
 8450.00000   43.76950   22.35830   24.23920   29.71020   12.25000   13.16330   13.16330   33.65850    -999.25    0.00510    2.74110   -0.01820    -999.25   -0.01820   29.71020    -999.25    0.00510   51.44450    -999.25    -999.25  104.04660  104.04660   51.44450   35.60200   29.82190   29.82190    -999.25    -999.25    -999.25    -999.25   22.35830    0.00230    0.00230    6.31660    6.31660    -999.25   -6.44910  -52.40410   43.76950 3385.63700 3692.51270
 8500.00000    7.38110    6.82660    6.12300    5.81440   12.25000   13.85150   13.85150  171.98680    -999.25    0.02100    2.67200    0.02220    -999.25    0.02220    5.81440    -999.25    0.02100   66.32510    -999.25    -999.25  130.94690  130.94690   66.32510   44.97210   49.79370   49.79370    -999.25    -999.25    -999.25    -999.25    6.82660    0.11260    0.11260    5.54320    5.54320    -999.25  -12.95270  -58.02420    7.38110 3512.25200 3744.18140
