~Version ---------------------------------------------------
VERS. 2.0 : CWLS log ASCII Standard -VERSION 2.0
WRAP.  NO : ONE LINE PER DEPTH STEP
~Well ------------------------------------------------------
STRT.FT                           3250.0 : START DEPTH
STOP.FT                           8450.0 : STOP DEPTH
STEP.FT                         50.00000 : STEP LENGTH
NULL.                            -999.25 : NULL VALUE
COMP. SANTA FE-WINDSOR PRODUCING COMPANY : COMPANY
WELL.                         KENNETH #1 : WELL
FLD .                           GIDDINGS : FIELD
LOC .                                    : LOCATION
CNTY.                                LEE : COUNTY
STAT.                              TEXAS : STATE
CTRY.           UNITED STATES OF AMERICA : COUNTRY
SRVC.                       Schlumberger : SERVICE COMPANY
DATE.                        18-Aug-1982 : LOGDATE
API .                     42287312830000 : API NUMBER
UWI .                     42287312830000 : UNIQUE WELL ID
SLAT.WGS84                 30.0993785135 : SURFACE LATITUDE
SLON.WGS84                -96.9796408359 : SURFACE LONGITUDE
~Curve Information -----------------------------------------
DEPT  .FT    : DEPTH FEET
NEUTED.CU    : NEUTRON FROM NEUTRON LOG [DEPTH ADJ TO RES LOG]
GRWS  .GAPI  : GAMMA RAY [GRRED]
GRRED .GAPI  : GAMMA RAY FROM RESISTIVITY LOG
SPRED .MV    : SPONTANEOUS POTENTIAL FROM RESISTIVITY LOG
ILDED .OHMM  : INDUCTION LOG DEEP RESISTIVITY
SFLUED.OHMM  : SPHERICALLY FOCUSED LOG RESISTIVITY
ILMED .OHMM  : INDUCTION LOG MEDIUM RESISTIVITY
CALRED.IN    : CALIPER FROM RESISTIVITY LOG
DPHIED.V/V   : DENSITY POROSITY [M=2.71 F=1.0] FROM DENSITY LOG
DRHOED.G/C3  : DENSITY CORRECTION FROM DENSITY LOG
SPWS  .MV    : SPONTANEOUS POTENTIAL [BASELINE 0 MV] [SPRED]
GRNED .GAPI  : GAMMA RAY FROM NEUTRON LOG [DEPTH ADJ TO RES LOG]
CALWS .IN    : CALIPER [CALRED]
DCORWS.G/C3  : DENSITY CORRECTION [DRHOED]
DRESWS.OHMM  : DEEP RESISTIVITY [ILDED]
MRESWS.OHMM  : MEDIUM RESISTIVITY [ILMED]
SRESWS.OHMM  : SHALLOW RESISTIVITY [SFLUED]
CONDWS.MMHO  : CONDUCTIVITY [1000/DRESWS]
NEUTWS.CU    : NEUTRON [NEUTED]
DENWS .G/C3  : BULK DENSITY [M=2.71 F=1.0] [CALCULATED FROM DPHIED]
DPOWS .V/V   : DENSITY POROSITY [M=2.71 F=1] [CALCULATED FROM DENWS]
~Params ----------------------------------------------------
PD  .                     GL : PERMANENT DATUM
EPD .FT                  460 : ELEVATION PERMANENT DATUM
LMF .                     KB : LOG MEASURED FROM
DAPD.FT                   15 : FEET ABOVE PERMANENT DATUM
DMF .                     KB : DRILLING MEASURED FROM
EKB .FT                   75 : KELLY BUSHING
EDF .FT                  474 : DRILLING FLOOR
EGL .FT                  460 : GROUND LEVEL
DATE.               08/18/82 : RUN DATE
RUN .                      1 : RUN NUMBER
DD  .FT                 8505 : DEPTH DRILLER
DL  .FT                 8494 : DEPTH LOGGER
BLI .FT                 8488 : BOTTOM LOG INTERVAL
TLI .FT                 3264 : TOP LOG INTERVAL
CS  .IN                9.625 : CASING SIZE
CBD .FT                 3612 : CASING BOTTOM DRILLER
CBL .FT                 3264 : CASING BOTTOM LOGGER
BS  .IN                 8.75 : BIT SIZE
BSD .FT                 8505 : BIT SIZE AT DEPTH
DFT .                LNS GEL : DRILLING FLUID TYPE
DFD .                    9.4 : DRILLING FLUID DENSITY
DFV .                     43 : DRILLING FLUID VISCOSITY
DFPH.                      9 : DRILLING FLUID PH
DFL .                    7.8 : DRILLING FLUID LOSS
MSS .                   TANK : MUD SAMPLE SOURCE
RMS .OHMM               1.21 : RESISTIVITY MUD SAMPLE
MST .DEGF                104 : MUD SAMPLE TEMPERATURE
RMF .OHMM               0.83 : RESISTIVITY MUD FILTRATE SAMPLE
MFST.DEGF                 77 : MUD FILTRATE SAMPLE TEMPERATURE
RMC .OHMM               1.66 : RESISTIVITY MUD CAKE
MCST.DEGF                 77 : MUD CAKE SAMPLE TEMPERATURE
MFSS.               MEASURED : MUD FILTRATE SAMPLE SOURCE
MCSS.             CALCULATED : MUD CAKE SAMPLE SOURCE
RMB .OHMM              0.685 : RESISTIVITY MUD AT BHT
TCS .HRS                 700 : TIME CIRCULATED STOPPED
TLAB.HRS                1330 : TIME LOGGER AT BOTTOM
LUN .                   8096 : LOGGING UNIT NUMBER
LUL .                BRENHAM : LOGGING UNIT LOCATION
ENGI.                   KENT : RECORDING ENGINEER
WITN.                 EBANKS : WITNESSED BY
CLNT.                A2DTECH : CLIENT CODE
ORIG.            2" 5" PRINT : ORIGIN OF DATA
UWI .         42287312830000 : UNIQUE WELL ID
DICO. A2D Technologies, Inc. : DIGITIZING COMPANY
~Other -----------------------------------------------------
~ASCII -----------------------------------------------------
# ...
 6550.00000    -999.25  100.10650  100.10650   -3.31670    1.30550    1.35790    1.33870    -999.25    -999.25    -999.25   -5.21210    -999.25    -999.25    -999.25    1.30550    1.33870    1.35790  765.99010    -999.25    -999.25    -999.25
 6600.00000    -999.25  103.31370  103.31370   -0.78460    1.08920    1.20200    1.11820    -999.25    -999.25    -999.25   -2.83240    -999.25    -999.25    -999.25    1.08920    1.11820    1.20200  918.10500    -999.25    -999.25    -999.25
 6650.00000    -999.25  102.40420  102.40420   -1.53190    0.99390    1.13940    1.03200    -999.25    -999.25    -999.25   -3.33660    -999.25    -999.25    -999.25    0.99390    1.03200    1.13940 1006.13750    -999.25    -999.25    -999.25
 6700.00000    -999.25   79.63740   79.63740   -6.32080    1.37150    1.44370    1.39920    -999.25    -999.25    -999.25   -7.15680    -999.25    -999.25    -999.25    1.37150    1.39920    1.44370  729.12870    -999.25    -999.25    -999.25
 6750.00000    -999.25   90.39050   90.39050   -4.71320    1.35680    1.47180    1.39190    -999.25    -999.25    -999.25   -5.24430    -999.25    -999.25    -999.25    1.35680    1.39190    1.47180  737.02830    -999.25    -999.25    -999.25
 6800.00000    -999.25   85.99930   85.99930   -3.25990    1.46920    1.55680    1.48190    -999.25    -999.25    -999.25   -3.99460    -999.25    -999.25    -999.25    1.46920    1.48190    1.55680  680.64250    -999.25    -999.25    -999.25
 6850.00000    -999.25  100.80140  100.80140   -4.31990    1.35170    1.35950    1.36710    -999.25    -999.25    -999.25   -5.90530    -999.25    -999.25    -999.25    1.35170    1.36710    1.35950  739.80910    -999.25    -999.25    -999.25
 6900.00000    -999.25  101.12430  101.12430   -0.00620    1.89650    2.06800    1.98270    -999.25    -999.25    -999.25   -2.44230    -999.25    -999.25    -999.25    1.89650    1.98270    2.06800  527.28710    -999.25    -999.25    -999.25
 6950.00000    -999.25   94.52130   94.52130   -1.65710    1.30540    1.48980    1.35260    -999.25    -999.25    -999.25   -4.94390    -999.25    -999.25    -999.25    1.30540    1.35260    1.48980  766.04870    -999.25    -999.25    -999.25
 7000.00000  112.47660   89.48210   89.48210   -5.78800    1.14570    1.30630    1.19500    -999.25    -999.25    -999.25    0.00000   28.51940    -999.25    -999.25    1.14570    1.19500    1.30630  872.82890  112.47660    -999.25    -999.25
 7050.00000   97.68540   86.92790   86.92790  -52.10150    1.22030    1.44150    1.26660    -999.25    -999.25    -999.25   -3.02670   28.28130    -999.25    -999.25    1.22030    1.26660    1.44150  819.47060   97.68540    -999.25    -999.25
 7100.00000  110.12090   83.01810   83.01810  -48.98670    1.29620    1.51190    1.32880   13.78660    0.17810    -999.25   -3.37880   27.27710   13.78660    -999.25    1.29620    1.32880    1.51190  771.48580  110.12090    2.40540    0.17810
 7150.00000  124.78020   76.28330   76.28330  -42.50160    1.91050    2.11860    1.95030   10.74600    0.11840    0.08350   -1.78090   26.27160   10.74600    0.08350    1.91050    1.95030    2.11860  523.42320  124.78020    2.50750    0.11840
 7200.00000  158.32970   34.28790   34.28790  -49.41530    4.70030    6.60830    4.75990   10.60060    0.07570   -0.00670  -10.43890   11.69190   10.60060   -0.00670    4.70030    4.75990    6.60830  212.75240  158.32970    2.58060    0.07570
 7250.00000  212.71710   52.52270   52.52270  -39.23520    4.14930    4.87210    4.18520   12.11560    0.06340    0.01160   -2.31210   11.03580   12.11560    0.01160    4.14930    4.18520    4.87210  241.00450  212.71710    2.60160    0.06340
 7300.00000  164.94370   71.00050   71.00050  -36.49880    2.79980    3.28250    2.82960   11.26020    0.09670    0.07390   -1.52860   18.14620   11.26020    0.07390    2.79980    2.82960    3.28250  357.16840  164.94370    2.54460    0.09670
 7350.00000  262.64520   77.54410   77.54410  -34.86350    2.94900    3.38550    2.99030   11.36390    0.07940    0.05200   -0.94240   23.94310   11.36390    0.05200    2.94900    2.99030    3.38550  339.09800  262.64520    2.57420    0.07940
 7400.00000  223.20500   70.20950   70.20950  -33.40460    3.57000    4.22730    3.60760   11.50900    0.08330    0.03540   -0.53260   24.08620   11.50900    0.03540    3.57000    3.60760    4.22730  280.11210  223.20500    2.56760    0.08330
 7450.00000  131.39660   71.89460   71.89460  -33.89660    2.13040    2.22270    2.27560   12.56900    0.20800    0.09760   -2.44910   21.94440   12.56900    0.09760    2.13040    2.27560    2.22270  469.39540  131.39660    2.35430    0.20800
 7500.00000  312.90380   27.92320   27.92320  -42.46470    7.45470    7.94960    7.52010   10.68130    0.03980    0.02500  -12.52980    6.10750   10.68130    0.02500    7.45470    7.52010    7.94960  134.14360  312.90380    2.64190    0.03980
 7550.00000  251.23400   29.06250   29.06250  -36.30900    7.81340    8.70730    7.88080   11.47060    0.06000    0.01060   -7.88660    9.58890   11.47060    0.01060    7.81340    7.88080    8.70730  127.98530  251.23400    2.60740    0.06000
 7600.00000  307.05550   29.91770   29.91770  -37.86460   10.69240   13.66710   11.21760   11.06730    0.03680    0.01400  -10.95480    7.60850   11.06730    0.01400   10.69240   11.21760   13.66710   93.52440  307.05550    2.64710    0.03680
 7650.00000  289.60100   28.28520   28.28520  -36.30140   10.03090   10.17760   10.22290   11.32390    0.08660    0.04470  -10.90420    8.01650   11.32390    0.04470   10.03090   10.22290   10.17760   99.69200  289.60100    2.56190    0.08660
 7700.00000  335.58630   23.72460   23.72460  -37.26690    5.86240   18.10560    7.75380   11.22860    0.08710    0.09990  -13.38230    2.65820   11.22860    0.09990    5.86240    7.75380   18.10560  170.57860  335.58630    2.56110    0.08710
 7750.00000  296.42180   21.53940   21.53940  -41.09970    9.75290   10.87380   10.28270   10.05420    0.08230   -0.00170  -18.72760    4.80220   10.05420   -0.00170    9.75290   10.28270   10.87380  102.53360  296.42180    2.56930    0.08230
 7800.00000  298.57250   31.78430   31.78430  -28.33480    9.57190   10.58780    9.97970   10.30550    0.05790    0.00270   -7.47530    7.16460   10.30550    0.00270    9.57190    9.97970   10.58780  104.47250  298.57250    2.61100    0.05790
 7850.00000  280.06360   31.52790   31.52790  -29.30750    8.16920    8.98280    8.29970   11.17100    0.05470    0.01230   -9.96060    5.41060   11.17100    0.01230    8.16920    8.29970    8.98280  122.41100  280.06360    2.61650    0.05470
 7900.00000  321.79630   26.95650   26.95650  -31.99060    9.00480   10.35180    9.10400   10.82880    0.05500    0.02070  -14.15620    3.54110   10.82880    0.02070    9.00480    9.10400   10.35180  111.05190  321.79630    2.61600    0.05500
 7950.00000  326.38600   30.61190   30.61190  -29.91920    5.60400    6.16070    5.66420   11.09960    0.05280    0.00740  -13.59740    8.08040   11.09960    0.00740    5.60400    5.66420    6.16070  178.44400  326.38600    2.61970    0.05280
 8000.00000  340.47540   44.88130   44.88130  -24.94590    6.84200    8.10150    6.94300   10.51100    0.05670    0.00670  -10.13670    9.71980   10.51100    0.00670    6.84200    6.94300    8.10150  146.15610  340.47540    2.61300    0.05670
 8050.00000  304.15120   29.69620   29.69620  -32.78680    9.82320    9.84010   10.53390   10.23960    0.07230    0.10050  -19.49010    8.52810   10.23960    0.10050    9.82320   10.53390    9.84010  101.79980  304.15120    2.58640    0.07230
 8100.00000  309.59950   25.33360   25.33360  -42.61230   21.22080   25.40990   23.03570   10.14630    0.12690    0.10230  -30.82820    6.72190   10.14630    0.10230   21.22080   23.03570   25.40990   47.12360  309.59950    2.49300    0.12690
 8150.00000  371.72490   33.98110   33.98110  -43.04110   17.34930   28.10720   17.74210   10.65070    0.11930    0.09720  -32.76960    4.73570   10.65070    0.09720   17.34930   17.74210   28.10720   57.63920  371.72490    2.50600    0.11930
