~Version ---------------------------------------------------
VERS. 2.0 : CWLS log ASCII Standard -VERSION 2.0
WRAP.  NO : ONE LINE PER DEPTH STEP
~Well ------------------------------------------------------
STRT.F                  3550.0 : START DEPTH
STOP.F                 11300.0 : STOP DEPTH
STEP.F                50.00000 : STEP LENGTH
NULL.                  -999.25 : NULL VALUE
COMP.   WILLIAMS JR, CLAYTON W : COMPANY
WELL.        PAYNE ALBERT M #1 : WELL
FLD .                       WC : FIELD
LOC .                          : LOCATION
CNTY.                   BRAZOS : COUNTY
STAT.                    TEXAS : STATE
CTRY. UNITED STATES OF AMERICA : COUNTRY
SRVC.             Schlumberger : SERVICE COMPANY
DATE.              01-Nov-1977 : LOGDATE
API .           42041303170000 : API NUMBER
UWI .           42041303170000 : UNIQUE WELL ID
SLAT.WGS84       30.8808604284 : SURFACE LATITUDE
SLON.WGS84      -96.2683388418 : SURFACE LONGITUDE
~Curve Information -----------------------------------------
DEPT.F                 : 
SPR .MV   07 010 01 00 : SPONTANEOUS POTENTIAL
DT  .US/F 60 520 00 00 : DELTA TIME
PROX.OHMM 15 270 04 00 : PROXIMITY LOG RESISTIVITY
CALR.IN   07 280 01 00 : CALIPER FROM RESISTIVITY
GRN .GAPI 35 310 01 00 : GAMMA RAY
NEUT.NAPI 35 330 01 00 : NEUTRON FROM GAMMA RAY LOG
ILD .OHMM 07 120 46 00 : DEEP RESISTIVITY
LL8 .OHMM 07 220 08 00 : LATEROLOG-8 RES.
ILM .OHMM 07 120 44 00 : INDUCTION LOG MEDIUM
~Params ----------------------------------------------------
EKB .F                 343.7 : Kelly bushing
EGL .F                330.85 : Ground level
EDF .F                 342.7 : Drilling floor
TD  .F               11310.0 : Total depth
DATE.            15-NOV-1977 : Date logged
CLNT.                A2DTECH : Client Code
SL  .  1040' FWL & 1040' FEL : Surface Location
PD  .                     GL : Permanent Datum
EPD .F                330.85 : Elevation Permanent Datum
LMF .                     KB : Log Measured From
DMF .                     KB : Drilling Measured From
DAPD.F                 12.85 : Feet Above Permanent Datum
DD  .F                 11310 : Depth driller
DL  .F                 11308 : Depth logger
BLI .F                 11303 : Bottom log interval
TLI .F                  8717 : Top log interval
CS1 .IN                9.625 : Casing size
CBD1.         9.625" @ 3550' : Casing driller 1
CBL1.F                  3554 : Casing logger 1
BS1 .IN                    8 : Bit size
BSD1.F                 11310 : Depth drilled with bit1
DFT .                  GELEX : Type fluid in hole
DFD .                    9.8 : Density
DFV .                      5 : Viscosity
DFPH.                     10 : pH
DFL .                    6.8 : Fluid loss
MSS .                    PIT : Source of sample
RMS .OHMM               1.54 : Rm
RMF .OHMM               1.23 : Rmf
RMC .OHMM                2.3 : Rmc
MFSS.                   MEAS : Source Rmf.
MCSS.                   CALC : Source Rmc.
RMB .OHMM                0.5 : Rm. at BHT
BHT .F                   232 : BHT.
TCS .HRS                1230 : Time Circ. stopped
TLAB.HRS                1930 : Time logger at bottom
LUN .                   7659 : Logging unit number
LUL .                 DAYTON : Logging unit location
ENGI.                   EAST : Recorded By
WITN.                   HALL : Witnessed by
ORIG.               5" PRINT : Origin of data
UWI .         42041303170000 : Unique Well ID
DICO. A2D TECHNOLOGIES, INC. : Digitizing Company
~Other -----------------------------------------------------
~ASCII -----------------------------------------------------
# ...
 7200.00000  -31.46900   97.17100    2.38000   10.33700   64.75600  440.25600    1.46000    2.53400    1.58500
 7250.00000  -29.22700   88.40500    3.27100    9.73300   56.18900  480.08800    2.27600    3.71300    2.51800
 7300.00000  -26.86200   88.30700    3.37000    9.40600   59.37200  593.11600    2.41400    3.64700    2.57900
 7350.00000  -26.53700   89.52100    2.99600   10.15200   73.00500  537.85000    2.04400    3.42800    2.23800
 7400.00000  -25.55000   88.45700    2.75500    9.96500   57.93900  548.03300    2.06500    2.95400    2.30100
 7450.00000  -23.74600   78.77200    4.90100    9.31400   43.16200  702.31700    3.33600    5.83800    3.67100
 7500.00000  -22.05300   78.54600    5.51000    9.54700   32.76000  705.36500    4.46900    4.84700    5.16100
 7550.00000  -19.97500   76.53500    6.38400    9.52900   27.90000  692.93600    4.07600    5.17100    4.43500
 7600.00000  -16.93500   73.16700    8.41900    9.47900   38.41300  725.42900    5.48900    6.26700    5.92000
 7650.00000  -13.52900   74.47900    3.59300    9.53100   34.06700  727.67000    4.64000    7.03100    5.03100
 7700.00000  -28.59100   62.42400   16.10400    9.34000   38.13500  769.39600    8.99800   15.64100   13.17500
 7750.00000  -17.91100   84.08300    4.01100    9.35300   60.36700  432.45600    2.68000    3.66700    2.87900
 7800.00000  -17.18200   94.03400    2.17200   10.16500   62.99800  361.99000    1.75000    2.34800    1.90800
 7850.00000  -15.53500   94.12400    2.60800   10.55100   50.34600  348.94700    1.50900    2.48600    1.64400
 7900.00000  -11.15600   80.72400    4.19900    9.41500   55.25600  394.23400    3.16100    4.84700    3.51600
 7950.00000  -31.56800   99.26300    1.96400   11.14400   59.52600  274.66900    1.32300    2.38200    1.43700
 8000.00000  -29.24800   93.90700    3.13200   10.09700   57.41400  348.36500    1.67400    2.86200    1.83300
 8050.00000  -32.23300  100.82100    1.74300   12.36300   60.77200  275.00100    1.16900    2.16200    1.27200
 8100.00000  -22.23100   96.34400    2.70500   11.18500   52.43400  375.10000    1.88700    3.17900    2.04700
 8150.00000  -18.18400  101.45300    4.71800    9.82200   62.64800  337.65900    2.16600    3.81900    2.36900
 8200.00000  -16.09900   92.14600    4.16000    9.44100   65.62000  423.62100    4.25300    6.63100    4.70000
 8250.00000  -17.59400  103.06800    4.72900    9.71600   57.60100  319.74200    2.74100    4.58800    3.03600
 8300.00000  -17.86600   98.62200   11.38900    9.51600   82.59200  322.91900    4.34700    6.50100    4.64500
 8350.00000  -21.41000   99.26300    7.54300   12.01700   44.08400  250.39300    2.43900    4.22600    2.57400
 8400.00000  -16.39900   79.33300    6.00000   10.54300   43.58200  347.07500    3.03000    4.00500    3.19400
 8450.00000  -15.29200   56.52200   56.53600   10.14900   10.84900  622.54300   33.27300   40.71900   35.85700
 8500.00000  -10.93100   70.12300   14.63300   10.41600   25.92700  390.82900    4.80300    8.55300    5.83100
 8550.00000  -17.93200   54.22600   35.44400    9.77900   14.45600  577.50300   30.01300   54.70700   40.54700
 8600.00000  -35.80700   52.84900   33.24300    9.63700    8.22400  597.17600   54.67700   65.89800   61.57400
 8650.00000  -22.98200   54.70300   86.34100    9.59200   14.02900  675.57200   45.02000  156.83800   55.21000
 8700.00000  -20.15400   54.25700  117.60200    9.33000   18.25300  598.13100   47.45500   40.71900   54.11300
 8750.00000  -43.77300   54.45900    -999.25    -999.25    -999.25    -999.25   34.32500   41.07000   31.03100
 8800.00000  -45.90200   51.39700    -999.25    -999.25    -999.25    -999.25   40.87500  108.13400   60.81200
 8850.00000 -172.98900   60.13500    -999.25    -999.25    -999.25    -999.25    5.00600   40.57500    8.32600
 8900.00000  -61.76500   50.54700    -999.25    -999.25    -999.25    -999.25  237.31600  216.35500  270.11700
 8950.00000  -38.84500   63.01800    -999.25    -999.25    -999.25    -999.25    7.61700   13.80600    8.10800
 9000.00000  -58.84000   52.93900    -999.25    -999.25    -999.25    -999.25  118.61000   84.38600  104.73200
 9050.00000  -48.81400   56.82700    -999.25    -999.25    -999.25    -999.25   24.81500   20.27900   23.25000
 9100.00000  -38.53400   60.62600    -999.25    -999.25    -999.25    -999.25   11.44300   13.38500   11.88400
 9150.00000  -39.93600   58.66300    -999.25    -999.25    -999.25    -999.25   15.65600   30.84300   17.99300
 9200.00000  -39.99100   73.56400    -999.25    -999.25    -999.25    -999.25    4.04100    7.57400    3.76800
 9250.00000  -40.96100   53.20500    -999.25    -999.25    -999.25    -999.25   42.75200   68.10200   37.75600
 9300.00000  -41.15300   54.46100    -999.25    -999.25    -999.25    -999.25   44.78900   44.50600   40.17100
 9350.00000  -38.78800   73.35500    -999.25    -999.25    -999.25    -999.25    4.04000    5.71300    4.12300
 9400.00000  -43.93600   74.72900    -999.25    -999.25    -999.25    -999.25    2.52900    5.19000    2.64200
 9450.00000  -44.26900   70.28100    -999.25    -999.25    -999.25    -999.25    4.99600    5.45200    5.40900
 9500.00000  -44.33500   56.57600    -999.25    -999.25    -999.25    -999.25   17.32900   32.80200   20.85000
 9550.00000  -45.08200   70.84800    -999.25    -999.25    -999.25    -999.25    3.31300    8.04600    3.81600
 9600.00000  -44.73300   57.81400    -999.25    -999.25    -999.25    -999.25   16.59800   22.03900   16.93400
 9650.00000  -51.94400   49.97000    -999.25    -999.25    -999.25    -999.25  113.25100  224.50700  105.01100
 9700.00000  -48.75600   63.74900    -999.25    -999.25    -999.25    -999.25    8.69100   10.42100    9.06400
 9750.00000  -49.04100   56.45100    -999.25    -999.25    -999.25    -999.25   18.21500   24.81100   18.54700
 9800.00000  -47.91300   61.65000    -999.25    -999.25    -999.25    -999.25   12.28300   16.27800   13.16300
 9850.00000  -50.95500   86.21700    -999.25    -999.25    -999.25    -999.25    2.65200    3.25000    2.49400
 9900.00000  -50.36500   58.44500    -999.25    -999.25    -999.25    -999.25   16.74100   23.08200   16.39400
 9950.00000  -48.31000   63.74300    -999.25    -999.25    -999.25    -999.25   14.00900   30.18200   14.80800
 10000.00000  -47.89900   72.00400    -999.25    -999.25    -999.25    -999.25    6.32500    8.78900    5.46300
 10050.00000  -50.96600   57.74700    -999.25    -999.25    -999.25    -999.25   26.29600   24.39900   27.96900
 10100.00000  -49.90000   60.89600    -999.25    -999.25    -999.25    -999.25   19.98400   21.30000   19.00800
 10150.00000  -52.86000   61.52700    -999.25    -999.25    -999.25    -999.25    7.22600   17.47500   10.61500
 10200.00000  -50.78900   59.28500    -999.25    -999.25    -999.25    -999.25   20.59800   37.21300   22.73700
 10250.00000 -153.81000   61.91700    -999.25    -999.25    -999.25    -999.25    4.46900   21.04400    6.23800
 10300.00000  -52.78300   54.20800    -999.25    -999.25    -999.25    -999.25   86.61200   69.05900   60.38800
 10350.00000  -50.22900   53.38300    -999.25    -999.25    -999.25    -999.25   49.09500  103.24800   65.30300
 10400.00000  -49.02900   58.92400    -999.25    -999.25    -999.25    -999.25   11.43700   31.03100   16.13600
 10450.00000  -51.98400   55.83600    -999.25    -999.25    -999.25    -999.25   32.20000   39.10200   27.71500
 10500.00000  -50.09400   52.06900    -999.25    -999.25    -999.25    -999.25   72.35300   96.30600   53.07800
 10550.00000  -49.20500   57.54700    -999.25    -999.25    -999.25    -999.25   24.91100   21.43600   17.98200
 10600.00000  -57.79400   53.03400    -999.25    -999.25    -999.25    -999.25   79.54900   94.11800   57.65900
 10650.00000  -95.44400   50.28700    -999.25    -999.25    -999.25    -999.25  133.76200  126.88100   93.45000
 10700.00000  -58.71000   50.89700    -999.25    -999.25    -999.25    -999.25  288.18000  246.25900  115.61300
 10750.00000  -48.46600   57.54000    -999.25    -999.25    -999.25    -999.25   58.22000   43.28800   45.54500
