~Version ---------------------------------------------------
VERS. 2.0 : CWLS log ASCII Standard -VERSION 2.0
WRAP. YES : Multiple lines per depth step
~Well ------------------------------------------------------
STRT.FT                         300.0 : START DEPTH
STOP.FT                       13900.0 : STOP DEPTH
STEP.FT                      50.00000 : STEP LENGTH
NULL.                         -999.25 : NULL VALUE
COMP. MOBIL PRODUCING TX. & N.M. INC. : COMPANY
WELL.               J. V. FORD JR. #1 : WELL
FLD .                         WILDCAT : FIELD
LOC .                                 : LOCATION
CNTY.                             BEE : COUNTY
STAT.                           TEXAS : STATE
CTRY.        UNITED STATES OF AMERICA : COUNTRY
SRVC.                    Schlumberger : SERVICE COMPANY
DATE.                     24-Oct-1988 : LOGDATE
API .                  42025324790000 : API NUMBER
UWI .                  42025324790000 : UNIQUE WELL ID
SLAT.WGS84              28.6662336968 : SURFACE LATITUDE
SLON.WGS84             -98.0215217404 : SURFACE LONGITUDE
~Curve Information -----------------------------------------
DEPT    .FT    : DEPTH FEET
CALMED  .IN    : CALIPER FROM MSFL [DEP ADJ TO SFLUED]
CALWS   .IN    : CALIPER [DCALED+BITED]
CONDWS  .MMHO  : CONDUCTIVITY [1000/DRESWS]
DCALED  .IN    : DIFFERENTIAL CALIPER FROM DENSITY LOG [DEP ADJ TO GRRED]
DCORWS  .G/C3  : DENSITY CORRECTION [DRHOED]
DENWS   .G/C3  : BULK DENSITY [M=2.71, F= 1] [CAL FROM DPOLSWS]
DPHILSED.V/V   : DENSITY POROSITY [M=2.71 F=1.0] FROM DENSITY LOG [DEP ADJ TO GRRED]
DPHISSED.V/V   : DENSITY POROSITY [M=2.68 F=1.0] FROM DENSITY LOG [DEP ADJ TO GRRED]
DPOLSWS .V/V   : DENSITY POROSITY [M=2.71, F= 1] [76 DPOLSCAL 12989 DPHILSED]
DRESWS  .OHMM  : DEEP RESISTIVITY [ILDED]
DRHOED  .G/C3  : DENSITY CORRECTION FROM DENSITY LOG [DEP ADJ TO GRRED]
DTED    .US/F  : DELTA TIME FROM SONIC LOG
DTLED   .US/F  : DELTA TIME LONG SPACING FROM SONIC LOG
DTWS    .US/F  : DELTA TIME [76 DTED 543.5 DTLED 1373.5 DTED 2134 DTLED 3009.5 DTED 3022 DTLED 3172 DTED 8805 DTLED 8815 DTED 9717.5 DTLED 9901 DTED 12984.5 DTLED 13003.5 DTED]
GRDED   .GAPI  : GAMMA RAY FROM DENSITY LOG [DEP ADJ TO GRRED]
GRMED   .GAPI  : GAMMA RAY FROM MSFL LOG [DEP ADJ TO GRRED]
GRRED   .GAPI  : GAMMA RAY FROM RESISTIVITY LOG
GRWS    .GAPI  : GAMMA RAY [76 GRRED 3494.5 GRDEDNRM 3506 GRDED 9027 GRRED 13030.5 GRDED]
ILDED   .OHMM  : INDUCTION LOG DEEP RESISTIVITY
ILMED   .OHMM  : INDUCTION LOG MEDIUM RESISTIVITY
MRESWS  .OHMM  : MEDIUM RESISTIVITY [ILMED]
MSFLED  .OHMM  : MICROSPHERICALLY FOCUSED LOG RESISTIVITY [DEP ADJ TO SFLUED]
NPHILSED.V/V   : NEUTRON POROSITY LIMESTONE FROM DENSITY LOG [DEP ADJ TO GRRED]
NPHISSED.V/V   : NEUTRON POROSITY SANDSTONE FROM DENSITY LOG [DEP ADJ TO GRRED]
NPOLSWS .V/V   : NEUTRON POROSITY LIMESTONE [76 NPOLSCAL 12989 NPHILSED]
SFLUED  .OHMM  : SPHERICALLY FOCUSED LOG RESISTIVITY
SPRED   .MV    : SPONTANEOUS POTENTIAL FROM RESISTIVITY LOG
SPWS    .MV    : SPONTANEOUS POTENTIAL [BASELINE 0 MV] [SPRED]
SRESWS  .OHMM  : SHALLOW RESISTIVITY [SFLUED]
TENDED  .LBF   : TENSION FROM DENSITY LOG [DEP ADJ TO GRRED]
TENMED  .LBF   : TENSION FROM MSFL LOG [DEP ADJ TO SFLUED]
TENRED  .LBF   : TENSION FROM RESISTIVITY LOG
~Params ----------------------------------------------------
PD  .                     GL : PERMANENT DATUM
EPD .FT                  350 : ELEVATION PERMANENT DATUM
LMF .                     KB : LOG MEASURED FROM
DAPD.FT                 26.5 : FEET ABOVE PERMANENT DATUM
DMF .                     KB : DRILLING MEASURED FROM
EKB .FT                376.5 : KELLY BUSHING
EDF .FT                375.5 : DRILLING FLOOR
EGL .FT                  350 : GROUND LEVEL
DATE.               10/14/88 : RUN DATE
RUN .                      2 : RUN NUMBER
DD  .FT                13900 : DEPTH DRILLER
DL  .FT                13881 : DEPTH LOGGER
BLI .FT                13881 : BOTTOM LOG INTERVAL
TLI .FT                 3505 : TOP LOG INTERVAL
CS  .IN                9.625 : CASING SIZE
CBD .FT                 3510 : CASING BOTTOM DRILLER
CBL .FT                 3505 : CASING BOTTOM LOGGER
BS  .IN                  8.5 : BIT SIZE
BSD .FT                13900 : BIT SIZE AT DEPTH
DFT .            LIGNITE CLS : DRILLING FLUID TYPE
DFD .                   11.6 : DRILLING FLUID DENSITY
DFV .                     23 : DRILLING FLUID VISCOSITY
DFPH.                     10 : DRILLING FLUID PH
DFL .                    5.9 : DRILLING FLUID LOSS
MSS .               MUD TANK : MUD SAMPLE SOURCE
RMS .OHMM               1.08 : RESISTIVITY MUD SAMPLE
MST .DEGF                 75 : MUD SAMPLE TEMPERATURE
RMF .OHMM               0.72 : RESISTIVITY MUD FILTRATE SAMPLE
MFST.DEGF                 75 : MUD FILTRATE SAMPLE TEMPERATURE
RMC .OHMM               1.59 : RESISTIVITY MUD CAKE
MCST.DEGF                 75 : MUD CAKE SAMPLE TEMPERATURE
MFSS.                   MEAS : MUD FILTRATE SAMPLE SOURCE
MCSS.                   CALC : MUD CAKE SAMPLE SOURCE
RMB .OHMM              0.289 : RESISTIVITY MUD AT BHT
TCS .HRS                1500 : TIME CIRCULATED STOPPED
TLAB.HRS                1500 : TIME LOGGER AT BOTTOM
LUN .                   8248 : LOGGING UNIT NUMBER
LUL .             PLEASANTON : LOGGING UNIT LOCATION
ENGI.                 HOOPER : RECORDING ENGINEER
WITN.           WEIMER CARAM : WITNESSED BY
CLNT.                A2DTECH : CLIENT CODE
ORIG.               5" PRINT : ORIGIN OF DATA
UWI .         42025324790000 : UNIQUE WELL ID
DICO. A2D Technologies, Inc. : DIGITIZING COMPANY
~Other -----------------------------------------------------
~ASCII -----------------------------------------------------
# ...
 4700.00000    -999.25   10.77530  574.21770    2.27530    0.07070    2.22830    -999.25    0.28170    0.28170    1.74150    0.07070  100.16230  101.39850  100.16230   70.88670    -999.25   65.88060   70.88670    1.74150    1.70250    1.70250    -999.25    -999.25    0.42760    0.38530    1.73020   -8.82690   -6.94560    1.73020 1946.52970    -999.25 1941.43250
 4750.00000    -999.25   11.29200  515.38420    2.79200    0.06220    2.11120    -999.25    0.35020    0.35020    1.94030    0.06220   99.52350   97.79380   99.52350   61.79870    -999.25   60.11570   61.79870    1.94030    1.85300    1.85300    -999.25    -999.25    0.41190    0.36930    2.19410   -8.68880   -6.94880    2.19410 1925.28100    -999.25 1976.20090
 4800.00000    -999.25   11.85160  764.00030    3.35160    0.02170    1.95450    -999.25    0.44180    0.44180    1.30890    0.02170  109.10660  103.42860  109.10660   54.58480    -999.25   53.94790   54.58480    1.30890    1.23160    1.23160    -999.25    -999.25    0.36080    0.31730    1.31130   -7.22960   -5.63090    1.31130 1902.49390    -999.25 2046.31030
 4850.00000    -999.25   11.43440  675.81270    2.93440    0.00070    1.76980    -999.25    0.54980    0.54980    1.47970    0.00070  104.40140  105.35300  104.40140   62.48020    -999.25   61.51100   62.48020    1.47970    1.34640    1.34640    -999.25    -999.25    0.42710    0.38480    1.40450   -5.23230   -3.77490    1.40450 1910.53390    -999.25 2069.74170
 4900.00000    -999.25   11.44890  608.75390    2.94890    0.05690    2.24130    -999.25    0.27410    0.27410    1.64270    0.05690  103.94800  101.46630  103.94800   57.70130    -999.25   53.94140   57.70130    1.64270    1.59270    1.59270    -999.25    -999.25    0.39640    0.35350    1.47650   -6.53340   -5.21720    1.47650 1972.69460    -999.25 2076.96070
 4950.00000    -999.25   11.49810  564.87600    2.99810    0.05340    2.20620    -999.25    0.29460    0.29460    1.77030    0.05340  100.74100  101.90730  100.74100   53.36150    -999.25   58.58100   53.36150    1.77030    1.72790    1.72790    -999.25    -999.25    0.39010    0.34700    1.49850   -9.29970   -8.12480    1.49850 1978.41170    -999.25 2106.37210
 5000.00000    -999.25   12.11810 1090.63150    3.61810    0.00830    2.02770    -999.25    0.39900    0.39900    0.91690    0.00830  110.06620  107.87360  110.06620   56.73470    -999.25   58.08600   56.73470    0.91690    0.88340    0.88340    -999.25    -999.25    0.48090    0.43920    0.94920   -4.82650   -3.79290    0.94920 1973.40590    -999.25 2077.15940
 5050.00000    -999.25   12.01510  481.34770    3.51510    0.02220    2.35040    -999.25    0.21030    0.21030    2.07750    0.02220   93.82570   89.75570   93.82570   59.47300    -999.25   54.71640   59.47300    2.07750    1.98630    1.98630    -999.25    -999.25    0.39220    0.34920    2.28040  -11.54200  -10.64970    2.28040 1984.65060    -999.25 2077.97050
 5100.00000    -999.25   12.61290  932.05330    4.11290    0.05050    1.97690    -999.25    0.42870    0.42870    1.07290    0.05050  110.88590  112.70330  110.88590   55.75090    -999.25   61.67200   55.75090    1.07290    1.01400    1.01400    -999.25    -999.25    0.48280    0.44110    1.12340   -4.38030   -3.62920    1.12340 1993.39070    -999.25 2124.42680
 5150.00000    -999.25   12.46570  796.05160    3.96570    0.01370    2.06620    -999.25    0.37650    0.37650    1.25620    0.01370  110.85590  107.75950  110.85590   55.44650    -999.25   57.50570   55.44650    1.25620    1.14580    1.14580    -999.25    -999.25    0.51570    0.47400    1.16210   -4.24110   -3.63130    1.16210 2016.40520    -999.25 2161.44680
 5200.00000    -999.25   11.03530 1348.79960    2.53530   -0.00260    2.01860    -999.25    0.40430    0.40430    0.74140   -0.00260  134.31160  132.76280  134.31160   59.75800    -999.25   56.69920   59.75800    0.74140    0.71300    0.71300    -999.25    -999.25    0.49360    0.45190    0.79270   -4.94190   -4.47340    0.79270 2039.80630    -999.25 2115.40360
 5250.00000    -999.25   11.94010 1025.64100    3.44010   -0.00620    2.09700    -999.25    0.35850    0.35850    0.97500   -0.00620   96.06220   95.52650   96.06220   59.14890    -999.25   59.67960   59.14890    0.97500    0.94750    0.94750    -999.25    -999.25    0.51090    0.46920    0.99960   -3.79820   -3.47100    0.99960 2003.43430    -999.25 2172.09500
 5300.00000    -999.25   11.77430  971.15660    3.27430   -0.00060    2.10310    -999.25    0.35490    0.35490    1.02970   -0.00060  112.35840  111.72940  112.35840   57.65150    -999.25   61.87130   57.65150    1.02970    0.93030    0.93030    -999.25    -999.25    0.51160    0.46990    1.08040   -2.99880   -2.81280    1.08040 2045.48670    -999.25 2195.59420
 5350.00000    -999.25   11.55960  771.24790    3.05960    0.01110    2.12330    -999.25    0.34310    0.34310    1.29660    0.01110   98.51210   96.16500   98.51210   63.57650    -999.25   60.17790   63.57650    1.29660    1.22710    1.22710    -999.25    -999.25    0.41770    0.37520    1.48420   -2.31590   -2.27120    1.48420 2127.89500    -999.25 2212.86080
 5400.00000    -999.25   11.77020  924.55630    3.27020    0.00520    2.05970    -999.25    0.38030    0.38030    1.08160    0.00520  110.08340  115.25780  110.08340   62.52180    -999.25   51.82590   62.52180    1.08160    1.00100    1.00100    -999.25    -999.25    0.48820    0.44650    1.09230   -1.93090   -2.02750    1.09230 2061.41580    -999.25 2173.25540
 5450.00000    -999.25   11.04090  270.96600    2.54090   -0.00190    2.38720    -999.25    0.18880    0.18880    3.69050   -0.00190   94.58820   95.44790   94.58820   69.80560    -999.25   55.88320   69.80560    3.69050    3.55220    3.55220    -999.25    -999.25    0.33040    0.28660    3.45010  -13.40710  -12.74900    3.45010 2065.05440    -999.25 2178.79880
 5500.00000    -999.25   10.01550  140.32130    1.51550   -0.02040    2.29330    -999.25    0.24370    0.24370    7.12650   -0.02040   88.42060   87.90040   88.42060  109.94680    -999.25   94.40790  109.94680    7.12650    7.21530    7.21530    -999.25    -999.25    0.34570    0.30200    6.83610  -17.08810  -15.69030    6.83610 2065.41920    -999.25 2200.60990
 5550.00000    -999.25   11.80170  300.57110    3.30170   -0.00290    1.96360    -999.25    0.43650    0.43650    3.32700   -0.00290   93.58500   99.93970   93.58500   66.05810    -999.25   61.61160   66.05810    3.32700    3.13600    3.13600    -999.25    -999.25    0.35190    0.30830    3.20980  -10.98450   -9.10050    3.20980 2132.63130    -999.25 2217.93900
 5600.00000    -999.25   10.19610  160.25130    1.69610    0.01640    2.37890    -999.25    0.19360    0.19360    6.24020    0.01640   90.27890   90.93720   90.27890   66.76280    -999.25   57.45240   66.76280    6.24020    5.96520    5.96520    -999.25    -999.25    0.32210    0.27820    5.48290  -13.44990  -11.07980    5.48290 2115.88550    -999.25 2219.55640
 5650.00000    -999.25    9.57940  127.62920    1.07940   -0.02690    2.22950    -999.25    0.28100    0.28100    7.83520   -0.02690   87.63770   88.16690   87.63770   22.90900    -999.25   24.67670   22.90900    7.83520    6.97650    6.97650    -999.25    -999.25    0.24950    0.20560    6.22480  -11.24550   -8.38920    6.22480 2148.51250    -999.25 2263.67240
 5700.00000    -999.25    9.82350  114.93860    1.32350   -0.01240    2.22300    -999.25    0.28480    0.28480    8.70030   -0.01240   93.09700   92.57720   93.09700   32.63260    -999.25   33.26070   32.63260    8.70030    7.92740    7.92740    -999.25    -999.25    0.29200    0.24800    6.73440  -13.48570  -10.14320    6.73440 2163.60840    -999.25 2277.61430
 5750.00000    -999.25   10.04280  231.25130    1.54280   -0.00540    2.31350    -999.25    0.23190    0.23190    4.32430   -0.00540   93.32930   94.35850   93.32930   62.68880    -999.25   56.28270   62.68880    4.32430    4.19280    4.19280    -999.25    -999.25    0.30770    0.26370    5.43170  -14.70690  -10.87830    5.43170 2186.39330    -999.25 2303.73290
