~Version ---------------------------------------------------
VERS. 2.0 : CWLS log ASCII Standard -VERSION 2.0
WRAP. YES : Multiple lines per depth step
~Well ------------------------------------------------------
STRT.FT                         1650.0 : START DEPTH
STOP.FT                        10200.0 : STOP DEPTH
STEP.FT                       50.00000 : STEP LENGTH
NULL.                          -999.25 : NULL VALUE
COMP.    WISENBAKER PRODUCTION COMPANY : COMPANY
WELL.                   LOUISE COOK #1 : WELL
FLD .                          Wildcat : FIELD
LOC .                                  : LOCATION
CNTY.                             LEON : COUNTY
STAT.                            TEXAS : STATE
CTRY.         UNITED STATES OF AMERICA : COUNTRY
SRVC. HALLIBURTON LOGGING SERVICES INC : SERVICE COMPANY
DATE.                      23-Jun-1991 : LOGDATE
API .                   42289310900000 : API NUMBER
UWI .                   42289310900000 : UNIQUE WELL ID
SLAT.WGS84               31.4085562243 : SURFACE LATITUDE
SLON.WGS84              -96.1795644382 : SURFACE LONGITUDE
~Curve Information -----------------------------------------
DEPT    .FT    : DEPTH FEET
CALDED  .IN    : CALIPER FROM DUAL INDUCTION SPECTRAL DENSITY DSN II LOG
CALWS   .IN    : CALIPER [DCALED + BITS]
CONDWS  .MMHO  : CONDUCTIVITY [1000/DRESWS]
DCALED  .IN    : DIFFERENTIAL CALIPER FROM DUAL INDUCTION SPECTRAL DENSITY DSN II LOG
DCORED  .G/C3  : DENSITY CORRECTION FROM DUAL INDUCTION SPECTRAL DENSITY DSN II LOG
DCORWS  .G/C3  : DENSITY CORRECTION [DCORED]
DENED   .G/C3  : COMPENSATED BULK DENSITY FROM DUAL INDUCTION SPECTRAL DENSITY DSN II LOG
DENWS   .G/C3  : FORMATION BULK DENSITY [CALCULATED FROM DPOWS, M=2.71, F=1.0 & SPLICED @ 8196' WITH DENED]
DPORLSED.V/V   : DENSITY POROSITY LIMESTONE [M=2.71, F=1.0] FROM DUAL INDUCTION SPECTRAL DENSITY DSN II LOG
DPOWS   .V/V   : DENSITY POROSITY LIMESTONE [DPORLSED]
DRESWS  .OHMM  : DEEP RESISTIVITY [ILDED]
GRDED   .GAPI  : GAMMA RAY FROM DUAL INDUCTION SPECTRAL DENSITY DSN II LOG
GRWS    .GAPI  : GAMMA RAY [GRDED]
ILDED   .OHMM  : DEEP RESISTIVITY FROM DUAL INDUCTION SPECTRAL DENSITY DSN II LOG
ILMED   .OHMM  : MEDIUM RESISTIVITY FROM DUAL INDUCTION SPECTRAL DENSITY DSN II LOG
MRESWS  .OHMM  : MEDIUM RESISTIVITY [ILMED]
NPORLSED.V/V   : NEUTRON POROSITY LIMESTONE FROM DUAL INDUCTION SPECTRAL DENSITY DSN II LOG
NPOWS   .V/V   : NEUTRON POROSITY LIMESTONE [NPORLSED]
PEED    .B/E   : PHOTO ELECTRIC CROSS SECTION FROM DUAL INDUCTION SPECTRAL DENSITY DSN II LOG
PEFWS   .B/E   : PHOTOELECTRIC FACTOR [PEED]
SGUARDED.OHMM  : SHALLOW/SHORT GUARD INDUCTION FROM DUAL INDUCTION SPECTRAL DENSITY DSN II LOG
SPRED   .MV    : SPONTANEOUS POTENTIAL FROM DUAL INDUCTION SPECTRAL DENSITY DSN II LOG
SPWS    .MV    : SPONTANEOUS POTENTIAL [BASELINE 0 MV, SPRED]
SRESWS  .OHMM  : SHALLOW RESISTIVITY [SGUARDED]
TENRED  .LBF   : TENSION FROM DUAL INDUCTION SPECTRAL DENSITY DSN II LOG
~Params ----------------------------------------------------
PD  .                     GL : PERMANENT DATUM
EPD .FT                  510 : ELEVATION PERMANENT DATUM
LMF .                    TKB : LOG MEASURED FROM
DAPD.FT                   14 : FEET ABOVE PERMANENT DATUM
DMF .                    TKB : DRILLING MEASURED FROM
EKB .FT                  524 : KELLY BUSHING
EDF .FT                  523 : DRILLING FLOOR
EGL .FT                  510 : GROUND LEVEL
DATE.               06/23/91 : RUN DATE
RUN .                      1 : RUN NUMBER
DD  .FT                10200 : DEPTH DRILLER
DL  .FT                10200 : DEPTH LOGGER
BLI .FT                10295 : BOTTOM LOG INTERVAL
TLI .FT                 1610 : TOP LOG INTERVAL
CS  .IN                9.625 : CASING SIZE
CBD .FT                 1600 : CASING BOTTOM DRILLER
CBL .FT                 1610 : CASING BOTTOM LOGGER
BS  .IN                 8.75 : BIT SIZE
BSD .FT                10200 : BIT SIZE AT DEPTH
DFT .         WATER BASE MUD : DRILLING FLUID TYPE
DFD .                   10.3 : DRILLING FLUID DENSITY
DFV .                     45 : DRILLING FLUID VISCOSITY
DFPH.                    8.9 : DRILLING FLUID PH
DFL .                    9.8 : DRILLING FLUID LOSS
MSS .                   TANK : MUD SAMPLE SOURCE
RMS .OHMM               1.72 : RESISTIVITY MUD SAMPLE
MST .DEGF                 75 : MUD SAMPLE TEMPERATURE
RMF .OHMM               1.66 : RESISTIVITY MUD FILTRATE SAMPLE
MFST.DEGF                 75 : MUD FILTRATE SAMPLE TEMPERATURE
RMC .OHMM               2.17 : RESISTIVITY MUD CAKE
MCST.DEGF                 75 : MUD CAKE SAMPLE TEMPERATURE
MFSS.                   MEAS : MUD FILTRATE SAMPLE SOURCE
MCSS.                   MEAS : MUD CAKE SAMPLE SOURCE
RMB .OHMM               0.54 : RESISTIVITY MUD AT BHT
TCS .HRS                   5 : TIME CIRCULATED STOPPED
TLAB.HRS                 630 : TIME LOGGER AT BOTTOM
LUN .                   2910 : LOGGING UNIT NUMBER
LUL .                  TYLER : LOGGING UNIT LOCATION
ENGI.               SULLIVAN : RECORDING ENGINEER
WITN.           GLYNN SHREVE : WITNESSED BY
CLNT.                A2DTECH : CLIENT CODE
ORIG.         1" 2" 5" PRINT : ORIGIN OF DATA
UWI .         42289310900000 : UNIQUE WELL ID
DICO. A2D Technologies, Inc. : DIGITIZING COMPANY
~Other -----------------------------------------------------
~ASCII -----------------------------------------------------
# ...
 7250.00000    -999.25   11.11390  152.73000    2.36390    -999.25    -999.25    -999.25    -999.25    -999.25    -999.25    6.54750    -999.25    -999.25    6.54750    8.67800    8.67800    -999.25    -999.25    -999.25    -999.25   13.27260  -54.66790  -21.23470   13.27260 3164.70070
 7300.00000    -999.25   11.08930  408.98120    2.33930    -999.25    -999.25    -999.25    -999.25    -999.25    -999.25    2.44510    -999.25    -999.25    2.44510    2.37140    2.37140    -999.25    -999.25    -999.25    -999.25    3.32150  -59.34310  -26.22960    3.32150 3172.14180
 7350.00000    -999.25   11.13230  104.52160    2.38230    -999.25    -999.25    -999.25    -999.25    -999.25    -999.25    9.56740    -999.25    -999.25    9.56740   12.68180   12.68180    -999.25    -999.25    -999.25    -999.25   13.82740  -54.20550  -21.41170   13.82740 3200.72780
 7400.00000    -999.25   11.92390  426.51200    3.17390    -999.25    -999.25    -999.25    -999.25    -999.25    -999.25    2.34460    -999.25    -999.25    2.34460    2.23890    2.23890    -999.25    -999.25    -999.25    -999.25    3.57500  -56.82660  -24.35250    3.57500 3167.17160
 7450.00000    -999.25   12.62680  487.99530    3.87680    -999.25    -999.25    -999.25    -999.25    -999.25    -999.25    2.04920    -999.25    -999.25    2.04920    1.78530    1.78530    -999.25    -999.25    -999.25    -999.25    2.31200  -56.95140  -24.79690    2.31200 3266.59010
 7500.00000    -999.25   11.42790  254.44650    2.67790    -999.25    -999.25    -999.25    -999.25    -999.25    -999.25    3.93010    -999.25    -999.25    3.93010    4.16420    4.16420    -999.25    -999.25    -999.25    -999.25    4.79290  -47.87960  -16.04480    4.79290 3232.82250
 7550.00000    -999.25   11.28180  125.10160    2.53180    -999.25    -999.25    -999.25    -999.25    -999.25    -999.25    7.99350    -999.25    -999.25    7.99350   10.72150   10.72150    -999.25    -999.25    -999.25    -999.25   12.85290  -48.90580  -17.39070   12.85290 3251.07370
 7600.00000    -999.25   10.59340  113.89780    1.84340    -999.25    -999.25    -999.25    -999.25    -999.25    -999.25    8.77980    -999.25    -999.25    8.77980    9.87860    9.87860    -999.25    -999.25    -999.25    -999.25    9.40960  -55.67190  -24.47650    9.40960 3167.57860
 7650.00000    -999.25   11.00410  311.99300    2.25410    -999.25    -999.25    -999.25    -999.25    -999.25    -999.25    3.20520    -999.25    -999.25    3.20520    4.57880    4.57880    -999.25    -999.25    -999.25    -999.25    8.04960  -53.56020  -22.68450    8.04960 3282.79270
 7700.00000    -999.25   10.79950  120.05950    2.04950    -999.25    -999.25    -999.25    -999.25    -999.25    -999.25    8.32920    -999.25    -999.25    8.32920   11.27820   11.27820    -999.25    -999.25    -999.25    -999.25   18.97590  -53.92890  -23.37290   18.97590 3251.43210
 7750.00000    -999.25   11.71130  220.09950    2.96130    -999.25    -999.25    -999.25    -999.25    -999.25    -999.25    4.54340    -999.25    -999.25    4.54340    5.27330    5.27330    -999.25    -999.25    -999.25    -999.25   10.23620  -56.33760  -26.10120   10.23620 3323.74510
 7800.00000    -999.25   10.71630   47.13160    1.96630    -999.25    -999.25    -999.25    -999.25    -999.25    -999.25   21.21720    -999.25    -999.25   21.21720   33.55640   33.55640    -999.25    -999.25    -999.25    -999.25   68.98130  -55.92190  -26.00520   68.98130 3319.85940
 7850.00000    -999.25   10.43080   88.99010    1.68080    -999.25    -999.25    -999.25    -999.25    -999.25    -999.25   11.23720    -999.25    -999.25   11.23720   13.20550   13.20550    -999.25    -999.25    -999.25    -999.25   14.83350  -50.73610  -21.13910   14.83350 3318.87990
 7900.00000    -999.25   10.99700  251.22470    2.24700    -999.25    -999.25    -999.25    -999.25    -999.25    -999.25    3.98050    -999.25    -999.25    3.98050    5.03370    5.03370    -999.25    -999.25    -999.25    -999.25    7.97130  -53.21740  -23.94010    7.97130 3408.85280
 7950.00000    -999.25   11.25560  301.72280    2.50560    -999.25    -999.25    -999.25    -999.25    -999.25    -999.25    3.31430    -999.25    -999.25    3.31430    2.69990    2.69990    -999.25    -999.25    -999.25    -999.25    3.36000  -52.54240  -23.58480    3.36000 3376.03490
 8000.00000    -999.25   10.28210   58.45490    1.53210    -999.25    -999.25    -999.25    -999.25    -999.25    -999.25   17.10720    -999.25    -999.25   17.10720   27.66770   27.66770    -999.25    -999.25    -999.25    -999.25   68.36220  -45.64660  -17.00870   68.36220 3380.10300
 8050.00000    -999.25   10.86420   99.15220    2.11420    -999.25    -999.25    -999.25    -999.25    -999.25    -999.25   10.08550    -999.25    -999.25   10.08550   15.39650   15.39650    -999.25    -999.25    -999.25    -999.25   26.17670  -47.02010  -18.70180   26.17670 3385.43730
 8100.00000    -999.25   11.06670   15.44100    2.31670    -999.25    -999.25    -999.25    -999.25    -999.25    -999.25   64.76250    -999.25    -999.25   64.76250   72.68490   72.68490    -999.25    -999.25    -999.25    -999.25   97.94750  -60.79750  -32.79890   97.94750 3407.55180
 8150.00000    -999.25   11.03130   90.14450    2.28130    -999.25    -999.25    -999.25    -999.25    -999.25    -999.25   11.09330    -999.25    -999.25   11.09330   11.69100   11.69100    -999.25    -999.25    -999.25    -999.25   14.21210  -40.99950  -13.32060   14.21210 3376.79420
 8200.00000   10.81540   10.72420   59.55150    1.97420    0.02410    0.02410    2.66920    2.66920    0.02370    0.02370   16.79220   43.31960   43.31960   16.79220   18.52090   18.52090    0.05420    0.05420    4.78200    4.78200   17.74980  -50.71000  -23.35080   17.74980 3467.32280
 8250.00000   10.85830   10.77130   35.32450    2.02130    0.07940    0.07940    2.67300    2.67300    0.02260    0.02260   28.30900   48.31420   48.31420   28.30900   43.73540   43.73540    0.01190    0.01190    4.98840    4.98840   85.44400  -50.30240  -23.26290   85.44400 3408.16890
 8300.00000   11.30930   11.21540  119.03490    2.46540    0.04530    0.04530    2.69600    2.69600    0.00800    0.00800    8.40090   61.92360   61.92360    8.40090    6.98380    6.98380    0.11640    0.11640    4.21820    4.21820    9.75570  -38.91170  -12.19190    9.75570 3406.61550
 8350.00000   10.74470   10.70600   63.19670    1.95600    0.01820    0.01820    2.65680    2.65680    0.02960    0.02960   15.82360   48.84300   48.84300   15.82360   19.05450   19.05450    0.04550    0.04550    4.73450    4.73450   24.95050  -32.81510   -6.41500   24.95050 3416.05220
 8400.00000   11.01190   10.96070   42.06130    2.21070    0.03000    0.03000    2.65060    2.65060    0.03060    0.03060   23.77480   37.69150   37.69150   23.77480   25.91510   25.91510    0.01280    0.01280    5.12840    5.12840   40.81060  -80.79880  -54.71830   40.81060 3461.48930
 8450.00000   11.20580   11.08890   26.36770    2.33890    0.02970    0.02970    2.69420    2.69420    0.00870    0.00870   37.92520   42.98290   42.98290   37.92520   43.44680   43.44680    0.00340    0.00340    5.19220    5.19220   53.12080  -90.50030  -64.73950   53.12080 3460.84470
 8500.00000   10.86510   10.82020  126.64480    2.07020    0.03460    0.03460    2.61690    2.61690    0.05020    0.05020    7.89610   19.19770   19.19770    7.89610   10.00980   10.00980    0.05440    0.05440    5.25730    5.25730   38.53160 -168.56300 -143.12190   38.53160 3444.45480
 8550.00000   11.32500   11.24430  114.97030    2.49430    0.03670    0.03670    2.72460    2.72460   -0.00930   -0.00930    8.69790   49.18370   49.18370    8.69790    8.78850    8.78850    0.06910    0.06910    4.55310    4.55310   12.88540  -38.25400  -13.13260   12.88540 3460.33940
 8600.00000   10.45120   10.39280   18.70040    1.64280    0.00680    0.00680    2.67190    2.67190    0.02070    0.02070   53.47470   48.64680   48.64680   53.47470   59.88650   59.88650    0.00940    0.00940    4.96210    4.96210   58.32100  -41.01640  -16.21470   58.32100 3512.99980
