~Version ---------------------------------------------------
VERS. 2.0 : CWLS log ASCII Standard -VERSION 2.0
WRAP.  NO : ONE LINE PER DEPTH STEP
~Well ------------------------------------------------------
STRT.F                   300.0 : START DEPTH
STOP.F                 18600.0 : STOP DEPTH
STEP.F                50.00000 : STEP LENGTH
NULL.                  -999.25 : NULL VALUE
COMP.        SHELL OIL COMPANY : COMPANY
WELL. PAWELEK BEN A ET AL A #1 : WELL
FLD .    PERSON AREA (WILDCAT) : FIELD
LOC .                          : LOCATION
CNTY.                   KARNES : COUNTY
STAT.                    TEXAS : STATE
CTRY. UNITED STATES OF AMERICA : COUNTRY
SRVC.             Schlumberger : SERVICE COMPANY
DATE.              22-May-1978 : LOGDATE
API .           42255305980000 : API NUMBER
UWI .           42255305980000 : UNIQUE WELL ID
SLAT.WGS84       29.0241796548 : SURFACE LATITUDE
SLON.WGS84      -97.8796797249 : SURFACE LONGITUDE
~Curve Information -----------------------------------------
DEPT   .F    0   1   0  0 : 1 MEASURED DEPTH
ILD    .OHMM 07 120 46 00 : INDUCTION DEEP RESISTIVITY
ILM    .OHMM 07 120 44 00 : INDUCTION MEDIUM RESISTIVITY
SPR    .MV   07 010 01 00 : SPONTANEOUS POTENTIAL FROM RESISTIVITY LOG
SFL    .OHMM 07 220 01 00 : SPHERICALLY FOCUSED LOG
GRR    .GAPI 07 310 01 00 : GAMMA RAY FROM RESISTIVITY LOG
DPHI_SS.DEC  45 890 12 00 : DENSITY POROSITY SANDSTONE
NPHI_SS.DEC  42 890 03 00 : NEUTRON POROSITY SANDSTONE
NPHI_LS.DEC  42 890 01 00 : NEUTRON POROSITY LIMESTONE
DPHI_LS.DEC  45 890 10 00 : DENSITY POROSITY LIMESTONE
GRD    .GAPI 45 310 01 00 : GAMMA RAY FROM DENSITY LOG
RHOB   .G/C3 45 350 01 00 : BULK DENSITY
DRHO   .G/C3 45 356 01 00 : BULK DENSITY CORRECTION
CALD   .IN   45 280 60 00 : CALIPER FROM DENSITY LOG
TEND   .LB   45 635 00 00 : TENSION FROM DENSITY LOG
PROX   .OHMM 21 270 04 00 : PROXIMITY RESISTIVITY (MPT)
MCAL   .IN   15 280 01 00 : MLT (MICROLOG) CALIPER
GRS    .GAPI 60 310 01 00 : GAMMA RAY FROM SONIC LOG
DT     .US/F 60 500 00 00 : DELTA-T (INTERVAL TRANSIT TIME)
CALS   .IN   60 280 50 00 : CALIPER FROM SONIC LOG
~Params ----------------------------------------------------
PD  .                     GL : PERMANENT DATUM
EPD .FT                  335 : ELEVATION PERMANENT DATUM
LMF .                     KB : LOG MEASURED FROM
DAPD.FT                   28 : FEET ABOVE PERMANENT DATUM
DMF .                     KB : DRILLING MEASURED FROM
EKB .FT                  363 : KELLY BUSHING
EDF .FT                  362 : DRILLING FLOOR
EGL .FT                  335 : GROUND LEVEL
DATE.               05/22/78 : RUN DATE
RUN .                      4 : RUN NUMBER
DD  .FT                18626 : DEPTH DRILLER
DL  .FT                18642 : DEPTH LOGGER
BLI .FT                18637 : BOTTOM LOG INTERVAL
TLI .FT                17550 : TOP LOG INTERVAL
CS  .IN                    7 : CASING SIZE
CBD .FT                17544 : CASING BOTTOM DRILLER
CBL .FT                17550 : CASING BOTTOM LOGGER
BS  .IN                    6 : BIT SIZE
BSD .FT                18626 : BIT SIZE AT DEPTH
DFT .               INVERMUL : DRILLING FLUID TYPE
DFD .                   17.6 : DRILLING FLUID DENSITY
DFV .                     70 : DRILLING FLUID VISCOSITY
DFL .                      2 : DRILLING FLUID LOSS
LUN .                   7799 : LOGGING UNIT NUMBER
LUL .                  PLEAS : LOGGING UNIT LOCATION
ENGI.             TURBEVILLE : RECORDING ENGINEER
WITN.                JARRELL : WITNESSED BY
CLNT.                A2DTECH : CLIENT CODE
ORIG.            2" 5" PRINT : ORIGIN OF DATA
UWI .         42255305980000 : UNIQUE WELL ID
DICO. A2D Technologies, Inc. : DIGITIZING COMPANY
~Other -----------------------------------------------------
~ASCII -----------------------------------------------------
# ...
 16950.00000    6.65800    6.23900  -10.28180   11.68980    -999.25    -999.25    -999.25    0.19110   -0.02710   78.12380    2.76060    0.04560   10.58470 9196.22070    -999.25    -999.25   93.53850   65.68710   10.22000
 17000.00000    6.84770    6.14130  -11.49830   10.79310    -999.25    -999.25    -999.25    0.15110   -0.05200   84.27110    2.80790    0.09380   10.12580 9142.67770    -999.25    -999.25  102.12820   69.33300    9.93520
 17050.00000    7.44820    6.92510  -11.33800   11.62790    -999.25    -999.25    -999.25    0.13430    0.00560   76.52510    2.74430    0.01070   10.10950 9162.96680    -999.25    -999.25   85.89050   65.59710    9.78110
 17100.00000   11.18530   10.24780  -10.23550   16.01200    -999.25    -999.25    -999.25    0.10960   -0.02430   65.69330    2.75370    0.01820    9.40900 9041.39750    -999.25    -999.25   74.90810   64.62930    8.98000
 17150.00000    5.63250    5.42610  -11.24560    8.23170    -999.25    -999.25    -999.25    0.06220   -0.06130   53.10520    2.79240    0.04730    9.27600 9116.42190    -999.25    -999.25   60.47000   70.49530    9.24060
 17200.00000    7.59700    6.99530   -9.56130   11.25430    -999.25    -999.25    -999.25    0.05840   -0.07670   61.32590    2.81330    0.04070    9.01570 9110.23340    -999.25    -999.25   93.51040   68.87610    8.85410
 17250.00000    7.64790    8.18720  -10.40070   11.87020    -999.25    -999.25    -999.25    0.15350   -0.02630   74.82170    2.78430    0.05680    9.02350 8832.96390    -999.25    -999.25   93.71780   64.94220    8.75920
 17300.00000    7.38000    7.07780   -7.86640   12.53730    -999.25    -999.25    -999.25    0.17890   -0.03510   88.08530    2.75820    0.01920    9.19010 9046.55270    -999.25    -999.25  102.23070   67.09210    8.90060
 17350.00000   23.49400   21.34360   -6.61990   32.31900    -999.25    -999.25    -999.25    0.01200   -0.03660   35.13770    2.78780    0.03140    9.06490 9012.36430    -999.25    -999.25   43.12050   59.09480    8.97550
 17400.00000   80.48680   85.04910   -4.83520  146.13370    -999.25    -999.25    -999.25    0.07890   -0.01460   43.56690    2.79070    0.08210    9.27760 9037.35350    -999.25    -999.25   46.15790   54.67040    9.00400
 17450.00000 1749.78630  711.85530  -24.51050 1737.99840    -999.25    -999.25    -999.25    0.00650   -0.02880   29.18030    2.77650    0.03360    8.65090 8998.58010    -999.25    -999.25   37.55270   50.66110    8.58750
 17500.00000  467.21940  924.68360  -49.17930 1670.92930    -999.25    -999.25    -999.25    0.00320   -0.03680   19.30770    2.75640    0.03270    8.64390 9035.78220    -999.25    -999.25   22.15690   49.82530    8.51080
 17550.00000    5.38900    4.16210  -69.19700   23.27720   10.11800    -999.25    -999.25    0.07570    0.08740   39.32460    2.57580    0.10530    6.72830    -999.25    -999.25    -999.25    0.00000   55.06730   11.18620
 17600.00000   33.55810    -999.25    -999.25    -999.25    5.64490    -999.25    -999.25    0.03580    0.00230    0.74970    2.70700   -0.01490    4.48920    -999.25    -999.25    -999.25    0.93220   52.17330    -999.25
 17650.00000  170.52440    -999.25    -999.25    -999.25   14.15120    -999.25    -999.25    0.02290   -0.07430    4.72660    2.83040    0.00410    4.00480    -999.25    -999.25    -999.25    5.12440   50.00870    -999.25
 17700.00000   99.73140    -999.25    -999.25    -999.25   10.04360    -999.25    -999.25    0.04640   -0.09830    5.99360    2.87770    0.00360    -999.25    -999.25    -999.25    -999.25    6.10140   47.59510    -999.25
 17750.00000    5.32290    -999.25    -999.25    -999.25    4.31580    -999.25    -999.25    0.08670   -0.02720    1.91800    2.75320   -0.00620    6.11340    -999.25    -999.25    -999.25    2.19480   52.15510    -999.25
 17800.00000   67.02380    -999.25    -999.25    -999.25   12.32360    -999.25    -999.25    0.04390   -0.12980    3.84880    2.91830    0.00180    5.22060    -999.25    -999.25    -999.25    3.64230   47.15890    -999.25
 17850.00000  125.80820    -999.25    -999.25    -999.25    9.35980    -999.25    -999.25    0.01310   -0.05480    5.91350    2.80800    0.00680    5.43980    -999.25    -999.25    -999.25    4.77370   52.25020    -999.25
 17900.00000   46.03190    -999.25    -999.25    -999.25   29.97790    -999.25    -999.25    0.08130   -0.03800   13.15410    2.77220   -0.00930    6.18110    -999.25    -999.25    -999.25   12.70730   57.95920    -999.25
 17950.00000   49.87980    -999.25    -999.25    -999.25   22.75710    -999.25    -999.25    0.06780   -0.04570   11.62570    2.78830   -0.01010    6.36210    -999.25    -999.25    -999.25   11.07460   54.01430    -999.25
 18000.00000  123.10600    -999.25    -999.25    -999.25    9.86250    -999.25    -999.25    0.01800   -0.06550    4.11490    2.81590   -0.00210    6.23830    -999.25    -999.25    -999.25    3.54620   50.63180    -999.25
 18050.00000   12.37020    -999.25    -999.25    -999.25   47.17200    -999.25    -999.25    0.10860   -0.03470   20.86050    2.76600   -0.01340    6.71250    -999.25    -999.25    -999.25   20.90590   62.88950    -999.25
 18100.00000    8.42640    -999.25    -999.25    -999.25   53.14140    -999.25    -999.25    0.11560   -0.00500   25.98140    2.71700   -0.01770    6.15480    -999.25    -999.25    -999.25   25.18730   61.11360    -999.25
 18150.00000   11.49000    -999.25    -999.25    -999.25   36.31540    -999.25    -999.25    0.10150   -0.03830   19.93190    2.77360   -0.00270    6.07220    -999.25    -999.25    -999.25   21.05270   61.49640    -999.25
 18200.00000   13.91030    -999.25    -999.25    -999.25   39.12870    -999.25    -999.25    0.09090   -0.01790   18.74540    2.72950   -0.01430    6.09590    -999.25    -999.25    -999.25   18.46930   62.72650    -999.25
 18250.00000    6.62150    -999.25    -999.25    -999.25   54.86460    -999.25    -999.25    0.12940   -0.02420   26.59780    2.74920   -0.01910    5.93860    -999.25    -999.25    -999.25   27.72900   66.89960    -999.25
 18300.00000    9.28560    -999.25    -999.25    -999.25   55.62370    -999.25    -999.25    0.10910   -0.01090   24.53350    2.72880   -0.00190    6.01600    -999.25    -999.25    -999.25   24.44060   62.23150    -999.25
 18350.00000   48.70320    -999.25    -999.25    -999.25   15.07700    -999.25    -999.25    0.04830   -0.04930    9.65410    2.79200   -0.00230    5.72010    -999.25    -999.25    -999.25   10.29680   53.47030    -999.25
 18400.00000   12.41610    -999.25    -999.25    -999.25   36.80920    -999.25    -999.25    0.07630   -0.02880   19.09970    2.75450   -0.02280    5.52400    -999.25    -999.25    -999.25   19.11270   58.61220    -999.25
 18450.00000   16.74750    -999.25    -999.25    -999.25   35.73170    -999.25    -999.25    0.07940   -0.02260   18.90850    2.75370   -0.01170    5.72070    -999.25    -999.25    -999.25   19.01650   59.46520    -999.25
 18500.00000   24.32220    -999.25    -999.25    -999.25   44.39770    -999.25    -999.25    0.05910   -0.02350   22.46950    2.75370   -0.00960    5.95390    -999.25    -999.25    -999.25   22.58370   58.14550    -999.25
 18550.00000   19.97070    -999.25    -999.25    -999.25   80.89900    -999.25    -999.25    0.05950   -0.01850   33.39330    2.74200   -0.01630    5.50880    -999.25    -999.25    -999.25   34.16840   55.33750    -999.25
 18600.00000   26.79970    -999.25    -999.25    -999.25   21.74730    -999.25    -999.25    0.04730   -0.00900    7.44870    2.72650   -0.00990    4.74660    -999.25    -999.25    -999.25    7.81390   57.22360    -999.25
