~Version ---------------------------------------------------
VERS. 2.0 : CWLS log ASCII Standard -VERSION 2.0
WRAP. YES : MULTIPLE LINES PER DEPTH STEP
~Well ------------------------------------------------------
STRT.FT                  850.0 : START DEPTH
STOP.FT                 7550.0 : STOP DEPTH
STEP.FT               50.00000 : STEP LENGTH
NULL.                  -999.25 : NULL VALUE
COMP.      REDMAN OPERATING CO : COMPANY
WELL.         J C WALLACE  #11 : WELL
FLD .               JOURDANTON : FIELD
LOC .                          : LOCATION
CNTY.                 ATASCOSA : COUNTY
STAT.                    TEXAS : STATE
CTRY. UNITED STATES OF AMERICA : COUNTRY
SRVC.             Schlumberger : SERVICE COMPANY
DATE.              09-Mar-2006 : LOGDATE
API .           42013342130000 : API NUMBER
UWI .           42013342130000 : UNIQUE WELL ID
SLAT.WGS84       28.8623537028 : SURFACE LATITUDE
SLON.WGS84      -98.6331986757 : SURFACE LONGITUDE
~Curve Information -----------------------------------------
DEPT    .FT    : DEPTH FEET
AT10ED  .OHMM  : 10 INCH RESISTIVITY TWO FOOT RESOLUTION FROM AIT LOG
AT20ED  .OHMM  : 20 INCH RESISTIVITY TWO FOOT RESOLUTION FROM AIT LOG
AT30ED  .OHMM  : 30 INCH RESISTIVITY TWO FOOT RESOLUTION FROM AIT LOG
AT60ED  .OHMM  : 60 INCH RESISTIVITY TWO FOOT RESOLUTION FROM AIT LOG
AT90ED  .OHMM  : 90 INCH RESISTIVITY TWO FOOT RESOLUTION FROM AIT LOG
CALWS   .IN    : CALIPER [DCALED+7.875]
CONDWS  .MMHO  : CONDUCTIVITY [1000/DRESWS]
DCALED  .IN    : DIFFERENTIAL CALIPER FROM DENSITY LOG
DCORWS  .G/C3  : DENSITY CORRECTION [HDRAED]
DENWS   .G/C3  : BULK DENSITY [M=2.71 F=1.0] [CALCULATED FROM DPOWS]
DPHZLSED.V/V   : DENSITY POROSITY [M=2.71 F=1.0] FROM DENSITY LOG
DPHZSSED.V/V   : DENSITY POROSITY [M=2.65 F=1.0] FROM DENSITY LOG
DPOWS   .V/V   : DENSITY POROSITY [M=2.71 F=1.0] [MERGED DPHISSED CONVERTED TO LS/DPHZLSED at 6000]
DRESWS  .OHMM  : DEEP RESISTIVITY [AT90ED]
GRRED   .GAPI  : GAMMA RAY FROM RESISTIVITY LOG
GRWS    .GAPI  : GAMMA RAY [GRRED] *CASED HOLE ABOVE 891 FT*
HDRAED  .G/C3  : DENSITY CORRECTION FROM DENSITY LOG
MRESWS  .OHMM  : MEDIUM RESISTIVITY [AT30ED]
NPOWS   .V/V   : NEUTRON POROSITY LIMESTONE [MERGED TNPHSSED CONVERTED TO LS/TNPHLSED at 6000] *CASED HOLE ABOVE 891 FT*
SPRED   .MV    : SPONTANEOUS POTENTIAL FROM RESISTIVITY LOG
SPWS    .MV    : SPONTANEOUS POTENTIAL [BASELINE 0 MV] [SPRED]
SRESWS  .OHMM  : SHALLOW RESISTIVITY [AT20ED]
TENRED  .LBF   : TENSION FROM RESISTIVITY LOG
TNPHLSED.V/V   : THERMAL NEUTRON POROSITY LIMESTONE FROM LWD LOG
TNPHSSED.V/V   : THERMAL NEUTRON POROSITY SANDSTONE FROM LWD LOG
~Params ----------------------------------------------------
PD  .                     GL : PERMANENT DATUM
EPD .FT                  445 : ELEVATION PERMANENT DATUM
LMF .                     KB : LOG MEASURED FROM
DAPD.FT                   15 : FEET ABOVE PERMANENT DATUM
DMF .                     KB : DRILLING MEASURED FROM
EKB .FT                  445 : KELLY BUSHING
EDF .FT                  460 : DRILLING FLOOR
EGL .FT                  459 : GROUND LEVEL
DATE.             03/09/2006 : RUN DATE
RUN .                      1 : RUN NUMBER
DD  .FT                 7575 : DEPTH DRILLER
DL  .FT                 7570 : DEPTH LOGGER
BLI .FT                 7570 : BOTTOM LOG INTERVAL
TLI .FT                  891 : TOP LOG INTERVAL
CS  .IN                8.625 : CASING SIZE
CBD .FT                  888 : CASING BOTTOM DRILLER
CBL .FT                  891 : CASING BOTTOM LOGGER
BS  .IN                7.875 : BIT SIZE
BSD .FT                 7575 : BIT SIZE AT DEPTH
DFT .  FRESH WATER BASED MUD : DRILLING FLUID TYPE
DFD .                   10.2 : DRILLING FLUID DENSITY
DFV .                     40 : DRILLING FLUID VISCOSITY
DFPH.                    8.7 : DRILLING FLUID PH
DFL .                    5.2 : DRILLING FLUID LOSS
MSS .                MUD PIT : MUD SAMPLE SOURCE
RMS .OHMM              1.006 : RESISTIVITY MUD SAMPLE
MST .FT                   82 : MUD SAMPLE TEMPERATURE
RMF .OHMM              0.754 : RESISTIVITY MUD FILTRATE SAMPLE
MFST.FT                   82 : MUD FILTRATE SAMPLE TEMPERATURE
RMC .OHMM              1.512 : RESISTIVITY MUD CAKE
MCST.FT                   82 : MUD CAKE SAMPLE TEMPERATURE
MFSS.             CALCULATED : MUD FILTRATE SAMPLE SOURCE
MCSS.             CALCULATED : MUD CAKE SAMPLE SOURCE
RMB .OHMM              0.501 : RESISTIVITY MUD AT BHT
TCS .HRS                1200 : TIME CURCULATED STOPPED
TLAB.HRS                1930 : TIME LOGGER AT BOTTOM
LUN .                   2129 : LOGGING UNIT NUMBER
LUL .               VICTORIA : LOGGING UNIT LOCATION
ENGI.         JOSEPH JEPHSON : RECORDING ENGINEER
WITN.         BRIAN MCMICKEN : WITNESSED BY
CLNT.                A2DTECH : CLIENT CODE
ORIG.            1" 5" PRINT : ORIGIN OF DATA
UWI .         42013342130000 : UNIQUE WELL ID
DICO. A2D Technologies, Inc. : DIGITIZING COMPANY
~Other -----------------------------------------------------
~ASCII -----------------------------------------------------
# ...
 6450.00000    8.09700    7.72910    7.34930    7.10590    6.96550    7.99260  143.56470    0.11760   -0.00140    2.60690    0.06030    -999.25    0.06030    6.96550   49.58680   49.58680   -0.00140    7.34930    0.06280    0.72320   -4.51090    7.72910 2677.08030    0.06280    -999.25
 6500.00000    3.80600    3.69290    3.27450    2.89360    2.80100    8.17810  357.01540    0.30310    0.00330    2.58400    0.07370    -999.25    0.07370    2.80100   75.01550   75.01550    0.00330    3.27450    0.13080    3.47250   -1.38500    3.69290 2713.98490    0.13080    -999.25
 6550.00000    4.94240    4.79650    4.69030    4.54400    4.44040    8.06570  225.20490    0.19070    0.00440    2.56930    0.08230    -999.25    0.08230    4.44040   61.77000   61.77000    0.00440    4.69030    0.12080   -1.39110   -6.06660    4.79650 2846.57420    0.12080    -999.25
 6600.00000    5.38050    5.30160    5.16180    5.08040    5.03000    7.92370  198.80710    0.04870    0.00130    2.58400    0.07370    -999.25    0.07370    5.03000   55.98080   55.98080    0.00130    5.16180    0.10830   -4.41480   -8.98030    5.30160 2726.45040    0.10830    -999.25
 6650.00000   13.76120   12.76510   11.94790   11.37320   11.26940    7.94410   88.73590    0.06910    0.00300    2.57800    0.07720    -999.25    0.07720   11.26940   44.47140   44.47140    0.00300   11.94790    0.10430  -11.68080  -16.13630   12.76510 2844.83620    0.10430    -999.25
 6700.00000   34.53340   31.76060   30.38050   29.75020   29.35820    7.92590   34.06200    0.05090   -0.00460    2.51680    0.11300    -999.25    0.11300   29.35820   48.60210   48.60210   -0.00460   30.38050    0.09840  -10.72520  -15.07070   31.76060 2835.77860    0.09840    -999.25
 6750.00000   13.76600   13.05080   12.78640   12.43300   12.21560    7.84800   81.86250   -0.02700    0.00680    2.60790    0.05970    -999.25    0.05970   12.21560   45.99910   45.99910    0.00680   12.78640    0.08170   -4.29440   -8.52990   13.05080 2840.66210    0.08170    -999.25
 6800.00000    9.96780    9.64690    9.06600    8.67790    8.30420    7.87240  120.42100   -0.00260    0.00810    2.58480    0.07320    -999.25    0.07320    8.30420   42.73650   42.73650    0.00810    9.06600    0.09730   -8.98270  -13.10820    9.64690 2824.35250    0.09730    -999.25
 6850.00000   12.17240   11.75770   11.53920   11.35530   11.24180    7.86830   88.95370   -0.00670   -0.00150    2.57730    0.07760    -999.25    0.07760   11.24180   88.71750   88.71750   -0.00150   11.53920    0.12220    0.35680   -3.65870   11.75770 2898.04490    0.12220    -999.25
 6900.00000   43.62180   38.30490   37.12200   34.28330   32.18810    7.89620   31.06740    0.02120   -0.00170    2.49970    0.12300    -999.25    0.12300   32.18810  129.70620  129.70620   -0.00170   37.12200    0.17840   -5.18200   -9.07450   38.30490 2889.12300    0.17840    -999.25
 6950.00000  824.93010  151.60890  121.05120  157.93850  172.80020    7.89210    5.78700    0.01710   -0.00130    2.58940    0.07050    -999.25    0.07050  172.80020   18.71750   18.71750   -0.00130  121.05120    0.05130  -28.62960  -31.11750  151.60890 2836.39110    0.05130    -999.25
 7000.00000  228.48810  187.25790  172.80890  189.05300  195.15400    7.90820    5.12420    0.03320    0.00050    2.65580    0.03170    -999.25    0.03170  195.15400   14.39160   14.39160    0.00050  172.80890    0.01680  -28.40070  -29.48400  187.25790 2873.13060    0.01680    -999.25
 7050.00000    8.99780    8.45140    7.55940    7.08020    6.80000    7.98040  147.05880    0.10540    0.01730    2.68610    0.01400    -999.25    0.01400    6.80000   72.22900   72.22900    0.01730    7.55940    0.08940   -5.45030   -5.12900    8.45140 2931.76660    0.08940    -999.25
 7100.00000    2.62980    2.55300    2.44350    2.39980    2.29830    8.15310  435.10420    0.27810    0.18020    2.54860    0.09440    -999.25    0.09440    2.29830  102.43660  102.43660    0.18020    2.44350    0.24140   -7.51140   -5.35080    2.55300 2950.30180    0.24140    -999.25
 7150.00000   91.16840   63.47390   58.69760   63.61520   64.72940    7.84690   15.44890   -0.02810    0.00060    2.65990    0.02930    -999.25    0.02930   64.72940   43.02460   43.02460    0.00060   58.69760    0.02550  -40.33210  -31.33430   63.47390 2926.20800    0.02550    -999.25
 7200.00000   94.70390   71.40600   63.73450   58.46920   54.66270    7.86110   18.29400   -0.01390    0.00110    2.68250    0.01610    -999.25    0.01610   54.66270   32.77970   32.77970    0.00110   63.73450    0.01850  -25.17170   -9.33670   71.40600 2963.90890    0.01850    -999.25
 7250.00000   40.56110   42.24750   40.84290   37.61200   35.13140    7.81760   28.46460   -0.05740   -0.00200    2.44790    0.15330    -999.25    0.15330   35.13140   46.99280   46.99280   -0.00200   40.84290    0.08970 -111.86310  -95.71070   42.24750 2920.89110    0.08970    -999.25
 7300.00000   28.61790   31.51410   31.07100   38.33250   46.23870    7.86610   21.62690   -0.00890   -0.00510    2.33290    0.22050    -999.25    0.22050   46.23870   46.40650   46.40650   -0.00510   31.07100    0.14290 -121.07670 -107.14250   31.51410 2964.36300    0.14290    -999.25
 7350.00000   37.88050   25.11850   21.95330   20.38590   19.20490    7.89570   52.07000    0.02070    0.00100    2.53440    0.10270    -999.25    0.10270   19.20490   40.85540   40.85540    0.00100   21.95330    0.06480  -96.48180  -84.76590   25.11850 2974.99710    0.06480    -999.25
 7400.00000  122.63800 2028.09990  811.51940 1927.74010 1978.59510    7.80050    0.50540   -0.07450   -0.00090    2.87600   -0.09710    -999.25   -0.09710 1978.59510   14.54250   14.54250   -0.00090  811.51940   -0.00310  -96.71720  -87.21950 2028.09990 3007.21580   -0.00310    -999.25
 7450.00000   41.99590   33.05950   25.96700   34.75000   34.76240    7.85110   28.76670   -0.02390    0.00440    2.60840    0.05940    -999.25    0.05940   34.76240   35.74330   35.74330    0.00440   25.96700    0.04140  -95.43620  -88.15670   33.05950 2961.69340    0.04140    -999.25
 7500.00000    8.05610    7.92420    8.60210    7.89480    7.26700    7.85920  137.60840   -0.01580    0.04770    2.78180   -0.04200    -999.25   -0.04200    7.26700   43.70960   43.70960    0.04770    8.60210    0.11190  -84.47430  -79.41300    7.92420 3025.05490    0.11190    -999.25
 7550.00000   68.52870   96.29130   72.43360   96.67740  111.40230    7.82740    8.97650   -0.04760    0.03140    2.68710    0.01340    -999.25    0.01340  111.40230    -999.25    -999.25    0.03140   72.43360    -999.25  -11.34000   -8.45250   96.29130 3041.48630    -999.25    -999.25
