~Version ---------------------------------------------------
VERS. 2.0 : CWLS log ASCII Standard -VERSION 2.0
WRAP.  NO : ONE LINE PER DEPTH STEP
~Well ------------------------------------------------------
STRT.F                   300.0 : START DEPTH
STOP.F                  7950.0 : STOP DEPTH
STEP.F                50.00000 : STEP LENGTH
NULL.                  -999.25 : NULL VALUE
COMP.  CONTINENTAL OIL COMPANY : COMPANY
WELL.     H. J. CHITTIM #209-1 : WELL
FLD .                  WILDCAT : FIELD
LOC .                          : LOCATION
CNTY.                 MAVERICK : COUNTY
STAT.                    TEXAS : STATE
CTRY. UNITED STATES OF AMERICA : COUNTRY
SRVC.             Schlumberger : SERVICE COMPANY
DATE.              31-Mar-1964 : LOGDATE
API .           42323000820000 : API NUMBER
UWI .           42323000820000 : UNIQUE WELL ID
SLAT.WGS84       28.7811133281 : SURFACE LATITUDE
SLON.WGS84     -100.2467463603 : SURFACE LONGITUDE
~Curve Information -----------------------------------------
DEPT.F                 : 
SPR .MV   05 010 01 00 : SPONTANEOUS POTENTIAL FROM RES.
CALS.IN   60 280 50 00 : CALIPER FROM SONIC LOG SCALE CHANGE AT 7218 (5/15)
GRN .GAPI 35 310 01 00 : GAMMA RAY
NEUT.NAPI 35 330 01 00 : NEUTRON SCALE CHANGE AT 4253 (875/3375)
ASN .OHMM 05 041 16 00 : AMPLIFIED SHORT NORMAL 16" SCALE CHANGE 4167 (0/100)
ILD .OHMM 05 120 46 00 : INDUCTION LOG DEEP SCALE CHANGE 4167 (0/100)
CILD.MMHO 05 110 46 00 : CONDUCTIVITY INDUCTION LOG DEEP SCALE CHANGE AT 4167 (200,0)
GRS .GAPI 60 310 01 00 : GAMMA RAY FROM SONIC LOG
DT  .US/F 60 520 31 00 : INTERVAL TRANSIT TIME S/C AT 1054 (110/50), 3100 (90/30), & AT 4166 (80/40)
~Params ----------------------------------------------------
PD  .                     GL : PERMANENT DATUM
LMF .                     KB : LOG MEASURED FROM
DAPD.FT                12.85 : FEET ABOVE PERMANENT DATUM
DMF .                     KB : DRILLING MEASURED FROM
EDF .FT                  707 : DRILLING FLOOR
DATE.              3-31-1964 : RUN DATE
RUN .                      3 : RUN NUMBER
DD  .FT                 7957 : DEPTH DRILLER
DL  .FT                 7978 : DEPTH LOGGER
BLI .FT                 7977 : BOTTOM LOG INTERVAL
TLI .FT                 7286 : TOP LOG INTERVAL
CBD .FT                 7280 : CASING BOTTOM DRILLER
CBL .FT                 7286 : CASING BOTTOM LOGGER
BS  .IN                6.125 : BIT SIZE
BSD .FT                 7957 : BIT SIZE AT DEPTH
DFT .       OIL EMULSION CAU : DRILLING FLUID TYPE
DFD .                   17.9 : DRILLING FLUID DENSITY
DFV .                     72 : DRILLING FLUID VISCOSITY
DFPH.                     10 : DRILLING FLUID PH
DFL .                    0.5 : DRILLING FLUID LOSS
MSS .               FLOWLINE : MUD SAMPLE SOURCE
RMS .OHMM               0.99 : RESISTIVITY MUD SAMPLE
MST .DEGF                 91 : MUD SAMPLE TEMPERATURE
RMF .OHMM               0.31 : RESISTIVITY MUD FILTRATE SAMPLE
MFST.DEGF                 82 : MUD FILTRATE SAMPLE TEMPERATURE
RMC .OHMM                2.1 : RESISTIVITY MUD CAKE
MCST.DEGF                 82 : MUD CAKE SAMPLE TEMPERATURE
MFSS.                     FP : MUD FILTRATE SAMPLE SOURCE
MCSS.                     FP : MUD CAKE SAMPLE SOURCE
RMB .OHMM               0.42 : RESISTIVITY MUD AT BHT
TCS .HRS                   9 : TIME CIRCULATED STOPPED
LUN .                   3530 : LOGGING UNIT NUMBER
LUL .                     PL : LOGGING UNIT LOCATION
ENGI.                 HODGES : RECORDING ENGINEER
WITN.                JANTZEN : WITNESSED BY
CLNT.                A2DTECH : CLIENT CODE
ORIG.               2" PRINT : ORIGIN OF DATA
UWI .         42323000820000 : UNIQUE WELL ID
DICO. A2D Technologies, Inc. : DIGITIZING COMPANY
~Other -----------------------------------------------------
~ASCII -----------------------------------------------------
  300.00000  -48.91470   12.89710    -999.25    -999.25    2.23780    2.01240  433.35900    -999.25  112.06300
  350.00000  -49.22480   12.72340    -999.25    -999.25    2.75380    2.99920  372.88890    -999.25  113.57570
  400.00000  -49.22480   14.01860    -999.25    -999.25    1.97530    1.81890  545.32620    -999.25  123.17300
  450.00000  -47.36420   12.84660    -999.25    -999.25    5.73460    5.14710  164.29130    -999.25   92.01350
  500.00000  -53.59680   14.34250    -999.25    -999.25    2.26850    1.71070  501.66920    -999.25   88.45190
  550.00000  -69.76740   12.61760    -999.25    -999.25    3.27940    3.09600  291.08920    -999.25  109.51200
  600.00000  -49.53490   15.05860    -999.25    -999.25    1.85190    1.31580  619.02930    -999.25  122.25100
  650.00000  -48.91470   15.04370    -999.25    -999.25    2.21450    1.43200  487.13410    -999.25  123.10200
  700.00000  -45.96900   15.04350    -999.25    -999.25    2.36110    1.70280  453.90340    -999.25  118.41630
  750.00000  -48.17830   14.95010    -999.25    -999.25    3.01310    2.55440  340.65230    -999.25  119.49200
  800.00000  -47.67440   14.25010    -999.25    -999.25    2.76850    2.63160  375.32100    -999.25  115.55610
  850.00000  -48.60420   15.04330    -999.25    -999.25    2.56940    1.89630  413.71340    -999.25  117.93820
  900.00000  -47.05430   13.16170    -999.25    -999.25    2.59260    2.24460  406.39440    -999.25  130.32330
  950.00000  -46.82180   15.04350    -999.25    -999.25    1.87500    1.23840  635.59330    -999.25  126.64130
 1000.00000  -46.27910   15.05920    -999.25    -999.25    2.31480    1.54800  498.00120    -999.25  123.19720
 1050.00000  -46.27910   15.09320    -999.25    -999.25    2.62350    2.06080  399.58930    -999.25  108.59410
 1100.00000  -43.95370   13.05600    -999.25    -999.25    3.04010    2.64650  347.84250    -999.25  112.71910
 1150.00000  -47.36430   12.72880    -999.25    -999.25    3.37190    3.52170  306.14470    -999.25  107.87850
 1200.00000  -47.67440   12.46440    -999.25    -999.25    5.55560    4.79880  192.21880    -999.25   89.59160
 1250.00000  -52.63570   12.54220    -999.25    -999.25    8.22710    4.21820  208.01040    -999.25   76.02590
 1300.00000  -45.50390   12.72890    -999.25    -999.25    7.99380    6.26940  133.92410    -999.25   87.51680
 1350.00000  -44.08270   13.24280    -999.25    -999.25    5.44750    4.60530  209.68160    -999.25   92.86450
 1400.00000  -44.88390   13.04360    -999.25    -999.25    6.02770    4.87620  190.93460    -999.25   82.82390
 1450.00000  -44.10850   14.10440    -999.25    -999.25    5.13890    3.09600  206.08630    -999.25   80.08960
 1500.00000  -46.27910   13.26190    -999.25    -999.25    7.74690    6.42410  142.65520    -999.25   79.31280
 1550.00000  -45.89160   13.02790    -999.25    -999.25   11.08800    7.97210  117.48840    -999.25   83.24900
 1600.00000  -43.17830   12.87230    -999.25    -999.25    9.18840    6.99380  128.53110    -999.25   68.91940
 1650.00000  -48.13950   12.66910    -999.25    -999.25    5.73800    3.43890  277.73500    -999.25   88.44550
 1700.00000  -56.51160   12.68490    -999.25    -999.25    8.58580    6.29830  149.84590    -999.25   81.94470
 1750.00000  -68.60470   12.65370    -999.25    -999.25   11.08960    8.69400  139.82820    -999.25   56.24500
 1800.00000  -52.79070   12.73170    -999.25    -999.25    9.91500    7.92120  120.05680    -999.25   86.62150
 1850.00000  -53.10080   12.68480    -999.25    -999.25   12.94440   10.70320   98.99610    -999.25   68.08090
 1900.00000  -51.78290   12.55990    -999.25    -999.25   11.55330    5.83460  186.82710    -999.25   86.06570
 1950.00000  -59.06980   12.73160    -999.25    -999.25   14.80680   11.55340   84.36130    -999.25   86.11670
 2000.00000  -69.96860   12.76300    -999.25    -999.25   11.02780    8.77130  103.62100    -999.25   74.71120
 2050.00000  -63.10080   12.79410    -999.25    -999.25    8.29980    6.99380  130.58550    -999.25   72.91830
 2100.00000  -67.51940   12.68460    -999.25    -999.25    8.84850    6.53010  138.54650    -999.25   75.78680
 2150.00000  -72.94570   12.79250    -999.25    -999.25    6.55330    5.02320  175.78370    -999.25   79.85060
 2200.00000  -72.94570   12.76270    -999.25    -999.25   11.10510    8.23030  103.87800    -999.25   77.34060
 2250.00000  -68.98150   12.65360    -999.25    -999.25   12.48840    9.00320   95.91680    -999.25   74.40770
 2300.00000  -60.19910   12.71600    -999.25    -999.25   22.85160   16.80830   53.80070    -999.25   69.15340
 2350.00000  -60.33950   12.77850    -999.25    -999.25   26.01240   19.35870   47.38140    -999.25   86.42430
 2400.00000  -55.18570   12.70670    -999.25    -999.25   26.87020   20.74960   47.63740    -999.25   74.89040
 2450.00000  -46.60490   12.62250    -999.25    -999.25   49.48910   25.45190   27.22140    -999.25   67.89840
 2500.00000  -51.23380   12.62240    -999.25    -999.25   22.99050   13.94900   53.54390    -999.25   74.11350
 2550.00000  -44.52150   12.66920    -999.25    -999.25   22.08650   14.10360   62.01850    -999.25   89.24320
 2600.00000  -45.21600   12.77840    -999.25    -999.25   16.26740   10.62600   83.59010    -999.25   80.60010
 2650.00000  -44.83020   12.73160    -999.25    -999.25   16.63060   12.21020   75.88600    -999.25   86.51390
 2700.00000  -41.55660   12.87200    -999.25    -999.25   16.60740   10.23960   85.90140    -999.25   74.89040
 2750.00000  -43.13280   12.71600    -999.25    -999.25   38.12210   29.11760   32.22930    -999.25   88.48930
 2800.00000  -45.21600   12.70050    -999.25    -999.25   63.24360   42.96750   20.92960    -999.25   86.12550
 2850.00000  -42.12960   12.56000    -999.25    -999.25   76.15150   50.67620   13.86750    -999.25   89.62030
 2900.00000  -42.28400   12.51990    -999.25    -999.25   37.64690   25.07730   34.79670    -999.25   70.46810
 2950.00000  -78.47220   12.37270    -999.25    -999.25   18.96180   13.44680   63.81570    -999.25   66.60030
 3000.00000  -85.87110   12.35730    -999.25    -999.25   28.40030   25.05790   32.99950    -999.25   63.91140
 3050.00000  -71.93790   12.28110    -999.25    -999.25   17.00150   14.02630   65.10020    -999.25   62.00530
 3100.00000  -41.16280   15.07460    -999.25    -999.25    2.61010    1.35240  536.40890    -999.25   65.26890
 3150.00000  -41.78290   15.10570    -999.25    -999.25    2.01990    1.36200  655.49570    -999.25  115.81260
 3200.00000  -38.37230   15.00300    -999.25    -999.25    2.53480    1.60370  505.26450    -999.25  100.53140
 3250.00000  -40.15500   14.61360    -999.25    -999.25    2.50970    2.04790  507.41510    -999.25   95.08130
 3300.00000  -36.82170   13.57020    -999.25    -999.25    2.80530    2.04790  431.30620    -999.25   51.01380
 3350.00000  -34.80640   12.94700    -999.25    -999.25   11.42970    8.40420  104.90500    -999.25   69.97550
 3400.00000  -56.35660   12.90040    -999.25    -999.25    8.55050    7.30290  123.90860    -999.25   63.61240
 3450.00000  -58.91460   12.93140    -999.25    -999.25   17.63520   15.61060   58.42320    -999.25   60.17950
 3500.00000  -40.12950   12.85350    -999.25    -999.25   18.85800   15.49460   58.93680    -999.25   61.43570
 3550.00000  -80.31000   12.77590    -999.25    -999.25   10.75710    6.95530  137.51930    -999.25   65.59120
 3600.00000  -28.57030   12.85340    -999.25    -999.25   17.49620   13.25350   62.53210    -999.25   59.46160
 3650.00000  -56.43420   12.63530    -999.25    -999.25   19.41460   16.73110   52.77350    -999.25   62.34870
 3700.00000  -35.27130   12.55760    -999.25    -999.25   20.96700   17.58110   49.69180    -999.25   63.40820
 3750.00000  -36.85520   12.41750    -999.25    -999.25   18.94310   14.64450   63.43070    -999.25   69.75070
 3800.00000  -50.46510   12.40170    -999.25    -999.25   25.01550   19.31220   42.50090    -999.25   58.49680
 3850.00000  -69.14730   12.38630    -999.25    -999.25   14.80290   10.70320   79.35290    -999.25   59.05480
 3900.00000  -79.45740   12.21120    -999.25    -999.25   20.98930   19.28130   44.29890    -999.25   61.17020
