~Version ---------------------------------------------------
VERS. 2.0 : CWLS log ASCII Standard -VERSION 2.0
WRAP.  NO : ONE LINE PER DEPTH STEP
~Well ------------------------------------------------------
STRT.F                      550.0 : START DEPTH
STOP.F                    10300.0 : STOP DEPTH
STEP.F                   50.00000 : STEP LENGTH
NULL.                     -999.25 : NULL VALUE
COMP.      SUTTON PRODUCING CORP. : COMPANY
WELL.                   REEVES #3 : WELL
FLD .                 STUART CITY : FIELD
LOC .                             : LOCATION
CNTY.                    LA SALLE : COUNTY
STAT.                       TEXAS : STATE
CTRY.    UNITED STATES OF AMERICA : COUNTRY
SRVC. HALLIBURTON Sperry Drilling : SERVICE COMPANY
DATE.                 29-Oct-1994 : LOGDATE
API .              42283315610000 : API NUMBER
UWI .              42283315610000 : UNIQUE WELL ID
SLAT.WGS84          28.2239577875 : SURFACE LATITUDE
SLON.WGS84         -99.2395489084 : SURFACE LONGITUDE
~Curve Information -----------------------------------------
DEPT.F                 : 
GRR .GAPI 07 310 01 00 : GAMMA RAY FROM RESISTIVITY
SPR .MV   07 010 01 00 : SPONTANEOUS POTENTIAL FROM RESISTIVITY
DFL .OHMM 07 220 01 00 : DIGITAL FOCUSED LATEROLOG
ILD .OHMM 07 120 46 00 : INDUCTION LOG DEEP RESISTIVITY
SGRD.OHMM 07 220 05 00 : SHORT GUARD RESISTIVITY
~Params ----------------------------------------------------
EKB .F                 515.7 : Kelly bushing
EGL .F                 501.3 : Ground level
EDF .F                 514.7 : Drilling floor
TD  .F               10302.0 : Total depth
CLNT.                A2DTECH : Client Code
SL  .   1750' FWL & 660' FSL : Surface Location
PD  .                     GL : Permanent Datum
EPD .F                 501.3 : Elevation Permanent Datum
LMF .                    TKB : Log Measured From
DMF .                    TKB : Drilling Measured From
DAPD.F                  14.4 : Feet Above Permanent Datum
DATE.            28-OCT-1994 : Date Logged [DD-MMM-YYYY]
DD  .F                 10300 : Depth driller
DL  .F                 10302 : Depth logger
BLI .F                 10300 : Bottom log interval
TLI .F                   531 : Top log interval
CS1 .IN                9.625 : Casing size
CBD1.          9.625" @ 531' : Casing driller 1
CBL1.F                   531 : Casing logger 1
BS1 .IN                7.875 : Bit size
BSD1.F                 10300 : Depth drilled with bit1
DFT .             WATER BASE : Type fluid in hole
DFD .                   10.8 : Density
DFV .                     40 : Viscosity
DFPH.                   10.5 : pH
DFL .                    5.8 : Fluid loss
MSS .             CIRCULATED : Source of sample
RMS .OHMM               1.15 : Rm
RMF .OHMM               0.92 : Rmf
MFSS.                   MEAS : Source Rmf.
RMC .OHMM               1.38 : Rmc
MCSS.                   MEAS : Source Rmc.
RMB .OHMM               0.35 : Rm. at BHT
BHT .F                   243 : BHT.
TCS .HRS                   6 : Time Circ. stopped
TLAB.HRS                1056 : Time logger at bottom
LUN .                   7668 : Logging unit number
LUL .                   VICT : Logging unit location
ENGI.                  STAPP : Recorded By
WITN.                 SUTTON : Witnessed by
ORIG.               1" PRINT : Origin of data
UWI .         42283315610000 : Unique Well ID
DICO. A2D TECHNOLOGIES, INC. : Digitizing Company
~Other -----------------------------------------------------
~ASCII -----------------------------------------------------
# ...
 6550.00000   81.15630  -34.45030    -999.25    2.41790    3.13140
 6600.00000   81.46820  -35.24100    -999.25    2.44780    2.79800
 6650.00000   83.22060  -35.35390    -999.25    2.62690    2.88360
 6700.00000   86.26130  -33.20780    -999.25    2.82590    3.00900
 6750.00000   91.21670  -33.32080    -999.25    2.73630    2.96720
 6800.00000   93.97590  -33.43370    -999.25    2.56720    2.84980
 6850.00000   82.71830  -31.51390    -999.25    2.80600    3.22990
 6900.00000   84.33710  -32.37950    -999.25    2.80600    3.06180
 6950.00000   88.89310  -32.64310    -999.25    2.71640    3.23950
 7000.00000   94.51980  -32.07830    -999.25    2.68660    3.18570
 7050.00000   75.67570  -32.84160    -999.25    2.59700    3.05390
 7100.00000   87.38740  -33.07450    -999.25    2.68660    3.17970
 7150.00000   84.90990  -32.60870    -999.25    2.47760    3.00900
 7200.00000   84.38440  -30.74530    -999.25    2.44780    2.84690
 7250.00000   91.49100  -31.21120    -999.25    2.78890    3.31140
 7300.00000   84.93980  -29.81370    -999.25    2.86570    3.36720
 7350.00000   71.91270  -31.21120    -999.25    3.94880    5.05970
 7400.00000   80.42170  -31.67700    -999.25    5.49260    6.05950
 7450.00000   91.15250  -32.14290    -999.25    4.16420    4.43790
 7500.00000   94.20220  -31.52170    -999.25    3.74130    4.74660
 7550.00000  102.67320  -29.27020    -999.25    4.79960    4.83580
 7600.00000  106.02360  -29.19300    -999.25    3.22380    3.37510
 7650.00000   96.84130  -29.34780    -999.25    3.41290    4.01020
 7700.00000  100.75300  -29.50160    -999.25    2.98510    2.97910
 7750.00000  101.32120  -28.88200    -999.25    2.74630    2.62980
 7800.00000   83.73490  -27.95210    -999.25    3.32340    3.34330
 7850.00000   98.04220  -30.04660    -999.25    3.43280    3.44780
 7900.00000   90.81330  -28.41620    -999.25    3.58210    3.56820
 7950.00000   89.00600  -28.64910    -999.25    2.76620    2.92440
 8000.00000  110.69280  -27.95030    -999.25    2.86570    3.17610
 8050.00000  108.65990  -28.88200    -999.25    2.22390    2.09850
 8100.00000   93.52410  -29.81370    -999.25    2.95520    3.21790
 8150.00000   94.20180  -29.34780    -999.25    2.58210    2.75620
 8200.00000  106.17540  -28.41760    -999.25    2.56720    2.61090
 8250.00000  136.29210  -29.58070    -999.25    2.73140    2.14630
 8300.00000  113.70670  -28.88130    -999.25    3.25370    3.51050
 8350.00000   97.44090  -27.95030    -999.25    3.00000    3.38210
 8400.00000   87.49910  -28.41620    -999.25    3.10450    3.22390
 8450.00000   95.21840  -28.88200    -999.25    3.89340    4.44180
 8500.00000   86.97290  -29.34780    -999.25    3.52230    4.18110
 8550.00000  102.67320  -28.64910    -999.25    3.61200    4.12140
 8600.00000   93.97590  -27.02700    -999.25    3.78110    4.09550
 8650.00000   94.87950  -26.46380    -999.25    3.77610    4.16340
 8700.00000   98.04220  -25.00000    -999.25    4.20900    4.29850
 8750.00000  101.65880  -23.34870    -999.25    3.32830    3.36720
 8800.00000   90.36070  -23.87390    -999.25    3.21280    3.37010
 8850.00000   81.43790  -23.05900    -999.25    4.16960    4.26860
 8900.00000   94.35290  -22.36030    -999.25    3.55430    3.89250
 8950.00000   78.50150  -23.52480    -999.25    3.66180    4.10940
 9000.00000   74.99930  -30.18020    -999.25    6.32530    6.26630
 9050.00000   43.37770  -35.81080    -999.25    6.76680    7.02690
 9100.00000   57.52970  -37.83780    -999.25   11.77180   11.99200
 9150.00000   45.02990  -41.89190    -999.25   19.27930   25.22800
 9200.00000   45.35150  -47.74850    -999.25   25.14970   27.82780
 9250.00000   51.98830  -35.36040    -999.25   13.84780   17.88590
 9300.00000   60.28690  -33.10810    -999.25   10.56890   10.74860
 9350.00000   44.25680  -40.99130    -999.25   17.82880   19.38940
 9400.00000   54.35480  -30.85510    -999.25   11.17120   11.79180
 9450.00000   67.61950  -26.35140    -999.25    6.64660   10.66060
 9500.00000   67.31930  -26.57660    -999.25    7.58760    8.30830
 9550.00000   60.99540  -30.40540    -999.25   11.20120   11.23120
 9600.00000   66.41570  -26.35110    -999.25    6.62660   10.68960
 9650.00000   84.48720  -15.09010    -999.25    4.24920    4.74630
 9700.00000   78.61450  -11.26130    -999.25    4.56460    6.14930
 9750.00000   62.31040  -19.59460    -999.25    8.38820   12.12950
 9800.00000   46.98730  -26.57660    -999.25   11.26140   29.10720
 9850.00000   60.53330  -25.56310    -999.25    9.45930   14.05050
 9900.00000   58.28380  -21.99650    -999.25    8.30820   18.25990
 9950.00000   46.15960   -0.56310    -999.25   23.42750   18.63930
 10000.00000  105.27110   -2.25220    -999.25   38.14100   47.96320
 10050.00000   61.62150  -20.72070    -999.25   93.95370  159.52810
 10100.00000   99.70060  -39.30720    -999.25   60.39140   75.22390
 10150.00000   20.13520 -138.36600    -999.25    -999.25   12.26870
 10200.00000   24.62540 -126.28010    -999.25   95.49740    2.72630
 10250.00000   36.07850 -117.05550    -999.25   28.97900    6.62680
 10300.00000   43.42740 -119.72890    -999.25   14.11410    -999.25
