~Version ---------------------------------------------------
VERS. 2.0 : CWLS log ASCII Standard -VERSION 2.0
WRAP. YES : MULTIPLE LINES PER DEPTH STEP
~Well ------------------------------------------------------
STRT.FT                  300.0 : START DEPTH
STOP.FT                15250.0 : STOP DEPTH
STEP.FT               50.00000 : STEP LENGTH
NULL.                  -999.25 : NULL VALUE
COMP.  CONTINENTAL OIL COMPANY : COMPANY
WELL.    HALSELL FOUNDATION #1 : WELL
FLD .                  WILDCAT : FIELD
LOC .                          : LOCATION
CNTY.                 MAVERICK : COUNTY
STAT.                    TEXAS : STATE
CTRY. UNITED STATES OF AMERICA : COUNTRY
SRVC.             Schlumberger : SERVICE COMPANY
DATE.              02-Apr-1972 : LOGDATE
API .           42323300720000 : API NUMBER
UWI .           42323300720000 : UNIQUE WELL ID
SLAT.WGS84       28.6077848095 : SURFACE LATITUDE
SLON.WGS84     -100.3259081005 : SURFACE LONGITUDE
~Curve Information -----------------------------------------
DEPT    .FT    : DEPTH FEET
ALL8ED  .MV    : AMPLIFIED LATARLOG 8 FROM RES. LOG
ASNED   .OHMM  : 16 INCH AMPLIFIED SHORT NORMAL RESISTIVITY FROM IEL
CALDED  .IN    : CALIPER FROM DENSITY LOG, DEPTH ADJUSTED WITH [ILDED]
CALSED  .IN    : CALIPER FROM SONIC LOG, DEPTH ADJUSTED WITH [ILDED]
CALWS   .IN    : CALIPER [CALSED]
CILDED  .MMHO  : CONDUCTIVITY FROM RESISTIVITY LOG
CONDWS  .MMHO  : CONDUCTIVITY [1000/DRESWS]
DENWS   .G/C3  : BULK DENSITY [M=2.71 F=1.0] [CALCULATED FROM DPOWS]
DPHILSED.V/V   : DENSITY POROSITY [M=2.71 F=1.0] FROM DENSITY LOG, DEPTH ADJUSTED WITH [ILDED]
DPOWS   .V/V   : DENSITY POROSITY [DPHILSED]
DRESWS  .OHMM  : DEEP RESISTIVITY [ILDED] IF DRESWS<1;1000/CONDWS
DTED    .US/F  : DELTA TIME FROM SONIC LOG, DEPTH ADJUSTED WITH [ILDED]
DTWS    .US/F  : DELTA TIME [DTED]
GRDED   .GAPI  : GAMMA RAY FROM DENSITY LOG, DEPTH ADJUSTED WITH [ILDED]
GRRED   .GAPI  : GAMMA RAY FROM RESISTIVITY LOG
GRSED   .GAPI  : GAMMA RAY FROM SONIC LOG, DEPTH ADJUSTED WITH [ILDED]
GRWS    .GAPI  : GAMMA RAY [GRSED]
ILDED   .OHMM  : INDUCTION LOG DEEP RESISTIVITY
NPHILSED.V/V   : NEUTRON POROSITY LIMESTONE FROM DENSITY LOG, DEPTH ADJUSTED WITH [ILDED]
NPOWS   .V/V   : NEUTRON POROSITY SANDSTONE [NPHILSED]
SPRED   .MV    : SPONTANEOUS POTENTIAL FROM RESISTIVITY LOG
SPWS    .MV    : SPONTANEOUS POTENTIAL [BASELINE 0 MV] [SPRED]
SRESWS  .OHMM  : SHALLOW RESISTIVITY [ASNED], SPLICED WITH [ALL8ED] AT 8750'
~Params ----------------------------------------------------
PD  .                     GL : PERMANENT DATUM
EPD .F                 749.4 : ELEVATION PERMANENT DATUM
LMF .                     KB : LOG MEASURED FROM
DAPD.F                  25.2 : FEET ABOVE PERMANENT DATUM
DMF .                     KB : DRILLING MEASURED FROM
EKB .F                 775.4 : KELLING BUSHING
EDF .F                 774.6 : DRILLING FLOOR
EGL .F                 749.4 : GROUND LEVEL
DATE.               04/02/72 : RUN DATE
RUN .                      8 : RUN NUMBER
DD  .F                 15250 : DEPTH DRILLER
DL  .F                 15273 : DEPTH LOGGER
BLI .F                 15266 : BOTTOM LOG INTERVAL
TLI .F                 14800 : TOP LOG INTERVAL
CS  .IN                9.625 : CASING SIZE
CBD .F                  8736 : CASING BOTTOM DRILLER
CBL .F                  8748 : CASING BOTTOM LOGGER
BS  .IN                  8.5 : BIT SIZE
BSD .F                 15250 : BIT SIZE AT DEPTH
DFT .             LIGNO SULF : DRILLING FLUID TYPE
DFD .                   14.5 : DRILLING FLUID DENSITY
DFV .                     49 : DRILLING FLUID VISCOSITY
DFPH.                     12 : DRILLING FLUID PH
DFL .                    1.6 : DRILLING FLUID LOSS
MSS .               CIRC PIT : MUD SAMPLE SOURCE
RMS .OHMM               0.55 : RESISTIVITY MUD SAMPLE
MST .F                    75 : MUD SAMPLE TEMPERATURE
RMF .OHMM               0.17 : RESISTIVITY MUD FILTRATE SAMPLE
MFST.F                    75 : MUD FILTRATE SAMPLE TEMPERATURE
RMC .OHMM                1.1 : RESISTIVITY MUD CAKE
MCST.F                    75 : MUD CAKE SAMPLE TEMPERATURE
MFSS.                      M : MUD FILTRATE SAMPLE SOURCE
MCSS.                      C : MUD CAKE SAMPLE SOURCE
RMB .OHMM                0.1 : RESISTIVITY MUD AT BHT
TCS .HRS                 4.5 : TIME CURCULATED STOPPED
LUN .                   7029 : LOGGING UNIT NUMBER
LUL .                   VICT : LOGGING UNIT LOCATION
ENGI.               BRADFORD : RECORDING ENGINEER
CLNT.                A2DTECH : CLIENT CODE
ORIG.            2" 5" PRINT : ORIGIN OF DATA
UWI .         42323300720000 : UNIQUE WELL ID
DICO. A2D Technologies, Inc. : DIGITIZING COMPANY
~Other -----------------------------------------------------
~ASCII -----------------------------------------------------
# ...
 14250.00000    7.13030    -999.25    -999.25    9.30730    9.30730  152.56580  151.36610    -999.25    -999.25    -999.25    6.60650   60.59230   60.59230    -999.25    -999.25   36.59950   36.59950    6.60650    -999.25    -999.25   50.36540  -22.87370    7.13030
 14300.00000    9.94410    -999.25    -999.25    9.39740    9.39740  122.31870  108.04270    -999.25    -999.25    -999.25    9.25560   58.12690   58.12690    -999.25    -999.25   41.13190   41.13190    9.25560    -999.25    -999.25   49.08760  -19.47190    9.94410
 14350.00000   59.27020    -999.25    -999.25    9.14040    9.14040   21.98630   16.07640    -999.25    -999.25    -999.25   62.20290   54.07130   54.07130    -999.25    -999.25   54.57030   54.57030   62.20290    -999.25    -999.25   56.17390   -7.70610   59.27020
 14400.00000   37.12850    -999.25    -999.25    9.10510    9.10510   31.81150   24.66690    -999.25    -999.25    -999.25   40.54020   54.62390   54.62390    -999.25    -999.25   42.15510   42.15510   40.54020    -999.25    -999.25   42.40080  -16.79960   37.12850
 14450.00000   28.79840    -999.25    -999.25    9.10870    9.10870   32.26310   28.21440    -999.25    -999.25    -999.25   35.44290   54.37340   54.37340    -999.25    -999.25   39.26920   39.26920   35.44290    -999.25    -999.25   47.13840   -7.38250   28.79840
 14500.00000   24.34710    -999.25    -999.25    9.24540    9.24540   52.73130   47.83480    -999.25    -999.25    -999.25   20.90530   56.31980   56.31980    -999.25    -999.25   63.48710   63.48710   20.90530    -999.25    -999.25   46.40830   -3.43300   24.34710
 14550.00000   54.17010    -999.25    -999.25    9.17590    9.17590   26.86130   21.86980    -999.25    -999.25    -999.25   45.72520   53.93720   53.93720    -999.25    -999.25   56.57540   56.57540   45.72520    -999.25    -999.25   42.59580   -2.56600   54.17010
 14600.00000   14.88200    -999.25    -999.25    9.17000    9.17000  125.11380   71.14400    -999.25    -999.25    -999.25   14.05600   63.68200   63.68200    -999.25    -999.25   48.81210   48.81210   14.05600    -999.25    -999.25   29.64370  -10.83860   14.88200
 14650.00000    4.50980    -999.25    -999.25    9.39280    9.39280  296.87920  299.81410    -999.25    -999.25    -999.25    3.33540   61.41190   61.41190    -999.25    -999.25   54.85470   54.85470    3.33540    -999.25    -999.25   14.86750  -22.91070    4.50980
 14700.00000    5.87020    -999.25    -999.25    9.20330    9.20330  199.64770  213.61590    -999.25    -999.25    -999.25    4.68130   60.34110   60.34110    -999.25    -999.25   37.77230   37.77230    4.68130    -999.25    -999.25    9.76580  -25.80210    5.87020
 14750.00000   84.08470    -999.25    -999.25    9.16100    9.16100   18.71280   13.80160    -999.25    -999.25    -999.25   72.45560   55.82320   55.82320    -999.25    -999.25   49.58920   49.58920   72.45560    -999.25    -999.25   27.90160   -5.45610   84.08470
 14800.00000   16.62030    -999.25    -999.25    9.76080    9.76080   65.97050   61.75970    -999.25    -999.25    -999.25   16.19180   63.22410   63.22410    -999.25    -999.25   70.31280   70.31280   16.19180    -999.25    -999.25   28.95720   -2.19030   16.62030
 14850.00000   33.81050    -999.25    9.40620    9.20060    9.20060   39.58470   34.13870    2.61480    0.05570    0.05570   29.29230   57.11970   57.11970   24.89250    -999.25   23.71530   23.71530   29.29230   -0.00580   -0.00580   -7.32840  -36.26570   33.81050
 14900.00000   24.30970    -999.25   10.95550    9.89440    9.89440   48.20910   41.95300    2.62550    0.04940    0.04940   23.83620   57.19230   57.19230   55.86020    -999.25   67.45300   67.45300   23.83620    0.24100    0.24100   15.19210  -11.53490   24.30970
 14950.00000  186.45330    -999.25    9.18940    9.21180    9.21180    8.90950    3.84320    2.70060    0.00550    0.00550  260.19840   50.51830   50.51830   23.35670    -999.25   21.56850   21.56850  260.19840   -0.00220   -0.00220  -18.10910  -42.62590  186.45330
 15000.00000   12.70380    -999.25   11.04950    9.55070    9.55070  102.78720   98.56200    2.62840    0.04770    0.04770   10.14590   62.77510   62.77510   76.27920    -999.25   83.30610   83.30610   10.14590    0.21760    0.21760    8.54330  -13.76330   12.70380
 15050.00000   11.10590    -999.25   10.62700    9.64730    9.64730   80.54720   85.78460    2.55930    0.08810    0.08810   11.65710   67.40250   67.40250   84.26890    -999.25   80.58530   80.58530   11.65710    0.26160    0.26160   29.78970  -10.61990   11.10590
 15100.00000   37.12160    -999.25    8.89960    9.13050    9.13050   26.74150   33.26670    2.74800   -0.02220   -0.02220   30.06010   57.43770   57.43770   56.51780    -999.25   53.11950   53.11950   30.06010    0.19460    0.19460   27.41490  -13.16370   37.12160
 15150.00000   37.15110    -999.25    9.50880    9.30260    9.30260   12.75100   18.98850    2.70160    0.00490    0.00490   52.66340   57.40750   57.40750   78.91280    -999.25   90.63180   90.63180   52.66340    0.18170    0.18170   39.04370   -1.70380   37.15110
 15200.00000   32.75750    -999.25    9.18890    9.10230    9.10230    4.12980   11.63350    2.72350   -0.00790   -0.00790   85.95890   61.50710   61.50710   79.18990    -999.25   81.77480   81.77480   85.95890    0.13320    0.13320   34.46800   -6.44850   32.75750
 15250.00000   16.53980    -999.25    9.06710    8.98280    8.98280   72.50130   78.07620    2.64670    0.03700    0.03700   12.80800   63.16750   63.16750   93.70010    -999.25   96.96940   96.96940   12.80800    0.21090    0.21090   30.02670  -11.05870   16.53980
