~Version ---------------------------------------------------
VERS. 2.0 : CWLS log ASCII Standard -VERSION 2.0
WRAP.  NO : ONE LINE PER DEPTH STEP
~Well ------------------------------------------------------
STRT.F                  3550.0 : START DEPTH
STOP.F                 11300.0 : STOP DEPTH
STEP.F                50.00000 : STEP LENGTH
NULL.                  -999.25 : NULL VALUE
COMP.   WILLIAMS JR, CLAYTON W : COMPANY
WELL.        PAYNE ALBERT M #1 : WELL
FLD .                       WC : FIELD
LOC .                          : LOCATION
CNTY.                   BRAZOS : COUNTY
STAT.                    TEXAS : STATE
CTRY. UNITED STATES OF AMERICA : COUNTRY
SRVC.             Schlumberger : SERVICE COMPANY
DATE.              01-Nov-1977 : LOGDATE
API .           42041303170000 : API NUMBER
UWI .           42041303170000 : UNIQUE WELL ID
SLAT.WGS84       30.8808604284 : SURFACE LATITUDE
SLON.WGS84      -96.2683388418 : SURFACE LONGITUDE
~Curve Information -----------------------------------------
DEPT.F                 : 
SPR .MV   07 010 01 00 : SPONTANEOUS POTENTIAL
DT  .US/F 60 520 00 00 : DELTA TIME
PROX.OHMM 15 270 04 00 : PROXIMITY LOG RESISTIVITY
CALR.IN   07 280 01 00 : CALIPER FROM RESISTIVITY
GRN .GAPI 35 310 01 00 : GAMMA RAY
NEUT.NAPI 35 330 01 00 : NEUTRON FROM GAMMA RAY LOG
ILD .OHMM 07 120 46 00 : DEEP RESISTIVITY
LL8 .OHMM 07 220 08 00 : LATEROLOG-8 RES.
ILM .OHMM 07 120 44 00 : INDUCTION LOG MEDIUM
~Params ----------------------------------------------------
EKB .F                 343.7 : Kelly bushing
EGL .F                330.85 : Ground level
EDF .F                 342.7 : Drilling floor
TD  .F               11310.0 : Total depth
DATE.            15-NOV-1977 : Date logged
CLNT.                A2DTECH : Client Code
SL  .  1040' FWL & 1040' FEL : Surface Location
PD  .                     GL : Permanent Datum
EPD .F                330.85 : Elevation Permanent Datum
LMF .                     KB : Log Measured From
DMF .                     KB : Drilling Measured From
DAPD.F                 12.85 : Feet Above Permanent Datum
DD  .F                 11310 : Depth driller
DL  .F                 11308 : Depth logger
BLI .F                 11303 : Bottom log interval
TLI .F                  8717 : Top log interval
CS1 .IN                9.625 : Casing size
CBD1.         9.625" @ 3550' : Casing driller 1
CBL1.F                  3554 : Casing logger 1
BS1 .IN                    8 : Bit size
BSD1.F                 11310 : Depth drilled with bit1
DFT .                  GELEX : Type fluid in hole
DFD .                    9.8 : Density
DFV .                      5 : Viscosity
DFPH.                     10 : pH
DFL .                    6.8 : Fluid loss
MSS .                    PIT : Source of sample
RMS .OHMM               1.54 : Rm
RMF .OHMM               1.23 : Rmf
RMC .OHMM                2.3 : Rmc
MFSS.                   MEAS : Source Rmf.
MCSS.                   CALC : Source Rmc.
RMB .OHMM                0.5 : Rm. at BHT
BHT .F                   232 : BHT.
TCS .HRS                1230 : Time Circ. stopped
TLAB.HRS                1930 : Time logger at bottom
LUN .                   7659 : Logging unit number
LUL .                 DAYTON : Logging unit location
ENGI.                   EAST : Recorded By
WITN.                   HALL : Witnessed by
ORIG.               5" PRINT : Origin of data
UWI .         42041303170000 : Unique Well ID
DICO. A2D TECHNOLOGIES, INC. : Digitizing Company
~Other -----------------------------------------------------
~ASCII -----------------------------------------------------
 3550.00000    4.27400   80.93600    -999.25    -999.25    -999.25    -999.25    -999.25    -999.25    -999.25
 3600.00000   16.01600   99.86100    -999.25    -999.25    -999.25    -999.25    5.97700    6.93200    6.80900
 3650.00000   24.29700  105.31600    -999.25    -999.25    -999.25    -999.25    2.75800    4.14700    2.69300
 3700.00000   -1.43200   99.06400    -999.25    -999.25    -999.25    -999.25    7.01300   11.48900    8.25200
 3750.00000  -28.31100  104.99900    -999.25    -999.25    -999.25    -999.25    6.13800   13.69400    7.64500
 3800.00000   -0.17000  102.25100    -999.25    -999.25    -999.25    -999.25    5.03900    6.26700    5.33800
 3850.00000  -23.07500  101.39200    -999.25    -999.25    -999.25    -999.25    4.10000    7.84300    4.86800
 3900.00000   -9.77100  101.36000    -999.25    -999.25    -999.25    -999.25    3.13600    5.06200    3.34900
 3950.00000  -50.39800  100.27200    -999.25    -999.25    -999.25    -999.25    4.12000   12.81700    5.01900
 4000.00000   -9.85000  105.43800    -999.25    -999.25    -999.25    -999.25    2.29700    3.44000    2.37600
 4050.00000   -7.26600   99.34900    -999.25    -999.25    -999.25    -999.25    2.80600    3.95800    2.92400
 4100.00000  -11.08000  101.48100    -999.25    -999.25    -999.25    -999.25    2.82900    3.64700    2.67500
 4150.00000  -21.24100  104.34600    -999.25    -999.25    -999.25    -999.25    2.31300    3.14900    2.34000
 4200.00000  -21.04100  100.19600    -999.25    -999.25    -999.25    -999.25    2.39200    3.74900    2.48100
 4250.00000  -19.66800  100.47000    -999.25    -999.25    -999.25    -999.25    2.19300    3.39700    2.27200
 4300.00000  -22.16300   96.35000    -999.25    -999.25    -999.25    -999.25    2.95000    4.12500    3.09400
 4350.00000  -17.80500   97.37100    -999.25    -999.25    -999.25    -999.25    2.32100    3.53000    2.41300
 4400.00000  -17.10900   88.57400    -999.25    -999.25    -999.25    -999.25    2.90800    3.88900    3.05000
 4450.00000  -18.75800   99.86800    -999.25    -999.25    -999.25    -999.25    1.93700    3.03300    2.01000
 4500.00000  -18.06300  106.39900    -999.25    -999.25    -999.25    -999.25    1.52200    2.61600    1.58700
 4550.00000  -45.30000  105.43800    -999.25    -999.25    -999.25    -999.25    1.56900    2.67000    1.62100
 4600.00000  -38.53600   96.37700    -999.25    -999.25    -999.25    -999.25    1.69100    2.81200    1.77300
 4650.00000  -40.12300  104.23700    -999.25    -999.25    -999.25    -999.25    1.61200    2.67000    1.68400
 4700.00000  -39.86100  101.02600    -999.25    -999.25    -999.25    -999.25    1.76700    2.87300    1.84100
 4750.00000  -36.41600   97.35800    -999.25    -999.25    -999.25    -999.25    2.05100    3.14100    2.11800
 4800.00000  -35.79900   91.55600    -999.25    -999.25    -999.25    -999.25    2.78400    4.03500    2.89200
 4850.00000  -34.81600   96.35000    -999.25    -999.25    -999.25    -999.25    1.95800    3.12100    2.05900
 4900.00000  -31.93300   98.61500    -999.25    -999.25    -999.25    -999.25    1.78300    2.98100    1.86200
 4950.00000  -30.44200  107.62900    -999.25    -999.25    -999.25    -999.25    1.10200    2.01400    1.15900
 5000.00000  -31.28300   90.58100    -999.25    -999.25    -999.25    -999.25    2.16200    3.20900    2.23800
 5050.00000  -29.87300   94.23300    -999.25    -999.25    -999.25    -999.25    1.74500    2.70900    1.82100
 5100.00000  -28.71700   99.69800    -999.25    -999.25    -999.25    -999.25    1.34200    2.16900    1.42300
 5150.00000  -28.26800  109.64300    -999.25    -999.25    -999.25    -999.25    0.96700    1.87900    1.01700
 5200.00000  -32.23300  105.62200    -999.25    -999.25    -999.25    -999.25    1.15900    1.99100    1.24700
 5250.00000  -37.15400  106.88500    -999.25    -999.25    -999.25    -999.25    1.30100    2.33600    1.37600
 5300.00000  -36.44500  110.45100    -999.25    -999.25    -999.25    -999.25    1.22800    2.17900    1.29700
 5350.00000  -34.32900  110.45700    -999.25    -999.25    -999.25    -999.25    1.16100    2.16200    1.22700
 5400.00000  -34.07900  113.00800    -999.25    -999.25    -999.25    -999.25    0.97700    1.97300    1.03100
 5450.00000  -30.10600  111.37800    -999.25    -999.25    -999.25    -999.25    1.02400    1.96000    1.07900
 5500.00000  -29.63400  104.05100    -999.25    -999.25    -999.25    -999.25    1.70500    2.84700    1.80200
 5550.00000  -28.35800  103.94800    -999.25    -999.25    -999.25    -999.25    1.61200    2.69500    1.70400
 5600.00000  -22.80500   96.29400    -999.25    -999.25    -999.25    -999.25    2.13100    3.32800    2.25200
 5650.00000  -22.47800   85.41900    -999.25    -999.25    -999.25    -999.25    3.15400    4.53500    3.35500
 5700.00000  -23.40600   87.41000    -999.25    -999.25    -999.25    -999.25    1.49000    2.48500    1.61700
 5750.00000  -18.23700   96.89200    -999.25    -999.25    -999.25    -999.25    1.22900    2.16200    1.35400
 5800.00000  -19.38200   90.32500    -999.25    -999.25    -999.25    -999.25    2.01500    3.03600    2.12900
 5850.00000  -23.82000   95.96900    -999.25    -999.25    -999.25    -999.25    1.53500    2.51100    1.62900
 5900.00000  -19.38500  102.99700    -999.25    -999.25    -999.25    -999.25    1.28800    2.13100    1.36000
 5950.00000  -14.96900  102.90000    -999.25    -999.25    -999.25    -999.25    1.03800    2.04600    1.13700
 6000.00000  -16.96000   99.60700    -999.25    -999.25    -999.25    -999.25    1.43500    2.30300    1.51600
 6050.00000  -22.80900  104.52200    -999.25    -999.25    -999.25    -999.25    1.12400    2.00200    1.21600
 6100.00000  -25.67100  102.18300    -999.25    -999.25    -999.25    -999.25    1.19400    2.07800    1.29400
 6150.00000  -24.75200  102.71500    -999.25    -999.25    -999.25    -999.25    1.04100    1.96300    1.10500
 6200.00000  -24.40300  105.02500    -999.25    -999.25    -999.25    -999.25    1.01000    1.84600    1.08500
 6250.00000  -22.67000  101.38000    -999.25    -999.25    -999.25    -999.25    1.22200    2.15800    1.32800
 6300.00000  -20.57900  100.79300    -999.25    -999.25    -999.25    -999.25    1.23100    2.16200    1.34200
 6350.00000  -21.37500  103.24700    -999.25    -999.25    -999.25    -999.25    1.23100    2.11900    1.35500
 6400.00000  -19.67900  102.72100    -999.25    -999.25    -999.25    -999.25    1.12700    2.01900    1.23600
 6450.00000  -18.92900  105.21400    -999.25    -999.25    -999.25    -999.25    1.08900    1.85400    1.18400
 6500.00000  -19.50300  105.65000    -999.25    -999.25    -999.25    -999.25    0.97600    1.85900    1.07500
 6550.00000  -18.45200   97.81300    -999.25    -999.25    -999.25    -999.25    1.42000    2.31300    1.51700
 6600.00000  -16.60200   96.61900    -999.25    -999.25    -999.25    -999.25    1.46800    2.45700    1.57100
 6650.00000  -16.82300   99.06400    2.15200    -999.25    -999.25    -999.25    1.46300    2.39500    1.55300
 6700.00000  -54.37300  102.58300    2.04000   10.18500    -999.25    -999.25    1.31600    2.27700    1.43300
 6750.00000  -51.84800   91.95000    2.07500    9.91000    -999.25    -999.25    1.90400    2.84700    2.05400
 6800.00000  -50.95700   88.85400    2.98900    9.33100    -999.25    -999.25    2.19400    3.37600    2.38500
 6850.00000  -52.50600   95.70500    2.52000    9.85500    -999.25    -999.25    1.61100    2.64200    1.74900
 6900.00000  -52.74100   95.80700    2.40200    9.92900    -999.25    -999.25    1.54000    2.59400    1.67200
 6950.00000  -56.02900   99.31500    2.29400    9.97200    -999.25    -999.25    1.39200    2.48100    1.51400
 7000.00000  -36.68000   96.46000    2.50900   10.10400    -999.25    -999.25    1.64900    2.69500    1.77800
 7050.00000  -35.27800   96.72300    2.51200   10.21600    -999.25    -999.25    1.57300    2.50400    1.70900
 7100.00000  -34.97700   97.55000    2.40200   10.23900    -999.25    -999.25    1.52100    2.55400    1.64200
 7150.00000  -32.70200   92.72600    2.46900   10.22500    -999.25    -999.25    1.76700    2.85200    1.91900
