~Version ---------------------------------------------------
VERS. 2.0 : CWLS log ASCII Standard -VERSION 2.0
WRAP. YES : MULTIPLE LINES PER DEPTH STEP
~Well ------------------------------------------------------
STRT.FT                  300.0 : START DEPTH
STOP.FT                18600.0 : STOP DEPTH
STEP.FT               50.00000 : STEP LENGTH
NULL.                  -999.25 : NULL VALUE
COMP.        SHELL OIL COMPANY : COMPANY
WELL. PAWELEK BEN A ET AL A #1 : WELL
FLD .    PERSON AREA (WILDCAT) : FIELD
LOC .                          : LOCATION
CNTY.                   KARNES : COUNTY
STAT.                    TEXAS : STATE
CTRY. UNITED STATES OF AMERICA : COUNTRY
SRVC.             Schlumberger : SERVICE COMPANY
DATE.              22-May-1978 : LOGDATE
API .           42255305980000 : API NUMBER
UWI .           42255305980000 : UNIQUE WELL ID
SLAT.WGS84       29.0241796548 : SURFACE LATITUDE
SLON.WGS84      -97.8796797249 : SURFACE LONGITUDE
~Curve Information -----------------------------------------
DEPT    .FT    : DEPTH FEET
CALDED  .IN    : CALIPER FROM DENSITY LOG [DEP ADJ TO GRSED]
CALMED  .IN    : CALIPER FROM MICROLOG [DEP ADJ TO SFLED]
CALSED  .IN    : CALIPER FROM SONIC LOG
CALWS   .IN    : CALIPER [10 CALDED 4845.5 CALMED 4849 CALDED 17451 CALSED 17577 CALDED]
CONDWS  .MMHO  : CONDUCTIVITY [1000/DRESWS]
DCORWS  .G/C3  : DENSITY CORRECTION [DRHOED]
DENWS   .G/C3  : BULK DENSITY [M=2.71 F=1.0] [RHOBED]
DPHILSED.V/V   : DENSITY POROSITY [M=2.71 F=1.0] FROM DENSITY LOG [DEP ADJ TO GRSED/RHOBED]
DPHISSED.V/V   : DENSITY POROSITY [M=2.65 F=1.0] FROM DENSITY LOG [DEP ADJ TO GRSED/RHOBED]
DPOLSWS .V/V   : DENSITY POROSITY [M=2.71 F=1.0] [CAL FR DENWS]
DRESWS  .OHMM  : DEEP RESISTIVITY [ILDED]
DRHOED  .G/C3  : DENSITY CORRECTION FROM DENSITY LOG [DEP ADJ TO GRSED]
DTED    .US/F  : DELTA TIME FROM SONIC LOG
DTWS    .US/F  : DELTA TIME [DTED]
GRDED   .GAPI  : GAMMA RAY FROM DENSITY LOG
GRRED   .GAPI  : GAMMA RAY FROM RESISTIVITY LOG [DEP ADJ TO GRSED]
GRSED   .GAPI  : GAMMA RAY FROM SONIC LOG
GRWS    .GAPI  : GAMMA RAY [70 GRDED 4800.5 GRDEDNRM [0-100 TO 0-140]4844.5 GRSED 4853.5 GRDED 12903.5 GRSED 12939.5 GRDED 12962 GRSED 17526 GRDED 17550 GRRED 18607 GRDED]
ILDED   .OHMM  : INDUCTION LOG DEEP RESISTIVITY
ILMED   .OHMM  : INDUCTION LOG MEDIUM RESISTIVITY
MRESWS  .OHMM  : MEDIUM RESISTIVITY [ILMED]
NPHILSED.V/V   : NEUTRON POROSITY LISTONE FROM DENSITY LOG [DEP ADJ TO GRSED/RHOBED]
NPHISSED.V/V   : NEUTRON POROSITY SANDSTONE FROM DENSITY LOG [DEP ADJ TO GRSED/RHOBED]
NPOLSWS .V/V   : NEUTRON POROSITY LIMESTONE [10 NPOLSCAL 9446 NPHILSED] [NPHISSED IS CONVERTED TO NPOLSCAL USING POWERLOG MODULE]
PROXED  .OHMM  : PROXIMITY RESISTIVITY FROM MICROLOG [DEP ADJ TO SFLED]
RHOBED  .G/C3  : BULK DENSITY FROM DENSITY LOG [DEP ADJ TO GRSED]
SFLED   .OHMM  : SPHERICALLY FOCUSED LOG RESISTIVITY
SPRED   .MV    : SPONTANEOUS POTENTIAL FROM RESISTIVITY LOG [SHIFTS ARE REMOVED]
SPWS    .MV    : SPONTANEOUS POTENTIAL [BASELINE 0 MV] [SPRED][PL. USE W/ RESERVATIONS]
SRESWS  .OHMM  : SHALLOW RESISTIVITY [SFLED]
TENDED  .LBF   : TENSION FROM DENSITY LOG [DEP ADJ TO GRSED]
~Params ----------------------------------------------------
PD  .                     GL : PERMANENT DATUM
EPD .FT                  335 : ELEVATION PERMANENT DATUM
LMF .                     KB : LOG MEASURED FROM
DAPD.FT                   28 : FEET ABOVE PERMANENT DATUM
DMF .                     KB : DRILLING MEASURED FROM
EKB .FT                  363 : KELLY BUSHING
EDF .FT                  362 : DRILLING FLOOR
EGL .FT                  335 : GROUND LEVEL
DATE.               05/22/78 : RUN DATE
RUN .                      4 : RUN NUMBER
DD  .FT                18626 : DEPTH DRILLER
DL  .FT                18642 : DEPTH LOGGER
BLI .FT                18637 : BOTTOM LOG INTERVAL
TLI .FT                17550 : TOP LOG INTERVAL
CS  .IN                    7 : CASING SIZE
CBD .FT                17544 : CASING BOTTOM DRILLER
CBL .FT                17550 : CASING BOTTOM LOGGER
BS  .IN                    6 : BIT SIZE
BSD .FT                18626 : BIT SIZE AT DEPTH
DFT .               INVERMUL : DRILLING FLUID TYPE
DFD .                   17.6 : DRILLING FLUID DENSITY
DFV .                     70 : DRILLING FLUID VISCOSITY
DFL .                      2 : DRILLING FLUID LOSS
LUN .                   7799 : LOGGING UNIT NUMBER
LUL .                  PLEAS : LOGGING UNIT LOCATION
ENGI.             TURBEVILLE : RECORDING ENGINEER
WITN.                JARRELL : WITNESSED BY
CLNT.                A2DTECH : CLIENT CODE
ORIG.            2" 5" PRINT : ORIGIN OF DATA
UWI .         42255305980000 : UNIQUE WELL ID
DICO. A2D Technologies, Inc. : DIGITIZING COMPANY
~Other -----------------------------------------------------
~ASCII -----------------------------------------------------
# ...
 15250.00000   12.89130    -999.25   12.41180   12.89130   13.61560    0.02040    2.82380   -0.05720    -999.25   -0.06650   73.44500    0.02040   51.50540   51.50540   40.29960    -999.25   47.96220   47.96220   73.44500   16.35010   16.35010    0.01710    -999.25    0.01710    -999.25    2.82380 1726.86330  -26.71870   -9.98030 1726.86330 9724.42380
 15300.00000   12.26630    -999.25   11.81130   12.26630    9.24350    0.00260    2.76670   -0.02790    -999.25   -0.03320  108.18470    0.00260   53.04630   53.04630   41.38810    -999.25   47.85410   47.85410  108.18470   21.22160   21.22160    0.03660    -999.25    0.03660    -999.25    2.76670 1656.46860  -24.93250   -8.14390 1656.46860 9728.14550
 15350.00000   11.23590    -999.25   11.16870   11.23590   11.61720    0.02790    2.82750   -0.03530    -999.25   -0.06870   86.07910    0.02790   51.08190   51.08190   45.43540    -999.25   49.58000   49.58000   86.07910   24.06940   24.06940    0.03500    -999.25    0.03500    -999.25    2.82750 1677.98910  -24.50050   -7.66180 1677.98910 9726.38090
 15400.00000   10.46630    -999.25    9.92020   10.46630   18.54830    0.04370    2.86970   -0.09720    -999.25   -0.09340   53.91340    0.04370   50.70210   50.70210   48.40880    -999.25   54.63650   54.63650   53.91340   24.51500   24.51500    0.05900    -999.25    0.05900    -999.25    2.86970  402.66800  -20.48870   -3.59980  402.66800 9664.71090
 15450.00000   11.08590    -999.25   10.41540   11.08590   10.12920    0.02690    2.85280   -0.08240    -999.25   -0.08350   98.72440    0.02690   50.28740   50.28740   41.04790    -999.25   55.36780   55.36780   98.72440   40.32710   40.32710    0.05270    -999.25    0.05270    -999.25    2.85280  152.74460  -23.90830   -8.13750  152.74460 9679.01170
 15500.00000   10.19600    -999.25    9.86740   10.19600   16.89400   -0.02000    2.20850    0.32510    -999.25    0.29330   59.19260   -0.02000   53.45810   53.45810   61.13550    -999.25   66.40880   66.40880   59.19260    -999.25    -999.25    0.18660    -999.25    0.18660    -999.25    2.20850  381.15570  -18.51300   -3.86040  381.15570 9576.11620
 15550.00000   10.21100    -999.25   10.37360   10.21100   27.39140    0.03220    2.81290   -0.05920    -999.25   -0.06020   36.50780    0.03220   58.82850   58.82850   52.03090    -999.25   60.27370   60.27370   36.50780   14.74930   14.74930    0.04510    -999.25    0.04510    -999.25    2.81290  144.51980  -15.61660   -1.98750  144.51980 9602.21480
 15600.00000   10.47170    -999.25   10.92210   10.47170    8.40580    0.06210    2.35150    0.17980    -999.25    0.20960  118.96520    0.06210   58.76470   58.76470   69.21780    -999.25   79.12000   79.12000  118.96520   95.92730   95.92730    0.09330    -999.25    0.09330    -999.25    2.35150  119.98320  -16.96520   -3.89800  119.98320 9556.72950
 15650.00000   10.09380    -999.25   10.52690   10.09380    5.68130    0.02340    2.86170   -0.06000    -999.25   -0.08870  176.01730    0.02340   81.62830   81.62830   50.66930    -999.25   53.98100   53.98100  176.01730  116.65440  116.65440    0.03010    -999.25    0.03010    -999.25    2.86170 1639.99780  -20.38200   -7.87670 1639.99780 9608.11520
 15700.00000   10.24830    -999.25   10.03430   10.24830   24.66970    0.02670    2.86290   -0.07760    -999.25   -0.08940   40.53560    0.02670   51.21250   51.21250   45.16230    -999.25   46.64730   46.64730   40.53560   20.58470   20.58470    0.03780    -999.25    0.03780    -999.25    2.86290  103.51320  -21.18600   -9.24260  103.51320 9550.10160
 15750.00000    9.73430    -999.25    9.50250    9.73430   18.20200    0.05520    2.93250   -0.10330    -999.25   -0.13010   54.93890    0.05520   51.94640   51.94640   38.26540    -999.25   43.63300   43.63300   54.93890  262.43000  262.43000    0.03010    -999.25    0.03010    -999.25    2.93250  478.16640  -22.29330  -10.91180  478.16640 9527.07520
 15800.00000    9.83630    -999.25   11.43450    9.83630   53.57020    0.06110    2.90160   -0.10110    -999.25   -0.11200   18.66710    0.06110   64.09050   64.09050   36.24560    -999.25   50.41530   50.41530   18.66710   71.74650   71.74650    0.05370    -999.25    0.05370    -999.25    2.90160   37.64220  -22.51770  -11.69810   37.64220 9511.49900
 15850.00000   10.31430    -999.25    9.40370   10.31430    4.22890    0.03280    2.89660   -0.09650    -999.25   -0.10910  236.46760    0.03280   49.29800   49.29800   34.39730    -999.25   41.86970   41.86970  236.46760   60.47870   60.47870    0.02940    -999.25    0.02940    -999.25    2.89660  211.10020  -35.65040  -25.39270  211.10020 9482.05180
 15900.00000   11.68130    -999.25    9.63470   11.68130    1.32330    0.11910    2.74780   -0.02850    -999.25   -0.02210  755.68150    0.11910   53.45270   53.45270   33.81500    -999.25   34.30380   34.30380  755.68150   41.53940   41.53940    0.04680    -999.25    0.04680    -999.25    2.74780   95.96090  -33.41390  -23.71810   95.96090 9536.96390
 15950.00000   10.38590    -999.25    9.57740   10.38590   24.89800    0.03000    2.88410   -0.08800    -999.25   -0.10180   40.16390    0.03000   51.10230   51.10230   35.99680    -999.25   44.02820   44.02820   40.16390   40.97110   40.97110    0.03220    -999.25    0.03220    -999.25    2.88410   33.69620  -39.03870  -29.90480   33.69620 9482.74900
 16000.00000   10.71220    -999.25    9.79480   10.71220   81.30410    0.07880    2.84700   -0.07760    -999.25   -0.08010   12.29950    0.07880   52.84290   52.84290   18.82240    -999.25   22.65170   22.65170   12.29950    9.97800    9.97800    0.06300    -999.25    0.06300    -999.25    2.84700   20.77610  -70.90800  -62.33600   20.77610 9464.51170
 16050.00000   12.09140    -999.25   10.80580   12.09140    2.92070    0.03310    2.84760   -0.08860    -999.25   -0.08050  342.38720    0.03310   47.82790   47.82790   26.45490    -999.25   25.55100   25.55100  342.38720   21.99550   21.99550    0.01610    -999.25    0.01610    -999.25    2.84760  301.47900  -41.89650  -33.88640  301.47900 9460.69240
 16100.00000   10.89080    -999.25   10.31640   10.89080   17.05490    0.01510    2.85640   -0.07140    -999.25   -0.08560   58.63420    0.01510   50.79530   50.79530   45.52250    -999.25   42.31060   42.31060   58.63420   12.86610   12.86610    0.03980    -999.25    0.03980    -999.25    2.85640  918.49760  -25.44210  -17.99390  918.49760 9468.88180
 16150.00000   10.76990    -999.25   12.27040   10.76990   62.81370    0.00890    2.78530   -0.03230    -999.25   -0.04400   15.92010    0.00890   74.35820   74.35820   46.56030    -999.25   51.33340   51.33340   15.92010   11.23280   11.23280    0.02120    -999.25    0.02120    -999.25    2.78530   15.01510  -13.56930   -6.56550   15.01510 9424.85250
 16200.00000   10.16210    -999.25   10.02720   10.16210    6.23370    0.00400    2.80260   -0.04970    -999.25   -0.05420  160.41790    0.00400   53.06140   53.06140   34.25310    -999.25   35.98240   35.98240  160.41790   58.17990   58.17990    0.00770    -999.25    0.00770    -999.25    2.80260  689.76400  -16.45390   -9.71830  689.76400 9403.44820
 16250.00000    9.96630    -999.25    9.98730    9.96630   20.12150    0.01640    2.72650   -0.00740    -999.25   -0.00960   49.69820    0.01640   56.90550   56.90550   59.42070    -999.25   67.89060   67.89060   49.69820   22.62860   22.62860    0.03740    -999.25    0.03740    -999.25    2.72650  112.02640  -14.27330   -7.80590  112.02640 9406.76760
 16300.00000   10.26500    -999.25   10.21220   10.26500   58.24180    0.01670    2.75200   -0.02110    -999.25   -0.02460   17.16980    0.01670   62.60270   62.60270   58.98170    -999.25   55.85230   55.85230   17.16980   12.23800   12.23800    0.03690    -999.25    0.03690    -999.25    2.75200   27.53160  -13.81590   -7.61680   27.53160 9460.26170
 16350.00000    9.80200    -999.25    9.99490    9.80200   76.55380    0.02730    2.72230   -0.01560    -999.25   -0.00720   13.06270    0.02730   60.77760   60.77760   58.18070    -999.25   65.38590   65.38590   13.06270    7.89000    7.89000    0.04360    -999.25    0.04360    -999.25    2.72230   25.58760  -15.05130   -9.12040   25.58760 9375.90620
