~Version ---------------------------------------------------
VERS. 2.0 : CWLS log ASCII Standard -VERSION 2.0
WRAP.  NO : ONE LINE PER DEPTH STEP
~Well ------------------------------------------------------
STRT.F                   300.0 : START DEPTH
STOP.F                 18600.0 : STOP DEPTH
STEP.F                50.00000 : STEP LENGTH
NULL.                  -999.25 : NULL VALUE
COMP.        SHELL OIL COMPANY : COMPANY
WELL. PAWELEK BEN A ET AL A #1 : WELL
FLD .    PERSON AREA (WILDCAT) : FIELD
LOC .                          : LOCATION
CNTY.                   KARNES : COUNTY
STAT.                    TEXAS : STATE
CTRY. UNITED STATES OF AMERICA : COUNTRY
SRVC.             Schlumberger : SERVICE COMPANY
DATE.              22-May-1978 : LOGDATE
API .           42255305980000 : API NUMBER
UWI .           42255305980000 : UNIQUE WELL ID
SLAT.WGS84       29.0241796548 : SURFACE LATITUDE
SLON.WGS84      -97.8796797249 : SURFACE LONGITUDE
~Curve Information -----------------------------------------
DEPT   .F    0   1   0  0 : 1 MEASURED DEPTH
ILD    .OHMM 07 120 46 00 : INDUCTION DEEP RESISTIVITY
ILM    .OHMM 07 120 44 00 : INDUCTION MEDIUM RESISTIVITY
SPR    .MV   07 010 01 00 : SPONTANEOUS POTENTIAL FROM RESISTIVITY LOG
SFL    .OHMM 07 220 01 00 : SPHERICALLY FOCUSED LOG
GRR    .GAPI 07 310 01 00 : GAMMA RAY FROM RESISTIVITY LOG
DPHI_SS.DEC  45 890 12 00 : DENSITY POROSITY SANDSTONE
NPHI_SS.DEC  42 890 03 00 : NEUTRON POROSITY SANDSTONE
NPHI_LS.DEC  42 890 01 00 : NEUTRON POROSITY LIMESTONE
DPHI_LS.DEC  45 890 10 00 : DENSITY POROSITY LIMESTONE
GRD    .GAPI 45 310 01 00 : GAMMA RAY FROM DENSITY LOG
RHOB   .G/C3 45 350 01 00 : BULK DENSITY
DRHO   .G/C3 45 356 01 00 : BULK DENSITY CORRECTION
CALD   .IN   45 280 60 00 : CALIPER FROM DENSITY LOG
TEND   .LB   45 635 00 00 : TENSION FROM DENSITY LOG
PROX   .OHMM 21 270 04 00 : PROXIMITY RESISTIVITY (MPT)
MCAL   .IN   15 280 01 00 : MLT (MICROLOG) CALIPER
GRS    .GAPI 60 310 01 00 : GAMMA RAY FROM SONIC LOG
DT     .US/F 60 500 00 00 : DELTA-T (INTERVAL TRANSIT TIME)
CALS   .IN   60 280 50 00 : CALIPER FROM SONIC LOG
~Params ----------------------------------------------------
PD  .                     GL : PERMANENT DATUM
EPD .FT                  335 : ELEVATION PERMANENT DATUM
LMF .                     KB : LOG MEASURED FROM
DAPD.FT                   28 : FEET ABOVE PERMANENT DATUM
DMF .                     KB : DRILLING MEASURED FROM
EKB .FT                  363 : KELLY BUSHING
EDF .FT                  362 : DRILLING FLOOR
EGL .FT                  335 : GROUND LEVEL
DATE.               05/22/78 : RUN DATE
RUN .                      4 : RUN NUMBER
DD  .FT                18626 : DEPTH DRILLER
DL  .FT                18642 : DEPTH LOGGER
BLI .FT                18637 : BOTTOM LOG INTERVAL
TLI .FT                17550 : TOP LOG INTERVAL
CS  .IN                    7 : CASING SIZE
CBD .FT                17544 : CASING BOTTOM DRILLER
CBL .FT                17550 : CASING BOTTOM LOGGER
BS  .IN                    6 : BIT SIZE
BSD .FT                18626 : BIT SIZE AT DEPTH
DFT .               INVERMUL : DRILLING FLUID TYPE
DFD .                   17.6 : DRILLING FLUID DENSITY
DFV .                     70 : DRILLING FLUID VISCOSITY
DFL .                      2 : DRILLING FLUID LOSS
LUN .                   7799 : LOGGING UNIT NUMBER
LUL .                  PLEAS : LOGGING UNIT LOCATION
ENGI.             TURBEVILLE : RECORDING ENGINEER
WITN.                JARRELL : WITNESSED BY
CLNT.                A2DTECH : CLIENT CODE
ORIG.            2" 5" PRINT : ORIGIN OF DATA
UWI .         42255305980000 : UNIQUE WELL ID
DICO. A2D Technologies, Inc. : DIGITIZING COMPANY
~Other -----------------------------------------------------
~ASCII -----------------------------------------------------
  300.00000    2.57680    2.38050  -31.30540    2.26840    -999.25    -999.25    -999.25    -999.25    -999.25   65.19520    1.92180    0.03370   15.73040    -999.25    -999.25    -999.25   57.18060  201.47560    -999.25
  350.00000    2.09990    1.97150  -29.60880    1.87480    -999.25    -999.25    -999.25    -999.25    -999.25   81.29160    1.87420    0.01830   15.74550    -999.25    -999.25    -999.25   68.41900  163.17770    -999.25
  400.00000    2.95000    2.77620  -30.11370    2.38910    -999.25    -999.25    -999.25    -999.25    -999.25   62.56230    1.92550    0.04360   15.57800    -999.25    -999.25    -999.25   55.69000  149.63130    -999.25
  450.00000    2.75520    2.42560  -31.07660    2.34360    -999.25    -999.25    -999.25    -999.25    -999.25   62.26820    1.95230    0.00660   16.00590    -999.25    -999.25    -999.25   52.85600  154.31130    -999.25
  500.00000    2.65290    2.52480  -29.46460    2.45750    -999.25    -999.25    -999.25    -999.25    -999.25   61.78110    1.99410    0.03490   15.38200    -999.25    -999.25    -999.25   57.66340  139.79810    -999.25
  550.00000    4.59090    3.95140  -30.34180    3.26180    -999.25    -999.25    -999.25    -999.25    -999.25   50.64980    1.92970    0.02990   15.47010    -999.25    -999.25    -999.25   49.30370  139.32010    -999.25
  600.00000    1.38080    1.32260  -24.56740    1.27130    -999.25    -999.25    -999.25    -999.25    -999.25   67.59780    1.79510    0.02370   15.31510    -999.25    -999.25    -999.25   69.03090  159.94180    -999.25
  650.00000    4.14300    3.82650  -30.71090    3.65940    -999.25    -999.25    -999.25    -999.25    -999.25   49.19220    1.97300    0.04220   15.23490    -999.25    -999.25    -999.25   41.02410  128.62870    -999.25
  700.00000    1.45590    1.37610  -24.68700    1.61160    -999.25    -999.25    -999.25    -999.25    -999.25   64.92910    1.92860    0.03930   15.77990    -999.25    -999.25    -999.25   59.53350  164.04260    -999.25
  750.00000    1.53190    1.45790  -22.19660    1.37530    -999.25    -999.25    -999.25    -999.25    -999.25   71.30150    1.83730    0.02850   14.55910    -999.25    -999.25    -999.25   55.59620  198.23540    -999.25
  800.00000    3.26790    2.89730  -31.73630    2.70610    -999.25    -999.25    -999.25    -999.25    -999.25   50.50290    1.97020    0.04210   16.27330    -999.25    -999.25    -999.25   44.82080  150.31690    -999.25
  850.00000    3.46680    3.25120  -30.80560    3.17010    -999.25    -999.25    -999.25    -999.25    -999.25   46.62420    1.91540    0.04120   15.12110    -999.25    -999.25    -999.25   42.15700  152.46800    -999.25
  900.00000    5.19370    4.38900  -30.33810    3.84450    -999.25    -999.25    -999.25    -999.25    -999.25   54.29130    1.98650    0.00760   16.02660    -999.25    -999.25    -999.25   44.99880  146.72930    -999.25
  950.00000    1.79400    1.70270  -28.96540    1.64780    -999.25    -999.25    -999.25    -999.25    -999.25   71.35150    2.00820    0.09390   15.42610    -999.25    -999.25    -999.25   65.09410  160.99780    -999.25
 1000.00000    5.04050    4.82750  -29.54520    4.67800    -999.25    -999.25    -999.25    -999.25    -999.25   51.39750    1.99590    0.00110   15.30800    -999.25    -999.25    -999.25   42.26590  141.61870    -999.25
 1050.00000    4.90040    3.89340  -28.63930    3.64190    -999.25    -999.25    -999.25    -999.25    -999.25   47.20500    1.97970    0.03680   16.25440    -999.25    -999.25    -999.25   40.34690  147.04790    -999.25
 1100.00000    4.43140    3.84430  -29.07840    3.45650    -999.25    -999.25    -999.25    -999.25    -999.25   50.45790    1.97370    0.00460   16.23890    -999.25    -999.25    -999.25   46.65640  145.57640    -999.25
 1150.00000    2.60180    2.28340  -27.69360    1.92420    -999.25    -999.25    -999.25    -999.25    -999.25   72.64970    2.02850    0.01740   15.68070    -999.25    -999.25    -999.25   60.14530  151.89870    -999.25
 1200.00000    3.02440    2.80270  -28.20040    2.46280    -999.25    -999.25    -999.25    -999.25    -999.25   50.99760    2.04060    0.06120   16.30320    -999.25    -999.25    -999.25   44.81130  146.12000    -999.25
 1250.00000    3.43840    3.01760  -29.08490    2.75780    -999.25    -999.25    -999.25    -999.25    -999.25   45.37330    1.98640    0.03860   15.27640    -999.25    -999.25    -999.25   38.56590  141.28710    -999.25
 1300.00000    3.08190    2.89910  -26.80450    2.61930    -999.25    -999.25    -999.25    -999.25    -999.25   49.07960    2.00710    0.01610   15.77380    -999.25    -999.25    -999.25   42.25080  144.74230    -999.25
 1350.00000    1.53250    1.49500  -26.86970    1.45730    -999.25    -999.25    -999.25    -999.25    -999.25   51.12460    1.97400    0.05120   14.96710    -999.25    -999.25    -999.25   46.68480  151.69390    -999.25
 1400.00000    1.94350    1.79290  -26.77580    1.70640    -999.25    -999.25    -999.25    -999.25    -999.25   42.97200    1.80610    0.04570   15.49390    -999.25    -999.25    -999.25   39.64420  155.70400    -999.25
 1450.00000    4.62510    4.08700  -25.34790    3.62530    -999.25    -999.25    -999.25    -999.25    -999.25   47.53440    1.85840    0.01910   14.90490    -999.25    -999.25    -999.25   40.64950  143.53110    -999.25
 1500.00000    2.73700    2.50880  -28.58570    2.41110    -999.25    -999.25    -999.25    -999.25    -999.25   58.78760    2.04900    0.06420   15.50020    -999.25    -999.25    -999.25   55.23890  136.99480    -999.25
 1550.00000    3.62190    3.09640  -26.19730    2.82000    -999.25    -999.25    -999.25    -999.25    -999.25   41.99180    1.91360    0.05520   15.81110    -999.25    -999.25    -999.25   37.07460  147.90660    -999.25
 1600.00000    0.92400    0.85150  -21.59860    0.83740    -999.25    -999.25    -999.25    -999.25    -999.25   83.60520    1.95920    0.03330   16.29620    -999.25    -999.25    -999.25   62.01780  178.42050    -999.25
 1650.00000    1.75700    1.71470  -23.30570    1.65320    -999.25    -999.25    -999.25    -999.25    -999.25   74.75330    2.11860    0.02500   16.26830    -999.25    -999.25    -999.25   66.51270  141.34090    -999.25
 1700.00000    1.19350    1.28780  -22.66700    1.37790    -999.25    -999.25    -999.25    -999.25    -999.25   69.51160    2.14060    0.03830   16.26170    -999.25    -999.25    -999.25   62.71390  146.32890    -999.25
 1750.00000    1.33600    1.42240  -22.48480    1.37110    -999.25    -999.25    -999.25    -999.25    -999.25   66.08350    2.13960    0.01400   16.25840    -999.25    -999.25    -999.25   59.17770  140.31510    -999.25
 1800.00000    0.99670    1.06040  -22.13910    1.11970    -999.25    -999.25    -999.25    -999.25    -999.25   67.94380    2.09080    0.02730   16.18430    -999.25    -999.25    -999.25   64.97530  158.67980    -999.25
 1850.00000    0.98410    1.01050  -21.96010    1.14330    -999.25    -999.25    -999.25    -999.25    -999.25   71.41110    2.09160    0.03300   16.26010    -999.25    -999.25    -999.25   59.53000  162.53190    -999.25
 1900.00000    1.02180    1.04970  -20.85040    1.12660    -999.25    -999.25    -999.25    -999.25    -999.25   68.52920    2.12680    0.04140   16.25500    -999.25    -999.25    -999.25   61.99500  155.45110    -999.25
 1950.00000    0.96680    1.03210  -21.93140    0.98040    -999.25    -999.25    -999.25    -999.25    -999.25   67.34050    2.10100    0.04820   16.24310    -999.25    -999.25    -999.25   56.45570  154.25520    -999.25
 2000.00000    1.20960    1.24110  -22.10790    1.22540    -999.25    -999.25    -999.25    -999.25    -999.25   65.99130    2.12810    0.04490   16.07980    -999.25    -999.25    -999.25   57.37000  148.08050    -999.25
 2050.00000    1.18100    1.24840  -23.69310    1.57120    -999.25    -999.25    -999.25    -999.25    -999.25   59.46790    2.17380    0.05510   15.25120    -999.25    -999.25    -999.25   52.00620  141.18740    -999.25
 2100.00000    1.01560    1.05810  -24.54080    1.09910    -999.25    -999.25    -999.25    -999.25    -999.25   64.61000    2.01540    0.04800   15.34800    -999.25    -999.25    -999.25   53.45520  152.06100    -999.25
