~Version ---------------------------------------------------
VERS. 2.0 : CWLS log ASCII Standard -VERSION 2.0
WRAP.  NO : ONE LINE PER DEPTH STEP
~Well ------------------------------------------------------
STRT.F                      2450.0 : START DEPTH
STOP.F                      9950.0 : STOP DEPTH
STEP.F                    50.00000 : STEP LENGTH
NULL.                      -999.25 : NULL VALUE
COMP. ANTLE OPERATING INCORPORATED : COMPANY
WELL.        MIESCH ST. KATRINA #1 : WELL
FLD .                    NINE YEAR : FIELD
LOC .                              : LOCATION
CNTY.                     LA SALLE : COUNTY
STAT.                        TEXAS : STATE
CTRY.     UNITED STATES OF AMERICA : COUNTRY
SRVC.                 Schlumberger : SERVICE COMPANY
DATE.                  04-Oct-1994 : LOGDATE
API .               42283315560000 : API NUMBER
UWI .               42283315560000 : UNIQUE WELL ID
SLAT.WGS84           28.5415220893 : SURFACE LATITUDE
SLON.WGS84          -99.3115633507 : SURFACE LONGITUDE
~Curve Information -----------------------------------------
DEPT.F                 : 
AF10.OHMM 06 120 10 00 : 10-IN. RESISTIVITY, 4-FT RESOLUTION
AF60.OHMM 06 120 60 00 : 60-IN. RESISTIVITY, 4-FT RESOLUTION
CILD.MMHO 06 110 46 00 : CONDUCTIVITY INDUCTION LOG DEEP
AFCO.MMHO 06 110 46 00 : CONDUCTIVITY, 4-FT RESOLUTION
IDPH.OHMM 06 120 46 00 : INDUCTION DEEP PHASOR RES.
IMPH.OHMM 06 120 44 00 : INDUCTION MEDIUM PHASOR RES.
SFLU.OHMM 06 220 01 00 : SPHERICALLY FOCUSED LOG UNAVERAGED RES.
SPR .MV   06 010 01 00 : SPONTANEOUS POTENTIAL FROM RES.
GRR .GAPI 06 310 01 00 : GAMMA RAY FROM RES.
~Params ----------------------------------------------------
PD  .                     GL : PERMANENT DATUM
EPD .F                 541.9 : ELEVATION PERMANENT DATUM
LMF .                    RKB : LOG MEASURED FROM
DAPD.F                  17.6 : FEET ABOVE PERMANENT DATUM
DMF .                    RKB : DRILLING MEASURED FROM
EKB .F                 569.5 : KELLING BUSHING
EDF .F                 568.5 : DRILLING FLOOR
EGL .F                 541.9 : GROUND LEVEL
DATE.               10/04/94 : RUN DATE
RUN .                      2 : RUN NUMBER
DD  .F                  9980 : DEPTH DRILLER
DL  .F                  9977 : DEPTH LOGGER
BLI .F                  9950 : BOTTOM LOG INTERVAL
TLI .F                  9445 : TOP LOG INTERVAL
CS  .IN                    7 : CASING SIZE
CBD .F                  9460 : CASING BOTTOM DRILLER
CBL .F                  9445 : CASING BOTTOM LOGGER
BS  .IN                6.125 : BIT SIZE
BSD .F                  9980 : BIT SIZE AT DEPTH
DFT .                LIGNITE : DRILLING FLUID TYPE
DFD .                    9.1 : DRILLING FLUID DENSITY
DFV .                     37 : DRILLING FLUID VISCOSITY
DFPH.                   10.5 : DRILLING FLUID PH
DFL .                    6.6 : DRILLING FLUID LOSS
MSS .               CIRC PIT : MUD SAMPLE SOURCE
RMS .OHMM               0.87 : RESISTIVITY MUD SAMPLE
RMF .OHMM                1.3 : RESISTIVITY MUD FILTRATE SAMPLE
MFST.F                    74 : MUD FILTRATE SAMPLE TEMPERATURE
RMC .OHMM              1.305 : RESISTIVITY MUD CAKE
MCST.F                   116 : MUD CAKE SAMPLE TEMPERATURE
MFSS.                   MEAS : MUD FILTRATE SAMPLE SOURCE
MCSS.                   CALC : MUD CAKE SAMPLE SOURCE
RMB .OHMM              0.469 : RESISTIVITY MUD AT BHT
TCS .HRS                1630 : TIME CURCULATED STOPPED
TLAB.HRS                2100 : TIME LOGGER AT BOTTOM
LUN .                   2024 : LOGGING UNIT NUMBER
LUL .                 LAREDO : LOGGING UNIT LOCATION
ENGI.              STRUBHART : RECORDING ENGINEER
WITN.           ANTLE MIESCH : WITNESSED BY
CLNT.                A2DTECH : CLIENT CODE
ORIG.            1" 5" PRINT : ORIGIN OF DATA
UWI .         42283315560000 : UNIQUE WELL ID
DICO. A2D Technologies, Inc. : DIGITIZING COMPANY
~Other -----------------------------------------------------
~ASCII -----------------------------------------------------
# ...
 6100.00000    -999.25    -999.25  295.47170    -999.25    4.35430    3.69710    4.23320   -6.38700   47.82750
 6150.00000    -999.25    -999.25  315.02240    -999.25    3.44080    3.46470    3.25580   -3.08840   73.87630
 6200.00000    -999.25    -999.25  338.61300    -999.25    3.08060    3.03960    3.06040   -2.93960   75.83730
 6250.00000    -999.25    -999.25  319.94230    -999.25    3.08150    3.34730    3.46440   -5.18900   68.71060
 6300.00000    -999.25    -999.25  283.63460    -999.25    4.34860    5.45840    4.27600   -9.38490   64.66920
 6350.00000    -999.25    -999.25  269.99260    -999.25    3.80780    3.76320    3.66050  -12.83360   70.95810
 6400.00000    -999.25    -999.25  276.31100    -999.25    3.71150    3.63550    3.73700  -18.83060   78.36830
 6450.00000    -999.25    -999.25  256.35280    -999.25    3.94880    4.07070    4.28910  -23.32800   63.99790
 6500.00000    -999.25    -999.25  287.24430    -999.25    3.58580    3.56120    3.66060  -29.32560   55.95560
 6550.00000    -999.25    -999.25  222.71870    -999.25    4.58050    4.53210    5.43810  -32.52570   62.86120
 6600.00000    -999.25    -999.25  355.68890    -999.25    2.70350    2.66650    2.72210  -32.11370   80.16570
 6650.00000    -999.25    -999.25  306.80150    -999.25    3.12430    3.21930    3.21150  -36.67240   75.91030
 6700.00000    -999.25    -999.25  272.54640    -999.25    3.66060    3.71140    3.71140  -29.93070   64.38250
 6750.00000    -999.25    -999.25  272.98030    -999.25    3.65650    3.69060    3.75450  -29.92500   56.17510
 6800.00000    -999.25    -999.25  215.24660    -999.25    4.62650    4.98320    5.66980  -31.27440   45.53970
 6850.00000    -999.25    -999.25  126.30800    -999.25    9.40160    9.15090   12.64960  -33.22340   32.32930
 6900.00000    -999.25    -999.25  124.56440    -999.25    6.69300    6.89920    6.01110  -33.76100   57.70960
 6950.00000    -999.25    -999.25  103.63730    -999.25   11.17440   11.56600   13.36630  -37.24110   33.26850
 7000.00000    -999.25    -999.25  102.65650    -999.25    9.66920    9.80350    9.60290  -31.27440   42.12470
 7050.00000    -999.25    -999.25  177.31710    -999.25    5.76760    6.39580    7.98100  -30.52470   45.80840
 7100.00000    -999.25    -999.25   71.37520    -999.25   11.89020   12.30610   12.09110  -36.15600   34.96130
 7150.00000    -999.25    -999.25   48.88930    -999.25   22.08750   22.83540   33.22200  -41.11110   19.31550
 7200.00000    -999.25    -999.25   63.57160    -999.25   10.25410   11.46890   22.93930  -36.75440   30.22840
 7250.00000    -999.25    -999.25   66.64210    -999.25   17.97450   16.81770   22.79700  -39.90990   23.39380
 7300.00000    -999.25    -999.25   32.88490    -999.25   24.78770   30.68440   29.62710  -37.35740   16.91730
 7350.00000    -999.25    -999.25   21.79870    -999.25   40.24440   37.60720   68.73680  -37.35710   30.81640
 7400.00000    -999.25    -999.25   35.12710    -999.25   27.17460   26.70660   39.57650  -36.74840   45.72870
 7450.00000    -999.25    -999.25   25.97180    -999.25   42.81530   39.14960   58.65960  -35.70620   39.30870
 7500.00000    -999.25    -999.25    6.85130    -999.25  155.69280  100.12460  178.21280  -46.51770   38.12100
 7550.00000    -999.25    -999.25   26.15850    -999.25   39.42030   39.06610   68.10520  -36.90700   41.50410
 7600.00000    -999.25    -999.25   20.92680    -999.25   53.22100   39.42030  115.78450  -36.60660   75.78950
 7650.00000    -999.25    -999.25    1.49480    -999.25   92.16720   75.84690  229.56740  -46.36900   67.79310
 7700.00000    -999.25    -999.25   11.21220    -999.25   62.11220   49.82550   73.09780  -45.84890   15.42210
 7750.00000    -999.25    -999.25    2.98950    -999.25  169.63320  127.90870  181.88240  -60.03000   13.42960
 7800.00000    -999.25    -999.25  237.55390    -999.25    4.37870    4.49150    4.73480  -17.53770   61.12780
 7850.00000    -999.25    -999.25  135.65060    -999.25    7.29670    7.91840    9.17710  -15.86430   48.74160
 7900.00000    -999.25    -999.25   23.54530    -999.25   38.61480   42.40110   54.49020 -103.64860    8.75690
 7950.00000    -999.25    -999.25    4.85800    -999.25  279.26890  393.03920  412.97270  -70.22780   20.20960
 8000.00000    -999.25    -999.25   52.31690    -999.25   18.77580   20.84460   39.14970 -117.68770   19.75940
 8050.00000    -999.25    -999.25   29.08610    -999.25   37.93650   28.62250   45.86750 -110.03050   24.47460
 8100.00000    -999.25    -999.25  146.61340    -999.25    6.62220    8.68470   47.47830 -116.33630   15.68880
 8150.00000    -999.25    -999.25   92.48880    -999.25   15.29110   33.27860   88.51540 -115.58560   16.61680
 8200.00000    -999.25    -999.25  160.08780    -999.25    5.87340    7.72440   53.71610 -122.49180   17.35960
 8250.00000    -999.25    -999.25   38.11660    -999.25   26.52170   33.40850  124.54920 -131.80230   16.16700
 8300.00000    -999.25    -999.25   24.91240    -999.25   55.01640   85.06920  178.20320 -123.54100   14.28420
 8350.00000    -999.25    -999.25  108.55480    -999.25    8.34380    8.98910   30.76190 -126.66790   17.01850
 8400.00000    -999.25    -999.25    7.47260    -999.25  162.13010   58.62680  121.67530  -51.77130   32.33530
 8450.00000    -999.25    -999.25   85.63840    -999.25   10.66930   14.76700   46.82860 -115.70130   25.14970
 8500.00000    -999.25    -999.25  200.17560    -999.25    5.32920    7.10110   40.80080 -131.80180   20.65650
 8550.00000    -999.25    -999.25  438.71450    -999.25    2.28730    4.71230   26.80250 -128.93530   21.10780
 8600.00000    -999.25    -999.25   60.22090    -999.25   16.38070   16.71810   67.00170 -111.48280   13.69760
 8650.00000    -999.25    -999.25   67.31190    -999.25   37.88720   38.56040   68.73440 -112.21530   16.95280
 8700.00000    -999.25    -999.25    0.00000    -999.25 1098.31430  214.06000 1269.34000 -142.66130   19.17290
 8750.00000    -999.25    -999.25    8.40810    -999.25   57.18280  107.26730  145.92590 -106.87690   27.06770
 8800.00000    -999.25    -999.25    1.74650    -999.25  179.43000  154.49780  161.81760 -132.55260   30.67600
 8850.00000    -999.25    -999.25    4.11680    -999.25  256.73590   95.42340  223.68990  -67.98800   39.24700
 8900.00000    -999.25    -999.25   22.45510    -999.25   34.82040   22.63820   28.91050 -105.23910   24.13390
 8950.00000    -999.25    -999.25    1.87120    -999.25  746.77140  257.12030  219.12060  -57.42120   21.42860
 9000.00000    -999.25    -999.25    0.00000    -999.25  263.89100   68.57360  273.15410  -76.24700   22.32860
 9050.00000    -999.25    -999.25   42.28950    -999.25   25.71710   22.95120   24.17150  -90.96100   23.68420
 9100.00000    -999.25    -999.25    0.00000    -999.25  496.36510  480.01510  628.07880  -78.08100   28.64830
 9150.00000    -999.25    -999.25    0.00000    -999.25  153.61130  113.66660  217.24910 -121.44140   20.07520
 9200.00000    -999.25    -999.25    0.00000    -999.25  904.57240  171.85490  401.25940 -110.51650   32.25560
 9250.00000    -999.25    -999.25    4.86530    -999.25  272.32980  115.20720  247.63950  -95.61560   37.21670
 9300.00000    -999.25    -999.25   17.46510    -999.25   49.82410   58.93690   63.40740  -84.47810   35.18470
 9350.00000    -999.25    -999.25   59.00660    -999.25   21.42520   18.60400   44.01230  -86.00560   12.85610
 9400.00000    -999.25    -999.25   73.91380    -999.25   13.41720   13.93030   66.08280  -96.66670    9.47280
 9450.00000    -999.25    -999.25  373.50300    -999.25    2.66130    3.36260   33.64190 -113.18320    8.34160
 9500.00000    -999.25    -999.25  609.28140    -999.25    1.67800    2.02410    6.57400 -111.08300   10.71430
 9550.00000    6.29750    4.34130    -999.25  245.88940    -999.25    -999.25    -999.25  -39.32330    7.88290
 9600.00000    6.76780    3.29340    -999.25  336.32290    -999.25    -999.25    -999.25  -30.17540    4.71350
 9650.00000    1.76150    1.02920    -999.25    -999.25    -999.25    -999.25    -999.25  -42.83220    4.80510
 9700.00000    3.47310    1.75900    -999.25  600.89690    -999.25    -999.25    -999.25  -41.00270    3.82880
