~Version ---------------------------------------------------
VERS. 2.0 : CWLS log ASCII Standard -VERSION 2.0
WRAP. YES : MULTIPLE LINES PER DEPTH STEP
~Well ------------------------------------------------------
STRT.FT                  2000.0 : START DEPTH
STOP.FT                  6400.0 : STOP DEPTH
STEP.FT                50.00000 : STEP LENGTH
NULL.                   -999.25 : NULL VALUE
COMP. EVERGREEN OIL CORPORATION : COMPANY
WELL.        D. B. LITTLETON #1 : WELL
FLD .                      COST : FIELD
LOC .                           : LOCATION
CNTY.                  GONZALES : COUNTY
STAT.                     TEXAS : STATE
CTRY.  UNITED STATES OF AMERICA : COUNTRY
SRVC.              Schlumberger : SERVICE COMPANY
DATE.               22-Feb-1981 : LOGDATE
API .            42177308270000 : API NUMBER
UWI .            42177308270000 : UNIQUE WELL ID
SLAT.WGS84         29.469226813 : SURFACE LATITUDE
SLON.WGS84       -97.5735228913 : SURFACE LONGITUDE
~Curve Information -----------------------------------------
DEPT    .FT    : DEPTH FEET
CALRED  .IN    : CALIPER FROM RESISTIVITY LOG
CALWS   .IN    : CALIPER [DCALED+BITED]
CONDWS  .MMHO  : CONDUCTIVITY [1000/DRESWS]
DCALED  .IN    : DIFFERENTIAL CALIPER FROM DENSITY LOG
DCORWS  .G/C3  : DENSITY CORRECTION [DRHOED]
DENWS   .G/C3  : BULK DENSITY [M=2.68 F=1.0] [CALCULATED FROM DPOWS]
DPHISSED.V/V   : DENSITY POROSITY [M=2.68 F=1.0] FROM DENSITY LOG
DPOWS   .V/V   : DENSITY POROSITY [M=2.68 F=1.0] [DPHISSED]
DRESWS  .OHMM  : DEEP RESISTIVITY [ILDED]
DRHOED  .G/C3  : DENSITY CORRECTION FROM DENSITY LOG
GRRED   .GAPI  : GAMMA RAY FROM RESISTIVITY LOG
GRWS    .GAPI  : GAMMA RAY [GRRED]
ILDED   .OHMM  : INDUCTION LOG DEEP RESISTIVITY
ILMED   .OHMM  : INDUCTION LOG MEDIUM RESISTIVITY
MRESWS  .OHMM  : MEDIUM RESISTIVITY [ILMED]
NPHISSED.V/V   : NEUTRON POROSITY SANDSTONE FROM DENSITY LOG
NPOWS   .V/V   : NEUTRON POROSITY SANDSTONE [NPHISSED]
SFLUED  .OHMM  : SPHERICALLY FOCUSED LOG RESISTIVITY
SPRED   .MV    : SPONTANEOUS POTENTIAL FROM RESISTIVITY LOG
SPWS    .MV    : SPONTANEOUS POTENTIAL [BASELINE 0 MV] [SPRED]
SRESWS  .OHMM  : SHALLOW RESISTIVITY [SFLUED]
TENRED  .LBF   : TENSION FROM RESISTIVITY LOG
~Params ----------------------------------------------------
PD  .                     GL : PERMANENT DATUM
EPD .FT                  387 : ELEVATION PERMANENT DATUM
LMF .                     KB : LOG MEASURED FROM
DAPD.FT                   12 : FEET ABOVE PERMANENT DATUM
DMF .                     KB : DRILLING MEASURED FROM
EKB .FT                  399 : KELLY BUSHING
EDF .FT                  398 : DRILLING FLOOR
EGL .FT                  387 : GROUND LEVEL
DATE.               02/22/81 : RUN DATE
RUN .                      1 : RUN NUMBER
DD  .FT                 6394 : DEPTH DRILLER
DL  .FT                 6394 : DEPTH LOGGER
BLI .FT                 6384 : BOTTOM LOG INTERVAL
TLI .FT                 2069 : TOP LOG INTERVAL
CS  .IN                8.625 : CASING SIZE
CBD .FT                 2067 : CASING BOTTOM DRILLER
CBL .FT                 2069 : CASING BOTTOM LOGGER
BS  .IN                7.875 : BIT SIZE
BSD .FT                 6394 : BIT SIZE AT DEPTH
DFT .   POLYMER ASTROUISIC V : DRILLING FLUID TYPE
DFD .                    9.2 : DRILLING FLUID DENSITY
DFV .                     35 : DRILLING FLUID VISCOSITY
DFPH.                    9.7 : DRILLING FLUID PH
DFL .                    8.6 : DRILLING FLUID LOSS
MSS .               CIRC PIT : MUD SAMPLE SOURCE
RMS .OHMM               2.31 : RESISTIVITY MUD SAMPLE
MST .DEGF                 94 : MUD SAMPLE TEMPERATURE
RMF .OHMM                2.4 : RESISTIVITY MUD FILTRATE SAMPLE
MFST.DEGF                 72 : MUD FILTRATE SAMPLE TEMPERATURE
RMC .OHMM               3.46 : RESISTIVITY MUD CAKE
MCST.DEGF                 94 : MUD CAKE SAMPLE TEMPERATURE
MFSS.                      M : MUD FILTRATE SAMPLE SOURCE
MCSS.                      C : MUD CAKE SAMPLE SOURCE
RMB .OHMM               1.09 : RESISTIVITY MUD AT BHT
TCS .HRS                2000 : TIME CIRCULATED STOPPED
TLAB.HRS                 100 : TIME LOGGER AT BOTTOM
LUN .                   8011 : LOGGING UNIT NUMBER
LUL .               VICTORIA : LOGGING UNIT LOCATION
ENGI.                   SHEA : RECORDING ENGINEER
WITN.                  EVANS : WITNESSED BY
CLNT.                A2DTECH : CLIENT CODE
ORIG.        0.5" 2.5" PRINT : ORIGIN OF DATA
UWI .         42177308270000 : UNIQUE WELL ID
DICO. A2D Technologies, Inc. : DIGITIZING COMPANY
~Other -----------------------------------------------------
~ASCII -----------------------------------------------------
# ...
 5200.00000    -999.25    9.98550  795.29190    2.11050    -999.25    2.44800    0.13810    0.13810    1.25740    -999.25  102.51920  102.51920    1.25740    1.27270    1.27270    0.39680    0.39680    1.45320    7.44830   -3.94070    1.45320 2249.83740
 5250.00000    -999.25    9.40250  689.08490    1.52750    0.10000    2.50480    0.10430    0.10430    1.45120    0.10000   96.77550   96.77550    1.45120    1.46990    1.46990    0.35300    0.35300    1.65230    8.43970   -3.09220    1.65230 2298.24510
 5300.00000    -999.25    9.09890  659.45660    1.22390    0.07500    2.47130    0.12420    0.12420    1.51640    0.07500  102.02850  102.02850    1.51640    1.53490    1.53490    0.33860    0.33860    1.77010    9.49720   -2.32800    1.77010 2336.58960
 5350.00000    -999.25    9.23330  819.40350    1.35830    -999.25    2.48360    0.11690    0.11690    1.22040    -999.25   96.44720   96.44720    1.22040    1.23590    1.23590    0.37820    0.37820    1.40100    2.71040   -9.49640    1.40100 2338.64260
 5400.00000    -999.25    9.35250  832.08520    1.47750    0.09200    2.47070    0.12460    0.12460    1.20180    0.09200   92.20200   92.20200    1.20180    1.22430    1.22430    0.36640    0.36640    1.46070    2.46640  -10.12210    1.46070 2358.42070
 5450.00000    -999.25   10.14470 1137.39770    2.26970    0.07450    2.33170    0.20730    0.20730    0.87920    0.07450  105.80460  105.80460    0.87920    0.91350    0.91350    0.40930    0.40930    1.02070    2.66730  -10.30290    1.02070 2381.11380
 5500.00000    -999.25    9.93850  867.67900    2.06350    0.09580    2.46830    0.12600    0.12600    1.15250    0.09580   99.75250   99.75250    1.15250    1.18890    1.18890    0.37810    0.37810    1.31820    2.89670  -10.45520    1.31820 2361.33060
 5550.00000    -999.25   10.49930  774.05370    2.62430    -999.25    2.10910    0.33980    0.33980    1.29190    -999.25   96.94400   96.94400    1.29190    1.30840    1.30840    0.42730    0.42730    1.52720    0.55140  -13.18220    1.52720 2416.00710
 5600.00000    9.74840    9.81500  515.99590    1.94000    0.08170    2.54160    0.08240    0.08240    1.93800    0.08170   88.22870   88.22870    1.93800    1.96320    1.96320    0.27810    0.27810    2.13510    2.58540  -11.52990    2.13510 2399.73950
 5650.00000   10.43650   10.47020  518.26900    2.59520    0.09910    2.56040    0.07120    0.07120    1.92950    0.09910   89.50020   89.50020    1.92950    1.95370    1.95370    0.27100    0.27100    2.17180    2.30400  -12.19300    2.17180 2423.93920
 5700.00000    9.11750    9.07870  341.81020    1.20370    0.02860    2.58940    0.05390    0.05390    2.92560    0.02860   72.71480   72.71480    2.92560    2.96190    2.96190    0.24350    0.24350    3.82980    3.00190  -11.87680    3.82980 2439.52290
 5750.00000    9.17690    9.23170  255.24530    1.35670    0.02820    2.61730    0.03730    0.03730    3.91780    0.02820   59.03000   59.03000    3.91780    3.96540    3.96540    0.19780    0.19780    4.38590    0.00450  -15.25580    4.38590 2471.34030
 5800.00000    9.11670    9.09640  216.49240    1.22140    0.04680    2.59280    0.05190    0.05190    4.61910    0.04680   30.58870   30.58870    4.61910    4.46020    4.46020    0.15200    0.15200    4.73490   -6.11130  -21.75330    4.73490 2541.84420
 5850.00000    8.66930    8.68430  170.65720    0.80930    0.03650    2.63580    0.02630    0.02630    5.85970    0.03650   32.51510   32.51510    5.85970    5.88620    5.88620    0.16180    0.16180   10.10620   -3.66580  -19.68950   10.10620 2524.48850
 5900.00000    9.17390    9.16670  220.98470    1.29170    0.04310    2.63500    0.02680    0.02680    4.52520    0.04310   40.61000   40.61000    4.52520    4.72880    4.72880    0.11970    0.11970    7.13350    2.78450  -13.62090    7.13350 2554.76070
 5950.00000    9.01470    9.03460  146.87090    1.15960    0.02790    2.61300    0.03990    0.03990    6.80870    0.02790   21.41520   21.41520    6.80870    6.89460    6.89460    0.12940    0.12940    8.87660  -18.12670  -34.91380    8.87660 2540.66870
 6000.00000    8.81860    8.85140  161.44400    0.97640    0.03920    2.66240    0.01050    0.01050    6.19410    0.03920   28.09910   28.09910    6.19410    6.42640    6.42640    0.10740    0.10740    7.37050   -1.32420  -18.49300    7.37050 2574.36940
 6050.00000    8.79920    8.69360  105.62670    0.81860    0.01290    2.63700    0.02560    0.02560    9.46730    0.01290   25.89790   25.89790    9.46730    9.59750    9.59750    0.14500    0.14500   12.91010   -3.56730  -21.11780   12.91010 2575.76250
 6100.00000    8.67790    8.71160  118.93580    0.83660    0.04800    2.49620    0.10940    0.10940    8.40790    0.04800   88.88240   88.88240    8.40790    8.57010    8.57010    0.27130    0.27130   11.67350   10.61170   -7.32040   11.67350 2614.73290
 6150.00000    8.27680    7.97810   87.15580    0.10310    0.01340    2.65560    0.01450    0.01450   11.47370    0.01340   25.94650   25.94650   11.47370    9.57860    9.57860    0.11700    0.11700    8.66120   10.11240   -6.77930    8.66120 2635.75240
 6200.00000    7.63800    7.94130   44.86740    0.06630    0.01850    -999.25    -999.25    -999.25   22.28790    0.01850   20.33480   20.33480   22.28790   18.48790   18.48790    0.08070    0.08070   22.32660    2.14930  -13.10360   22.32660 2618.03520
 6250.00000    7.50390    7.78080  234.70870   -0.09420    0.04210    2.66240    0.01050    0.01050    4.26060    0.04210   59.41620   59.41620    4.26060    4.34170    4.34170    0.21420    0.21420    5.71830   11.94680   -1.85280    5.71830 2629.96220
 6300.00000    6.95360    6.96420   39.37720   -0.91080    0.02810    -999.25    -999.25    -999.25   25.39540    0.02810   30.90150   30.90150   25.39540   21.64430   21.64430    0.08610    0.08610   32.28460   -2.21640  -15.98690   32.28460 2672.64500
 6350.00000    6.08590    6.16840   51.33150   -1.70660    0.03120    2.68370   -0.00220   -0.00220   19.48120    0.03120    -999.25    -999.25   19.48120   14.07600   14.07600    0.08270    0.08270   36.34270  -69.53980  -83.31030   36.34270 2627.53370
 6400.00000    -999.25    -999.25    -999.25    -999.25    -999.25    -999.25    -999.25    -999.25    -999.25    -999.25    -999.25    -999.25    -999.25    -999.25    -999.25    -999.25    -999.25    -999.25    -999.25    -999.25    -999.25    -999.25
