~Version ---------------------------------------------------
VERS. 2.0 : CWLS log ASCII Standard -VERSION 2.0
WRAP. YES : MULTIPLE LINES PER DEPTH STEP
~Well ------------------------------------------------------
STRT.FT                  300.0 : START DEPTH
STOP.FT                14400.0 : STOP DEPTH
STEP.FT               50.00000 : STEP LENGTH
NULL.                  -999.25 : NULL VALUE
COMP.              CONOCO INC. : COMPANY
WELL.       JACQUELYN WOODS #1 : WELL
FLD .                  WILDCAT : FIELD
LOC .                          : LOCATION
CNTY.                ROBERTSON : COUNTY
STAT.                    TEXAS : STATE
CTRY. UNITED STATES OF AMERICA : COUNTRY
SRVC.                          : SERVICE COMPANY
DATE.                          : LOGDATE
API .           42395302880000 : API NUMBER
UWI .           42395302880000 : UNIQUE WELL ID
SLAT.WGS84       31.0997639251 : SURFACE LATITUDE
SLON.WGS84      -96.4923364329 : SURFACE LONGITUDE
~Curve Information -----------------------------------------
DEPT  .FT    : DEPTH
ACED  .US/F  : DELTA TIME
CALRED.IN    : CALIPER FROM RESISTIVITY LOG
RILMED.OHMM  : MEDIUM INDUCTION RESISTIVITY
RFOCED.OHMM  : SHALLOW FOCUSED RESISTIVITY
RILDED.OHMM  : DEEP INDUCTION RESISTIVITY
GRRED .GAPI  : GAMMA RAY FROM RESISTIVITY LOG
TENRED.LBS   : TENSION FROM RESISTIVITY LOG
SFLUED.OHMM  : SPHERICALLY FOCUSED RESISTIVITY
GRDED .GAPI  : GAMMA RAY FROM DENSITY LOG
CALDED.IN    : CALIPER FROM DENSITY LOG
DRHOED.G/C3  : DENSITY CORRECTION
NPHIED.V/V   : NEUTRON POROSITY
RHOBED.G/C3  : BULK DENSITY
TENDED.LBS   : TENSION FROM DENSITY LOG
SRESWS.OHMM  : SHALLOW RESISTIVITY (RFOC+SFLU)
CALWS .IN    : CALIPER
SPED  .MV    : SPONTANEOUS POTENTIAL (BASELINE -10 MV)
SPWS  .MV    : SPONTANEOUS POTENTIAL (BASELINE -10 MV)
DCORWS.G/C3  : DENSITY CORRECTION
GRWS  .GAPI  : GAMMA RAY
DRESWS.OHMM  : DEEP RESISTIVITY (RILD)
MRESWS.OHMM  : MEDIUM RESISTIVITY (RILM)
CONDWS.MMHO  : CONDUCTIVITY FROM DEEP RESISTIVITY
DENWS .G/C3  : BULK DENSITY
DPOWS .V/V   : DENSITY POROSITY (M=2.71 F=1)
NPOWS .V/V   : NEUTRON POROSITY
DTWS  .V/V   : DELTA TIME
~Params ----------------------------------------------------
EKB .F                 513.38 : KELLY BUSHING
EGL .F                 483.38 : ELEVATION GROUND LEVEL
EDF .F                 512.38 : ELEVATION DERRICK FLOOR
EPD .F                 483.38 : ELEVATION PERMANENT DATUM
TD  .F                12197.0 : TOTAL DEPTH
DATE.             17-MAR-1984 : DATE LOGGED
CLNT.                 A2DTECH : CLIENT CODE
SL  . 3400' FNEL & 3500' FNWL : SURFACE LOCATION
PD  .                      GL : PERMANENT DATUM
LMF .                      KB : LOG MEASURED FROM
DMF .                      KB : DRILLING MEASURED FROM
DAPD.F                     30 : FEET ABOVE PERMANENT DATUM
DD  .F                  12195 : DEPTH DRILLER
DL  .F                  12197 : DEPTH LOGGER
BLI .F                  12195 : BOTTOM LOG INTERVAL
TLI .F                  11950 : TOP LOG INTERVAL
CS1 .IN                13.375 : CASING SIZE
CBD1.         13.375" @ 5096' : CASING DRILLER 1
BS1 .IN                 12.25 : BIT SIZE
BSD1.F                  12195 : DEPTH DRILLED WITH BIT1
DFT .             GEL/CAUSTIC : TYPE FLUID IN HOLE
DFD .                     9.8 : DENSITY
DFV .                      44 : VISCOSITY
DFPH.                      11 : PH
DFL .                    11.2 : FLUID LOSS
MSS .                    TANK : SOURCE OF SAMPLE
RMS .OHMM                1.95 : RM
RMF .OHMM                1.35 : RMF
RMC .OHMM                2.53 : RMC
MFSS.                    MEAS : SOURCE RMF.
MCSS.                    MEAS : SOURCE RMC.
RMB .OHMM                0.59 : RM. AT BHT
BHT .F                    246 : BHT.
TCS .HRS                    6 : TIME CIRC. STOPPED
TLAB.HRS                    - : TIME LOGGER AT BOTTOM
LUN .                 HL 6304 : LOGGING UNIT NUMBER
LUL .                   BRYAN : LOGGING UNIT LOCATION
ENGI.               R.R. KIRK : RECORDED BY
WITN.            GALE CLAYTOR : WITNESSED BY
ORIG.                5" PRINT : ORIGIN OF DATA
UWI .          42395302880000 : UNIQUE WELL ID
DICO.  A2D TECHNOLOGIES, INC. : DIGITIZING COMPANY
~Other -----------------------------------------------------
# NPHI 890 01 (LIMESTONE)
~ASCII -----------------------------------------------------
# ...
 1600.00000  117.68000   16.22700    2.95400    3.58000    2.89500   58.32100   27.79000    -999.25    -999.25    -999.25    -999.25    -999.25    -999.25    -999.25    3.58000   16.22700  -17.49110  -17.49110    -999.25   58.32100    2.89500    2.95400  345.42320    -999.25    -999.25    -999.25  117.68000
 1650.00000  119.69800   16.19800    2.46700    3.16500    2.53700   59.51200    7.37200    -999.25    -999.25    -999.25    -999.25    -999.25    -999.25    -999.25    3.16500   16.19800  -15.93890  -15.93890    -999.25   59.51200    2.53700    2.46700  394.16640    -999.25    -999.25    -999.25  119.69800
 1700.00000  120.68600   16.18200    2.42900    3.08000    2.49400   55.34800   16.09500    -999.25    -999.25    -999.25    -999.25    -999.25    -999.25    -999.25    3.08000   16.18200  -15.27670  -15.27670    -999.25   55.34800    2.49400    2.42900  400.96230    -999.25    -999.25    -999.25  120.68600
 1750.00000  120.20000   16.15700    2.14500    2.89200    2.09500   56.07300   23.64600    -999.25    -999.25    -999.25    -999.25    -999.25    -999.25    -999.25    2.89200   16.15700  -12.95350  -12.95350    -999.25   56.07300    2.09500    2.14500  477.32700    -999.25    -999.25    -999.25  120.20000
 1800.00000  128.64300   16.15700    1.68800    2.61400    1.67000   51.66000   15.62100    -999.25    -999.25    -999.25    -999.25    -999.25    -999.25    -999.25    2.61400   16.15700  -11.04270  -11.04270    -999.25   51.66000    1.67000    1.68800  598.80240    -999.25    -999.25    -999.25  128.64300
 1850.00000  129.94500    -999.25    1.60600    2.59500    1.56200   78.79900    9.51600    -999.25    -999.25    -999.25    -999.25    -999.25    -999.25    -999.25    2.59500    -999.25  -15.46960  -15.46960    -999.25   78.79900    1.56200    1.60600  640.20480    -999.25    -999.25    -999.25  129.94500
 1900.00000  123.71400   15.63700    2.19400    2.83100    2.16700   76.51900   23.81400    -999.25    -999.25    -999.25    -999.25    -999.25    -999.25    -999.25    2.83100   15.63700  -19.87550  -19.87550    -999.25   76.51900    2.16700    2.19400  461.46750    -999.25    -999.25    -999.25  123.71400
 1950.00000  121.28600   16.20800    1.87200    2.60800    1.80100   62.54000   37.55000    -999.25    -999.25    -999.25    -999.25    -999.25    -999.25    -999.25    2.60800   16.20800  -18.92530  -18.92530    -999.25   62.54000    1.80100    1.87200  555.24710    -999.25    -999.25    -999.25  121.28600
 2000.00000  108.38300   16.21500    2.65100    2.99500    2.37200   45.31300   21.92200    -999.25    -999.25    -999.25    -999.25    -999.25    -999.25    -999.25    2.99500   16.21500  -29.57720  -29.57720    -999.25   45.31300    2.37200    2.65100  421.58520    -999.25    -999.25    -999.25  108.38300
 2050.00000  113.56500   16.20400    2.06100    2.71700    1.99100   48.84700   15.27900    -999.25    -999.25    -999.25    -999.25    -999.25    -999.25    -999.25    2.71700   16.20400  -24.72000  -24.72000    -999.25   48.84700    1.99100    2.06100  502.26020    -999.25    -999.25    -999.25  113.56500
 2100.00000  109.61000   16.26000    2.02200    2.63900    2.01400   49.57000    4.93100    -999.25    -999.25    -999.25    -999.25    -999.25    -999.25    -999.25    2.63900   16.26000  -26.07790  -26.07790    -999.25   49.57000    2.01400    2.02200  496.52440    -999.25    -999.25    -999.25  109.61000
 2150.00000  122.85300   16.21200    1.28300    2.28600    1.24000   51.93100    0.00000    -999.25    -999.25    -999.25    -999.25    -999.25    -999.25    -999.25    2.28600   16.21200  -18.02470  -18.02470    -999.25   51.93100    1.24000    1.28300  806.45160    -999.25    -999.25    -999.25  122.85300
 2200.00000  128.17400   16.20700    1.00800    2.10600    0.98900   55.43500    4.55600    -999.25    -999.25    -999.25    -999.25    -999.25    -999.25    -999.25    2.10600   16.20700  -17.08460  -17.08460    -999.25   55.43500    0.98900    1.00800 1011.12230    -999.25    -999.25    -999.25  128.17400
 2250.00000  117.29000   16.19700    1.79400    2.48300    1.67400   57.25000    8.83300    -999.25    -999.25    -999.25    -999.25    -999.25    -999.25    -999.25    2.48300   16.19700  -18.23840  -18.23840    -999.25   57.25000    1.67400    1.79400  597.37160    -999.25    -999.25    -999.25  117.29000
 2300.00000  115.52400   16.19700    2.05000    2.73000    1.96900   62.87200   12.90400    -999.25    -999.25    -999.25    -999.25    -999.25    -999.25    -999.25    2.73000   16.19700  -20.38430  -20.38430    -999.25   62.87200    1.96900    2.05000  507.87200    -999.25    -999.25    -999.25  115.52400
 2350.00000  120.27700   16.13400    1.50300    2.44400    1.45900   59.45500    5.75400    -999.25    -999.25    -999.25    -999.25    -999.25    -999.25    -999.25    2.44400   16.13400  -17.47510  -17.47510    -999.25   59.45500    1.45900    1.50300  685.40090    -999.25    -999.25    -999.25  120.27700
 2400.00000  124.93900    -999.25    1.48300    2.40300    1.41700   70.27500   22.99400    -999.25    -999.25    -999.25    -999.25    -999.25    -999.25    -999.25    2.40300    -999.25  -19.33900  -19.33900    -999.25   70.27500    1.41700    1.48300  705.71620    -999.25    -999.25    -999.25  124.93900
 2450.00000  129.18000   16.19700    1.21300    2.15900    1.15900   63.59400   14.49400    -999.25    -999.25    -999.25    -999.25    -999.25    -999.25    -999.25    2.15900   16.19700  -19.62080  -19.62080    -999.25   63.59400    1.15900    1.21300  862.81270    -999.25    -999.25    -999.25  129.18000
 2500.00000  128.56200   15.35500    1.23600    2.22200    1.17900   64.17200   26.66100    -999.25    -999.25    -999.25    -999.25    -999.25    -999.25    -999.25    2.22200   15.35500  -19.53070  -19.53070    -999.25   64.17200    1.17900    1.23600  848.17640    -999.25    -999.25    -999.25  128.56200
 2550.00000  122.27500    -999.25    1.30300    2.27100    1.25800   73.48200    7.82100    -999.25    -999.25    -999.25    -999.25    -999.25    -999.25    -999.25    2.27100    -999.25  -19.53150  -19.53150    -999.25   73.48200    1.25800    1.30300  794.91250    -999.25    -999.25    -999.25  122.27500
 2600.00000  119.16900   15.55400    1.82400    2.59900    1.76000   54.84400   46.25400    -999.25    -999.25    -999.25    -999.25    -999.25    -999.25    -999.25    2.59900   15.55400  -23.17940  -23.17940    -999.25   54.84400    1.76000    1.82400  568.18180    -999.25    -999.25    -999.25  119.16900
 2650.00000  110.57000   16.23800    2.23400    2.89500    2.14400   54.78700   78.89500    -999.25    -999.25    -999.25    -999.25    -999.25    -999.25    -999.25    2.89500   16.23800  -21.75820  -21.75820    -999.25   54.78700    2.14400    2.23400  466.41790    -999.25    -999.25    -999.25  110.57000
 2700.00000  104.40300   16.24200    2.02800    2.76700    1.94100   49.76100    2.55800    -999.25    -999.25    -999.25    -999.25    -999.25    -999.25    -999.25    2.76700   16.24200  -27.38610  -27.38610    -999.25   49.76100    1.94100    2.02800  515.19840    -999.25    -999.25    -999.25  104.40300
 2750.00000  114.42300   16.27000    1.29000    2.22200    1.23900   58.31700   19.54000    -999.25    -999.25    -999.25    -999.25    -999.25    -999.25    -999.25    2.22200   16.27000  -18.93690  -18.93690    -999.25   58.31700    1.23900    1.29000  807.10250    -999.25    -999.25    -999.25  114.42300
 2800.00000  108.34200   16.26100    1.39900    2.17800    1.34900   53.56700    4.93100    -999.25    -999.25    -999.25    -999.25    -999.25    -999.25    -999.25    2.17800   16.26100  -17.95780  -17.95780    -999.25   53.56700    1.34900    1.39900  741.28990    -999.25    -999.25    -999.25  108.34200
 2850.00000  105.58300   16.23700    1.79400    2.43500    1.70300   59.78500   32.89000    -999.25    -999.25    -999.25    -999.25    -999.25    -999.25    -999.25    2.43500   16.23700  -20.74070  -20.74070    -999.25   59.78500    1.70300    1.79400  587.19910    -999.25    -999.25    -999.25  105.58300
