~Version ---------------------------------------------------
VERS. 2.0 : CWLS log ASCII Standard -VERSION 2.0
WRAP.  NO : ONE LINE PER DEPTH STEP
~Well ------------------------------------------------------
STRT.F                  3550.0 : START DEPTH
STOP.F                  8150.0 : STOP DEPTH
STEP.F                50.00000 : STEP LENGTH
NULL.                  -999.25 : NULL VALUE
COMP. MCMURREY PETROLEUM, INC. : COMPANY
WELL.           M. R. RANCH #1 : WELL
FLD .                   KURTEN : FIELD
LOC .                          : LOCATION
CNTY.                   BRAZOS : COUNTY
STAT.                    TEXAS : STATE
CTRY. UNITED STATES OF AMERICA : COUNTRY
SRVC.            Dresser Atlas : SERVICE COMPANY
DATE.              20-Sep-1984 : LOGDATE
API .           42041311780000 : API NUMBER
UWI .           42041311780000 : UNIQUE WELL ID
SLAT.WGS84        30.774844226 : SURFACE LATITUDE
SLON.WGS84      -96.4177622012 : SURFACE LONGITUDE
~Curve Information -----------------------------------------
DEPT.F    0   1   0  0 : 1 MEASURED DEPTH
GRR .GAPI 07 310 01 00 : GAMMA RAY FROM RESISTIVITY LOG
RFOC.OHMM 07 220 06 00 : SHALLOW FOCUSED LOG RESISTIVITY
RILD.OHMM 07 120 46 00 : INDUCTION DEEP RESISTIVITY
RILM.OHMM 07 120 44 00 : INDUCTION MEDIUM RESISTIVITY
SPR .MV   07 010 01 00 : SPONTANEOUS POTENTIAL FROM RESISTIVITY LOG
CALR.IN   07 280 00 00 : CALIPER FROM RESISTIVITY LOG
~Params ----------------------------------------------------
PD  .                     GL : PERMANENT DATUM
EPD .FT                  403 : ELEVATION PERMANENT DATUM
LMF .                     KB : LOG MEASURED FROM
DAPD.FT                 14.6 : FEET ABOVE PERMANENT DATUM
DMF .                     KB : DRILLING MEASURED FROM
EKB .FT                417.6 : KELLY BUSHING
EDF .FT                416.6 : DRILLING FLOOR
EGL .FT                  403 : GROUND LEVEL
DATE.               09/20/84 : RUN DATE
RUN .                      1 : RUN NUMBER
DD  .FT                 8225 : DEPTH DRILLER
DL  .FT                 8176 : DEPTH LOGGER
BLI .FT                 8174 : BOTTOM LOG INTERVAL
TLI .FT                 3530 : TOP LOG INTERVAL
CS  .IN                8.625 : CASING SIZE
CBD .FT                 3530 : CASING BOTTOM DRILLER
CBL .FT                 3530 : CASING BOTTOM LOGGER
BS  .IN                7.875 : BIT SIZE
BSD .FT                 8225 : BIT SIZE AT DEPTH
DFT .                  BENEX : DRILLING FLUID TYPE
DFD .                    8.7 : DRILLING FLUID DENSITY
DFV .                     50 : DRILLING FLUID VISCOSITY
DFPH.                    9.5 : DRILLING FLUID PH
DFL .                    6.0 : DRILLING FLUID LOSS
MSS .               CIRC PIT : MUD SAMPLE SOURCE
RMS .OHMM                3.6 : RESISTIVITY MUD SAMPLE
MST .DEGF                 75 : MUD SAMPLE TEMPERATURE
RMF .OHMM               3.35 : RESISTIVITY MUD FILTRATE SAMPLE
MFST.DEGF                 75 : MUD FILTRATE SAMPLE TEMPERATURE
RMC .OHMM                4.5 : RESISTIVITY MUD CAKE
MCST.DEGF                 75 : MUD CAKE SAMPLE TEMPERATURE
MFSS.                      M : MUD FILTRATE SAMPLE SOURCE
MCSS.                      C : MUD CAKE SAMPLE SOURCE
RMB .OHMM               1.44 : RESISTIVITY MUD AT BHT
TCS .HRS                   6 : TIME CIRCULATED STOPPED
LUN .                HL 6245 : LOGGING UNIT NUMBER
LUL .               GONZALES : LOGGING UNIT LOCATION
ENGI.                REPSHER : RECORDING ENGINEER
WITN.                  LOWRY : WITNESSED BY
CLNT.                A2DTECH : CLIENT CODE
ORIG.            2" 5" PRINT : ORIGIN OF DATA
UWI .         42041311780000 : UNIQUE WELL ID
DICO. A2D Technologies, Inc. : DIGITIZING COMPANY
~Other -----------------------------------------------------
~ASCII -----------------------------------------------------
 3550.00000   88.23330    9.93110    6.78270    9.66750  -68.31790   10.14850
 3600.00000   67.07790   12.77250    6.42430   10.05360  -80.53670    9.81620
 3650.00000   81.64870    6.09810    4.19690    5.06060  -64.15800    9.75740
 3700.00000  106.41780    2.32600    1.75540    1.78230  -32.26480   11.06090
 3750.00000   97.03520    2.57620    2.03170    2.06370  -31.73830   10.12410
 3800.00000  101.97660    2.39370    1.87490    1.90380  -30.51300   10.03450
 3850.00000   86.14430    4.59710    2.56640    2.70400  -28.63090    8.78760
 3900.00000  102.11190    2.64180    2.17750    2.22520  -30.29920    9.68160
 3950.00000  104.61060    2.63380    2.11440    2.14900  -28.40530    9.78420
 4000.00000   97.20440    2.68250    2.33510    2.38740  -28.67980    9.36790
 4050.00000   93.65840    2.38680    1.83020    1.85880  -32.50870   10.66110
 4100.00000  106.06890    2.13330    1.51920    1.54180  -29.25440   10.75330
 4150.00000   96.81240    2.25190    1.71080    1.73020  -30.94150   11.35430
 4200.00000  107.21370    2.11220    1.39620    1.41750  -30.31890   10.24480
 4250.00000   98.71130    1.97710    1.26100    1.28140  -31.96340   11.50840
 4300.00000  114.83240    2.07290    1.40900    1.45790  -27.92340   11.18400
 4350.00000  118.45100    2.21080    1.61870    1.64980  -27.79340    9.50690
 4400.00000  104.35640    1.99260    1.37560    1.40520  -29.39780    9.96120
 4450.00000  103.90750    1.87340    1.31210    1.34350  -26.28540    9.23530
 4500.00000   92.27880    1.74420    1.03750    1.05480  -24.60040    9.98850
 4550.00000   92.02760    1.84970    1.30040    1.32020  -24.67190    9.96520
 4600.00000   82.35530    1.95890    1.46920    1.49320  -26.04610    9.71240
 4650.00000   95.90440    1.63290    0.79700    0.86640  -25.44850   10.41750
 4700.00000  103.00590    2.50280    1.98100    2.02450  -26.72500    9.34400
 4750.00000   89.34150    2.06420    1.43180    1.45880  -28.68660   11.32510
 4800.00000   80.37060    1.98710    1.28250    1.30210  -29.09830   11.42620
 4850.00000   90.44650    1.81020    1.01770    1.05290  -29.46670   10.80930
 4900.00000   81.15880    1.84200    1.04420    1.07360  -33.76300   15.47200
 4950.00000   69.20910    1.89410    1.16470    1.18370  -30.95990   13.28950
 5000.00000   75.61710    1.70290    0.94160    0.96110  -30.71740   15.11770
 5050.00000   87.87270    2.05030    1.34980    1.37100  -33.09550   13.06210
 5100.00000   80.93920    2.46120    1.94200    1.97320  -25.29260    8.98340
 5150.00000   91.91130    1.98750    1.38860    1.43320  -31.53750    9.60680
 5200.00000   94.18620    2.15740    1.74960    1.79070  -28.10460    8.26620
 5250.00000   73.94220    2.57760    2.17790    2.22140  -25.62270    8.85300
 5300.00000  108.85420    1.60260    0.86250    0.91000  -23.20500    9.12350
 5350.00000   92.55500    1.89090    1.27970    1.31420  -26.21420    9.83730
 5400.00000  103.12780    1.62470    1.03020    1.06000  -25.48490   11.14600
 5450.00000   95.21820    1.71490    1.14370    1.16930  -27.35030   13.32640
 5500.00000   95.84930    1.62020    0.98420    1.02770  -24.70970    9.88040
 5550.00000  106.55360    1.57320    0.95250    0.89350  -21.23260   10.43650
 5600.00000  115.22110    1.47760    0.80710    0.83860  -20.93450   11.21640
 5650.00000  109.74770    2.00290    1.40930    1.45340  -23.78650    9.70490
 5700.00000  106.88090    1.99280    1.44920    1.50200  -22.97980    9.74490
 5750.00000   91.30090    2.09640    1.61180    1.63680  -24.35700    9.66100
 5800.00000   99.91660    2.01940    1.45210    1.47430  -26.37660   10.19500
 5850.00000  101.87580    2.09920    1.70140    1.72740  -22.84510    9.48560
 5900.00000  103.23380    1.83100    1.25350    1.29550  -23.08060   10.39680
 5950.00000   97.97760    2.03150    1.52930    1.57380  -30.21230    9.82210
 6000.00000   97.67790    1.71320    1.07430    1.11500  -23.33410   10.02810
 6050.00000  105.62860    1.65020    0.98070    1.02670  -27.59900   10.09000
 6100.00000  101.95540    1.73800    1.05890    1.11560  -26.61180    9.93510
 6150.00000  102.01830    1.87420    1.21720    1.26060  -25.23920    9.45070
 6200.00000   97.16720    1.76850    1.09490    1.14420  -26.17610    9.97850
 6250.00000   91.37710    1.69170    1.03260    1.08620  -25.44030    9.86230
 6300.00000   93.37000    2.65630    2.52890    2.61540  -24.77530    8.65710
 6350.00000   82.80590    2.96480    2.86820    2.93280  -26.96410    8.62050
 6400.00000   94.56930    2.26030    1.61170    1.64300  -22.04670    9.38270
 6450.00000   85.26200    2.46700    1.90650    1.98920  -18.48320    8.64580
 6500.00000  103.33340    2.00590    1.42570    1.43180  -21.05610    9.99930
 6550.00000  105.39190    1.88160    1.17970    1.28440  -21.55730   10.17720
 6600.00000  100.63490    2.09550    1.58390    1.60850  -21.33910    9.58630
 6650.00000  104.35350    2.26560    1.72730    1.75450  -20.91820    9.95450
 6700.00000   98.14070    1.92080    1.28680    1.30660  -21.51570   11.13350
 6750.00000   90.44610    1.94330    1.24140    1.26140  -20.46760   11.86560
 6800.00000   97.50690    1.90670    1.26640    1.29560  -21.37380   12.45810
 6850.00000   91.01250    2.00280    1.41470    1.43640  -19.50480   11.71450
 6900.00000   89.98530    2.03010    1.41780    1.43960  -19.23370   11.52940
 6950.00000   90.89970    1.95440    1.29910    1.33300  -38.43070   11.94520
 7000.00000   91.02680    2.05190    1.40650    1.43080  -37.35540   11.43420
 7050.00000   84.84610    2.74660    2.02280    2.05650  -39.64760    9.92690
 7100.00000   95.28230    2.71260    2.02280    2.06320  -42.74720   11.05990
 7150.00000   44.73330    4.81640    4.05800    4.27280  -43.07840   10.08660
 7200.00000   33.89400    7.41310    6.01260    6.28820  -53.97230    9.14550
 7250.00000   38.99850    6.64090    6.48920    6.71110  -48.60460    8.98350
 7300.00000   45.46700    6.07030    5.64160    6.19580  -43.35080    9.72200
 7350.00000   61.80200    9.10000    6.79290    7.70620  -40.88840    8.72520
 7400.00000   24.82730   13.57500    9.38280   10.49510  -75.16090    8.92170
 7450.00000   98.72260    2.52490    1.35880    1.43900  -38.65530   13.06440
 7500.00000   97.18860    2.20810    1.12910    1.21460  -37.47800   13.54260
 7550.00000   91.92140    2.48850    1.20860    1.30400  -36.25740   13.25480
 7600.00000   90.41340    3.79560    2.76540    2.65590  -36.99140   11.56900
 7650.00000   93.65700    5.06800    3.82320    3.41390  -36.18520   11.19450
 7700.00000   98.71800    4.55800    2.56560    2.96050  -34.48270    9.71560
 7750.00000  108.15550    5.80870    3.12390    3.62960  -31.26740    9.52370
 7800.00000  127.55280   13.78580    7.22910    8.02360  -24.97330    9.38620
 7850.00000   95.89930    4.62590    2.70530    2.56960  -23.60540   13.25330
 7900.00000   47.66800    5.69880    3.51430    3.79370  -30.81360   11.44180
 7950.00000   14.97370   56.55120   39.00620   44.19740  -67.92140    9.70310
 8000.00000   16.15560   41.12560   23.26190   25.14310  -60.60910    9.68680
 8050.00000   19.59140   26.05400   21.89530   22.89910  -61.40900    8.90160
 8100.00000   18.15100   41.15040   37.00630   41.67150  -63.89560    9.53170
 8150.00000   16.44140   32.69050   37.53180   29.66450  -63.27550    8.51150
