~Version ---------------------------------------------------
VERS. 2.0 : CWLS log ASCII Standard -VERSION 2.0
WRAP. YES : Multiple lines per depth step
~Well ------------------------------------------------------
STRT.FT                          550.0 : START DEPTH
STOP.FT                         6150.0 : STOP DEPTH
STEP.FT                       50.00000 : STEP LENGTH
NULL.                          -999.25 : NULL VALUE
COMP.      UNITED PRODUCTION CO., INC. : COMPANY
WELL.                  GUY S. COMBS #3 : WELL
FLD .                          WILDCAT : FIELD
LOC .                                  : LOCATION
CNTY.                         ATASCOSA : COUNTY
STAT.                            TEXAS : STATE
CTRY.         UNITED STATES OF AMERICA : COUNTRY
SRVC. Schlumberger Well Surveying Corp : SERVICE COMPANY
DATE.                      08-Apr-1975 : LOGDATE
API .                   42013302760000 : API NUMBER
UWI .                   42013302760000 : UNIQUE WELL ID
SLAT.WGS84               28.9948086495 : SURFACE LATITUDE
SLON.WGS84              -98.4227720769 : SURFACE LONGITUDE
~Curve Information -----------------------------------------
DEPT    .FT    : DEPTH
CALDED  .IN    : CALIPER FROM DENSITY LOG (ADJ TO RES.)
CALWS   .IN    : CALIPER (CALDED)
CONDWS  .MMHO  : CONDUCTIVITY (1000/DRESWS)
CORRED  .G/C3  : DENSITY CORRECTION (ADJ TO RES.)
DCORWS  .G/C3  : DENSITY CORRECTION (CORRED)
DENWS   .G/C3  : BULK DENSITY  (RHOBED)
DPHILSED.V/V   : DENSITY POROSITY LIMESTONE  (ADJ TO RES.)
DPHISSED.V/V   : DENSITY POROSITY SANDSTONE  (ADJ TO RES.)
DPOWS   .V/V   : DENSITY POROSITY (M=2.71 F=1 FROM DENWS)
DRESWS  .OHMM  : DEEP RESISTIVITY (ILDED)
GRDED   .GAPI  : GAMMA RAY FROM DENSITY LOG (ADJ TO RES.)
GRWS    .GAPI  : GAMMA RAY (GRDED)
ILDED   .OHMM  : DEEP INDUCTION RESISTIVITY
ILMED   .OHMM  : MEDIUM INDUCTION RESISTIVITY
LL8ED   .OHMM  : LATEROLOG-8 RESISTIVITY
MRESWS  .OHMM  : MEDIUM RESISTIVITY (ILMED)
NPHILSED.V/V   : NEUTRON POROSITY LIMESTONE (ADJ TO RES.)
NPHISSED.V/V   : NEUTRON POROSITY SANDSTONE (ADJ TO RES.)
NPOWS   .V/V   : NEUTRON POROSITY LIMESTONE (NPHISSED CONVERTED TO LIMESTONE/NPHILSED)
RHOBED  .G/C3  : BULK DENSITY (ADJ TO RES.)
SPRED   .MV    : SPONTANEOUS POTENTIAL FROM RESISTIVITY
SPWS    .MV    : SPONTANEOUS POTENTIAL BASELINE 0 MV (SPRED)
SRESWS  .OHMM  : SHALLOW RESISTIVITY (LL8ED)
~Params ----------------------------------------------------
PD  .                     GL : PERMANENT DATUM
EPD .FT                  428 : ELEVATION PERMANENT DATUM
LMF .                     KB : LOG MEASURED FROM
DAPD.FT                   14 : FEET ABOVE PERMANENT DATUM
DMF .                     KB : DRILLING MEASURED FROM
EKB .FT                  442 : KELLY BUSHING
EDF .FT                  441 : DRILLING FLOOR
EGL .FT                  428 : GROUND LEVEL
DATE.             04/08/1975 : RUN DATE
RUN .                      1 : RUN NUMBER
DD  .FT                 6175 : DEPTH DRILLER
DL  .FT                 6168 : DEPTH LOGGER
BLI .FT                 6162 : BOTTOM LOG INTERVAL
TLI .FT                  537 : TOP LOG INTERVAL
CS  .IN                8.625 : CASING SIZE
CBD .FT                  536 : CASING BOTTOM DRILLER
CBL .FT                  537 : CASING BOTTOM LOGGER
BS  .IN                7.875 : BIT SIZE
BSD .FT                 6175 : BIT SIZE AT DEPTH
DFT .               SPER TAN : DRILLING FLUID TYPE
DFD .                   10.1 : DRILLING FLUID DENSITY
DFV .                     60 : DRILLING FLUID VISCOSITY
DFPH.                    9.5 : DRILLING FLUID PH
DFL .                    6.2 : DRILLING FLUID LOSS
MSS .               FLOWLINE : MUD SAMPLE SOURCE
RMS .OHMM               1.99 : RESISTIVITY MUD SAMPLE
MST .DEGF                 75 : MUD SAMPLE TEMPERATURE
RMF .OHMM               1.73 : RESISTIVITY MUD FILTRATE SAMPLE
MFST.DEGF                 75 : MUD FILTRATE SAMPLE TEMPERATURE
RMC .OHMM               1.78 : RESISTIVITY MUD CAKE
MCST.DEGF                 75 : MUD CAKE SAMPLE TEMPERATURE
MFSS.                      M : MUD FILTRATE SAMPLE SOURCE
MCSS.                      C : MUD CAKE SAMPLE SOURCE
RMB .OHMM               0.99 : RESISTIVITY MUD AT BHT
TCS .HRS                   3 : TIME CIRCULATED STOPPED
LUN .                   7676 : LOGGING UNIT NUMBER
LUL .                  PLEAS : LOGGING UNIT LOCATION
ENGI.                 ROGERS : RECORDING ENGINEER
WITN.               WILLIAMS : WITNESSED BY
CLNT.                A2DTECH : CLIENT CODE
ORIG.            2" 5" PRINT : ORIGIN OF DATA
UWI .         42013302760000 : UNIQUE WELL ID
DICO. A2D Technologies, Inc. : DIGITIZING COMPANY
~Other -----------------------------------------------------
~ASCII -----------------------------------------------------
  550.00000   11.44080   11.44080   46.38540    0.06160    0.06160    2.02410    -999.25    0.37660    0.40110   21.55850   49.98080   49.98080   21.55850   20.19380   21.22120   20.19380    -999.25    0.44130    0.45900    2.02410  -20.95980   -7.00820   21.22120
  600.00000   11.91360   11.91360   42.59310    0.02680    0.02680    2.08580    -999.25    0.33890    0.36500   23.47800   52.86570   52.86570   23.47800   21.64050   20.22900   21.64050    -999.25    0.41190    0.43850    2.08580  -29.46430  -15.06500   20.22900
  650.00000   13.49370   13.49370  181.26120    0.02860    0.02860    2.09200    -999.25    0.33180    0.36140    5.51690   72.32660   72.32660    5.51690    5.16770    7.27760    5.16770    -999.25    0.50700    0.52200    2.09200  -27.48980  -12.64280    7.27760
  700.00000   14.20630   14.20630   44.48720   -0.00820   -0.00820    2.01380    -999.25    0.38360    0.40710   22.47840   55.01850   55.01850   22.47840   18.53900   16.43790   18.53900    -999.25    0.46460    0.47960    2.01380  -29.46850  -14.17370   16.43790
  750.00000   11.98880   11.98880  208.10790    0.06820    0.06820    2.24690    -999.25    0.24750    0.27080    4.80520   69.54930   69.54930    4.80520    4.50260    5.05930    4.50260    -999.25    0.47090    0.48590    2.24690  -29.47030  -13.72780    5.05930
  800.00000   15.70540   15.70540   70.12280    0.10870    0.10870    1.80460    -999.25    0.52150    0.52950   14.26070   46.40450   46.40450   14.26070   13.28580   14.77580   13.28580    -999.25    0.44810    0.46370    1.80460  -25.65680   -9.46660   14.77580
  850.00000   10.27330   10.27330   43.65710    0.03640    0.03640    2.03720    -999.25    0.37250    0.39350   22.90580   41.53050   41.53050   22.90580   20.21200   18.53330   20.21200    -999.25    0.40790    0.43560    2.03720  -25.04360   -8.40570   18.53330
  900.00000   10.47930   10.47930   43.60830    0.01540    0.01540    1.99270    -999.25    0.39470    0.41950   22.93140   49.37550   49.37550   22.93140   19.66070   18.90730   19.66070    -999.25    0.44880    0.46420    1.99270  -23.86000   -6.77430   18.90730
  950.00000   11.17580   11.17580   33.00940    0.08570    0.08570    2.02210    -999.25    0.38170    0.40230   30.29440   41.51790   41.51790   30.29440   22.72650   23.62740   22.72650    -999.25    0.48400    0.49900    2.02210  -25.02120   -7.48780   23.62740
 1000.00000    9.07480    9.07480   39.32180    0.02690    0.02690    2.02240    -999.25    0.37650    0.40210   25.43120   65.73980   65.73980   25.43120   21.45680   20.39590   21.45680    -999.25    0.45550    0.47050    2.02240  -26.72970   -8.74860   20.39590
 1050.00000    9.53350    9.53350   43.16070    0.05010    0.05010    1.99090    -999.25    0.39870    0.42050   23.16920   69.79270   69.79270   23.16920   20.95680   19.91960   20.95680    -999.25    0.46580    0.48080    1.99090  -22.43450   -4.00570   19.91960
 1100.00000   10.37180   10.37180  257.95800    0.08400    0.08400    2.09650    -999.25    0.32620    0.35880    3.87660   72.64460   72.64460    3.87660    3.66530    4.36110    3.66530    -999.25    0.49760    0.51260    2.09650  -26.04740   -7.17080    4.36110
 1150.00000    9.74190    9.74190   35.52510    0.13170    0.13170    1.91380    -999.25    0.45410    0.46560   28.14910   39.08500   39.08500   28.14910   22.91670   21.31390   22.91670    -999.25    0.43890    0.45740    1.91380  -21.54040   -2.21610   21.31390
 1200.00000    9.83880    9.83880  178.58740    0.05510    0.05510    2.10400    -999.25    0.32650    0.35440    5.59950   80.04300   80.04300    5.59950    5.52570    7.09780    5.52570    -999.25    0.48850    0.50350    2.10400  -25.32900   -5.55700    7.09780
 1250.00000   11.99160   11.99160  152.78370    0.12880    0.12880    2.02800    -999.25    0.38620    0.39880    6.54520   67.34170   67.34170    6.54520    6.21220    7.38860    6.21220    -999.25    0.52970    0.54470    2.02800  -21.95840   -1.73860    7.38860
 1300.00000   11.27250   11.27250  100.47120    0.07610    0.07610    2.08530    -999.25    0.36320    0.36530    9.95310   71.55680   71.55680    9.95310    8.98400   11.64920    8.98400    -999.25    0.45670    0.47170    2.08530  -29.70110   -9.20610   11.64920
 1350.00000    8.89820    8.89820   46.59480    0.03030    0.03030    2.15270    -999.25    0.29990    0.32590   21.46160   55.63280   55.63280   21.46160   20.88680   22.31810   20.88680    -999.25    0.39110    0.42360    2.15270  -31.98780  -11.73520   22.31810
 1400.00000    8.81830    8.81830   26.70380    0.01510    0.01510    2.07690    -999.25    0.34990    0.37020   37.44790   37.57400   37.57400   37.44790   31.52320   29.87040   31.52320    -999.25    0.39110    0.42360    2.07690  -32.50610  -12.49590   29.87040
 1450.00000    8.98090    8.98090   24.71190    0.01460    0.01460    2.03190    -999.25    0.37710    0.39650   40.46640   57.06790   57.06790   40.46640   34.29870   31.82790   34.29870    -999.25    0.42540    0.44790    2.03190  -31.39550  -11.62770   31.82790
 1500.00000   11.74450   11.74450   63.69180    0.08370    0.08370    2.22310    -999.25    0.25900    0.28470   15.70060   73.85050   73.85050   15.70060   14.18340   14.72270   14.18340    -999.25    0.42000    0.44420    2.22310  -28.72090   -9.19550   14.72270
 1550.00000   16.50460   16.50460   22.57380    0.11100    0.11100    2.02000    -999.25    0.38230    0.40350   44.29920   29.12650   29.12650   44.29920   31.27380   25.10770   31.27380    -999.25    0.42940    0.45070    2.02000  -30.64150  -11.35850   25.10770
 1600.00000   14.05250   14.05250   33.68500    0.05120    0.05120    2.08350    -999.25    0.35060    0.36640   29.68680   36.11640   36.11640   29.68680   23.59340   21.37490   23.59340    -999.25    0.40650    0.43460    2.08350  -29.66970  -10.62910   21.37490
 1650.00000   11.79790   11.79790   19.05570    0.03620    0.03620    2.04340    -999.25    0.36580    0.38980   52.47760   30.21250   30.21250   52.47760   36.01090   35.19200   36.01090    -999.25    0.39460    0.42610    2.04340  -28.93400  -10.13580   35.19200
 1700.00000    9.40620    9.40620   16.16250    0.00840    0.00840    2.07700    -999.25    0.34300    0.37020   61.87150   20.68490   20.68490   61.87150   43.77410   39.12890   43.77410    -999.25    0.36270    0.40280    2.07700  -32.42800  -13.87220   39.12890
 1750.00000   10.80810   10.80810   19.41640    0.01770    0.01770    2.05890    -999.25    0.35550    0.38080   51.50290   30.00330   30.00330   51.50290   35.15150   32.44780   35.15150    -999.25    0.37800    0.41410    2.05890  -28.35860  -10.04510   32.44780
 1800.00000    8.61600    8.61600   21.42810    0.00180    0.00180    2.06910    -999.25    0.35560    0.37480   46.66760   28.35490   28.35490   46.66760   44.16220   37.93540   44.16220    -999.25    0.40570    0.43400    2.06910  -28.93050  -10.85940   37.93540
 1850.00000    9.45720    9.45720   75.70770    0.06000    0.06000    2.27010    -999.25    0.24940    0.25730   13.20870   90.77300   90.77300   13.20870   11.69250   10.67870   11.69250    -999.25    0.47560    0.49060    2.27010  -20.07970   -2.25100   10.67870
 1900.00000    8.21730    8.21730   28.63750    0.02760    0.02760    2.15390    -999.25    0.29680    0.32520   34.91930   59.98830   59.98830   34.91930   31.35350   31.59040   31.35350    -999.25    0.42130    0.44510    2.15390  -27.96890  -10.10290   31.59040
 1950.00000    8.34630    8.34630   31.75270    0.01500    0.01500    2.08150    -999.25    0.34850    0.36750   31.49340   50.26430   50.26430   31.49340   25.97900   27.90460   25.97900    -999.25    0.43350    0.45360    2.08150  -21.27210   -3.29450   27.90460
 2000.00000    8.40890    8.40890   82.65620    0.07000    0.07000    2.29350    -999.25    0.22070    0.24360   12.09830   77.89240   77.89240   12.09830   11.47340   13.74580   11.47340    -999.25    0.40110    0.43070    2.29350  -26.11470   -8.02540   13.74580
 2050.00000    8.03550    8.03550   82.84460    0.02100    0.02100    2.28000    -999.25    0.22190    0.25150   12.07080   85.94480   85.94480   12.07080   11.50410   12.62070   11.50410    -999.25    0.42580    0.44820    2.28000  -24.00810   -5.80720   12.62070
