~Version ---------------------------------------------------
VERS.      2.0 : CWLS log ASCII Standard -VERSION 2.0
WRAP.      YES : Multiple lines per depth step
CREA. 10/06/20 : LAS Creation Date
~Well ------------------------------------------------------
STRT.FT                 3150.0 : START DEPTH
STOP.FT                18400.0 : STOP DEPTH
STEP.FT               50.00000 : STEP LENGTH
NULL.                  -999.25 : NULL VALUE
COMP. AMOCO PRODUCTION COMPANY : COMPANY
WELL.       MARTIN GAS UNIT #1 : WELL
FLD .                  WILDCAT : FIELD
LOC .                          : LOCATION
CNTY.                     LEON : COUNTY
STAT.                    TEXAS : STATE
CTRY. UNITED STATES OF AMERICA : COUNTRY
SRVC.             Schlumberger : SERVICE COMPANY
DATE.              06-Oct-1998 : LOGDATE
API .           42289312900000 : API NUMBER
UWI .           42289312900000 : UNIQUE WELL ID
SLAT.WGS84       31.2448401024 : SURFACE LATITUDE
SLON.WGS84      -96.2384028977 : SURFACE LONGITUDE
~Curve Information -----------------------------------------
DEPT    .FT    : DEPTH FEET
AT20ED  .OHMM  : 20 INCH ARRAY RESISTIVITY TWO FOOT RESOLUTION FROM AIT LOG
AT30ED  .OHMM  : 30 INCH ARRAY RESISTIVITY TWO FOOT RESOLUTION FROM AIT LOG
AT60ED  .OHMM  : 60 INCH ARRAY RESISTIVITY TWO FOOT RESOLUTION FROM AIT LOG
AT90ED  .OHMM  : 90 INCH ARRAY RESISTIVITY TWO FOOT RESOLUTION FROM AIT LOG
BITSED  .IN    : BIT SIZE FROM RUN HEADERS
CALDED  .IN    : CALIPER FROM DENSITY LOG [DSH. TO GRRED]
CALWS   .IN    : CALIPER [TOP CALDED 14108' (DCALDED+BITSED) TD]
CONDWS  .MMHO  : DEEP CONDUCTIVITY [1000/DRESWS]
DCALDED .IN    : DIFFERENTIAL CALIPER FROM DENSITY LOG [DSH. TO GRRED]
DCORWS  .G/C3  : DENSITY CORRECTION [TOP DRHOED 16650' DRHED TD]
DENWS   .G/C3  : BULK DENSITY [CALC. FROM DPOLSWS]
DPHILSED.V/V   : DENSITY POROSITY (LS) [M=2.71 F=1.00] [DSH. TO GRRED]
DPOLSED .V/V   : DENSITY POROSITY (LS) [M=2.71 F=1.00] [DSH. TO GRRED]
DPOLSWS .V/V   : DENSITY POROSITY (LS) [M=2.71 F=1.00] [TOP DPHILSED 16650' DPOLSED TD]
DRESWS  .OHMM  : DEEP RESISTIVITY [TOP AT90ED 14100' ILDED 16650' IDPHED TD]
DRHED   .G/C3  : DENSITY CORRECTION FROM DENSITY LOG [DSH. TO GRRED]
DRHOED  .G/C3  : DENSITY CORRECTION FROM DENSITY LOG [DSH. TO GRRED]
DTCOED  .US/F  : DELTA TIME COMPRESSIONAL FROM SONIC LOG
DTLFED  .US/F  : DELTA TIME LONG SPACING FAR DETECTOR FROM SONIC LOG
DTLNED  .US/F  : DELTA TIME LONG SPACING NEAR DETECTOR FROM SONIC LOG
DTSMED  .US/F  : DELTA TIME SHEAR WAVE FROM SONIC LOG
DTSWS   .US/F  : DELTA TIME SHEAR [DTSMED]
DTWS    .US/F  : DELTA TIME COMPRESSIONAL [TOP DTCOED 16650' DTLNED TD]
GRDED   .GAPI  : GAMMA RAY FROM DENSITY LOG [DSH. TO GRRED]
GRRED   .GAPI  : GAMMA RAY FROM RESISTIVITY LOG
GRWS    .GAPI  : GAMMA RAY [GRRED][RESCALED GRWS IN CSG )14030-14106' & 16606-16645') FROM 0/90-0/150]
IDPHED  .OHMM  : DEEP INDUCTION PHASE RESISTIVITY
ILDED   .OHMM  : DEEP INDUCTION RESISTIVITY
ILMED   .OHMM  : MEDIUM INDUCTION RESISTIVITY
IMPHED  .OHMM  : MEDIUM INDUCTION PHASE RESISTIVITY
MRESWS  .OHMM  : MEDIUM RESISTIVITY [TOP AT30ED 14100' ILMED 16650' IMPHED TD]
NPHILSED.V/V   : NEUTRON POROSITY (LS) [DSH. TO GRRED]
NPOLSWS .V/V   : NEUTRON POROSITY (LS) [NPHILSED]
PEFED   .B/E   : PHOTOELECTRIC FACTOR FROM DENSITY LOG [DSH. TO GRRED]
PEFWS   .B/E   : PHOTOELECTRIC FACTOR [PEFED]
SFLUED  .OHMM  : SPHERICALLY FOCUSED UNAVERAGED RESISTIVITY
SPWS    .MV    : SPONTANEOUS POTENTIAL [BASELINE 0 MV] [SPRED]
SPRED   .MV    : SPONTANEOUS POTENTIAL FROM RESISTIVITY LOG
SRESWS  .OHMM  : SHALLOW RESISTIVITY [TOP AT20ED 14100' SFLUED TD]
TENDED  .LBF   : TENSION FROM DENSITY LOG [DSH. TO GRRED]
TENRED  .LBF   : TENSION FROM RESISTIVITY LOG
~Params ----------------------------------------------------
PD  .                     GL : PERMANENT DATUM
EPD .FT                389.3 : ELEVATION PERMANENT DATUM
LMF .                     KB : LOG MEASURED FROM
DAPD.FT                 33.7 : MEASUREMENT ABOVE PERMANENT DATUM
DMF .                     KB : DRILLING MEASURED FROM
EKB .FT                  423 : KELLY BUSHING
EDF .FT                  422 : DRILLING FLOOR
EGL .FT                389.3 : GROUND LEVEL
DATE.               10/06/98 : RUN DATE
RUN .                      3 : RUN NUMBER
DD  .FT                18400 : DEPTH DRILLER
DL  .FT                18391 : DEPTH LOGGER
BLI .FT                18381 : BOTTOM LOG INTERVAL
TLI .FT                16646 : TOP LOG INTERVAL
CS  .IN                7.625 : CASING SIZE
CBD .FT                16650 : CASING BOTTOM DRILLER
CBL .FT                16646 : CASING BOTTOM LOGGER
BS  .IN                 6.25 : BIT SIZE
BSD .FT                18400 : BIT SIZE AT DEPTH
DFT .             VERSADRILL : DRILLING FLUID TYPE
DFD .                   17.9 : DRILLING FLUID DENSITY
DFV .                     45 : DRILLING FLUID VISCOSITY
MSS .                MUD PIT : MUD SAMPLE SOURCE
MFSS.                   CALC : MUD FILTRATE SAMPLE SOURCE
MCSS.                   CALC : MUD CAKE SAMPLE SOURCE
TCS .HRS                 830 : TIME CIRCULATED STOPPED
TLAB.HRS                2357 : TIME LOGGER AT BOTTOM
LUN .                   2142 : LOGGING UNIT NUMBER
LUL .                  TYLER : LOGGING UNIT LOCATION
ENGI.                SKRBICH : RECORDING ENGINEER
WITN.       WALKER WYSZYNSKI : WITNESSED BY
CLNT.                A2DTECH : CLIENT CODE
ORIG.         1" 2" 5" PRINT : ORIGIN OF DATA
UWI .         42289312900000 : UNIQUE WELL ID
DICO. A2D Technologies, Inc. : DIGITIZING COMPANY
~Other -----------------------------------------------------
1) RESISTIVITY INVALID 14360-14404', 15400-15475 NULLED (REPEAT LOG N/A). PATCHED FROM REPEAT LOG 15950-15980' & 16590-16645'.
2) GRRED PATCHED FROM REPEAT LOG 15400-15500 & 16550-16606'.
3) SONIC NOT LOGGED 14100-16650' AND ERRATIC ON SOME AREAS ABOVE 6300' WITH SOME GAPS AND SPIKES HENCE PATCHED SOME SMALL AREAS.
4) LDL/CNL STICKING TOOL ENTIRE RUN2 - NULLED PEF INVALID @ 15410-15625' & 15730-15410', PATCHED DENSITY@16025-16040', PATCHED NEUTRON@14295-14320' & PATCHED GRDED@VARIOUS DEPTHS BASED ON GRRED. ANY DOUBTS, PLEASE REFER TO ORIGINAL CURVES IN STANDARD LAS. STICKING TOOL MAY SLIGHTLY AFFECT LOG QUALITY ON OTHER AREAS, PLEASE USE WITH CAUTIONS.
~ASCII -----------------------------------------------------
# ...
 4050.00000    1.06240    1.22600    1.28640    1.36680   12.25000   16.62470   16.62470  731.63590    -999.25    0.01080    2.16950    0.31610    -999.25    0.31610    1.36680    -999.25    0.01080   85.40890    -999.25    -999.25  122.58250  122.58250   85.40890   76.76530   70.11870   70.11870    -999.25    -999.25    -999.25    -999.25    1.22600    0.35190    0.35190    4.58520    4.58520    -999.25   -5.29770  -30.70650    1.06240 2016.20150 2310.36330
 4100.00000    0.91180    1.03440    1.17760    1.20650   12.25000   17.64790   17.64790  828.84380    -999.25    0.00590    -999.25    -999.25    -999.25    -999.25    1.20650    -999.25    0.00590   74.76730    -999.25    -999.25  111.66770  111.66770   74.76730   57.62640   54.30030   54.30030    -999.25    -999.25    -999.25    -999.25    1.03440    0.40400    0.40400    8.82840    8.82840    -999.25   -5.08740  -28.80950    0.91180 2022.02290 2307.42900
 4150.00000    0.65650    0.68130    0.70330    0.80560   12.25000   16.36810   16.36810 1241.31080    -999.25   -0.00240    -999.25    -999.25    -999.25    -999.25    0.80560    -999.25   -0.00240   82.76630    -999.25    -999.25  138.70880  138.70880   82.76630   68.48240   55.22500   55.22500    -999.25    -999.25    -999.25    -999.25    0.68130    0.40780    0.40780    9.73520    9.73520    -999.25   -4.12590  -26.16140    0.65650 2015.71800 2349.45290
 4200.00000    0.86440    0.96610    1.07050    1.12380   12.25000   17.10300   17.10300  889.83800    -999.25   -0.02210    -999.25    -999.25    -999.25    -999.25    1.12380    -999.25   -0.02210  117.60340    -999.25    -999.25  134.26710  134.26710  117.60340   58.71500   52.21720   52.21720    -999.25    -999.25    -999.25    -999.25    0.96610    0.45790    0.45790    9.90950    9.90950    -999.25   -3.11760  -23.46640    0.86440 2013.17130 2317.18970
 4250.00000    2.31810    2.33930    2.44840    2.53260   12.25000   13.56760   13.56760  394.85110    -999.25   -0.00420    2.49030    0.12850    -999.25    0.12850    2.53260    -999.25   -0.00420   91.53060    -999.25    -999.25  132.90020  132.90020   91.53060   79.52080   69.31610   69.31610    -999.25    -999.25    -999.25    -999.25    2.33930    0.21040    0.21040    3.47210    3.47210    -999.25   -9.79700  -31.21560    2.31810 2073.20460 2383.38060
 4300.00000    1.73950    1.84800    1.90620    2.00300   12.25000   14.49990   14.49990  499.25110    -999.25    0.01430    2.36900    0.19940    -999.25    0.19940    2.00300    -999.25    0.01430   91.65410    -999.25    -999.25  145.70790  145.70790   91.65410   69.79990   67.87830   67.87830    -999.25    -999.25    -999.25    -999.25    1.84800    0.26220    0.26220    5.29540    5.29540    -999.25   -7.38770  -26.04920    1.73950 1990.04330 2433.85860
 4350.00000    1.26900    1.31990    1.52470    1.56660   12.25000   15.46890   15.46890  638.32500    -999.25    0.00480    2.35360    0.20840    -999.25    0.20840    1.56660    -999.25    0.00480  102.82580    -999.25    -999.25  145.77930  145.77930  102.82580   78.39520   77.57850   77.57850    -999.25    -999.25    -999.25    -999.25    1.31990    0.29840    0.29840    4.19400    4.19400    -999.25   -4.50360  -20.40790    1.26900 2065.48120 2428.07710
 4400.00000    1.13370    1.23120    1.36320    1.42970   12.25000   17.34020   17.34020  699.44740    -999.25    0.03790    2.30050    0.23950    -999.25    0.23950    1.42970    -999.25    0.03790  109.36350    -999.25    -999.25  141.83190  141.83190  109.36350   72.72020   66.77360   66.77360    -999.25    -999.25    -999.25    -999.25    1.23120    0.31660    0.31660    5.08980    5.08980    -999.25   -5.06330  -18.21050    1.13370 2016.93310 2434.86040
 4450.00000    1.35500    1.43210    1.55760    1.64740   12.25000   16.11670   16.11670  607.01710    -999.25    0.01010    2.41960    0.16980    -999.25    0.16980    1.64740    -999.25    0.01010  101.95320    -999.25    -999.25    -999.25    -999.25  101.95320   65.98210   56.35930   56.35930    -999.25    -999.25    -999.25    -999.25    1.43210    0.28100    0.28100    3.80060    3.80060    -999.25   -5.58080  -15.97090    1.35500 2093.02910 2465.42190
 4500.00000    1.62930    1.74450    1.79590    1.85730   12.25000   16.26080   16.26080  538.41600    -999.25   -0.00280    2.45400    0.14970    -999.25    0.14970    1.85730    -999.25   -0.00280   95.72300    -999.25    -999.25  134.07900  134.07900   95.72300   64.55730   54.89900   54.89900    -999.25    -999.25    -999.25    -999.25    1.74450    0.22700    0.22700    4.34120    4.34120    -999.25   -3.80310  -11.73400    1.62930 2129.32910 2481.68920
 4550.00000    1.30010    1.40710    1.52740    1.57980   12.25000   17.51320   17.51320  632.99150    -999.25    0.00270    2.36580    0.20130    -999.25    0.20130    1.57980    -999.25    0.00270  104.59470    -999.25    -999.25  139.43220  139.43220  104.59470   87.06430   63.62870   63.62870    -999.25    -999.25    -999.25    -999.25    1.40710    0.28600    0.28600    3.73180    3.73180    -999.25   -3.54700  -10.57970    1.30010 1992.60390 2486.81370
 4600.00000    1.01580    1.11780    1.21400    1.25700   12.25000   18.78730   18.78730  795.54490    -999.25    0.00740    2.25550    0.26580    -999.25    0.26580    1.25700    -999.25    0.00740  112.03960    -999.25    -999.25    -999.25    -999.25  112.03960   74.47120   58.81100   58.81100    -999.25    -999.25    -999.25    -999.25    1.11780    0.35800    0.35800    4.04950    4.04950    -999.25   -2.22090   -8.45370    1.01580 2188.89720 2482.47900
 4650.00000    1.13180    1.18210    1.25030    1.29320   12.25000   17.54370   17.54370  773.27560    -999.25    0.00370    2.38440    0.19040    -999.25    0.19040    1.29320    -999.25    0.00370  104.59470    -999.25    -999.25  140.88380  140.88380  104.59470   82.06050   74.49650   74.49650    -999.25    -999.25    -999.25    -999.25    1.18210    0.28750    0.28750    3.86530    3.86530    -999.25   -2.66920   -8.10220    1.13180 2043.96830 2472.60160
 4700.00000    0.85670    0.91060    0.97740    1.01150   12.25000   17.71250   17.71250  988.63070    -999.25   -0.00190    2.26760    0.25870    -999.25    0.25870    1.01150    -999.25   -0.00190  106.77200    -999.25    -999.25  140.15800  140.15800  106.77200   73.53580   72.15740   72.15740    -999.25    -999.25    -999.25    -999.25    0.91060    0.32930    0.32930    4.13560    4.13560    -999.25   -1.94460   -6.57770    0.85670 2067.35350 2542.43190
 4750.00000    0.75930    0.79570    0.86020    0.89710   12.25000   17.46380   17.46380 1114.70290    -999.25   -0.01790    2.25150    0.26810    -999.25    0.26810    0.89710    -999.25   -0.01790  116.20720    -999.25    -999.25  150.31900  150.31900  116.20720   72.42030   68.29290   68.29290    -999.25    -999.25    -999.25    -999.25    0.79570    0.30630    0.30630    3.43000    3.43000    -999.25   -1.25760   -5.09090    0.75930 2075.67380 2549.74490
 4800.00000    0.91560    0.97200    0.99400    1.05640   12.25000   17.55450   17.55450  946.61110    -999.25    0.00260    2.36130    0.20390    -999.25    0.20390    1.05640    -999.25    0.00260  109.58310    -999.25    -999.25    -999.25    -999.25  109.58310   71.66990   63.97020   63.97020    -999.25    -999.25    -999.25    -999.25    0.97200    0.30240    0.30240    3.80560    3.80560    -999.25   -1.67290   -4.70630    0.91560 2039.38320 2601.93730
 4850.00000    0.83490    0.92720    0.97390    1.00730   12.25000   17.01980   17.01980  992.75290    -999.25    0.00190    2.28710    0.24730    -999.25    0.24730    1.00730    -999.25    0.00190  115.08670    -999.25    -999.25    -999.25    -999.25  115.08670   72.19260   68.38260   68.38260    -999.25    -999.25    -999.25    -999.25    0.92720    0.33260    0.33260    3.96860    3.96860    -999.25   -2.17810   -4.41160    0.83490 2211.62870 2556.48930
 4900.00000    1.33020    1.40840    1.45390    1.50380   12.25000   16.42210   16.42210  664.98200    -999.25   -0.00200    2.42940    0.16410    -999.25    0.16410    1.50380    -999.25   -0.00200   97.33680    -999.25    -999.25  141.01650  141.01650   97.33680   71.32680   73.11780   73.11780    -999.25    -999.25    -999.25    -999.25    1.40840    0.28720    0.28720    3.87510    3.87510    -999.25   -3.05270   -4.48640    1.33020 2283.19650 2542.82300
