~Version ---------------------------------------------------
VERS. 2.0 : CWLS log ASCII Standard -VERSION 2.0
WRAP.  NO : ONE LINE PER DEPTH STEP
~Well ------------------------------------------------------
STRT.F                   3900.0 : START DEPTH
STOP.F                   7000.0 : STOP DEPTH
STEP.F                 50.00000 : STEP LENGTH
NULL.                   -999.25 : NULL VALUE
COMP. ALCORN PRODUCTION COMPANY : COMPANY
WELL.         PATTERSON J.B. #1 : WELL
FLD .                    SMILEY : FIELD
LOC .                           : LOCATION
CNTY.                  GONZALES : COUNTY
STAT.                     TEXAS : STATE
CTRY.  UNITED STATES OF AMERICA : COUNTRY
SRVC.              Schlumberger : SERVICE COMPANY
DATE.               06-Jul-1981 : LOGDATE
API .            42177309850000 : API NUMBER
UWI .            42177309850000 : UNIQUE WELL ID
SLAT.WGS84        29.2871219056 : SURFACE LATITUDE
SLON.WGS84       -97.6931544322 : SURFACE LONGITUDE
~Curve Information -----------------------------------------
DEPT   .F    0   1   0  0 : 1 MEASURED DEPTH
NPHI_SS.DEC  42 890 03 00 : NEUTRON POROSITY SANDSTONE
GRR    .GAPI 07 310 01 00 : GAMMA RAY FROM RESISTIVITY LOG
DRHO   .G/C3 45 356 01 00 : BULK DENSITY CORRECTION
DCALR  .IN   07 280 01 00 : DIFFERENTIAL CALIPER FROM RESISTIVITY LOG
DPHI_SS.DEC  45 890 12 00 : DENSITY POROSITY SANDSTONE
ILD    .OHMM 07 120 46 00 : INDUCTION DEEP RESISTIVITY
ILM    .OHMM 07 120 44 00 : INDUCTION MEDIUM RESISTIVITY
SFLU   .OHMM 07 220 01 00 : SHALLOW FOCUSED RESISTIVITY (UNAVERAGED)
SPR    .MV   07 010 01 00 : SPONTANEOUS POTENTIAL FROM RESISTIVITY LOG
~Params ----------------------------------------------------
PD  .                     GL : PERMANENT DATUM
EPD .FT                  342 : ELEVATION PERMANENT DATUM
LMF .                     KB : LOG MEASURED FROM
DAPD.FT                   15 : FEET ABOVE PERMANENT DATUM
DMF .                     KB : DRILLING MEASURED FROM
EKB .FT                  358 : KELLY BUSHING
EDF .FT                  357 : DRILLING FLOOR
EGL .FT                  342 : GROUND LEVEL
DATE.               07/06/81 : RUN DATE
RUN .                      1 : RUN NUMBER
DD  .FT                 7035 : DEPTH DRILLER
DL  .FT                 7018 : DEPTH LOGGER
BLI .FT                 7012 : BOTTOM LOG INTERVAL
TLI .FT                 3871 : TOP LOG INTERVAL
CS  .IN                9.675 : CASING SIZE
CBD .FT                 3932 : CASING BOTTOM DRILLER
CBL .FT                 4051 : CASING BOTTOM LOGGER
BS  .IN                 8.75 : BIT SIZE
BSD .FT                 7035 : BIT SIZE AT DEPTH
DFT .              FRESH MUD : DRILLING FLUID TYPE
DFD .                    9.5 : DRILLING FLUID DENSITY
DFV .                     39 : DRILLING FLUID VISCOSITY
DFPH.                   10.9 : DRILLING FLUID PH
DFL .                    6.3 : DRILLING FLUID LOSS
MSS .               FLOWLINE : MUD SAMPLE SOURCE
RMS .OHMM               1.17 : RESISTIVITY MUD SAMPLE
MST .DEGF                 80 : MUD SAMPLE TEMPERATURE
RMF .OHMM               0.88 : RESISTIVITY MUD FILTRATE SAMPLE
MFST.DEGF                 80 : MUD FILTRATE SAMPLE TEMPERATURE
RMC .OHMM               1.76 : RESISTIVITY MUD CAKE
MCST.DEGF                 80 : MUD CAKE SAMPLE TEMPERATURE
MFSS.                      C : MUD FILTRATE SAMPLE SOURCE
MCSS.                      C : MUD CAKE SAMPLE SOURCE
RMB .OHMM              0.588 : RESISTIVITY MUD AT BHT
TCS .HRS                1000 : TIME CIRCULATED STOPPED
TLAB.HRS                1830 : TIME LOGGER AT BOTTOM
LUN .                   8101 : LOGGING UNIT NUMBER
LUL .                BRENHAM : LOGGING UNIT LOCATION
ENGI.               BERDINIS : RECORDING ENGINEER
WITN.              ROBERTSON : WITNESSED BY
CLNT.                A2DTECH : CLIENT CODE
ORIG.               1" PRINT : ORIGIN OF DATA
UWI .         42177309850000 : UNIQUE WELL ID
DICO. A2D Technologies, Inc. : DIGITIZING COMPANY
~Other -----------------------------------------------------
~ASCII -----------------------------------------------------
 3900.00000    0.55450   44.36050    -999.25    -999.25    -999.25    -999.25    -999.25    -999.25    -999.25
 3950.00000    0.46860   42.83020    -999.25    -999.25    -999.25    -999.25    -999.25    -999.25    -999.25
 4000.00000    0.46240   45.12430    -999.25    -999.25    -999.25    -999.25    -999.25    -999.25    -999.25
 4050.00000    0.50100   43.82410    -999.25    -999.25    -999.25    -999.25    -999.25    -999.25    -999.25
 4100.00000    0.39970   95.64800    0.02990    0.40960    0.22990    3.74240    3.25540    2.87400    3.87810
 4150.00000    0.38150  112.96760    0.03730    0.59930    0.18020    2.47240    2.29680    2.15850   -4.38260
 4200.00000    0.32270  107.38030    0.07630    1.33450    0.14890    3.18560    3.15350    3.30860   -3.30190
 4250.00000    0.42130  107.44190    0.05860    1.52690    0.14990    1.92210    1.82350    1.91590   -3.58690
 4300.00000    0.40020  131.15590    0.04680    0.94200    0.14060    2.10170    2.01510    2.16410   -3.19900
 4350.00000    0.33510   96.96320    0.04020    0.29320    0.17570    3.27330    3.10500    3.26740   -8.79960
 4400.00000    0.34990  104.23850    0.06710    0.32990    0.12320    2.99520    2.88950    3.08620   -3.80610
 4450.00000    0.38180  111.81980    0.08200    1.19910    0.12850    2.54460    2.35820    2.53410   -2.64000
 4500.00000    -999.25  108.71290    -999.25    -999.25    -999.25    2.41190    2.21110    2.52790   -3.53710
 4550.00000    -999.25  121.00420    -999.25    -999.25    -999.25    2.17620    2.15880    2.20310   -2.65910
 4600.00000    -999.25  109.00690    -999.25    -999.25    -999.25    1.77580    1.68910    1.77170   -2.15650
 4650.00000    -999.25   98.93550    -999.25    -999.25    -999.25    2.99460    2.73020    2.68270   -2.42350
 4700.00000    -999.25  111.92210    -999.25    -999.25    -999.25    1.56340    1.46960    1.60490   -1.49230
 4750.00000    -999.25  114.67960    -999.25    -999.25    -999.25    1.37740    1.25770    1.40120   -2.34170
 4800.00000    -999.25  118.66920    -999.25    -999.25    -999.25    1.53610    1.45080    1.56570   -1.56670
 4850.00000    -999.25  113.33170    -999.25    -999.25    -999.25    1.23770    1.11380    1.16360   -0.42520
 4900.00000    -999.25  101.38220    -999.25    -999.25    -999.25    1.07120    0.98790    1.06830    0.25290
 4950.00000    -999.25   82.79540    -999.25    -999.25    -999.25    1.21260    1.19670    1.28730    0.77860
 5000.00000    -999.25   90.19430    -999.25    -999.25    -999.25    1.37970    1.28090    1.47560    2.28920
 5050.00000    -999.25  100.88160    -999.25    -999.25    -999.25    1.01190    0.97750    1.13840   -0.05010
 5100.00000    -999.25   96.82320    -999.25    -999.25    -999.25    1.75880    1.53660    1.70030   -0.44590
 5150.00000    -999.25   92.46360    -999.25    -999.25    -999.25    2.67230    2.63460    2.83500   -1.29150
 5200.00000    -999.25   90.52640    -999.25    -999.25    -999.25    1.90960    1.84290    1.93700   -1.92420
 5250.00000    -999.25   85.14930    -999.25    -999.25    -999.25    1.53800    1.48770    1.50630   -1.67210
 5300.00000    -999.25   88.72270    -999.25    -999.25    -999.25    1.46360    1.38890    1.48310   -8.80680
 5350.00000    -999.25   91.24120    -999.25    -999.25    -999.25    1.48740    1.39240    1.52560   -7.63220
 5400.00000    -999.25   90.91640    -999.25    -999.25    -999.25    1.41990    1.27180    1.41720   -8.08620
 5450.00000    -999.25   93.61770    -999.25    -999.25    -999.25    1.43830    1.36590    1.43900   -7.87430
 5500.00000    -999.25   90.83430    -999.25    -999.25    -999.25    1.53080    1.51970    1.57450   -8.09900
 5550.00000    -999.25   83.44380    -999.25    -999.25    -999.25    1.69080    1.49920    1.55460   -8.49230
 5600.00000    -999.25   93.86510    -999.25    -999.25    -999.25    1.52550    1.46700    1.62010   -6.84850
 5650.00000    -999.25   87.38630    -999.25    -999.25    -999.25    2.12620    1.97580    2.35780   -5.30920
 5700.00000    -999.25   82.74850    -999.25    -999.25    -999.25    1.84940    1.82920    2.19930   -4.65420
 5750.00000    -999.25   88.89930    -999.25    -999.25    -999.25    1.94940    1.93280    2.11180   -6.08180
 5800.00000    -999.25   98.68960    -999.25    -999.25    -999.25    1.25880    1.20440    1.28340   -3.85850
 5850.00000    -999.25   96.71500    -999.25    -999.25    -999.25    1.54430    1.51320    1.57810   -3.26480
 5900.00000    -999.25  102.53850    -999.25    -999.25    -999.25    1.33690    1.30850    1.42610   -2.20040
 5950.00000    -999.25  110.24730    -999.25    -999.25    -999.25    1.48460    1.41490    1.53760  -11.33570
 6000.00000    -999.25  100.54520    -999.25    -999.25    -999.25    1.39270    1.32680    1.41520  -10.50400
 6050.00000    -999.25   99.04880    -999.25    -999.25    -999.25    1.47310    1.40340    1.47400   -9.58760
 6100.00000    -999.25  114.86490    -999.25    -999.25    -999.25    1.17790    1.11850    1.23530   -8.14950
 6150.00000    -999.25   93.03870    -999.25    -999.25    -999.25    1.79600    1.76350    1.78030   -9.80990
 6200.00000    -999.25   96.16020    -999.25    -999.25    -999.25    1.64440    1.59860    1.70000   -9.32430
 6250.00000    -999.25   87.61910    -999.25    -999.25    -999.25    1.57190    1.50850    1.60770   -8.74840
 6300.00000    -999.25   81.91550    -999.25    -999.25    -999.25    1.39180    1.33530    1.42560   -7.75660
 6350.00000    -999.25   83.48930    -999.25    -999.25    -999.25    1.57470    1.47060    1.58010   -8.10810
 6400.00000    -999.25   83.94090    -999.25    -999.25    -999.25    1.53210    1.39140    1.50300   -8.52410
 6450.00000    -999.25   95.46080    -999.25    -999.25    -999.25    1.20450    1.16670    1.23410   -8.40770
 6500.00000    0.17170   70.72590    0.00170    2.06450    0.08080    3.49870    3.22330    3.99020   -9.72520
 6550.00000    0.20930   49.01610   -0.00090    2.62300    0.08100    4.40220    4.05040    4.74010  -15.74710
 6600.00000    0.19540   40.20090    0.05300    3.95080    0.13710    5.01270    4.34010    3.46250  -16.90130
 6650.00000    0.32090  135.11130    0.09610    1.95100    0.37730    1.11940    0.91790    0.82840   -9.58160
 6700.00000    0.03850   26.55860    0.01360    0.89780    0.05090   10.67790    9.86260   15.08490  -17.88050
 6750.00000    0.07040   27.16590   -0.00040    0.86050    0.05460    9.35730    8.78710   10.97280  -21.75580
 6800.00000    0.06290   25.26990   -0.00820    1.27890    0.04710   16.60490   14.42390   32.50630  -28.39550
 6850.00000    0.18530   63.50510    0.01100    1.61340    0.10690   16.28580   13.85310   26.06660   -1.37090
 6900.00000    0.21930  133.70760    0.00710    1.31490    0.08490   24.21480   16.03800   30.10020  -13.37470
 6950.00000    0.01420   21.69790    0.00860    0.38130    0.01360   52.24490   29.19520   89.62230  -46.99550
 7000.00000    -999.25    0.00000   -0.90450    0.30030    0.44990    5.05210    4.66210    5.46240   -6.90360
