~Version ---------------------------------------------------
VERS. 2.0 : CWLS log ASCII Standard -VERSION 2.0
WRAP. YES : Multiple lines per depth step
~Well ------------------------------------------------------
STRT.FT                    300.0 : START DEPTH
STOP.FT                   7750.0 : STOP DEPTH
STEP.FT                 50.00000 : STEP LENGTH
NULL.                    -999.25 : NULL VALUE
COMP. CHAMPLIN PETROLEUM COMPANY : COMPANY
WELL.             ALVIN DRGAC #1 : WELL
FLD .                CALDWELL NE : FIELD
LOC .                            : LOCATION
CNTY.                   BURLESON : COUNTY
STAT.                      TEXAS : STATE
CTRY.   UNITED STATES OF AMERICA : COUNTRY
SRVC.               Schlumberger : SERVICE COMPANY
DATE.                03-Apr-1981 : LOGDATE
API .             42051312420000 : API NUMBER
UWI .             42051312420000 : UNIQUE WELL ID
SLAT.WGS84         30.6064505753 : SURFACE LATITUDE
SLON.WGS84        -96.6018284968 : SURFACE LONGITUDE
~Curve Information -----------------------------------------
DEPT    .FT    : DEPTH FEET
CALRED  .IN    : CALIPER FROM RESISTIVITY FROM DUAL INDUCTION-SFL-COMPENSATED NEUTRON-FORMATION DENSITY LOG
CALWS   .IN    : CALIPER [CALRED SPL. TO DCALED+BIT SIZE @ 3487']
CONDWS  .MMHO  : CONDUCTIVITY [1000/DRESWS]
DCALED  .IN    : DIFFERENTIAL CALIPER FROM DUAL INDUCTION-SFL-COMPENSATED NEUTRON-FORMATION DENSITY LOG
DCORWS  .G/C3  : DENSITY CORRECTION [DRHOED]
DENWS   .G/C3  : BULK DENSITY [M=2.71 F=1.0] [CALCULATED FROM DPOWS]
DPHILSED.V/V   : DENSITY POROSITY LIMESTONE [M=2.71 F=1.0] FROM DUAL INDUCTION-SFL-COMPENSATED NEUTRON-FORMATION DENSITY LOG
DPHISSED.V/V   : DENSITY POROSITY SANDSTONE [M=2.65 F=1.0]  FROM DUAL INDUCTION-SFL-COMPENSATED NEUTRON-FORMATION DENSITY LOG
DPOWS   .V/V   : DENSITY POROSITY [DPHISSED  CONVERTED TO LIMESTONE (M=2.71, F=1.0) SPL. TO DPHILSED @ 6250']
DRESWS  .OHMM  : DEEP RESISTIVITY [ILDED]
DRHOED  .G/C3  : DENSITY CORRECTION FROM DUAL INDUCTION-SFL-COMPENSATED NEUTRON-FORMATION DENSITY LOG
DTED    .US/F  : COMPRESSIONAL SONIC FROM INDUCTION-VELOCITY LOG
DTWS    .US/F  : COMPRESSIONAL SONIC [VELED]
GRRED   .GAPI  : GAMMA RAY FROM FROM DUAL INDUCTION-SFL-COMPENSATED NEUTRON-FORMATION DENSITY-VELOCITY LOG [ GRRED IN CASING FROM 67' - 90']
GRWS    .GAPI  : GAMMA RAY [GRRED, GRRED+30 FROM 3520' to 3542']
GUARDED .OHMM  : GUARD RESISTIVITY FROM INDUCTION-VELOCITY LOG
ILDED   .OHMM  : DEEP INDUCTION FROM DUAL INDUCTION-SFL-COMPENSATED NEUTRON-FORMATION DENSITY-VELOCITY LOG
ILMED   .OHMM  : MEDIUM INDUCTION FROM DUAL INDUCTION-SFL-COMPENSATED NEUTRON-FORMATION DENSITY-VELOCITY LOG
MRESWS  .OHMM  : MEDIUM RESISTIVITY [ILMED]
NPHILSED.V/V   : NEUTRON POROSITY LIMESTONE FROM DUAL INDUCTION-SFL-COMPENSATED NEUTRON-FORMATION DENSITY LOG
NPHISSED.V/V   : NEUTRON POROSITY SANDSTONE FROM DUAL INDUCTION-SFL-COMPENSATED NEUTRON-FORMATION DENSITY LOG
NPOWS   .V/V   : NEUTRON POROSITY LIMESTONE[NPHISSED MATRIX CONVERTED TO LIMESTONE SPL. TO NPHILSED @ 6250']
SFLUED  .OHMM  : SHALLOW FOCUS RESISTIVITY UNAVERAGED FROM DUAL INDUCTION-SFL-COMPENSATED NEUTRON-FORMATION DENSITY-VELOCITY LOG
SPRED   .MV    : SPONTANEOUS POTENTIAL ROM DUAL INDUCTION-SFL-COMPENSATED NEUTRON-FORMATION DENSITY-VELOCITY LOG
SPWS    .MV    : SPONTANEOUS POTENTIAL [BASELINE 0 MV] [SPRED]
SRESWS  .OHMM  : SHALLOW RESISTIVITY [SFLUED SPLICED GUARDED AT 3540']
~Params ----------------------------------------------------
PD  .                     GL : PERMANENT DATUM
EPD .FT                  353 : ELEVATION PERMANENT DATUM
LMF .                     KB : LOG MEASURED FROM
DAPD.FT                   18 : FEET ABOVE PERMANENT DATUM
DMF .                     KB : DRILLING MEASURED FROM
EKB .FT                  371 : KELLY BUSHING
EDF .FT                  370 : DRILLING FLOOR
EGL .FT                  353 : GROUND LEVEL
DATE.               04/03/81 : RUN DATE
RUN .                      1 : RUN NUMBER
DD  .FT                 7797 : DEPTH DRILLER
DL  .FT                 7760 : DEPTH LOGGER
BLI .FT                 7754 : BOTTOM LOG INTERVAL
TLI .FT                 3537 : TOP LOG INTERVAL
CS  .IN                9.625 : CASING SIZE
CBD .FT                 3543 : CASING BOTTOM DRILLER
CBL .FT                 3537 : CASING BOTTOM LOGGER
BS  .IN                 8.75 : BIT SIZE
BSD .FT                 7797 : BIT SIZE AT DEPTH
DFT .             LOW SOLIDS : DRILLING FLUID TYPE
DFD .                    9.4 : DRILLING FLUID DENSITY
DFV .                     43 : DRILLING FLUID VISCOSITY
DFPH.                    9.5 : DRILLING FLUID PH
DFL .                    6.8 : DRILLING FLUID LOSS
MSS .               FLOWLINE : MUD SAMPLE SOURCE
RMS .OHMM               1.99 : RESISTIVITY MUD SAMPLE
MST .DEGF                 75 : MUD SAMPLE TEMPERATURE
RMF .OHMM               1.49 : RESISTIVITY MUD FILTRATE SAMPLE
MFST.DEGF                 75 : MUD FILTRATE SAMPLE TEMPERATURE
RMC .OHMM               2.98 : RESISTIVITY MUD CAKE
MCST.DEGF                 75 : MUD CAKE SAMPLE TEMPERATURE
MFSS.                      M : MUD FILTRATE SAMPLE SOURCE
MCSS.                      C : MUD CAKE SAMPLE SOURCE
RMB .OHMM               0.87 : RESISTIVITY MUD AT BHT
TCS .HRS                 700 : TIME CIRCULATED STOPPED
TLAB.HRS                1430 : TIME LOGGER AT BOTTOM
LUN .                   8138 : LOGGING UNIT NUMBER
LUL .                BRENHAM : LOGGING UNIT LOCATION
ENGI.              STAVINOHA : RECORDING ENGINEER
WITN.                  VODAK : WITNESSED BY
CLNT.                A2DTECH : CLIENT CODE
ORIG.            2" 5" PRINT : ORIGIN OF DATA
UWI .         42051312420000 : UNIQUE WELL ID
DICO. A2D Technologies, Inc. : DIGITIZING COMPANY
~Other -----------------------------------------------------
~ASCII -----------------------------------------------------
  300.00000   12.75680   12.75680  117.15230    -999.25    -999.25    -999.25    -999.25    -999.25    -999.25    8.53590    -999.25  151.50040  151.50040   82.08430   82.08430   10.99430    8.53590    9.29370    9.29370    -999.25    -999.25    -999.25    -999.25  -39.76150  -15.64040   10.99430
  350.00000   13.22120   13.22120  191.21190    -999.25    -999.25    -999.25    -999.25    -999.25    -999.25    5.22980    -999.25  135.28270  135.28270   88.64430   88.64430    8.36400    5.22980    4.92470    4.92470    -999.25    -999.25    -999.25    -999.25  -35.81800  -11.74290    8.36400
  400.00000   12.72710   12.72710   64.34550    -999.25    -999.25    -999.25    -999.25    -999.25    -999.25   15.54110    -999.25  143.76680  143.76680   86.44670   86.44670   18.24310   15.54110   16.16980   16.16980    -999.25    -999.25    -999.25    -999.25  -43.71420  -19.68510   18.24310
  450.00000   13.68650   13.68650  129.65630    -999.25    -999.25    -999.25    -999.25    -999.25    -999.25    7.71270    -999.25  148.70010  148.70010   79.69890   79.69890    9.69860    7.71270    8.12100    8.12100    -999.25    -999.25    -999.25    -999.25  -40.04560  -16.06250    9.69860
  500.00000   12.74630   12.74630  184.06040    -999.25    -999.25    -999.25    -999.25    -999.25    -999.25    5.43300    -999.25  147.12570  147.12570   74.99320   74.99320    8.49590    5.43300    5.27840    5.27840    -999.25    -999.25    -999.25    -999.25  -37.76760  -13.83040    8.49590
  550.00000   13.88110   13.88110   44.33430    -999.25    -999.25    -999.25    -999.25    -999.25    -999.25   22.55590    -999.25  143.11970  143.11970   49.42960   49.42960   19.79290   22.55590   16.48150   16.48150    -999.25    -999.25    -999.25    -999.25  -41.36730  -17.47610   19.79290
  600.00000   13.19650   13.19650   53.82070    -999.25    -999.25    -999.25    -999.25    -999.25    -999.25   18.58020    -999.25  132.58330  132.58330   64.50580   64.50580   21.97160   18.58020   17.86880   17.86880    -999.25    -999.25    -999.25    -999.25  -36.93100  -13.08580   21.97160
  650.00000   12.87980   12.87980   43.12050    -999.25    -999.25    -999.25    -999.25    -999.25    -999.25   23.19080    -999.25  137.71770  137.71770   51.01490   51.01490   26.91770   23.19080   24.67450   24.67450    -999.25    -999.25    -999.25    -999.25  -38.91170  -15.11250   26.91770
  700.00000   12.29770   12.29770  174.47140    -999.25    -999.25    -999.25    -999.25    -999.25    -999.25    5.73160    -999.25  146.35570  146.35570   79.82490   79.82490    8.50050    5.73160    5.48230    5.48230    -999.25    -999.25    -999.25    -999.25  -38.01700  -14.26370    8.50050
  750.00000   12.39870   12.39870  123.77920    -999.25    -999.25    -999.25    -999.25    -999.25    -999.25    8.07890    -999.25  136.16260  136.16260   84.42750   84.42750   12.11280    8.07890    7.89980    7.89980    -999.25    -999.25    -999.25    -999.25  -44.74430  -21.03700   12.11280
  800.00000   12.36280   12.36280   51.30920    -999.25    -999.25    -999.25    -999.25    -999.25    -999.25   19.48970    -999.25  135.05070  135.05070   71.76910   71.76910   21.07070   19.48970   16.89520   16.89520    -999.25    -999.25    -999.25    -999.25  -39.93050  -16.26920   21.07070
  850.00000   14.73830   14.73830  290.37690    -999.25    -999.25    -999.25    -999.25    -999.25    -999.25    3.44380    -999.25  151.53720  151.53720   85.02630   85.02630    6.11530    3.44380    3.17370    3.17370    -999.25    -999.25    -999.25    -999.25  -50.55180  -26.93640    6.11530
  900.00000   14.98020   14.98020  291.73230    -999.25    -999.25    -999.25    -999.25    -999.25    -999.25    3.42780    -999.25  157.61690  157.61690   79.68020   79.68020    6.54810    3.42780    3.22020    3.22020    -999.25    -999.25    -999.25    -999.25  -49.26460  -25.69520    6.54810
  950.00000   13.82720   13.82720  226.04490    -999.25    -999.25    -999.25    -999.25    -999.25    -999.25    4.42390    -999.25  146.17180  146.17180   75.55240   75.55240    6.95020    4.42390    4.18560    4.18560    -999.25    -999.25    -999.25    -999.25  -50.92630  -27.40290    6.95020
 1000.00000   13.12440   13.12440   84.54800    -999.25    -999.25    -999.25    -999.25    -999.25    -999.25   11.82760    -999.25  141.38850  141.38850   56.93310   56.93310   13.02770   11.82760   10.02360   10.02360    -999.25    -999.25    -999.25    -999.25  -52.22800  -28.75060   13.02770
 1050.00000   13.00000   13.00000   98.70400    -999.25    -999.25    -999.25    -999.25    -999.25    -999.25   10.13130    -999.25  120.33420  120.33420   68.82310   68.82310   12.38340   10.13130    9.69340    9.69340    -999.25    -999.25    -999.25    -999.25  -56.47600  -33.04450   12.38340
 1100.00000   12.62220   12.62220   60.25040    -999.25    -999.25    -999.25    -999.25    -999.25    -999.25   16.59740    -999.25  134.73660  134.73660   56.44780   56.44780   16.87950   16.59740   14.31890   14.31890    -999.25    -999.25    -999.25    -999.25  -47.24510  -23.85960   16.87950
 1150.00000   12.17660   12.17660   57.67510    -999.25    -999.25    -999.25    -999.25    -999.25    -999.25   17.33850    -999.25  134.27840  134.27840   79.54940   79.54940   17.58750   17.33850   16.59520   16.59520    -999.25    -999.25    -999.25    -999.25  -47.53840  -24.19890   17.58750
 1200.00000   13.35160   13.35160  201.62100    -999.25    -999.25    -999.25    -999.25    -999.25    -999.25    4.95980    -999.25  136.03820  136.03820   90.67760   90.67760    7.81160    4.95980    4.95840    4.95840    -999.25    -999.25    -999.25    -999.25  -50.01640  -26.72290    7.81160
 1250.00000   11.81470   11.81470  119.24210    -999.25    -999.25    -999.25    -999.25    -999.25    -999.25    8.38630    -999.25  133.61670  133.61670   84.14720   84.14720   10.74220    8.38630    7.81570    7.81570    -999.25    -999.25    -999.25    -999.25  -51.77060  -28.52300   10.74220
 1300.00000   12.16680   12.16680   67.62190    -999.25    -999.25    -999.25    -999.25    -999.25    -999.25   14.78810    -999.25  142.70630  142.70630   81.07450   81.07450   15.39450   14.78810   14.39850   14.39850    -999.25    -999.25    -999.25    -999.25  -46.99740  -23.79580   15.39450
 1350.00000   12.47790   12.47790  167.58840    -999.25    -999.25    -999.25    -999.25    -999.25    -999.25    5.96700    -999.25  132.65160  132.65160   83.87780   83.87780    9.73430    5.96700    6.16200    6.16200    -999.25    -999.25    -999.25    -999.25  -54.21700  -31.06140    9.73430
 1400.00000   13.98060   13.98060  226.93750    -999.25    -999.25    -999.25    -999.25    -999.25    -999.25    4.40650    -999.25  132.96520  132.96520   98.70950   98.70950    6.92640    4.40650    4.61340    4.61340    -999.25    -999.25    -999.25    -999.25  -51.87370  -28.76410    6.92640
 1450.00000   12.68680   12.68680  218.72270    -999.25    -999.25    -999.25    -999.25    -999.25    -999.25    4.57200    -999.25  130.18030  130.18030   95.96160   95.96160    7.06290    4.57200    4.78800    4.78800    -999.25    -999.25    -999.25    -999.25  -57.56730  -34.50360    7.06290
 1500.00000   11.84160   11.84160  169.06170    -999.25    -999.25    -999.25    -999.25    -999.25    -999.25    5.91500    -999.25  123.87260  123.87260   80.79550   80.79550    8.26610    5.91500    6.07520    6.07520    -999.25    -999.25    -999.25    -999.25  -57.45790  -34.44020    8.26610
 1550.00000   12.31990   12.31990  169.74760    -999.25    -999.25    -999.25    -999.25    -999.25    -999.25    5.89110    -999.25  120.28030  120.28030   86.46250   86.46250    8.09370    5.89110    5.69530    5.69530    -999.25    -999.25    -999.25    -999.25  -57.25550  -34.28380    8.09370
 1600.00000   14.91130   14.91130   85.59960    -999.25    -999.25    -999.25    -999.25    -999.25    -999.25   11.68230    -999.25  131.38690  131.38690   64.22170   64.22170   12.13880   11.68230   11.73880   11.73880    -999.25    -999.25    -999.25    -999.25  -58.04570  -35.12000   12.13880
