~Version ---------------------------------------------------
VERS.      2.0 : CWLS log ASCII Standard -VERSION 2.0
WRAP.      YES : Multiple lines per depth step
CREA. 09/28/17 : LAS Creation Date
~Well ------------------------------------------------------
STRT.FT                  2150.0 : START DEPTH
STOP.FT                 11650.0 : STOP DEPTH
STEP.FT                50.00000 : STEP LENGTH
NULL.                   -999.25 : NULL VALUE
COMP. BURK ROYALTY COMPANY, LTD : COMPANY
WELL.               STERLING #1 : WELL
FLD .                           : FIELD
LOC .                           : LOCATION
CNTY.                   MADISON : COUNTY
STAT.                     TEXAS : STATE
CTRY.  UNITED STATES OF AMERICA : COUNTRY
SRVC.               HALLIBURTON : SERVICE COMPANY
DATE.               31-May-2014 : LOGDATE
API .            42313311010000 : API NUMBER
UWI .            42313311010000 : UNIQUE WELL ID
SLAT.WGS84     30.9882730389083 : SURFACE LATITUDE
SLON.WGS84    -95.6985448660659 : SURFACE LONGITUDE
~Curve Information -----------------------------------------
DEPT    .FT    : DEPTH FEET
CALRED  .IN    : CALIPER FROM RESISTIVITY LOG
CALWS   .IN    : CALIPER [CALRED]
CONDWS  .MMHO  : DEEP CONDUCTIVITY [1000/DRESWS]
DCALRED .IN    : DIFFERENTIAL CALIPER FROM RESISTIVITY LOG
DCORWS  .G/C3  : DENSITY CORRECTION [DRHOED]
DENWS   .G/C3  : BULK DENSITY [RHOBED]
DPHILSED.V/V   : DENSITY POROSITY (LS) [M=2.71 F=1.00]
DPOLSWS .V/V   : DENSITY POROSITY (LS) [M=2.71 F=1.00] [DPHILSED]
DRESWS  .OHMM  : DEEP RESISTIVITY [RT90ED]
DRHOED  .G/C3  : DENSITY CORRECTION FROM DENSITY LOG
GRRED   .GAPI  : GAMMA RAY FROM RESISTIVITY LOG
GRWS    .GAPI  : GAMMA RAY [GRRED]
MINVED  .OHMM  : MICROINVERSE RESISTIVITY
MNORED  .OHMM  : MICRONORMAL RESISTIVITY
MRESWS  .OHMM  : MEDIUM RESISTIVITY [RT30ED]
NPHILSED.V/V   : NEUTRON POROSITY LIMESTONE
NPOLSWS .V/V   : NEUTRON POROSITY LIMESTONE [NPHILSED]
PEED    .B/E   : PHOTOELECTRIC FACTOR FROM DENSITY LOG
PEFWS   .B/E   : PHOTOELECTRIC FACTOR [PEED]
RHOBED  .G/C3  : BULK DENSITY FROM DENSITY LOG
RT10ED  .OHMM  : 10 INCH RESISTIVITY TWO FOOT RESOLUTION
RT20ED  .OHMM  : 20 INCH RESISTIVITY TWO FOOT RESOLUTION
RT30ED  .OHMM  : 30 INCH RESISTIVITY TWO FOOT RESOLUTION
RT60ED  .OHMM  : 60 INCH RESISTIVITY TWO FOOT RESOLUTION
RT90ED  .OHMM  : 90 INCH RESISTIVITY TWO FOOT RESOLUTION
SPRED   .MV    : SPONTANEOUS POTENTIAL FROM RESISTIVITY LOG
SPWS    .MV    : SPONTANEOUS POTENTIAL [BASELINE 0 MV] [SPRED]
SRESWS  .OHMM  : SHALLOW RESISTIVITY [RT10ED]
TENRED  .LBF   : TENSION FROM RESISTIVITY LOG
~Params ----------------------------------------------------
PD  .                     GL : PERMANENT DATUM
EPD .FT                  159 : ELEVATION PERMANENT DATUM
LMF .                     KB : LOG MEASURED FROM
DAPD.FT                   30 : FEET ABOVE PERMANENT DATUM
DMF .                     KB : DRILLING MEASURED FROM
EKB .FT                  189 : KELLY BUSHING
EDF .FT                  188 : DRILLING FLOOR
EGL .FT                  159 : GROUND LEVEL
DATE.              5/31/2014 : RUN DATE
RUN .                      1 : RUN NUMBER
DD  .FT                11688 : DEPTH DRILLER
DL  .FT                11682 : DEPTH LOGGER
BLI .FT                11679 : BOTTOM LOG INTERVAL
TLI .FT                 2195 : TOP LOG INTERVAL
CS  .IN                9.625 : CASING SIZE
CBD .FT                 2195 : CASING BOTTOM DRILLER
CBL .FT                 2195 : CASING BOTTOM LOGGER
BS  .IN                 8.75 : BIT SIZE
BSD .FT                11688 : BIT SIZE AT DEPTH
DFT .        WATER BASED MUD : DRILLING FLUID TYPE
DFD .                    9.8 : DRILLING FLUID DENSITY
DFV .                     65 : DRILLING FLUID VISCOSITY
DFPH.                    9.4 : DRILLING FLUID PH
DFL .                    4.4 : DRILLING FLUID LOSS
MSS .               MUD TANK : MUD SAMPLE SOURCE
RMS .OHMM               1.31 : RESISTIVITY MUD SAMPLE
MST .DEGF                 71 : MUD SAMPLE TEMPERATURE
RMF .OHMM               1.12 : RESISTIVITY MUD FILTRATE SAMPLE
MFST.DEGF                 72 : MUD FILTRATE SAMPLE TEMPERATURE
RMC .OHMM               1.83 : RESISTIVITY MUD CAKE
MCST.DEGF                 72 : MUD CAKE SAMPLE TEMPERATURE
MFSS.                   MEAS : MUD FILTRATE SAMPLE SOURCE
MCSS.                   MEAS : MUD CAKE SAMPLE SOURCE
RMB .OHMM               0.73 : RESISTIVITY MUD AT BHT
TCS .HRS                 700 : TIME CIRCULATED STOPPED
TLAB.HRS                 630 : TIME LOGGER AT BOTTOM
LUN .               10549594 : LOGGING UNIT NUMBER
LUL .                KILGORE : LOGGING UNIT LOCATION
ENGI.                 ALLALI : RECORDING ENGINEER
WITN.                KIMBELL : WITNESSED BY
CLNT.                A2DTECH : CLIENT CODE
ORIG.       1", 2", 5" PRINT : ORIGIN OF DATA
UWI .         42313311010000 : UNIQUE WELL ID
DICO. A2D Technologies, Inc. : DIGITIZING COMPANY
~Other -----------------------------------------------------
ALL LOGS RAN ON COMBO.
LOADED ALL CURVES FROM BOREHOLE DATA SET.
GAPS ON CURVES AROUND 11450'-11510' DUE TO TOOL PULLED.
~ASCII -----------------------------------------------------
# ...
 7150.00000    8.81220    8.81220  338.82230    0.06220    0.02570    2.58590    0.07260    0.07260    2.95140    0.02570   84.16560   84.16560    3.99730    2.26030    3.04800    0.18070    0.18070    3.35940    3.35940    2.58590    3.32770    3.20700    3.04800    2.99210    2.95140  -21.35580  -10.44440    3.32770 4077.32010
 7200.00000    8.80630    8.80630  514.03310    0.05630    0.09730    2.53740    0.10090    0.10090    1.94540    0.09730   90.00450   90.00450    2.11300    1.26060    1.99220    0.23840    0.23840    3.22820    3.22820    2.53740    2.09120    2.05450    1.99220    1.96990    1.94540  -27.75670  -15.67540    2.09120 4072.53150
 7250.00000    8.91250    8.91250  444.44440    0.16250    0.05760    2.57260    0.08030    0.08030    2.25000    0.05760   84.00290   84.00290    3.02130    1.67930    2.29890    0.20870    0.20870    3.01600    3.01600    2.57260    2.41410    2.38750    2.29890    2.27540    2.25000  -21.88490  -11.46880    2.41410 4130.50340
 7300.00000    9.67090    9.67090  513.08360    0.92090    0.13390    2.48560    0.13120    0.13120    1.94900    0.13390   93.21900   93.21900    1.85520    1.23260    2.00980    0.26280    0.26280    3.86130    3.86130    2.48560    2.12450    2.07970    2.00980    1.98040    1.94900  -13.77310   -5.77590    2.12450 4181.49410
 7350.00000    9.15390    9.15390  622.16140    0.40390    0.26050    2.39610    0.18360    0.18360    1.60730    0.26050   84.75560   84.75560    1.10790    0.87370    1.59510    0.31520    0.31520    4.60450    4.60450    2.39610    1.47860    1.55250    1.59510    1.60580    1.60730   -9.22560   -3.64730    1.47860 4267.14260
 7400.00000    9.08760    9.08760  700.96730    0.33760    0.12510    2.44210    0.15670    0.15670    1.42660    0.12510   77.51290   77.51290    1.42900    0.96070    1.46720    0.25130    0.25130    3.67970    3.67970    2.44210    1.49610    1.49520    1.46720    1.44720    1.42660   -5.69260   -2.31550    1.49610 4075.69260
 7450.00000    9.51960    9.51960  675.31060    0.76960    0.09170    2.55620    0.09000    0.09000    1.48080    0.09170   65.36720   65.36720    1.79720    1.01150    1.53110    0.23450    0.23450    3.60060    3.60060    2.55620    1.57900    1.57260    1.53110    1.50740    1.48080   -5.33250   -1.95540    1.57900 4059.13600
 7500.00000    8.86000    8.86000  242.74790    0.11000    0.01860    2.62820    0.04780    0.04780    4.11950    0.01860   42.90680   42.90680    6.06530    2.95550    4.08500    0.11450    0.11450    3.99430    3.99430    2.62820    4.17100    4.14390    4.08500    4.07520    4.11950   -6.79300   -3.41590    4.17100 4108.32230
 7550.00000    9.46420    9.46420  612.89530    0.71420    0.18240    2.46620    0.14260    0.14260    1.63160    0.18240   71.26710   71.26710    1.49500    1.07050    1.64220    0.21640    0.21640    3.50580    3.50580    2.46620    1.62740    1.65490    1.64220    1.63990    1.63160   -6.75700   -3.37990    1.62740 4133.32130
 7600.00000   10.02720   10.02720  733.72950    1.27720    0.18380    2.41480    0.17260    0.17260    1.36290    0.18380   84.57250   84.57250    1.39500    0.95560    1.40160    0.23470    0.23470    3.55270    3.55270    2.41480    1.42930    1.42960    1.40160    1.38120    1.36290   -8.23790   -4.86080    1.42930 4134.61910
 7650.00000   10.13960   10.13960  773.33540    1.38960    0.14140    2.40090    0.18080    0.18080    1.29310    0.14140   78.75400   78.75400    1.16330    0.87670    1.33950    0.27970    0.27970    3.86740    3.86740    2.40090    1.38430    1.37140    1.33950    1.31910    1.29310   -9.10980   -5.73270    1.38430 4139.71390
 7700.00000    8.99620    8.99620  542.97660    0.24620    0.01550    2.54420    0.09700    0.09700    1.84170    0.01550   68.39860   68.39860    3.11690    1.35740    1.88760    0.20290    0.20290    3.48720    3.48720    2.54420    1.97530    1.94450    1.88760    1.85890    1.84170   -9.88620   -6.50910    1.97530 4176.43510
 7750.00000    8.86080    8.86080  236.70320    0.11080    0.03920    2.63530    0.04370    0.04370    4.22470    0.03920   41.05540   41.05540    6.36950    2.25750    4.32230    0.09070    0.09070    4.10740    4.10740    2.63530    4.86760    4.51210    4.32230    4.27010    4.22470  -14.52450  -11.14740    4.86760 4212.39060
 7800.00000    8.90690    8.90690  230.86690    0.15690    0.01830    2.61860    0.05350    0.05350    4.33150    0.01830   40.36370   40.36370    7.42190    2.98230    4.49040    0.10160    0.10160    4.10660    4.10660    2.61860    4.98600    4.68350    4.49040    4.41660    4.33150  -16.57510  -13.19800    4.98600 4228.48680
 7850.00000    8.94410    8.94410  233.26880    0.19410    0.00330    2.62480    0.04980    0.04980    4.28690    0.00330   45.63290   45.63290    6.47960    2.70080    4.49110    0.12090    0.12090    4.16550    4.16550    2.62480    4.94000    4.70060    4.49110    4.39560    4.28690  -12.55210   -9.17500    4.94000 4229.24220
 7900.00000    8.96550    8.96550  226.21880    0.21550    0.00870    2.65030    0.03490    0.03490    4.42050    0.00870   47.13840   47.13840    6.69830    2.88520    4.60380    0.10640    0.10640    4.31770    4.31770    2.65030    5.11070    4.82340    4.60380    4.51050    4.42050  -10.96790   -7.59080    5.11070 4288.49900
 7950.00000    8.96350    8.96350  255.41480    0.21350    0.01880    2.65270    0.03350    0.03350    3.91520    0.01880   53.28930   53.28930    5.73460    2.33310    4.08000    0.13920    0.13920    4.12600    4.12600    2.65270    4.38610    4.26360    4.08000    4.00310    3.91520   -8.75450   -5.37740    4.38610 4281.91890
 8000.00000    8.83530    8.83530  203.35950    0.08530    0.01220    2.63350    0.04470    0.04470    4.91740    0.01220   58.89760   58.89760    6.64740    2.80140    5.06520    0.10980    0.10980    3.71780    3.71780    2.63350    5.47160    5.28070    5.06520    4.99100    4.91740  -10.39810   -7.02100    5.47160 4392.47310
 8050.00000    8.84260    8.84260  357.56430    0.09260    0.01830    2.58940    0.07050    0.07050    2.79670    0.01830   72.75230   72.75230    4.10640    1.83750    2.89850    0.16790    0.16790    3.41710    3.41710    2.58940    3.12620    3.03010    2.89850    2.84870    2.79670   -9.93790   -6.56080    3.12620 4315.14990
 8100.00000    8.81980    8.81980  262.56370    0.06980    0.02990    2.63570    0.04350    0.04350    3.80860    0.02990   57.51420   57.51420    5.81390    2.76400    3.95170    0.12970    0.12970    4.22270    4.22270    2.63570    4.24280    4.11770    3.95170    3.88810    3.80860  -12.89960   -9.52250    4.24280 4442.02440
 8150.00000    9.02890    9.02890  253.15810    0.27890    0.00680    2.63540    0.04360    0.04360    3.95010    0.00680   64.83820   64.83820    5.66670    2.25330    4.08920    0.14610    0.14610    4.07440    4.07440    2.63540    4.45570    4.26400    4.08920    4.02210    3.95010  -13.24240   -9.86530    4.45570 4354.41850
 8200.00000    8.85600    8.85600  306.85200    0.10600    0.00970    2.62550    0.04940    0.04940    3.25890    0.00970   75.17330   75.17330    4.92560    1.86560    3.39440    0.17970    0.17970    4.09450    4.09450    2.62550    3.58950    3.52280    3.39440    3.33280    3.25890  -12.64600   -9.26890    3.58950 4484.59570
 8250.00000    8.82470    8.82470  308.58480    0.07470    0.02370    2.64490    0.03800    0.03800    3.24060    0.02370   82.87710   82.87710    4.89510    2.38480    3.35100    0.20510    0.20510    3.74680    3.74680    2.64490    3.52590    3.47510    3.35100    3.29730    3.24060  -12.71020   -9.33310    3.52590 4513.88820
 8300.00000    8.83890    8.83890  460.17210    0.08890    0.02420    2.57560    0.07860    0.07860    2.17310    0.02420  100.33960  100.33960    3.72320    1.48100    2.24840    0.23780    0.23780    3.55200    3.55200    2.57560    2.37080    2.34240    2.24840    2.20590    2.17310  -12.59120   -9.21410    2.37080 4577.16650
 8350.00000    8.84460    8.84460  432.24550    0.09460   -0.00520    2.60330    0.06240    0.06240    2.31350   -0.00520   86.36280   86.36280    3.76840    1.47400    2.39980    0.19080    0.19080    3.84140    3.84140    2.60330    2.56260    2.50330    2.39980    2.35400    2.31350  -10.62040   -7.24330    2.56260 4635.84570
