~Version ---------------------------------------------------
VERS. 2.0 : CWLS log ASCII Standard -VERSION 2.0
WRAP.  NO : ONE LINE PER DEPTH STEP
~Well ------------------------------------------------------
STRT.F                  1500.0 : START DEPTH
STOP.F                  8300.0 : STOP DEPTH
STEP.F                50.00000 : STEP LENGTH
NULL.                  -999.25 : NULL VALUE
COMP.   FIELD DRILLING COMPANY : COMPANY
WELL.        CAPT AND BERRY #1 : WELL
FLD .                       WC : FIELD
LOC .                          : LOCATION
CNTY.                   DIMMIT : COUNTY
STAT.                    TEXAS : STATE
CTRY. UNITED STATES OF AMERICA : COUNTRY
SRVC.             Schlumberger : SERVICE COMPANY
DATE.              07-Jun-1978 : LOGDATE
API .           42127317020000 : API NUMBER
UWI .           42127317020000 : UNIQUE WELL ID
SLAT.WGS84       28.5833203887 : SURFACE LATITUDE
SLON.WGS84      -99.6338956289 : SURFACE LONGITUDE
~Curve Information -----------------------------------------
DEPT.F                 : 
DPHI.DEC  45 890 12 00 : DENSITY POROSITY SANDSTONE
NPHI.DEC  42 890 01 00 : NEUTRON POROSITY SANDSTONE
CALD.IN   45 280 60 00 : CALIPER FROM DENSITY LOG
GRD .GAPI 45 310 01 00 : GAMMA RAY FROM DENSITY LOG
CORR.G/C3 45 356 01 00 : DENSITY CORRECTION
RHOB.G/C3 45 350 01 00 : BULK DENSITY
SPR .MV   07 010 01 00 : SPONTANEOUS POTENTIAL
DT  .US/F 60 520 00 00 : INTERVAL TRANSIT TIME
LL8 .OHMM 07 220 08 00 : LATEROLOG8- RES.
ILM .OHMM 07 120 44 00 : INDUCTION LOG MEDIUM
ILD .OHMM 07 120 46 00 : INDUCTION LOG DEEP
~Params ----------------------------------------------------
PD  .                     GL : PERMANENT DATUM
EPD .FT                551.5 : ELEVATION PERMANENT DATUM
LMF .                     KB : LOG MEASURED FROM
DAPD.FT                 14.5 : FEET ABOVE PERMANENT DATUM
DMF .                     KB : DRILLING MEASURED FROM
EKB .FT                  556 : KELLY BUSHING
EDF .FT                  555 : DRILLING FLOOR
EGL .FT                551.5 : GROUND LEVEL
DATE.               06/07/78 : RUN DATE
RUN .                      1 : RUN NUMBER
DD  .FT                 8330 : DEPTH DRILLER
DL  .FT                 8334 : DEPTH LOGGER
BLI .FT                 8328 : BOTTOM LOG INTERVAL
TLI .FT                 1543 : TOP LOG INTERVAL
CS  .IN                10.75 : CASING SIZE
CBD .FT                 1538 : CASING BOTTOM DRILLER
CBL .FT                 1543 : CASING BOTTOM LOGGER
BS  .IN                9.875 : BIT SIZE
BSD .FT                 8330 : BIT SIZE AT DEPTH
DFT .              LIGNOSULF : DRILLING FLUID TYPE
DFD .                    9.6 : DRILLING FLUID DENSITY
DFV .                     51 : DRILLING FLUID VISCOSITY
DFPH.                    9.5 : DRILLING FLUID PH
DFL .                    7.8 : DRILLING FLUID LOSS
MSS .                   CIRC : MUD SAMPLE SOURCE
RMS .OHMM               0.64 : RESISTIVITY MUD SAMPLE
MST .FT                   90 : MUD SAMPLE TEMPERATURE
RMF .OHMM              0.495 : RESISTIVITY MUD FILTRATE SAMPLE
MFST.FT                   90 : MUD FILTRATE SAMPLE TEMPERATURE
RMC .OHMM               0.55 : RESISTIVITY MUD CAKE
MCST.FT                   90 : MUD CAKE SAMPLE TEMPERATURE
MFSS.                      M : MUD FILTRATE SAMPLE SOURCE
MCSS.                      C : MUD CAKE SAMPLE SOURCE
RMB .OHMM              0.305 : RESISTIVITY MUD AT BHT
TCS .HRS                2200 : TIME CURCULATED STOPPED
TLAB.HRS                 600 : TIME LOGGER AT BOTTOM
LUN .                   7769 : LOGGING UNIT NUMBER
LUL .                 LAREDO : LOGGING UNIT LOCATION
ENGI.                 SPAETH : RECORDING ENGINEER
WITN.          LYONS/JOHNSON : WITNESSED BY
CLNT.                A2DTECH : CLIENT CODE
ORIG.            2" 5" PRINT : ORIGIN OF DATA
UWI .         42127317020000 : UNIQUE WELL ID
DICO. A2D Technologies, Inc. : DIGITIZING COMPANY
~Other -----------------------------------------------------
~ASCII -----------------------------------------------------
# ...
 4550.00000    0.19910    0.30070   13.44050   60.28920    0.12670    2.34400  -15.84470   95.30550    2.63510    2.52410    2.55880
 4600.00000    0.13390    0.31050   12.77930   59.62060    0.07740    2.44700  -15.54580   97.69000    2.42580    2.39260    2.42950
 4650.00000    0.09020    -999.25   12.92050    -999.25    -999.25    -999.25  -15.99400   86.81060    2.88320    2.55170    2.48060
 4700.00000    -999.25    -999.25    -999.25    -999.25    -999.25    -999.25  -15.38580  105.29070    1.46660    1.32700    1.35010
 4750.00000    -999.25    -999.25    -999.25    -999.25    -999.25    -999.25  -16.14400   87.48490    3.24050    3.13070    3.19610
 4800.00000    -999.25    -999.25    -999.25    -999.25    -999.25    -999.25  -16.28950   86.66170    3.21820    3.00380    2.98320
 4850.00000    -999.25    -999.25    -999.25    -999.25    -999.25    -999.25  -16.14360   91.81250    2.67160    2.45710    2.45950
 4900.00000    -999.25    -999.25    -999.25    -999.25    -999.25    -999.25  -18.60120    -999.25    -999.25    -999.25    -999.25
 4950.00000    -999.25    -999.25    -999.25    -999.25    -999.25    -999.25  -17.41070  105.50430    1.73450    1.92010    1.89300
 5000.00000    -999.25    -999.25    -999.25    -999.25    -999.25    -999.25  -18.00590   94.53150    2.58700    2.58700    2.53620
 5050.00000    -999.25    -999.25    -999.25    -999.25    -999.25    -999.25  -17.40140   97.32890    2.55100    2.31400    2.34250
 5100.00000    -999.25    -999.25    -999.25    -999.25    -999.25    -999.25  -21.71160   81.75100    4.57290    4.11040    4.13570
 5150.00000    -999.25    -999.25    -999.25    -999.25    -999.25    -999.25  -18.60100   90.80120    2.96770    2.80650    2.78170
 5200.00000    -999.25    -999.25    -999.25    -999.25    -999.25    -999.25  -20.72710   87.09200    3.33030    3.26070    3.25810
 5250.00000    -999.25    -999.25    -999.25    -999.25    -999.25    -999.25  -20.08930   87.68550    2.90720    2.92720    2.91880
 5300.00000    -999.25    -999.25    -999.25    -999.25    -999.25    -999.25  -21.85910   83.78800    3.68630    3.56300    3.58170
 5350.00000    -999.25    0.34190    -999.25    -999.25    -999.25    -999.25  -21.42840   88.87240    3.33490    3.38110    3.37210
 5400.00000    0.14640    0.20120   14.26030   67.08770    0.15580    2.45860  -20.96080   86.49860    3.47510    3.42620    3.37200
 5450.00000    0.14080    0.21690   13.96430   64.71950    0.15690    2.49810  -21.46540   85.81030    3.71760    3.52320    3.53820
 5500.00000    0.15150    0.19340   13.27420   58.81090    0.03850    2.45860  -23.95830   82.83850    4.09280    4.03880    4.14420
 5550.00000    0.20870    0.25490   14.79640   68.42500    0.17000    2.36590  -20.12200   86.55200    3.33490    3.41690    3.40430
 5600.00000    0.30970    0.32650   15.88840   63.07540    0.15960    2.17030  -76.52880   79.39180    2.46570    2.27900    2.32650
 5650.00000    0.27000    0.26970   16.32680   52.37700    0.10280    2.23820  -74.73530   87.26080    3.38100    2.99140    2.95920
 5700.00000    0.17430    0.24020   14.76670   57.72590    0.13940    2.42790  -75.29710   87.69000    3.72250    3.05960    3.07860
 5750.00000    0.09390    0.22090   12.07720   60.17830    0.06080    2.49590  -76.17220   86.19970    3.81690    3.30590    3.26580
 5800.00000    0.06180    0.13550   12.30010   43.90790    0.00110    2.62290  -76.21770   76.32290    6.21870    5.65080    5.49330
 5850.00000    0.05330    0.11670   13.14920   44.57650    0.03030    2.60940  -76.78570   76.05490    6.22330    5.47110    5.59750
 5900.00000    0.07620    0.07100   13.65920   31.79270   -0.01230    2.58400  -80.89850   68.79630    9.99970    8.85860    8.74760
 5950.00000    0.07250    0.08220   14.03860   39.67310    0.00410    2.58180  -80.95240   70.70040    8.97240    6.75130    6.87090
 6000.00000    0.07820    0.13140   13.74560   44.03190    0.01550    2.56830  -79.16580   79.22650    5.15790    4.61330    4.70440
 6050.00000    0.07440    0.05580   11.80980   15.37890   -0.01460    2.61090  -85.75200   63.43690   15.72930   14.67900   14.52340
 6100.00000    0.07200    0.04910   11.66120   26.57860    0.04250    2.59990  -77.38120   71.44560   10.56250    7.12150   10.09590
 6150.00000    0.06700    0.06880   11.97330   22.01080    0.01230    2.60040  -81.54760   66.22950   34.64300   11.54860   15.02470
 6200.00000    0.05550    0.06070   11.76520   14.48700   -0.00610    2.61810  -80.10850   58.15570   29.39450   16.38560   13.94490
 6250.00000    0.02380    0.04690   11.64820   16.25610   -0.00130    2.65570  -84.82140   60.50260   36.08810   23.91340   29.59230
 6300.00000    0.05730    0.05890   11.81370   15.82470   -0.00780    2.59750  -83.03570   64.59020   13.71180   12.82920   13.15040
 6350.00000    0.09660    0.05850   11.61660   12.25850    0.01830    2.56180  -84.83330   65.52550   18.54570   15.99080   19.72760
 6400.00000    0.04970    0.04020   11.95790   12.87060    0.00410    2.62730  -82.75290   62.20490   33.13510   21.02800   22.79010
 6450.00000    0.04570    0.08040   11.92910   23.66940   -0.03760    2.66140  -86.90480   63.42510   11.16040    9.33630    9.57030
 6500.00000    0.05770    0.07010   11.85440   21.98830    0.01160    2.59220  -91.66510   64.29240   18.96100   10.99830   12.36200
 6550.00000    0.05010    0.09520   11.86920   58.84100    0.00600    2.62730  -82.14290   64.10420   24.57250   20.01640   23.26490
 6600.00000    0.07160    0.07870   11.94300   29.95690    0.01760    2.56980  -84.52580   67.42100   28.98860   20.00000   24.32430
 6650.00000    0.03720    0.06750   11.95840   51.48590    0.00710    2.59520  -88.03860   60.71510   33.95380   23.91340   24.83100
 6700.00000    0.08670    0.11980   11.83950   39.74780   -0.01160    2.54590  -79.16400   75.02240   25.01540   21.27630   25.62800
 6750.00000    0.07250    0.11940   12.61220   40.43880    0.07660    2.58920  -78.12430   68.76300   26.95480   12.10890   18.11240
 6800.00000    0.11830    0.18640   12.16070   36.83090    0.00070    2.50750  -82.14190   77.40690   13.35950   14.47880   13.48810
 6850.00000    0.13570    0.23250   12.49040   59.04990    0.00480    2.48130  -77.38100   88.28600   10.12760    8.41150    8.68170
 6900.00000    0.12630    0.16550   12.27230   75.00130    0.00750    2.46180  -80.39950   77.10880   33.03210   22.32500   23.44430
 6950.00000    0.15490    0.17420   12.04070   61.60730    0.00450    2.43670  -80.35710   76.06560   74.33170   31.48070   38.25490
 7000.00000    0.10630    0.11940   11.93760   51.33930    0.07410    2.53200  -79.46380   62.25620   29.91730   30.20870   21.84310
 7050.00000    0.06250    0.01650   11.29770   10.41620   -0.00470    2.60210  -87.50000   52.80040  252.64760   61.27950   54.50460
 7100.00000    0.01380    0.01440   11.13390   10.93570    0.00600    2.68330  -86.90480   55.94630  186.71500   73.27740  114.99580
 7150.00000    0.01110    0.17990   14.19940   43.40210    0.11720    2.58310  -71.72620   69.65710    6.08970    5.42310    5.25880
 7200.00000    0.18570    0.27220   15.99990   66.29460    0.05690    2.38670  -75.55240   86.76010    2.94770    2.44670    2.41250
 7250.00000    0.14870    0.22130   15.62790   58.25820    0.16190    2.48210  -73.80950   79.04620    3.90420    3.06760    3.12490
 7300.00000   -0.01830    0.05640   11.44640   23.66070    0.01120    2.75040  -75.41750   57.73470   14.18330   12.25660   12.69310
 7350.00000    0.07500    0.00280   12.13130    8.92800    0.10560    2.59460  -92.55950   52.36960  109.98500   90.10960  129.97390
 7400.00000    0.12140    0.01080   15.33740   13.58220    0.15280    2.47910  -89.58190   51.92250  198.62780   46.81440   46.77310
 7450.00000    0.17820    0.02530   12.93480   19.41960    0.13840    2.58720  -83.77860   54.62330   38.95670 1519.24220   65.84980
 7500.00000    0.15890    0.01040   15.67260   14.95540    0.18060    2.41510  -89.16660   51.62500  208.42400   51.99430  141.14010
 7550.00000    0.16920    0.02330   15.82150   18.97280    0.10220    2.42850  -98.21330   51.88000  230.78540  129.70910  176.44370
