~Version ---------------------------------------------------
VERS. 2.0 : CWLS log ASCII Standard -VERSION 2.0
WRAP. YES : Multiple lines per depth step
~Well ------------------------------------------------------
STRT.FT                   3400.0 : START DEPTH
STOP.FT                  16600.0 : STOP DEPTH
STEP.FT                 50.00000 : STEP LENGTH
NULL.                    -999.25 : NULL VALUE
COMP. CHAMPLIN PETROLEUM COMPANY : COMPANY
WELL.      CHARLES C. CHARTER #1 : WELL
FLD .                    WILDCAT : FIELD
LOC .                            : LOCATION
CNTY.                     BRAZOS : COUNTY
STAT.                      TEXAS : STATE
CTRY.   UNITED STATES OF AMERICA : COUNTRY
SRVC.                            : SERVICE COMPANY
DATE.                            : LOGDATE
API .             42041304470000 : API NUMBER
UWI .             42041304470000 : UNIQUE WELL ID
SLAT.WGS84         30.8464717491 : SURFACE LATITUDE
SLON.WGS84        -96.3676910928 : SURFACE LONGITUDE
~Curve Information -----------------------------------------
DEPT  .FT    : DEPTH
CALDED.IN    : CALIPER FROM DENSITY LOG
CALWS .IN    : CALIPER [CALDED]
CONDWS.MMHO  : CONDUCTIVITY [1000/DRESWS]
DCORWS.G/C3  : DENSITY CORRECTION [DRHOED]
DENWS .G/C3  : BULK DENSITY [RHOBED]
DPOWS .V/V   : DENSITY POROSITY [3434 M=2.71 F=1.0, 11632 M=2.65 F=1.0, 15400 M=2.71 F=1.0] [CALCULATED FROM RHOBED]
DRESWS.OHMM  : DEEP RESISTIVITY [ILDED]
DRHOED.G/C3  : DENSITY CORRECTION FROM DENSITY LOG
DTED  .US/F  : DELTA TIME FROM SONIC LOG
DTWS  .US/F  : DELTA TIME [DTED]
GRDED .GAPI  : GAMMA RAY FROM DENSITY LOG
GRRED .GAPI  : GAMMA RAY FROM RESISTIVITY LOG
GRWS  .GAPI  : GAMMA RAY [GRDED]
ILDED .OHMM  : INDUCTION LOG DEEP RESISTIVITY
ILMED .OHMM  : INDUCTION LOG MEDIUM RESISTIVITY
MRESWS.OHMM  : MEDIUM RESISTIVITY [ILMED]
NPHIED.V/V   : NEUTRON POROSITY 3434 LIMESTONE 11632 SANDSTONE 15400 LIMESTONE FROM DENSITY LOG
NPOWS .V/V   : NEUTRON POROSITY 3434 LIMESTONE 11632 SANDSTONE 15400 LIMESTONE [NPHIED]
RHOBED.G/C3  : BULK DENSITY FROM DENSITY LOG
SFLED .OHMM  : SPHERICALLY FOCUSED LOG RESISTIVITY
SPED  .MV    : SPONTANEOUS POTENTIAL [BASELINE 0 MV] FROM RESISTIVITY LOG
SPWS  .MV    : SPONTANEOUS POTENTIAL [SPED]
SRESWS.OHMM  : SHALLOW RESISTIVITY [SFLED]
~Params ----------------------------------------------------
EKB .F                 368.0 : Kelly bushing
EGL .F                 346.0 : Ground level
EDF .F                 367.0 : Drilling floor
EPD .F                 346.0 : Permanent datum
TD  .F               16600.0 : Total depth
DATE.            01-OCT-1979 : DATE LOGGED
CLNT.                A2DTECH : CLIENT CODE
SL  . 100' FSEL & 3100' FNEL : SURFACE LOCATION
PD  .                     GL : PERMANENT DATUM
LMF .                     KB : LOG MEASURED FROM
DMF .                     KB : DRILLING MEASURED FROM
DAPD.F                    22 : FEET ABOVE PERMANENT DATUM
DD  .F                 16600 : DEPTH DRILLER
DL  .F                 16600 : DEPTH LOGGER
BLI .F                 16593 : BOTTOM LOG INTERVAL
TLI .F                 10338 : TOP LOG INTERVAL
CS1 .IN                9.625 : CASING SIZE
CBD1.        9.625" @ 10324' : CASING DRILLER 1
CBL1.F                 10338 : CASING LOGGER 1
BS1 .IN                  8.5 : BIT SIZE
BSD1.F                 16600 : DEPTH DRILLED WITH BIT1
DFT .             SPER XP-20 : TYPE FLUID IN HOLE
DFD .                   12.2 : DENSITY
DFV .                     47 : VISCOSITY
DFPH.                   10.5 : PH
DFL .                    5.3 : FLUID LOSS
MSS .                    PIT : SOURCE OF SAMPLE
RMS .OHMM               0.21 : RM
RMF .OHMM               0.16 : RMF
RMC .OHMM               0.32 : RMC
MFSS.                   CALC : SOURCE RMF.
MCSS.                   CALC : SOURCE RMC.
RMB .OHMM               0.04 : RM. AT BHT
BHT .F                   334 : BHT.
TCS .HRS                 600 : TIME CIRC. STOPPED
TLAB.HRS                 530 : TIME LOGGER AT BOTTOM
LUN .                   8101 : LOGGING UNIT NUMBER
LUL .                BRENHAM : LOGGING UNIT LOCATION
ENGI.                   EAST : RECORDED BY
WITN.           LANNY CRAMER : WITNESSED BY
ORIG.               5" PRINT : ORIGIN OF DATA
UWI .         42041304470000 : UNIQUE WELL ID
DICO. A2D TECHNOLOGIES, INC. : DIGITIZING COMPANY
~Other -----------------------------------------------------
~ASCII -----------------------------------------------------
# ...
 14250.00000    9.28000    9.28000   36.43520    0.02800    2.59700    0.03210   27.44600    0.02800   57.59150   57.59150  147.64900    -999.25  147.64900   27.44600   72.81800   72.81800    0.16800    0.16800    2.59700   81.57100  -13.84420  -13.84420   81.57100
 14300.00000    9.23800    9.23800   36.80260    0.00600    2.62700    0.01390   27.17200    0.00600   58.29700   58.29700   59.42700    -999.25   59.42700   27.17200   29.35700   29.35700    0.02600    0.02600    2.62700   77.22400  -10.13330  -10.13330   77.22400
 14350.00000    9.32100    9.32100   38.39360   -0.01000    2.64000    0.00610   26.04600   -0.01000   56.10950   56.10950  105.96900    -999.25  105.96900   26.04600   36.20600   36.20600    0.13200    0.13200    2.64000   62.14600   -8.63640   -8.63640   62.14600
 14400.00000    9.51900    9.51900  323.41530   -0.00400    2.70300   -0.03210    3.09200   -0.00400   81.04150   81.04150   96.52000    -999.25   96.52000    3.09200    2.99500    2.99500    0.11900    0.11900    2.70300    5.45000   -7.08750   -7.08750    5.45000
 14450.00000    9.87800    9.87800  103.28440    0.03300    2.65500   -0.00300    9.68200    0.03300   63.90650   63.90650  121.27100    -999.25  121.27100    9.68200    8.48000    8.48000    0.24200    0.24200    2.65500   14.80100   -6.82850   -6.82850   14.80100
 14500.00000    9.50900    9.50900  149.25370    0.00500    2.67700   -0.01640    6.70000    0.00500   74.73750   74.73750   70.07000    -999.25   70.07000    6.70000    6.22800    6.22800    0.01400    0.01400    2.67700    7.83300   -6.38660   -6.38660    7.83300
 14550.00000    9.11100    9.11100   31.23440   -0.00400    2.60100    0.02970   32.01600   -0.00400   58.20950   58.20950   59.09700    -999.25   59.09700   32.01600   31.04100   31.04100    0.04400    0.04400    2.60100   55.46800  -10.99470  -10.99470   55.46800
 14600.00000    9.13900    9.13900   41.90760   -0.00700    2.53000    0.07270   23.86200   -0.00700   55.90700   55.90700   35.33400    -999.25   35.33400   23.86200   18.86400   18.86400    0.03300    0.03300    2.53000   47.38700   -3.54080   -3.54080   47.38700
 14650.00000    9.32100    9.32100  175.22340    0.01800    2.64200    0.00480    5.70700    0.01800   73.74650   73.74650   75.88500    -999.25   75.88500    5.70700    6.16100    6.16100    0.19500    0.19500    2.64200    5.94000   -4.18090   -4.18090    5.94000
 14700.00000    9.11900    9.11900  204.24840    0.00700    2.66500   -0.00910    4.89600    0.00700   70.91550   70.91550   65.38300    -999.25   65.38300    4.89600    4.60000    4.60000    0.09300    0.09300    2.66500    7.50900   -2.92900   -2.92900    7.50900
 14750.00000    9.27300    9.27300  125.70710   -0.00100    2.60300    0.02850    7.95500   -0.00100   63.04850   63.04850   89.24200    -999.25   89.24200    7.95500    9.29000    9.29000    0.08500    0.08500    2.60300   12.45200   -5.58900   -5.58900   12.45200
 14800.00000    9.23600    9.23600   86.46030    0.00100    2.59600    0.03270   11.56600    0.00100   59.57700   59.57700   84.24000    -999.25   84.24000   11.56600    9.19300    9.19300    0.09200    0.09200    2.59600   20.84500   -3.77210   -3.77210   20.84500
 14850.00000    9.29700    9.29700   95.44720    0.01700    2.57800    0.04360   10.47700    0.01700   70.17850   70.17850   67.57400    -999.25   67.57400   10.47700   10.03800   10.03800    0.42600    0.42600    2.57800   10.71400   -5.77220   -5.77220   10.71400
 14900.00000    9.53500    9.53500  153.28020   -0.01000    2.62200    0.01700    6.52400   -0.01000   70.07950   70.07950   84.91700    -999.25   84.91700    6.52400    6.13100    6.13100    0.13900    0.13900    2.62200   13.07400   -6.15230   -6.15230   13.07400
 14950.00000    9.43200    9.43200  124.56400    0.00100    2.63500    0.00910    8.02800    0.00100   61.65350   61.65350   65.14400    -999.25   65.14400    8.02800    8.48000    8.48000    0.07300    0.07300    2.63500   14.67000   -2.07440   -2.07440   14.67000
 15000.00000    9.72000    9.72000  190.91260   -0.00600    2.63300    0.01030    5.23800   -0.00600   70.47550   70.47550  129.00500    -999.25  129.00500    5.23800    4.92100    4.92100    0.20800    0.20800    2.63300    8.92200   -3.04250   -3.04250    8.92200
 15050.00000    9.39600    9.39600   59.79430    0.00300    2.66600   -0.00970   16.72400    0.00300   56.86250   56.86250  127.40800    -999.25  127.40800   16.72400   16.26500   16.26500    0.15600    0.15600    2.66600   39.55400   -4.17100   -4.17100   39.55400
 15100.00000    9.73300    9.73300   65.18900    0.00000    2.65700   -0.00420   15.34000    0.00000   59.65650   59.65650  131.77700    -999.25  131.77700   15.34000   16.80900   16.80900    0.16300    0.16300    2.65700   51.68000   -5.99500   -5.99500   51.68000
 15150.00000    9.75500    9.75500  125.14080   -0.00300    2.67100   -0.01270    7.99100   -0.00300   63.88950   63.88950  134.17900    -999.25  134.17900    7.99100    7.36700    7.36700    0.20500    0.20500    2.67100   11.30100   -4.97690   -4.97690   11.30100
 15200.00000    9.13800    9.13800  120.10570    0.00600    2.73000   -0.04850    8.32600    0.00600   68.19600   68.19600   91.95500    -999.25   91.95500    8.32600    7.34300    7.34300    0.05500    0.05500    2.73000   12.59400   -6.07890   -6.07890   12.59400
 15250.00000    9.41700    9.41700   74.95690   -0.01000    2.68100   -0.01880   13.34100   -0.01000   57.98800   57.98800  113.55800    -999.25  113.55800   13.34100   18.59200   18.59200    0.19500    0.19500    2.68100   26.24900   -6.61880   -6.61880   26.24900
 15300.00000    9.35000    9.35000  141.38270   -0.00100    2.72000   -0.04240    7.07300   -0.00100   68.21450   68.21450   92.28300    -999.25   92.28300    7.07300    5.54700    5.54700    0.05600    0.05600    2.72000   10.59900   -5.06980   -5.06980   10.59900
 15350.00000    9.17800    9.17800  116.02270   -0.00500    2.63700    0.00790    8.61900   -0.00500   63.97900   63.97900   97.47200    -999.25   97.47200    8.61900    8.36300    8.36300    0.10100    0.10100    2.63700   15.20900   -5.88270   -5.88270   15.20900
 15400.00000    9.33700    9.33700  129.41630   -0.00900    2.64700    0.00180    7.72700   -0.00900   68.16300   68.16300   90.50900    -999.25   90.50900    7.72700    7.04600    7.04600    0.15700    0.15700    2.64700   12.69600   -5.79370   -5.79370   12.69600
 15450.00000    9.33700    9.33700   91.33250   -0.00800    2.63300    0.04500   10.94900   -0.00800   63.41250   63.41250  107.73900    -999.25  107.73900   10.94900   11.32000   11.32000    0.11300    0.11300    2.63300   27.27800   -5.45760   -5.45760   27.27800
 15500.00000    9.10600    9.10600   67.61330   -0.00400    2.70400    0.00350   14.79000   -0.00400   57.36750   57.36750  123.85400    -999.25  123.85400   14.79000   21.32000   21.32000    0.11300    0.11300    2.70400   47.83100   -8.08760   -8.08760   47.83100
 15550.00000    9.43200    9.43200   46.26420   -0.00400    2.65500    0.03220   21.61500   -0.00400   54.86450   54.86450  121.22100    -999.25  121.22100   21.61500   16.37500   16.37500    0.11700    0.11700    2.65500   49.38700  -10.92350  -10.92350   49.38700
 15600.00000    9.34100    9.34100  117.91060   -0.00900    2.70500    0.00290    8.48100   -0.00900   68.59250   68.59250   35.61700    -999.25   35.61700    8.48100    5.96800    5.96800    0.00300    0.00300    2.70500   20.98300  -19.50250  -19.50250   20.98300
 15650.00000    9.19500    9.19500   22.80550   -0.00500    2.54400    0.09710   43.84900   -0.00500   52.06100   52.06100   22.14100    -999.25   22.14100   43.84900   18.59200   18.59200    0.02000    0.02000    2.54400   55.77100  -56.09240  -56.09240   55.77100
 15700.00000    9.30200    9.30200    2.50420   -0.00700    2.71800   -0.00470  399.32600   -0.00700   48.60950   48.60950   21.60600    -999.25   21.60600  399.32600   32.44400   32.44400   -0.00700   -0.00700    2.71800 1725.30800  -47.81740  -47.81740 1725.30800
 15750.00000    9.18200    9.18200    5.85270   -0.00300    2.71200   -0.00120  170.86200   -0.00300   49.14750   49.14750   22.26300    -999.25   22.26300  170.86200   48.48100   48.48100   -0.00700   -0.00700    2.71200 1394.56700  -46.78730  -46.78730 1394.56700
