~Version ---------------------------------------------------
VERS. 2.0 : CWLS log ASCII Standard -VERSION 2.0
WRAP. YES : MULTIPLE LINES PER DEPTH STEP
~Well ------------------------------------------------------
STRT.FT                  300.0 : START DEPTH
STOP.FT                18600.0 : STOP DEPTH
STEP.FT               50.00000 : STEP LENGTH
NULL.                  -999.25 : NULL VALUE
COMP.        SHELL OIL COMPANY : COMPANY
WELL. PAWELEK BEN A ET AL A #1 : WELL
FLD .    PERSON AREA (WILDCAT) : FIELD
LOC .                          : LOCATION
CNTY.                   KARNES : COUNTY
STAT.                    TEXAS : STATE
CTRY. UNITED STATES OF AMERICA : COUNTRY
SRVC.             Schlumberger : SERVICE COMPANY
DATE.              22-May-1978 : LOGDATE
API .           42255305980000 : API NUMBER
UWI .           42255305980000 : UNIQUE WELL ID
SLAT.WGS84       29.0241796548 : SURFACE LATITUDE
SLON.WGS84      -97.8796797249 : SURFACE LONGITUDE
~Curve Information -----------------------------------------
DEPT    .FT    : DEPTH FEET
CALDED  .IN    : CALIPER FROM DENSITY LOG [DEP ADJ TO GRSED]
CALMED  .IN    : CALIPER FROM MICROLOG [DEP ADJ TO SFLED]
CALSED  .IN    : CALIPER FROM SONIC LOG
CALWS   .IN    : CALIPER [10 CALDED 4845.5 CALMED 4849 CALDED 17451 CALSED 17577 CALDED]
CONDWS  .MMHO  : CONDUCTIVITY [1000/DRESWS]
DCORWS  .G/C3  : DENSITY CORRECTION [DRHOED]
DENWS   .G/C3  : BULK DENSITY [M=2.71 F=1.0] [RHOBED]
DPHILSED.V/V   : DENSITY POROSITY [M=2.71 F=1.0] FROM DENSITY LOG [DEP ADJ TO GRSED/RHOBED]
DPHISSED.V/V   : DENSITY POROSITY [M=2.65 F=1.0] FROM DENSITY LOG [DEP ADJ TO GRSED/RHOBED]
DPOLSWS .V/V   : DENSITY POROSITY [M=2.71 F=1.0] [CAL FR DENWS]
DRESWS  .OHMM  : DEEP RESISTIVITY [ILDED]
DRHOED  .G/C3  : DENSITY CORRECTION FROM DENSITY LOG [DEP ADJ TO GRSED]
DTED    .US/F  : DELTA TIME FROM SONIC LOG
DTWS    .US/F  : DELTA TIME [DTED]
GRDED   .GAPI  : GAMMA RAY FROM DENSITY LOG
GRRED   .GAPI  : GAMMA RAY FROM RESISTIVITY LOG [DEP ADJ TO GRSED]
GRSED   .GAPI  : GAMMA RAY FROM SONIC LOG
GRWS    .GAPI  : GAMMA RAY [70 GRDED 4800.5 GRDEDNRM [0-100 TO 0-140]4844.5 GRSED 4853.5 GRDED 12903.5 GRSED 12939.5 GRDED 12962 GRSED 17526 GRDED 17550 GRRED 18607 GRDED]
ILDED   .OHMM  : INDUCTION LOG DEEP RESISTIVITY
ILMED   .OHMM  : INDUCTION LOG MEDIUM RESISTIVITY
MRESWS  .OHMM  : MEDIUM RESISTIVITY [ILMED]
NPHILSED.V/V   : NEUTRON POROSITY LISTONE FROM DENSITY LOG [DEP ADJ TO GRSED/RHOBED]
NPHISSED.V/V   : NEUTRON POROSITY SANDSTONE FROM DENSITY LOG [DEP ADJ TO GRSED/RHOBED]
NPOLSWS .V/V   : NEUTRON POROSITY LIMESTONE [10 NPOLSCAL 9446 NPHILSED] [NPHISSED IS CONVERTED TO NPOLSCAL USING POWERLOG MODULE]
PROXED  .OHMM  : PROXIMITY RESISTIVITY FROM MICROLOG [DEP ADJ TO SFLED]
RHOBED  .G/C3  : BULK DENSITY FROM DENSITY LOG [DEP ADJ TO GRSED]
SFLED   .OHMM  : SPHERICALLY FOCUSED LOG RESISTIVITY
SPRED   .MV    : SPONTANEOUS POTENTIAL FROM RESISTIVITY LOG [SHIFTS ARE REMOVED]
SPWS    .MV    : SPONTANEOUS POTENTIAL [BASELINE 0 MV] [SPRED][PL. USE W/ RESERVATIONS]
SRESWS  .OHMM  : SHALLOW RESISTIVITY [SFLED]
TENDED  .LBF   : TENSION FROM DENSITY LOG [DEP ADJ TO GRSED]
~Params ----------------------------------------------------
PD  .                     GL : PERMANENT DATUM
EPD .FT                  335 : ELEVATION PERMANENT DATUM
LMF .                     KB : LOG MEASURED FROM
DAPD.FT                   28 : FEET ABOVE PERMANENT DATUM
DMF .                     KB : DRILLING MEASURED FROM
EKB .FT                  363 : KELLY BUSHING
EDF .FT                  362 : DRILLING FLOOR
EGL .FT                  335 : GROUND LEVEL
DATE.               05/22/78 : RUN DATE
RUN .                      4 : RUN NUMBER
DD  .FT                18626 : DEPTH DRILLER
DL  .FT                18642 : DEPTH LOGGER
BLI .FT                18637 : BOTTOM LOG INTERVAL
TLI .FT                17550 : TOP LOG INTERVAL
CS  .IN                    7 : CASING SIZE
CBD .FT                17544 : CASING BOTTOM DRILLER
CBL .FT                17550 : CASING BOTTOM LOGGER
BS  .IN                    6 : BIT SIZE
BSD .FT                18626 : BIT SIZE AT DEPTH
DFT .               INVERMUL : DRILLING FLUID TYPE
DFD .                   17.6 : DRILLING FLUID DENSITY
DFV .                     70 : DRILLING FLUID VISCOSITY
DFL .                      2 : DRILLING FLUID LOSS
LUN .                   7799 : LOGGING UNIT NUMBER
LUL .                  PLEAS : LOGGING UNIT LOCATION
ENGI.             TURBEVILLE : RECORDING ENGINEER
WITN.                JARRELL : WITNESSED BY
CLNT.                A2DTECH : CLIENT CODE
ORIG.            2" 5" PRINT : ORIGIN OF DATA
UWI .         42255305980000 : UNIQUE WELL ID
DICO. A2D Technologies, Inc. : DIGITIZING COMPANY
~Other -----------------------------------------------------
~ASCII -----------------------------------------------------
# ...
 9500.00000   13.70790   12.76820   10.55190   13.70790  339.07500    0.05270    2.47900    0.13970    -999.25    0.13510    2.94920    0.05270   80.44100   80.44100   75.76580    -999.25   78.35790   75.76580    2.94920    3.13410    3.13410    0.21950    -999.25    0.21950    4.23400    2.47900    3.97180  -51.80850  -12.38660    3.97180 9610.75000
 9550.00000   13.90030   12.97830   10.57020   13.90030  364.25890    0.06600    2.50210    0.12510    -999.25    0.12160    2.74530    0.06600   79.08880   79.08880   80.21750    -999.25   85.80260   80.21750    2.74530    2.80390    2.80390    0.21820    -999.25    0.21820    3.73570    2.50210    3.53770  -50.25890  -10.95210    3.53770 9568.23050
 9600.00000   14.64460   13.78920   11.07870   14.64460  479.13370    0.09200    2.42070    0.17360    -999.25    0.16920    2.08710    0.09200   86.53950   86.53950   90.16400    -999.25   97.21770   90.16400    2.08710    2.13010    2.13010    0.29200    -999.25    0.29200    2.11670    2.42070    2.74310  -47.55320   -8.36160    2.74310 9551.56350
 9650.00000   14.26850   13.56980   10.94710   14.26850  391.91090    0.11420    2.48900    0.13150    -999.25    0.12920    2.55160    0.11420   82.52880   82.52880   81.16270    -999.25   86.68280   81.16270    2.55160    2.60860    2.60860    0.27340    -999.25    0.27340    2.70800    2.48900    3.34540  -46.62550   -7.54900    3.34540 9515.53220
 9700.00000   14.58800   13.92840   10.89280   14.58800  407.41490    0.09320    2.46920    0.15500    -999.25    0.14080    2.45450    0.09320   82.85700   82.85700   87.26240    -999.25   87.95780   87.26240    2.45450    2.50510    2.50510    0.27880    -999.25    0.27880    3.22880    2.46920    3.16630  -45.24030   -6.27890    3.16630 9500.84960
 9750.00000   15.06630   14.19540   11.04400   15.06630  484.05050    0.13850    2.47190    0.15300    -999.25    0.13920    2.06590    0.13850   83.90730   83.90730   85.18390    -999.25   91.24390   85.18390    2.06590    2.18020    2.18020    0.29450    -999.25    0.29450    2.43880    2.47190    2.76080  -44.29140   -5.44510    2.76080 9536.98050
 9800.00000   14.94210   13.94740   11.03590   14.94210  446.50830    0.13820    2.49240    0.14480    -999.25    0.12730    2.23960    0.13820   81.33710   81.33710   79.70320    -999.25   78.06200   79.70320    2.23960    2.29700    2.29700    0.27980    -999.25    0.27980    2.24480    2.49240    3.03780  -44.15450   -5.42330    3.03780 9684.27440
 9850.00000   13.48900   12.60250   10.48890   13.48900  364.28550    0.05460    2.56750    0.08590    -999.25    0.08330    2.74510    0.05460   78.40240   78.40240   68.12090    -999.25   67.65640   68.12090    2.74510    2.85610    2.85610    0.20850    -999.25    0.20850    4.17360    2.56750    3.88780  -44.24560   -5.62950    3.88780 9641.05080
 9900.00000   12.99150   12.86740   10.50470   12.99150  173.67440    0.04890    2.53760    0.10580    -999.25    0.10080    5.75790    0.04890   73.04700   73.04700   53.35420    -999.25   62.03190   53.35420    5.75790    6.33270    6.33270    0.19110    -999.25    0.19110    7.80960    2.53760    7.59630  -43.47920   -4.97820    7.59630 9661.04790
 9950.00000   13.00930   12.96290   10.48760   13.00930   99.58180    0.03260    2.51780    0.11380    -999.25    0.11240   10.04200    0.03260   68.71100   68.71100   39.22730    -999.25   43.00850   39.22730   10.04200   11.36230   11.36230    0.14630    -999.25    0.14630   17.73390    2.51780   18.65770  -42.99950   -4.61360   18.65770 9632.21390
 10000.00000   13.00750   13.01340   10.48950   13.00750  128.70010    0.01150    2.52070    0.11600    -999.25    0.11070    7.77000    0.01150   67.72030   67.72030   35.94640    -999.25   38.92540   35.94640    7.77000    8.07120    8.07120    0.12630    -999.25    0.12630   12.98200    2.52070   12.52380  -42.19120   -3.92050   12.52380 9601.13180
 10050.00000   12.45450   13.00870   10.54820   12.45450  211.72530    0.06090    2.57560    0.07230    -999.25    0.07860    4.72310    0.06090   73.83020   73.83020   56.94910    -999.25   71.34260   56.94910    4.72310    5.26730    5.26730    0.16650    -999.25    0.16650   11.96820    2.57560    6.97500  -40.71060   -2.55500    6.97500 9517.53220
 10100.00000   12.47300   13.19490   10.49940   12.47300   99.45990    0.02250    2.56500    0.07980    -999.25    0.08480   10.05430    0.02250   59.98080   59.98080   24.72710    -999.25   29.52770   24.72710   10.05430   13.23250   13.23250    0.11370    -999.25    0.11370   17.26950    2.56500   26.90300  -47.79850   -9.29250   26.90300 9508.08200
 10150.00000   12.50570   13.25470   10.52100   12.50570   67.42720    0.03360    2.59990    0.07210    -999.25    0.06440   14.83080    0.03360   61.75040   61.75040   24.48620    -999.25   23.95240   24.48620   14.83080   17.70830   17.70830    0.12760    -999.25    0.12760   45.09930    2.59990   39.25150  -54.07920  -14.84210   39.25150 9449.87700
 10200.00000   12.54380   13.29800   10.54660   12.54380   78.34170   -0.00220    2.60660    0.06380    -999.25    0.06050   12.76460   -0.00220   62.26890   62.26890   31.76170    -999.25   29.38080   31.76170   12.76460   14.04870   14.04870    0.12140    -999.25    0.12140   35.91020    2.60660   27.62720  -52.87800  -12.90980   27.62720 9404.46390
 10250.00000   12.73780   10.18540   10.60100   12.73780   77.53980    0.08000    2.60500    0.06320    -999.25    0.06140   12.89660    0.08000   62.82400   62.82400   62.50780    -999.25   66.63650   62.50780   12.89660   13.75460   13.75460    0.16350    -999.25    0.16350   20.82630    2.60500   30.36890  -50.41010   -9.71080   30.36890 9772.07710
 10300.00000   12.85750   10.18910   10.45220   12.85750  121.34300    0.02090    2.54350    0.09830    -999.25    0.09740    8.24110    0.02090   75.89640   75.89640   46.72400    -999.25   50.66270   46.72400    8.24110    8.40950    8.40950    0.21330    -999.25    0.21330    9.77280    2.54350   13.70030  -48.21220   -6.78180   13.70030 9701.25100
 10350.00000   12.90710   10.17890   10.50870   12.90710   64.53320    0.01120    2.47520    0.13680    -999.25    0.13730   15.49590    0.01120   78.20330   78.20330   69.18340    -999.25   69.61510   69.18340   15.49590   17.26990   17.26990    0.24040    -999.25    0.24040   18.87250    2.47520   48.16370  -50.19020   -8.02860   48.16370 9696.39550
 10400.00000   12.96420   10.24870   10.54510   12.96420   69.67820    0.01740    2.48570    0.13430    -999.25    0.13120   14.35170    0.01740   74.87720   74.87720   69.98270    -999.25   62.98670   69.98270   14.35170   15.11120   15.11120    0.24330    -999.25    0.24330   14.76190    2.48570   44.72540  -48.22680   -5.33410   44.72540 9660.77540
 10450.00000   13.09710   10.21690   10.60640   13.09710   67.33280    0.00760    2.62680    0.05080    -999.25    0.04870   14.85160    0.00760   56.49640   56.49640   21.96940    -999.25   23.46420   21.96940   14.85160   16.24840   16.24840    0.07150    -999.25    0.07150   13.34150    2.62680   46.91580  -47.46600   -3.91280   46.91580 9630.14550
 10500.00000   13.49210   10.21210   10.63550   13.49210   47.69170    0.01920    2.67390    0.02680    -999.25    0.02110   20.96800    0.01920   55.48340   55.48340   18.19140    -999.25   20.53930   18.19140   20.96800   22.23300   22.23300    0.04750    -999.25    0.04750    7.94120    2.67390  112.58340  -52.99300   -9.21270  112.58340 9600.08010
 10550.00000   14.10570   10.28500   11.07400   14.10570  202.59320    0.02700    2.67290    0.02740    -999.25    0.02170    4.93600    0.02700   61.18800   61.18800   44.21550    -999.25   47.18330   44.21550    4.93600    5.16430    5.16430    0.18110    -999.25    0.18110    2.23070    2.67290    7.86210  -51.54800   -7.54060    7.86210 9576.90530
 10600.00000   13.54430   10.22790   10.85290   13.54430   49.01700    0.01810    2.68440    0.01760    -999.25    0.01500   20.40110    0.01810   53.46640   53.46640   23.21930    -999.25   26.45600   23.21930   20.40110   20.58690   20.58690    0.03850    -999.25    0.03850    4.61020    2.68440  110.34090  -60.00230  -15.76780  110.34090 9552.97070
