~Version ---------------------------------------------------
VERS.      2.0 : CWLS log ASCII Standard -VERSION 2.0
WRAP.      YES : Multiple lines per depth step
CREA. 02/15/13 : LAS Creation Date
~Well ------------------------------------------------------
STRT.FT                 1550.0 : START DEPTH
STOP.FT                 9650.0 : STOP DEPTH
STEP.FT               50.00000 : STEP LENGTH
NULL.                  -999.25 : NULL VALUE
COMP.     MARATHON OIL COMPANY : COMPANY
WELL.              NEWELL #A-2 : WELL
FLD .               BEAR GRASS : FIELD
LOC .                          : LOCATION
CNTY.                     LEON : COUNTY
STAT.                    TEXAS : STATE
CTRY. UNITED STATES OF AMERICA : COUNTRY
SRVC.                   Reeves : SERVICE COMPANY
DATE.              02-Nov-1999 : LOGDATE
API .           42289313060000 : API NUMBER
UWI .           42289313060000 : UNIQUE WELL ID
SLAT.WGS84       31.3636770246 : SURFACE LATITUDE
SLON.WGS84      -96.2532956557 : SURFACE LONGITUDE
~Curve Information -----------------------------------------
DEPT    .FT    : DEPTH FEET
CALWS   .IN    : CALIPER [DCALED+BITS]
CONDWS  .MMHO  : CONDUCTIVITY [1000/DRESWS]
DCALED  .IN    : DIFFERENTIAL CALIPER FROM AIT LOG
DCORWS  .G/C3  : DENSITY CORRECTION [DRHOED]
DENWS   .G/C3  : FORMATION BULK DENSITY [CALC FROM DPOWS, M=2.71, F=1.0]
DPHILSED.V/V   : DENSITY POROSITY LIME[M=2.71, F=1.0] FROM DENSITY LOG
DPOWS   .V/V   : DENSITY POROSITY LIME[DPHIED]
DRESWS  .OHMM  : DEEP RESISTIVITY [ILDED]
DRHOED  .G/C3  : DENSITY CORRECTION FROM DENSITY LOG
GRRED   .GAPI  : GAMMA RAY FROM AIT LOG
GRWS    .GAPI  : GAMMA RAY [GRRED]
ILDED   .OHMM  : DEEP INDUCTION RESISTIVITY FROM AIT LOG
ILMED   .OHMM  : MEDIUM  INDUCTION RESISTIVITY FROM AIT LOG
MRESWS  .OHMM  : MEDIUM RESISTIVITY [ILMED]
NPHILSED.V/V   : NEUTRON POROSITY LIME FROM DENSITY LOG
NPOWS   .V/V   : NEUTRON POROSITY LIME  [NPHIED]
PEFED   .B/E   : PHOTOELECTRIC FACTOR FROM DENSITY LOG
PEFWS   .B/E   : PHOTOELECTRIC FACTOR [PEFED]
SFLED   .OHMM  : SHALLOW FOCUSED RESISTIVITY FROM AIT LOG
SPRED   .MV    : SPONTANEOUS POTENTIAL FROM AIT LOG
SPWS    .MV    : SPONTANEOUS POTENTIAL [SPRED]
SRESWS  .OHMM  : SHALLOW RESISTIVITY [SFLED]
~Params ----------------------------------------------------
PD  .                     GL : PERMANENT DATUM
EPD .FT                  525 : ELEVATION PERMANENT DATUM
LMF .                     KB : LOG MEASURED FROM
DAPD.FT                   17 : FEET ABOVE PERMANENT DATUM
DMF .                     KB : DRILLING MEASURED FROM
EKB .FT                  542 : KELLY BUSHING
EDF .FT                  540 : DRILLING FLOOR
EGL .FT                  525 : GROUND LEVEL
DATE.               11/02/99 : RUN DATE
RUN .                      1 : RUN NUMBER
DD  .FT                 9700 : DEPTH DRILLER
DL  .FT                 9705 : DEPTH LOGGER
BLI .FT                 9704 : BOTTOM LOG INTERVAL
TLI .FT                 1514 : TOP LOG INTERVAL
CS  .IN                8.625 : CASING SIZE
CBD .FT                 1515 : CASING BOTTOM DRILLER
CBL .FT                 1514 : CASING BOTTOM LOGGER
BS  .IN                7.875 : BIT SIZE
BSD .FT                 9700 : BIT SIZE AT DEPTH
DFT .                   DISP : DRILLING FLUID TYPE
DFD .                   10.1 : DRILLING FLUID DENSITY
DFV .                     50 : DRILLING FLUID VISCOSITY
DFPH.                    9.1 : DRILLING FLUID PH
DFL .                     10 : DRILLING FLUID LOSS
MSS .               FLOWLINE : MUD SAMPLE SOURCE
RMS .OHMM               1.22 : RESISTIVITY MUD SAMPLE
MST .DEGF                 80 : MUD SAMPLE TEMPERATURE
RMF .OHMM               0.91 : RESISTIVITY MUD FILTRATE SAMPLE
MFST.DEGF                 80 : MUD FILTRATE SAMPLE TEMPERATURE
RMC .OHMM               1.51 : RESISTIVITY MUD CAKE
MCST.DEGF                 80 : MUD CAKE SAMPLE TEMPERATURE
MFSS.                   MEAS : MUD FILTRATE SAMPLE SOURCE
MCSS.                   MEAS : MUD CAKE SAMPLE SOURCE
RMB .OHMM               0.45 : RESISTIVITY MUD AT BHT
TCS .HRS                   6 : TIME CIRCULATED STOPPED
LUN .                  V1049 : LOGGING UNIT NUMBER
LUL .                   KLCR : LOGGING UNIT LOCATION
ENGI.                 LEESON : RECORDING ENGINEER
WITN.                LAMBERT : WITNESSED BY
CLNT.                A2DTECH : CLIENT CODE
ORIG.         1" 2" 5" PRINT : ORIGIN OF DATA
UWI .         42289313060000 : UNIQUE WELL ID
DICO. A2D Technologies, Inc. : DIGITIZING COMPANY
~Other -----------------------------------------------------
TOOL RUN IN COMBINATION:ARRAY INDUCTION/RSFE/PHOTO-DENSITY/NEUTRON/GR LOG
~ASCII -----------------------------------------------------
# ...
 7950.00000   10.51400   65.50500    2.63400    0.01400    2.67580    0.02000    0.02000   15.26600    0.01400   29.28300   29.28300   15.26600   14.98900   14.98900    0.02100    0.02100    4.73300    4.73300   30.61400  -29.60500   -6.81430   30.61400
 8000.00000   11.53000   18.51610    3.65000    0.05400    2.67750    0.01900    0.01900   54.00700    0.05400   40.59200   40.59200   54.00700   43.22300   43.22300    0.02500    0.02500    5.04400    5.04400   62.61000  -33.32100  -11.51060   62.61000
 8050.00000   10.67200   40.42040    2.79200    0.07500    2.66040    0.02900    0.02900   24.74000    0.07500   28.89500   28.89500   24.74000   23.49200   23.49200    0.02000    0.02000    4.65300    4.65300   82.71600  -29.18000   -8.34990   82.71600
 8100.00000   10.35200   20.94200    2.47200    0.01700    2.65360    0.03300    0.03300   47.75100    0.01700   37.60100   37.60100   47.75100   43.35200   43.35200    0.03400    0.03400    4.77700    4.77700   83.13600  -57.79300  -37.94330   83.13600
 8150.00000   11.14400    9.97050    3.26400    0.01000    2.64500    0.03800    0.03800  100.29600    0.01000   31.24400   31.24400  100.29600   81.79700   81.79700    0.01500    0.01500    4.65700    4.65700  141.23300  -48.71900  -29.84960  141.23300
 8200.00000   11.02400    9.84470    3.14400    0.02400    2.71170   -0.00100   -0.00100  101.57700    0.02400   13.37000   13.37000  101.57700   74.40600   74.40600   -0.00100   -0.00100    5.45000    5.45000 2065.12600  -23.52000   -5.75790 2065.12600
 8250.00000   10.62600   41.97980    2.74600    0.01900    2.68090    0.01700    0.01700   23.82100    0.01900   20.20200   20.20200   23.82100   28.02100   28.02100    0.01200    0.01200    4.95400    4.95400  340.13100  -23.15000   -6.94540  340.13100
 8300.00000   11.50700   23.84070    3.62700    0.05300    2.63990    0.04100    0.04100   41.94500    0.05300   41.37600   41.37600   41.94500   40.08800   40.08800    0.03600    0.03600    4.76400    4.76400   41.03500  -55.75000  -41.10300   41.03500
 8350.00000   10.42700  100.97950    2.54700    0.10600    2.54580    0.09600    0.09600    9.90300    0.10600   16.25300   16.25300    9.90300   12.45300   12.45300    0.04600    0.04600    4.83000    4.83000   49.14800 -178.85500 -165.76550   49.14800
 8400.00000   10.54600   11.93180    2.66600    0.03900    2.68950    0.01200    0.01200   83.81000    0.03900   40.26300   40.26300   83.81000   59.95900   59.95900    0.01300    0.01300    4.65800    4.65800   76.61700  -84.60400  -73.07200   76.61700
 8450.00000   10.35300  105.11930    2.47300    0.02700    2.69970    0.00600    0.00600    9.51300    0.02700   35.34900   35.34900    9.51300    9.05200    9.05200    0.07300    0.07300    4.28400    4.28400   12.23200  -17.30000   -7.32560   12.23200
 8500.00000   10.45900   19.13770    2.57900    0.03100    2.65700    0.03100    0.03100   52.25300    0.03100   46.74400   46.74400   52.25300   41.96700   41.96700    0.01500    0.01500    4.97500    4.97500   54.13300  -27.17900   -8.59490   54.13300
 8550.00000    9.91000   40.63550    2.03000    0.01500    2.67750    0.01900    0.01900   24.60900    0.01500   55.48200   55.48200   24.60900   21.61900   21.61900    0.03700    0.03700    4.62000    4.62000   24.64800  -14.03000   -3.74450   24.64800
 8600.00000   12.12000  307.31410    4.24000    0.20000    2.19870    0.29900    0.29900    3.25400    0.20000   76.58800   76.58800    3.25400    3.33200    3.33200    0.28100    0.28100    3.34400    3.34400    4.35600  -24.49800  -11.89520    4.35600
 8650.00000   10.79200  111.81930    2.91200    0.04300    2.65530    0.03200    0.03200    8.94300    0.04300   42.53100   42.53100    8.94300    8.96400    8.96400    0.09700    0.09700    4.60900    4.60900   18.91100  -16.19200   -2.95870   18.91100
 8700.00000   12.38700  221.97560    4.50700    0.09500    2.40390    0.17900    0.17900    4.50500    0.09500   78.83100   78.83100    4.50500    4.50900    4.50900    0.27600    0.27600    3.72500    3.72500    5.11400  -14.08500   -3.44290    5.11400
 8750.00000   13.91000  325.62680    6.03000    0.14900    2.32870    0.22300    0.22300    3.07100    0.14900   86.10300   86.10300    3.07100    3.02600    3.02600    -999.25    -999.25    3.54700    3.54700    3.70300  -20.21700   -6.64680    3.70300
 8800.00000    9.72300   70.48210    1.84300    0.04600    2.61420    0.05600    0.05600   14.18800    0.04600   56.33000   56.33000   14.18800   14.01300   14.01300    0.08600    0.08600    4.53500    4.53500   10.88700  -15.69200   -8.53050   10.88700
 8850.00000    9.62100  139.45060    1.74100    0.07000    2.45180    0.15100    0.15100    7.17100    0.07000   37.50600   37.50600    7.17100    6.60000    6.60000    0.08800    0.08800    4.26200    4.26200   33.85800  -23.68600  -17.43480   33.85800
 8900.00000   13.31600  325.20330    5.43600    0.12200    2.19870    0.29900    0.29900    3.07500    0.12200   69.60600   69.60600    3.07500    3.02000    3.02000    0.29800    0.29800    3.14900    3.14900    4.50900  -27.43300  -16.82390    4.50900
 8950.00000   10.27400  110.38750    2.39400    0.03300    2.68610    0.01400    0.01400    9.05900    0.03300   64.04500   64.04500    9.05900   11.96100   11.96100    0.07300    0.07300    4.22800    4.22800    9.39700  -17.54800    0.03380    9.39700
 9000.00000   10.90600   14.91000    3.02600    0.02400    2.63480    0.04400    0.04400   67.06900    0.02400   50.80000   50.80000   67.06900   50.69600   50.69600    0.01300    0.01300    4.38200    4.38200   89.78900  -29.64900   -5.25310   89.78900
 9050.00000    9.91000   17.98850    2.03000    0.01700    2.61250    0.05700    0.05700   55.59100    0.01700   33.60700   33.60700   55.59100   43.35200   43.35200    0.00800    0.00800    5.02700    5.02700   46.85000 -108.54300  -86.61810   46.85000
 9100.00000   10.27900    6.64090    2.39900    0.09400    2.63480    0.04400    0.04400  150.58100    0.09400   39.53500   39.53500  150.58100   94.07200   94.07200    0.00400    0.00400    4.49700    4.49700  215.19800  -81.21100  -61.75710  215.19800
 9150.00000    9.67200   17.09990    1.79200    0.01400    2.68430    0.01500    0.01500   58.48000    0.01400   38.71300   38.71300   58.48000   46.56400   46.56400    0.00500    0.00500    4.49800    4.49800   59.61100  -83.68500  -66.70210   59.61100
 9200.00000    9.65700    7.55940    1.77700    0.02300    2.69460    0.00900    0.00900  132.28600    0.02300   30.54800   30.54800  132.28600  105.71500  105.71500    0.00400    0.00400    4.85000    4.85000  268.08100  -37.78400  -19.18530  268.08100
 9250.00000    9.95400  108.34240    2.07400    0.02600    2.69290    0.01000    0.01000    9.23000    0.02600   37.87500   37.87500    9.23000   10.56900   10.56900    0.05600    0.05600    4.44900    4.44900   24.03300  -35.72000  -21.45020   24.03300
 9300.00000    9.54200  149.45450    1.66200    0.03800    2.63130    0.04600    0.04600    6.69100    0.03800   95.56000   95.56000    6.69100    5.90900    5.90900    0.12200    0.12200    3.33800    3.33800    6.33900  -11.56600   -3.09410    6.33900
 9350.00000    8.86100  217.39130    0.98100    0.04000    2.56810    0.08300    0.08300    4.60000    0.04000   58.24700   58.24700    4.60000    4.59100    4.59100    0.05300    0.05300    3.06000    3.06000    6.22400  -70.07400  -64.32840    6.22400
 9400.00000    8.96800  226.14200    1.08800    0.03600    2.61250    0.05700    0.05700    4.42200    0.03600   99.36400   99.36400    4.42200    4.43600    4.43600    0.09600    0.09600    3.22500    3.22500    5.76900  -22.95300  -18.27070    5.76900
 9450.00000    9.02600  234.08240    1.14600    0.05200    2.61080    0.05800    0.05800    4.27200    0.05200  113.05000  113.05000    4.27200    4.12000    4.12000    0.08500    0.08500    3.03500    3.03500    5.35500  -28.45200  -23.76970    5.35500
 9500.00000    8.79500  192.75250    0.91500    0.04800    2.60400    0.06200    0.06200    5.18800    0.04800   77.50100   77.50100    5.18800    5.74200    5.74200    0.04700    0.04700    2.97800    2.97800    8.87300  -26.24700  -21.56470    8.87300
