~Version ---------------------------------------------------
VERS. 2.0 : CWLS log ASCII Standard -VERSION 2.0
WRAP.  NO : One line per depth step
~Well ------------------------------------------------------
STRT.FT                          300.0 : START DEPTH
STOP.FT                        14400.0 : STOP DEPTH
STEP.FT                       50.00000 : STEP LENGTH
NULL.                          -999.25 : NULL VALUE
COMP.    AMERADA PETROLEUM CORPORATION : COMPANY
WELL.                MABEL GRIMES B #1 : WELL
FLD .               LOWE RANCH EDWARDS : FIELD
LOC .                                  : LOCATION
CNTY.                        MC MULLEN : COUNTY
STAT.                            TEXAS : STATE
CTRY.         UNITED STATES OF AMERICA : COUNTRY
SRVC. Schlumberger Well Surveying Corp : SERVICE COMPANY
DATE.                      20-Feb-1958 : LOGDATE
API .                   42311013640000 : API NUMBER
UWI .                   42311013640000 : UNIQUE WELL ID
SLAT.WGS84               28.3207374348 : SURFACE LATITUDE
SLON.WGS84              -98.6948976176 : SURFACE LONGITUDE
~Curve Information -----------------------------------------
DEPT  .FT    : DEPTH
ASNED .OHMM  : AMPLIFIED SHORT NORMAL 16 IN.
CALMED.IN    : CALIPER FROM MICRO LOG (ADJ TO RES.)
CALWS .IN    : CALIPER (CALMED)
CILDED.MMHO  : CONDUCTIVITY FROM LOG
CONDWS.MMHO  : CONDUCTIVITY (1000/DRESws)
DRESWS.OHMM  : DEEP RESISTIVITY (LNED/ILDED @ 5122) (IF DRESws<1, THEN 1000/CILDED)
GRNED .CU    : GAMMA RAY FROM NEUTRON LOG (ADJ TO RES.)
GRWS  .CU    : GAMMA RAY (GRNED)
ILDED .OHMM  : DEEP INDUCTION RESISTIVITY
LNED  .OHMM  : LONG NORMAL 64 IN.
LT18ED.OHMM  : LATERAL
NEUTED.CU    : NEUTRON FROM GAMMA RAY NEUTRON LOG (ADJ TO RES.)
NEUTWS.CU    : NEUTRON FROM GAMMA RAY NEUTRON LOG (NEUTED)
SPWS  .MV    : SPONTANEOUS POTENTIAL BASELINE 0 MV (SPRED)
SPRED .MV    : SPONTANEOUS POTENTIAL FROM RESISTIVITY
SRESWS.OHMM  : SHALLOW RESISTIVITY (ASNED)
~Params ----------------------------------------------------
PD  .                     GL : PERMANENT DATUM
LMF .                     KB : LOG MEASURED FROM
DAPD.F                 16.05 : FEET ABOVE PERMANENT DATUM
DMF .                     KB : DRILLING MEASURED FROM
EDF .F                   323 : DRILLING FLOOR
DATE.               02/20/58 : RUN DATE
RUN .                      3 : RUN NUMBER
DD  .F                 14409 : DEPTH DRILLER
DL  .F                 14411 : DEPTH LOGGER
BLI .F                 14405 : BOTTOM LOG INTERVAL
TLI .F                 13725 : TOP LOG INTERVAL
CBD .F                 13725 : CASING BOTTOM DRILLER
CBL .F                 13725 : CASING BOTTOM LOGGER
BS  .IN                 8.75 : BIT SIZE
BSD .F                 14409 : BIT SIZE AT DEPTH
DFT .               OIL EMUL : DRILLING FLUID TYPE
DFD .                   12.4 : DRILLING FLUID DENSITY
DFV .                     46 : DRILLING FLUID VISCOSITY
DFPH.                     12 : DRILLING FLUID PH
DFL .                    6.5 : DRILLING FLUID LOSS
MSS .                MUD PIT : MUD SAMPLE SOURCE
RMS .OHMM               0.82 : RESISTIVITY MUD SAMPLE
MST .F                    78 : MUD SAMPLE TEMPERATURE
RMF .OHMM               0.16 : RESISTIVITY MUD FILTRATE SAMPLE
MFST.F                   310 : MUD FILTRATE SAMPLE TEMPERATURE
RMC .OHMM               0.31 : RESISTIVITY MUD CAKE
MCST.F                   310 : MUD CAKE SAMPLE TEMPERATURE
RMB .OHMM               0.21 : RESISTIVITY MUD AT BHT
TCS .HRS                   2 : TIME CURCULATED STOPPED
LUL .                    VIC : LOGGING UNIT LOCATION
ENGI.                WHITNEY : RECORDING ENGINEER
WITN.                 GOLSON : WITNESSED BY
CLNT.                A2DTECH : CLIENT CODE
ORIG.               2" PRINT : ORIGIN OF DATA
UWI .         42311013640000 : UNIQUE WELL ID
DICO. A2D Technologies, Inc. : DIGITIZING COMPANY
~Other -----------------------------------------------------
~ASCII -----------------------------------------------------
# ...
 11050.00000    5.11560    -999.25    -999.25  211.06650  225.07820    4.44290    -999.25    -999.25    4.44290    -999.25    -999.25    -999.25    -999.25   -3.45910  -21.95300    5.11560
 11100.00000    6.69510    -999.25    -999.25  172.00300  164.01780    6.09690    -999.25    -999.25    6.09690    -999.25    -999.25    -999.25    -999.25   -3.97350  -22.49140    6.69510
 11150.00000    6.56050    -999.25    -999.25  158.42250  166.38100    6.01030    -999.25    -999.25    6.01030    -999.25    -999.25    -999.25    -999.25   -3.94940  -22.49140    6.56050
 11200.00000    8.76520    -999.25    -999.25  125.66840  115.68050    8.64450    -999.25    -999.25    8.64450    -999.25    -999.25    -999.25    -999.25   -4.46210  -23.02820    8.76520
 11250.00000   13.65420    -999.25    -999.25   67.51340   82.86520   12.06780    -999.25    -999.25   12.06780    -999.25    -999.25    -999.25    -999.25   -4.79730  -23.38740   13.65420
 11300.00000    5.89880    -999.25    -999.25  191.62350  195.03820    5.12720    -999.25    -999.25    5.12720    -999.25    -999.25    -999.25    -999.25   -2.98070  -21.59490    5.89880
 11350.00000    6.38340    -999.25    -999.25  183.82350  185.14400    5.40120    -999.25    -999.25    5.40120    -999.25    -999.25    -999.25    -999.25   -3.49390  -22.13220    6.38340
 11400.00000    6.33680    -999.25    -999.25  185.16090  183.95200    5.43620    -999.25    -999.25    5.43620    -999.25    -999.25    -999.25    -999.25   -3.47030  -22.13260    6.33680
 11450.00000    5.90000    -999.25    -999.25  188.50270  196.85040    5.08000    -999.25    -999.25    5.08000    -999.25    -999.25    -999.25    -999.25   -2.90860  -21.59500    5.90000
 11500.00000    7.76550    -999.25    -999.25  134.13830  137.66900    7.26380    -999.25    -999.25    7.26380    -999.25    -999.25    -999.25    -999.25   -2.88420  -21.59470    7.76550
 11550.00000    6.45370    -999.25    -999.25  175.57650  172.98340    5.78090    -999.25    -999.25    5.78090    -999.25    -999.25    -999.25    -999.25   -2.68160  -21.41620    6.45370
 11600.00000    6.33020    -999.25    -999.25  201.15400  303.20490    3.29810    2.51670    2.51670    3.29810    -999.25    -999.25  149.79940  149.79940   -2.47830  -21.23690    6.33020
 11650.00000   21.70810    -999.25    -999.25   24.36880   25.51450   39.19340    2.38110    2.38110   39.19340    -999.25    -999.25  160.14330  160.14330   -5.16810  -23.92430   21.70810
 11700.00000   31.14280    -999.25    -999.25   18.32760    9.97330  100.26740    2.08360    2.08360  100.26740    -999.25    -999.25  162.86730  162.86730  -10.46670  -28.58440   31.14280
 11750.00000   33.85230    -999.25    -999.25    7.85620   71.46480   13.99290    2.81190    2.81190   13.99290    -999.25    -999.25  142.04150  142.04150   -9.67020  -27.14940   33.85230
 11800.00000   23.04250    -999.25    -999.25   22.83410   28.81680   34.70200    2.71850    2.71850   34.70200    -999.25    -999.25  147.35020  147.35020   -9.77220  -26.61290   23.04250
 11850.00000   32.26910    -999.25    -999.25   23.74840   22.39810   44.64660    1.67670    1.67670   44.64660    -999.25    -999.25  198.16180  198.16180  -10.76810  -26.97030   32.26910
 11900.00000   29.38250    -999.25    -999.25   31.95740   28.14550   35.52960    1.31760    1.31760   35.52960    -999.25    -999.25  209.08650  209.08650   -9.07830  -24.64190   29.38250
 11950.00000    7.78920    -999.25    -999.25  142.29920  175.32790    5.70360    2.32180    2.32180    5.70360    -999.25    -999.25  156.70280  156.70280   -2.36880  -17.29390    7.78920
 12000.00000    8.08820    -999.25    -999.25  157.92280  147.40350    6.78410    2.53060    2.53060    6.78410    -999.25    -999.25  153.65220  153.65220   -3.26720  -17.65290    8.08820
 12050.00000   27.12340    -999.25    -999.25   31.69110   31.16660   32.08560    1.33810    1.33810   32.08560    -999.25    -999.25  234.48280  234.48280  -11.64510  -25.53800   27.12340
 12100.00000   47.50450    -999.25    -999.25   14.78070   14.43070   69.29670    1.20140    1.20140   69.29670    -999.25    -999.25  242.43930  242.43930  -21.81430  -35.21430   47.50450
 12150.00000   35.14230    -999.25    -999.25   29.16280   26.90650   37.16580    1.38370    1.38370   37.16580    -999.25    -999.25  207.61490  207.61490  -13.34650  -26.25370   35.14230
 12200.00000   31.81780    -999.25    -999.25   24.28670   27.84120   35.91800    1.68010    1.68010   35.91800    -999.25    -999.25  189.07880  189.07880  -13.83930  -26.25370   31.81780
 12250.00000   22.26400    -999.25    -999.25   36.48470   38.12020   26.23280    1.64250    1.64250   26.23280    -999.25    -999.25  186.54760  186.54760   -5.73110  -17.65260   22.26400
 12300.00000   26.14250    -999.25    -999.25   25.83220   24.02260   41.62740    1.72570    1.72570   41.62740    -999.25    -999.25  198.05950  198.05950   -6.81850  -18.72790   26.14250
 12350.00000   28.16730    -999.25    -999.25   15.66910   14.91030   67.06770    1.60490    1.60490   67.06770    -999.25    -999.25  204.74140  204.74140   -5.81210  -18.19010   28.16730
 12400.00000   26.24560    -999.25    -999.25   22.18260   22.40430   44.63420    1.37770    1.37770   44.63420    -999.25    -999.25  173.27590  173.27590   -4.62610  -17.47260   26.24560
 12450.00000   33.71890    -999.25    -999.25   10.35860   11.03240   90.64170    1.71090    1.71090   90.64170    -999.25    -999.25  189.94160  189.94160   -6.66620  -19.98130   33.71890
 12500.00000   38.87900    -999.25    -999.25    8.76490    8.18970  122.10410    1.44760    1.44760  122.10410    -999.25    -999.25  190.80370  190.80370   -7.09480  -20.87850   38.87900
 12550.00000   37.25980    -999.25    -999.25   13.94460    6.62700  150.89810    1.47610    1.47610  150.89810    -999.25    -999.25  208.59600  208.59600   -5.81870  -20.07090   37.25980
 12600.00000   46.85920    -999.25    -999.25   12.74900   11.10910   90.01590    1.45540    1.45540   90.01590    -999.25    -999.25  201.78760  201.78760   -8.69620  -23.41700   46.85920
 12650.00000   60.70580    -999.25    -999.25   10.88980    6.73470  148.48480    1.45440    1.45440  148.48480    -999.25    -999.25  239.97040  239.97040  -12.14000  -27.32940   60.70580
 12700.00000   71.30530    -999.25    -999.25    2.83250    1.30010  769.15810    1.52050    1.52050  769.15810    -999.25    -999.25  249.62620  249.62620  -15.79080  -31.44870   71.30530
 12750.00000   55.71240    -999.25    -999.25   13.56380   10.31690   96.92880    1.65680    1.65680   96.92880    -999.25    -999.25  236.53430  236.53430  -11.20400  -27.33050   55.71240
 12800.00000   57.56230    -999.25    -999.25    8.59930    4.57960  218.36010    1.67730    1.67730  218.36010    -999.25    -999.25  225.35960  225.35960   -9.12230  -25.71740   57.56230
 12850.00000   46.33450    -999.25    -999.25    8.69020    6.26750  159.55280    1.70120    1.70120  159.55280    -999.25    -999.25  233.61370  233.61370   -6.45690  -23.52050   46.33450
 12900.00000   35.96120    -999.25    -999.25   15.95740   17.27490   57.88760    1.48640    1.48640   57.88760    -999.25    -999.25  224.95120  224.95120   -5.49600  -23.02820   35.96120
 12950.00000   61.29890    -999.25    -999.25    1.55260    1.30900  763.92290    1.30850    1.30850  763.92290    -999.25    -999.25  232.76050  232.76050  -32.22370  -50.22450   61.29890
 13000.00000   44.69260    -999.25    -999.25    3.97350    1.95040  512.70610    1.48860    1.48860  512.70610    -999.25    -999.25  222.41380  222.41380  -10.65180  -29.12110   44.69260
 13050.00000   38.77820    -999.25    -999.25   15.82360    1.16070  861.53550    1.37580    1.37580  861.53550    -999.25    -999.25  220.68970  220.68970   -7.85360  -26.79150   38.77820
 13100.00000   49.95810    -999.25    -999.25   16.48940   13.28860   75.25250    1.43390    1.43390   75.25250    -999.25    -999.25  207.75860  207.75860  -13.80470  -33.15390   49.95810
 13150.00000   63.87900    -999.25    -999.25    8.90960    3.90940  255.79320    1.27430    1.27430  255.79320    -999.25    -999.25  246.12070  246.12070  -22.84090  -42.42950   63.87900
