~Version ---------------------------------------------------
VERS. 2.0 : CWLS log ASCII Standard -VERSION 2.0
WRAP. YES : MULTIPLE LINES PER DEPTH STEP
~Well ------------------------------------------------------
STRT.FT                     600.0 : START DEPTH
STOP.FT                    6950.0 : STOP DEPTH
STEP.FT                  50.00000 : STEP LENGTH
NULL.                     -999.25 : NULL VALUE
COMP. ENCANA OIL & GAS (USA) INC. : COMPANY
WELL.               F. J. WEBB #1 : WELL
FLD .                     WILDCAT : FIELD
LOC .                             : LOCATION
CNTY.                      DIMMIT : COUNTY
STAT.                       TEXAS : STATE
CTRY.    UNITED STATES OF AMERICA : COUNTRY
SRVC.                Baker Hughes : SERVICE COMPANY
DATE.                 05-Jan-2006 : LOGDATE
API .              42127332970000 : API NUMBER
UWI .              42127332970000 : UNIQUE WELL ID
SLAT.WGS84          28.5870102193 : SURFACE LATITUDE
SLON.WGS84         -99.9764767301 : SURFACE LONGITUDE
~Curve Information -----------------------------------------
DEPT    .FT    : DEPTH FEET  [ALL CURVES ARE NULLED AS PER OFFSET FROM TD 6964F]
CALRED  .IN    : CALIPER FROM RESISTIVITY LOG
CALWS   .IN    : CALIPER [CALRED]
CNCFLSED.V/V   : NEUTRON POROSITY LIMESTONE FROM HDI/CD/CN LOG
CONDWS  .MMHO  : CONDUCTIVITY [1000/DRESWS]
DCORWS  .G/C3  : DENSITY CORRECTION [ZCORED]
DENWS   .G/C3  : BULK DENSITY [M=2.71 F=1.0] [CALCULATED FROM DPOWS]
DPOWS   .V/V   : DENSITY POROSITY [M=2.71 F=1.0] [PORZLSED]
DRESWS  .OHMM  : DEEP RESISTIVITY [M1R9ED]
GRRED   .GAPI  : GAMMA RAY FROM RESISTIVITY LOG
GRWS    .GAPI  : GAMMA RAY [594 GRREDNRM 732 GRRED]
M1R1ED  .OHMM  : 10 INCH DOI RESISTIVITY FROM HDI/CD/CN LOG
M1R2ED  .OHMM  : 20 INCH DOI RESISTIVITY FROM HDI/CD/CN LOG
M1R3ED  .OHMM  : 30 INCH DOI RESISTIVITY FROM HDI/CD/CN LOG
M1R6ED  .OHMM  : 60 INCH DOI RESISTIVITY FROM HDI/CD/CN LOG
M1R9ED  .OHMM  : 90 INCH DOI RESISTIVITY FROM HDI/CD/CN LOG
M1RXED  .OHMM  : 120 INCH DOI RESISTIVITY FROM HDI/CD/CN LOG
MRESWS  .OHMM  : MEDIUM RESISTIVITY [M1R3ED]
NPOWS   .V/V   : NEUTRON POROSITY LIMESTONE [CNCFLSED]
PEFED   .B/E   : PHOTOELECTRIC FACTOR FROM DENSITY LOG
PEFWS   .B/E   : PHOTOELECTRIC FACTOR [PEFED]
PORZLSED.V/V   : DENSITY POROSITY [M=2.71 F=1.0] FROM HDI/CD/CN LOG
SPRED   .MV    : SPONTANEOUS POTENTIAL FROM RESISTIVITY LOG
SPWS    .MV    : SPONTANEOUS POTENTIAL [BASELINE 0 MV] [SPRED]
SRESWS  .OHMM  : SHALLOW RESISTIVITY [594 M1R1ED 777 M1R2ED 791 M1R1ED 957 M1R2ED 962.5 M1R1ED 1436.5 M1R2ED 1678 M1R1ED 2193 M1R2ED 3139 M1R1ED 3874 M1R2ED]
TENRED  .LBF   : TENSION FROM RESISTIVITY LOG
ZCORED  .G/C3  : DENSITY CORRECTION FROM HDI/CD/CN LOG
~Params ----------------------------------------------------
PD  .                     GL : PERMANENT DATUM
EPD .F                 697.3 : ELEVATION PERMANENT DATUM
LMF .                     KB : LOG MEASURED FROM
DAPD.F                  12.0 : FEET ABOVE PERMANENT DATUM
DMF .                     KB : DRILLING MEASURED FROM
EKB .F                 709.3 : KELLING BUSHING
EDF .F                 708.3 : DRILLING FLOOR
EGL .F                 697.3 : GROUND LEVEL
DATE.             01/05/2006 : RUN DATE
RUN .                      1 : RUN NUMBER
DD  .F                  6972 : DEPTH DRILLER
DL  .F                  6964 : DEPTH LOGGER
BLI .F                  6956 : BOTTOM LOG INTERVAL
TLI .F                   732 : TOP LOG INTERVAL
CS  .IN                9.625 : CASING SIZE
CBD .F                   732 : CASING BOTTOM DRILLER
CBL .F                   732 : CASING BOTTOM LOGGER
BS  .IN                 8.75 : BIT SIZE
BSD .F                  6972 : BIT SIZE AT DEPTH
DFT .                    WBM : DRILLING FLUID TYPE
DFD .                    9.7 : DRILLING FLUID DENSITY
DFV .                     79 : DRILLING FLUID VISCOSITY
DFPH.                   11.0 : DRILLING FLUID PH
DFL .                    8.4 : DRILLING FLUID LOSS
MSS .               FLOWLINE : MUD SAMPLE SOURCE
RMS .OHMM               0.36 : RESISTIVITY MUD SAMPLE
MST .F                    75 : MUD SAMPLE TEMPERATURE
RMF .OHMM               0.29 : RESISTIVITY MUD FILTRATE SAMPLE
MFST.F                    75 : MUD FILTRATE SAMPLE TEMPERATURE
RMC .OHMM               0.45 : RESISTIVITY MUD CAKE
MCST.F                    75 : MUD CAKE SAMPLE TEMPERATURE
MFSS.                      M : MUD FILTRATE SAMPLE SOURCE
MCSS.                      C : MUD CAKE SAMPLE SOURCE
RMB .OHMM               0.15 : RESISTIVITY MUD AT BHT
TCS .HRS                  10 : TIME CURCULATED STOPPED
LUN .                HL-6540 : LOGGING UNIT NUMBER
LUL .              ALICE, TX : LOGGING UNIT LOCATION
ENGI.              C. MCCANN : RECORDING ENGINEER
WITN.            D. JOHNSTON : WITNESSED BY
CLNT.                A2DTECH : CLIENT CODE
ORIG.            1" 5" PRINT : ORIGIN OF DATA
UWI .         42127332970000 : UNIQUE WELL ID
DICO. A2D Technologies, Inc. : DIGITIZING COMPANY
~Other -----------------------------------------------------
~ASCII -----------------------------------------------------
  600.00000    -999.25    -999.25    -999.25    -999.25    -999.25    -999.25    -999.25    -999.25   56.92770   85.39150    -999.25    -999.25    -999.25    -999.25    -999.25    -999.25    -999.25    -999.25    -999.25    -999.25    -999.25    -999.25    -999.25    -999.25    -999.25    -999.25
  650.00000    -999.25    -999.25    -999.25    -999.25    -999.25    -999.25    -999.25    -999.25   66.00150   99.00230    -999.25    -999.25    -999.25    -999.25    -999.25    -999.25    -999.25    -999.25    -999.25    -999.25    -999.25    -999.25    -999.25    -999.25    -999.25    -999.25
  700.00000    -999.25    -999.25    -999.25    -999.25    -999.25    -999.25    -999.25    -999.25   64.78030   97.17040    -999.25    -999.25    -999.25    -999.25    -999.25    -999.25    -999.25    -999.25    -999.25    -999.25    -999.25    -999.25    -999.25    -999.25    -999.25    -999.25
  750.00000    9.75780    9.75780    -999.25  204.79210    -999.25    -999.25    -999.25    4.88300   84.93980   84.93980    3.38830    3.61040    3.48320    4.29210    4.88300    4.59480    3.48320    -999.25    -999.25    -999.25    -999.25   -9.72970   -6.06180    3.38830  -39.39980    -999.25
  800.00000   10.56950   10.56950    -999.25  369.94560    -999.25    -999.25    -999.25    2.70310   87.87390   87.87390    3.89210    2.96030    3.16090    3.45170    2.70310    3.96490    3.16090    -999.25    -999.25    -999.25    -999.25   -4.91100   -3.16040    3.89210  -85.16400    -999.25
  850.00000   15.29140   15.29140    -999.25  372.19000    -999.25    -999.25    -999.25    2.68680   92.39510   92.39510    3.40010    2.55030    3.03480    2.96540    2.68680    3.15060    3.03480    -999.25    -999.25    -999.25    -999.25   -1.77180   -1.93860    3.40010   -6.20840    -999.25
  900.00000   13.18610   13.18610    -999.25  316.51580    -999.25    -999.25    -999.25    3.15940   93.98560   93.98560    2.53980    2.83630    2.79020    2.98320    3.15940    3.20110    2.79020    -999.25    -999.25    -999.25    -999.25   -3.12310   -4.47080    2.53980  -60.16780    -999.25
  950.00000   10.62960   10.62960    -999.25  255.78720    -999.25    -999.25    -999.25    3.90950   80.68550   80.68550    4.85930    4.05800    3.92300    3.90790    3.90950    3.64740    3.92300    -999.25    -999.25    -999.25    -999.25   -5.20240   -6.86630    4.85930  -31.27480    -999.25
 1000.00000   10.59960   10.59960    -999.25  127.82660    -999.25    -999.25    -999.25    7.82310   68.90060   68.90060    4.17160    4.94050    5.80810    5.81200    7.82310    6.63100    5.80810    -999.25    -999.25    -999.25    -999.25  -10.87690  -12.85700    4.17160  -21.26950    -999.25
 1050.00000   12.07330   12.07330    -999.25  443.32140    -999.25    -999.25    -999.25    2.25570   84.71390   84.71390    1.55810    1.67920    1.84600    1.84910    2.25570    2.02390    1.84600    -999.25    -999.25    -999.25    -999.25   -2.38170   -4.67800    1.55810   75.46370    -999.25
 1100.00000    9.78050    9.78050    -999.25  366.26010    -999.25    -999.25    -999.25    2.73030   86.06950   86.06950    2.42880    2.31390    2.63710    2.64750    2.73030    3.17200    2.63710    -999.25    -999.25    -999.25    -999.25   -1.23970   -3.74400    2.42880  -38.44310    -999.25
 1150.00000   10.32390   10.32390    0.21330  117.48400    0.11850    2.31720    0.22970    8.51180   63.87960   63.87960    4.33210    5.04870    6.87340    7.38410    8.51180    8.77760    6.87340    0.21330    3.69920    3.69920    0.22970   -7.92790   -9.97500    4.33210  -30.37450    0.11850
 1200.00000   10.50960   10.50960    0.21290  144.71570    0.07020    2.47730    0.13610    6.91010   63.70480   63.70480    4.05430    5.21550    5.43000    6.42780    6.91010    7.04910    5.43000    0.21290    3.15810    3.15810    0.13610   -9.28330  -10.87320    4.05430  -33.39650    0.07020
 1250.00000   10.67200   10.67200    0.25580  191.06210    0.21510    2.28970    0.24580    5.23390   70.92260   70.92260    3.34130    3.31000    3.68210    3.83160    5.23390    4.65270    3.68210    0.25580    3.78950    3.78950    0.24580   -7.98800   -9.12070    3.34130    3.75320    0.21510
 1300.00000   10.58780   10.58780    0.17710   55.48990    0.02790    2.52040    0.11090   18.02130   52.18530   52.18530   10.27720   10.82270   15.79750   15.87430   18.02130   17.88360   15.79750    0.17710    3.03240    3.03240    0.11090   -9.08950   -9.76500   10.27720  -16.13230    0.02790
 1350.00000   10.26370   10.26370    0.22380  204.80470    0.17580    2.47490    0.13750    4.88270   68.96680   68.96680    3.94650    4.31970    4.84020    4.88190    4.88270    5.48610    4.84020    0.22380    3.48840    3.48840    0.13750   -9.45240   -9.67080    3.94650  -55.23020    0.17580
 1400.00000    9.61730    9.61730    0.22980  161.72330    0.14870    2.35310    0.20870    6.18340   63.80970   63.80970    7.21680    5.98640    5.28100    5.53140    6.18340    4.92440    5.28100    0.22980    3.27820    3.27820    0.20870  -13.48350  -13.24470    7.21680   25.13510    0.14870
 1450.00000    9.09590    9.09590    0.18620  132.65060    0.01280    2.47470    0.13760    7.53860   62.49860   62.49860   19.18620    8.21190    8.46320    7.49060    7.53860    7.07390    8.46320    0.18620    3.23810    3.23810    0.13760  -10.93090  -10.23490    8.21190   -7.91930    0.01280
 1500.00000    8.68070    8.68070    0.21900  196.44440    0.04000    2.46770    0.14170    5.09050   66.28480   66.28480    6.61350    5.21600    5.42960    5.45370    5.09050    6.04630    5.42960    0.21900    2.44600    2.44600    0.14170   -9.42940   -8.27620    5.21600    3.13330    0.04000
 1550.00000    9.00560    9.00560    0.21020  155.13020    0.16380    2.52220    0.10980    6.44620   62.80200   62.80200    7.68010    6.97460    6.85190    6.50970    6.44620    5.82810    6.85190    0.21020    3.03770    3.03770    0.10980  -11.79920  -10.18880    6.97460  -49.54840    0.16380
 1600.00000   10.50030   10.50030    0.20800  214.26120    0.22410    2.36290    0.20300    4.66720   75.45180   75.45180    4.02410    3.72910    4.47120    4.08310    4.66720    4.54000    4.47120    0.20800    4.33060    4.33060    0.20300   -5.84500   -3.77740    3.72910  108.22080    0.22410
 1650.00000   10.41440   10.41440    0.22980  201.97940    0.13060    2.39880    0.18200    4.95100   66.14190   66.14190    6.41290    5.55770    6.00330    5.15330    4.95100    4.75330    6.00330    0.22980    3.96960    3.96960    0.18200  -10.63960   -8.11480    5.55770   -9.67680    0.13060
 1700.00000   11.08640   11.08640    0.27880  259.35630    0.23320    2.29120    0.24490    3.85570   72.51620   72.51620    4.61820    3.97340    4.11430    4.22780    3.85570    4.60730    4.11430    0.27880    4.03340    4.03340    0.24490   -6.87640   -3.89440    4.61820  -52.21910    0.23320
 1750.00000   10.47200   10.47200    0.29460  266.16270    0.21210    1.98070    0.42650    3.75710   75.34870   75.34870    2.11410    2.14320    3.11750    2.65330    3.75710    3.10630    3.11750    0.29460    5.32300    5.32300    0.42650   -6.51380   -2.09370    2.11410  -59.56970    0.21210
 1800.00000    9.07750    9.07750    0.22080  156.46760    0.20000    2.58230    0.07470    6.39110   63.25260   63.25260    7.72300    5.44730    8.56010    6.59030    6.39110    8.17400    8.56010    0.22080    3.01200    3.01200    0.07470  -13.43370   -6.89380    7.72300  -54.00110    0.20000
 1850.00000    8.95650    8.95650    0.29990  386.54810    0.23920    2.04910    0.38650    2.58700   73.87050   73.87050    2.00710    2.70890    2.51590    3.14610    2.58700    4.08780    2.51590    0.29990    4.15670    4.15670    0.38650  -14.33730   -5.67750    2.00710  -53.12670    0.23920
 1900.00000    9.04720    9.04720    0.37140  365.57720    0.14870    2.29600    0.24210    2.73540   77.70930   77.70930    1.36020    1.91730    2.93090    2.41850    2.73540    2.88680    2.93090    0.37140    3.19280    3.19280    0.24210  -13.13290   -2.55530    1.36020    4.39960    0.14870
