~Version ---------------------------------------------------
VERS. 2.0 : CWLS log ASCII Standard -VERSION 2.0
WRAP.  NO : ONE LINE PER DEPTH STEP
~Well ------------------------------------------------------
STRT.F                  4250.0 : START DEPTH
STOP.F                 10250.0 : STOP DEPTH
STEP.F                50.00000 : STEP LENGTH
NULL.                  -999.25 : NULL VALUE
COMP.        WOOD ENERGY, INC. : COMPANY
WELL.            J E WEEDON #1 : WELL
FLD .          KURTEN WOODBINE : FIELD
LOC .                          : LOCATION
CNTY.                   BRAZOS : COUNTY
STAT.                    TEXAS : STATE
CTRY. UNITED STATES OF AMERICA : COUNTRY
SRVC.                          : SERVICE COMPANY
DATE.                          : LOGDATE
API .           42041306390000 : API NUMBER
UWI .           42041306390000 : UNIQUE WELL ID
SLAT.WGS84       30.6700972783 : SURFACE LATITUDE
SLON.WGS84      -96.2485479608 : SURFACE LONGITUDE
~Curve Information -----------------------------------------
DEPT.F                 : 
SPR .MV   07 010 01 00 : SPONTANEOUS POTENTIAL
SFLU.OHMM 07 220 01 00 : SPHERICALLY FOCUSED LOG UNAVERAGED RESISTIVITY
DCAL.IN   07 280 30 00 : DIFFERENTIAL CALIPER
ILM .OHMM 07 120 44 00 : INDUCTION LOG MEDIUM RESISTIVITY
ILD .OHMM 07 120 46 00 : DEEP INDUCTION RESISTIVITY
DPHI.DEC  45 890 12 00 : DENSITY POROSITY SANDSTONE
DRHO.G/C3 45 356 01 00 : DENSITY CORRECTION
GRR .GAPI 07 310 01 00 : GAMMA RAY FROM RESISTIVITY
NPHI.DEC  42 890 03 00 : NEUTRON POROSITY SANDSTONE
CALR.IN   07 280 01 00 : CALIPER FROM RESISTIVITY
CORR.G/C3 45 356 01 00 : DENSITY CORRECTION
GURD.OHMM 07 220 05 00 : GUARD LOG RESISTIVITY
~Params ----------------------------------------------------
EKB .F                 303.5 : KELLY BUSHING
EGL .F                   290 : ELEVATION GROUND LEVEL
EDF .F                 302.5 : ELEVATION DERRICK FLOOR
EPD .F                   290 : ELEVATION PERMANENT DATUM
TD  .F               10194.0 : TOTAL DEPTH
DATE.            07-OCT-1981 : DATE LOGGED
CLNT.                A2DTECH : CLIENT CODE
SL  .   602' FNL & 3434' FEL : SURFACE LOCATION
PD  .                     GL : PERMANENT DATUM
LMF .                     KB : LOG MEASURED FROM
DMF .                     KB : DRILLING MEASURED FROM
DAPD.F                  13.5 : FEET ABOVE PERMANENT DATUM
DD  .F                 10194 : DEPTH DRILLER
DL  .F                 10169 : DEPTH LOGGER
BLI .F                 10163 : BOTTOM LOG INTERVAL
TLI .F                  3800 : TOP LOG INTERVAL
CS1 .IN                9.875 : CASING SIZE
CBD1.         9.875" @ 3800' : CASING DRILLER 1
CBL1.F                  3800 : CASING LOGGER 1
BS1 .IN                 8.75 : BIT SIZE
BSD1.F                 10194 : DEPTH DRILLED WITH BIT1
DFT .                  LIGNO : TYPE FLUID IN HOLE
DFD .                    9.7 : DENSITY
DFV .                     44 : VISCOSITY
DFPH.                   10.0 : PH
DFL .                    7.2 : FLUID LOSS
MSS .                   TANK : SOURCE OF SAMPLE
RMS .OHMM               1.06 : RM
RMF .OHMM              0.795 : RMF
RMC .OHMM               1.59 : RMC
MFSS.                   CALC : SOURCE RMF.
MCSS.                   CALC : SOURCE RMC.
RMB .OHMM              0.486 : RM. AT BHT
BHT .F                   237 : BHT.
TCS .HRS                1400 : TIME CIRC. STOPPED
TLAB.HRS                 330 : TIME LOGGER AT BOTTOM
LUN .                   8101 : LOGGING UNIT NUMBER
LUL .                BRENHAM : LOGGING UNIT LOCATION
ENGI.                  BRUCK : RECORDED BY
WITN.         CARTER STATHAM : WITNESSED BY
ORIG.               5" PRINT : ORIGIN OF DATA
UWI .         42041306390000 : UNIQUE WELL ID
DICO. A2D TECHNOLOGIES, INC. : DIGITIZING COMPANY
~Other -----------------------------------------------------
~ASCII -----------------------------------------------------
 4250.00000  -20.73200    -999.25    -999.25    -999.25    -999.25    -999.25    -999.25   38.93200    -999.25    -999.25    -999.25    -999.25
 4300.00000  -65.15400    1.59200    1.61000    1.69400    1.47500    -999.25    -999.25   56.94300    -999.25    -999.25    -999.25    -999.25
 4350.00000  -31.80800    3.82900    1.83000    3.31600    2.83600    -999.25    -999.25   87.69200    -999.25    -999.25    -999.25    -999.25
 4400.00000  -12.31200    2.45600    2.35000    2.29400    2.25200    -999.25    -999.25  104.83800    -999.25    -999.25    -999.25    -999.25
 4450.00000  -36.63200    5.98600    1.98400    4.85200    4.51300    -999.25    -999.25   80.12600    -999.25    -999.25    -999.25    -999.25
 4500.00000  -64.75100    1.65700    0.06400    1.53400    1.45900    -999.25    -999.25   74.68400    -999.25    -999.25    -999.25    -999.25
 4550.00000  -69.65200    2.24700   -0.06500    2.21100    1.70600    -999.25    -999.25   66.97800    -999.25    -999.25    -999.25    -999.25
 4600.00000  -78.80600    1.42600    0.13900    1.40000    1.12500    -999.25    -999.25   50.85000    -999.25    -999.25    -999.25    -999.25
 4650.00000  -56.92700    1.50700    0.57700    1.53400    1.23200    -999.25    -999.25   66.67000    -999.25    -999.25    -999.25    -999.25
 4700.00000  -62.03000    0.76300    0.81500    0.82400    0.89700    -999.25    -999.25   41.77200    -999.25    -999.25    -999.25    -999.25
 4750.00000  -41.83200    1.43700    0.15000    1.85700    1.37600    -999.25    -999.25   85.70300    -999.25    -999.25    -999.25    -999.25
 4800.00000  -70.03500    1.43800   -0.25800    1.54200    1.20500    -999.25    -999.25   14.89900    -999.25    -999.25    -999.25    -999.25
 4850.00000  -62.32400    2.36200   -0.03400    2.86500    2.43800    -999.25    -999.25   20.04100    -999.25    -999.25    -999.25    -999.25
 4900.00000  -83.03500    0.69100   -0.26200    0.72900    0.63700    -999.25    -999.25   10.13100    -999.25    -999.25    -999.25    -999.25
 4950.00000  -64.87100    1.35400   -0.50800    1.36700    1.21000    -999.25    -999.25   12.82000    -999.25    -999.25    -999.25    -999.25
 5000.00000  -73.45700    1.15100   -0.28300    1.31500    0.93600    -999.25    -999.25   95.72300    -999.25    -999.25    -999.25    -999.25
 5050.00000   -3.68900    2.46800    0.72800    2.42300    2.54900    -999.25    -999.25   99.59700    -999.25    -999.25    -999.25    -999.25
 5100.00000    4.17300    1.90900    1.63300    1.94400    2.01600    -999.25    -999.25   93.71400    -999.25    -999.25    -999.25    -999.25
 5150.00000    6.55900    2.01800    0.45500    2.05600    2.13200    -999.25    -999.25  102.59600    -999.25    -999.25    -999.25    -999.25
 5200.00000  -75.23100    1.02600   -0.26200    1.08400    0.85500    -999.25    0.00200   60.69300    0.31100    -999.25    -999.25    -999.25
 5250.00000  -28.28600    1.87900    0.18300    1.84200    1.65200    0.18700    0.00400   67.78800    0.32400    -999.25    -999.25    -999.25
 5300.00000    2.73300    2.46800    0.07100    2.56000    2.41600    0.15100    0.06900   90.40600    0.37300    -999.25    -999.25    -999.25
 5350.00000  -11.16800    2.12200    0.25600    2.08300    1.97800    0.13600    0.03100   90.70200    0.33100    -999.25    -999.25    -999.25
 5400.00000  -20.06500    2.13800    0.41700    2.09900    1.97700    0.15400   -0.00500   92.65500    0.30000    -999.25    -999.25    -999.25
 5450.00000  -63.84000    1.45300   -0.17900    1.42600    1.15800    0.20900    0.00400   69.61600    0.32000    -999.25    -999.25    -999.25
 5500.00000   -4.21100    1.91100    1.01400    1.87600    1.84200    0.11300    0.03700   82.09900    0.35200    -999.25    -999.25    -999.25
 5550.00000   -4.47100    2.26100    1.32300    2.31400    2.40000    0.13200    0.03700   91.78100    0.31100    -999.25    -999.25    -999.25
 5600.00000   -3.22800    2.01500    1.54200    2.05200    2.12900    0.09200    0.03600   93.32700    0.30100    -999.25    -999.25    -999.25
 5650.00000   -3.00500    1.77200    2.17300    1.80500    1.87200    -999.25    -999.25   92.57100    -999.25    -999.25    -999.25    -999.25
 5700.00000   -1.43400    1.96900    1.60800    2.00600    2.08000    -999.25    -999.25   84.21500    -999.25    -999.25    -999.25    -999.25
 5750.00000   -4.89300    2.29300    1.57000    2.33600    2.17100    -999.25    -999.25   81.78700    -999.25    -999.25    -999.25    -999.25
 5800.00000   -1.36100    2.39000    1.53200    2.43400    2.26200    -999.25    -999.25   90.19000    -999.25    -999.25    -999.25    -999.25
 5850.00000   -3.04800    2.41200    1.96300    2.45700    2.28600    -999.25    -999.25   80.26900    -999.25    -999.25    -999.25    -999.25
 5900.00000   -3.07500    2.04300    2.59300    2.08000    1.96900    -999.25    -999.25   91.25000    -999.25    -999.25    -999.25    -999.25
 5950.00000   -3.29600    2.00000    2.33300    2.03700    1.96400    -999.25    -999.25   85.96700    -999.25    -999.25    -999.25    -999.25
 6000.00000   -2.47400    1.86100    2.68500    1.89600    1.82700    -999.25    -999.25   91.77700    -999.25    -999.25    -999.25    -999.25
 6050.00000   -3.83600    1.78200    2.80800    1.81700    1.75000    -999.25    -999.25   90.94900    -999.25    -999.25    -999.25    -999.25
 6100.00000   -2.93000    1.47000    2.91200    1.49800    1.44400    -999.25    -999.25   95.10600    -999.25    -999.25    -999.25    -999.25
 6150.00000   -2.89400    1.53000    2.22100    1.55900    1.50300    -999.25    -999.25   97.75200    -999.25    -999.25    -999.25    -999.25
 6200.00000   -2.42800    1.97100    0.29200    2.00800    1.93600    -999.25    -999.25   97.64300    -999.25    -999.25    -999.25    -999.25
 6250.00000   -2.05600    2.25200   -0.01400    2.29400    2.21100    -999.25    -999.25  102.13500    -999.25    -999.25    -999.25    -999.25
 6300.00000   -2.76800    2.26200    1.21100    2.30400    2.18600    -999.25    -999.25   94.53700    -999.25    -999.25    -999.25    -999.25
 6350.00000   -2.55400    2.07400    1.01200    2.11200    2.03700    -999.25    -999.25   92.30000    -999.25    -999.25    -999.25    -999.25
 6400.00000   -2.30200    1.83400    0.84800    1.86700    1.80000    -999.25    -999.25   93.80400    -999.25    -999.25    -999.25    -999.25
 6450.00000   -1.23200    2.09300    0.77000    2.13200    2.05600    -999.25    -999.25   73.97800    -999.25    -999.25    -999.25    -999.25
 6500.00000   -2.81400    1.94100    0.65000    1.97700    2.01300    -999.25    -999.25   77.10300    -999.25    -999.25    -999.25    -999.25
 6550.00000   -1.63100    1.47000    0.38300    1.49700    1.52500    -999.25    -999.25   76.66600    -999.25    -999.25    -999.25    -999.25
 6600.00000   -0.29900    1.16700    0.65300    1.18900    1.21100    -999.25    -999.25   87.27500    -999.25    -999.25    -999.25    -999.25
 6650.00000    0.10500    1.35800    1.41100    1.38300    1.40800    -999.25    -999.25   87.35200    -999.25    -999.25    -999.25    -999.25
 6700.00000    4.30100    1.24600    1.06500    1.26900    1.29200    -999.25    -999.25   90.29200    -999.25    -999.25    -999.25    -999.25
 6750.00000    0.39800    1.33300    0.34700    1.35700    1.38200    -999.25    -999.25   84.88000    -999.25    -999.25    -999.25    -999.25
 6800.00000   -0.17700    1.09600    2.63600    1.11600    1.13700    -999.25    -999.25   88.82000    -999.25    -999.25    -999.25    -999.25
 6850.00000   -3.63000    1.25500    3.06600    1.27800    1.32600    -999.25    -999.25   83.68400    -999.25    -999.25    -999.25    -999.25
 6900.00000   -3.42400    1.26500    3.42300    1.28800    1.33600    -999.25    -999.25   86.43900    -999.25    -999.25    -999.25    -999.25
 6950.00000   -2.28000    1.16700    2.91700    1.18800    1.21000    -999.25    -999.25   91.73900    -999.25    -999.25    -999.25    -999.25
 7000.00000   -4.09200    1.20100    2.57200    1.22300    1.26800    -999.25    -999.25   84.19900    -999.25    -999.25    -999.25    -999.25
