~Version ---------------------------------------------------
VERS.      2.0 : CWLS log ASCII Standard -VERSION 2.0
WRAP.      YES : Multiple lines per depth step
CREA. 07/19/18 : LAS Creation Date
~Well ------------------------------------------------------
STRT.FT                           3800.0 : START DEPTH
STOP.FT                          13600.0 : STOP DEPTH
STEP.FT                         50.00000 : STEP LENGTH
NULL.                            -999.25 : NULL VALUE
COMP. TEXSTAR NORTH AMERICA INCORPORATED : COMPANY
WELL.                  BERRY GAS UNIT #1 : WELL
FLD .                 SW KENEDY PROSPECT : FIELD
LOC .                                    : LOCATION
CNTY.                             KARNES : COUNTY
STAT.                              TEXAS : STATE
CTRY.           UNITED STATES OF AMERICA : COUNTRY
SRVC.                       Schlumberger : SERVICE COMPANY
DATE.                        16-Mar-1988 : LOGDATE
API .                     42255311960000 : API NUMBER
UWI .                     42255311960000 : UNIQUE WELL ID
SLAT.WGS84                 28.7645998907 : SURFACE LATITUDE
SLON.WGS84                -97.8956197689 : SURFACE LONGITUDE
~Curve Information -----------------------------------------
DEPT    .FT    : DEPTH FEET
CALWS   .IN    : CALIPER [DCALDED+BIT]
CONDWS  .MMHO  : DEEP CONDUCTIVITY [1000/DRESWS]
DCALDED .IN    : DIFFERENTIAL CALIPER FROM LDT-CNT LOG [DSH. TO RESISTIVITY]
DCORWS  .G/C3  : DENSITY CORRECTION [DRHOED]
DENWS   .G/C3  : BULK DENSITY [CALC. FROM DPOLSWS]
DPHILSED.V/V   : DENSITY POROSITY (LS) [M=2.71 F=1.00] FROM LDT-CNT LOG [DSH. TO RESISTIVITY]
DPOLSWS .V/V   : DENSITY POROSITY (LS) [M=2.71 F=1.00] [DPHILSED]
DRESWS  .OHMM  : DEEP RESISTIVITY [ILDED]
DRHOED  .G/C3  : DENSITY CORRECTION FROM LDT-CNT LOG [DSH. TO RESISTIVITY]
DTED    .US/F  : DELTA TIME FROM DISFL-SONIC LOG [DSH. TO RES LOG]
DTLED   .US/F  : DELTA TIME LONG SPACING FROM DISFL-SONIC LOG [DSH. TO RESISTIVITY]
DTWS    .US/F  : DELTA TIME COMPRESSIONAL [DTED]
GRDED   .GAPI  : GAMMA RAY FROM LDT-CNT LOG [DSH. TO RESISTIVITY]
GRRED   .GAPI  : GAMMA RAY FROM DISFL-SONIC LOG [DSH. TO RESISTIVITY]
GRWS    .GAPI  : GAMMA RAY [GRRED]
ILDED   .OHMM  : DEEP INDUCTION RESISTIVITY
ILMED   .OHMM  : MEDIUM INDUCTION RESISTIVITY
MRESWS  .OHMM  : MEDIUM RESISTIVITY [ILMED]
NPHILSED.V/V   : NEUTRON POROSITY LIMESTONE FROM LDT-CNT LOG [DSH. TO RESISTIVITY]
NPOLSWS .V/V   : NEUTRON POROSITY LIMESTONE [NPHILSED]
PEFED   .B/E   : PHOTOELECTRIC FACTOR FROM LDT-CNT LOG [DSH. TO RESISTIVITY]
PEFWS   .B/E   : PHOTOELECTRIC FACTOR [PEFED]
SFLUED  .OHMM  : SPHERICALLY FOCUSED LOG RESISTIVITY
SPHILSED.V/V   : SONIC POROSITY (LS) FROM DISFL-SONIC LOG [DSH. TO RESISTIVITY]
SPOLSWS .V/V   : SONIC POROSITY (LS) [SPHILSED]
SPRED   .MV    : SPONTANEOUS POTENTIAL FROM DISFL-SONIC LOG
SPWS    .MV    : SPONTANEOUS POTENTIAL [BASELINE 0 MV] [SPRED]
SRESWS  .OHMM  : SHALLOW RESISTIVITY [SFLUED]
TENDED  .LBF   : TENSION FROM LDT-CNT LOG [DSH. TO RES LOG]
TENRED  .LBF   : TENSION FROM DISFL-SONIC LOG
~Params ----------------------------------------------------
PD  .                     GL : PERMANENT DATUM
EPD .FT                399.7 : ELEVATION PERMANENT DATUM
LMF .                     KB : LOG MEASURED FROM
DAPD.FT                   13 : FEET ABOVE PERMANENT DATUM
DMF .                     KB : DRILLING MEASURED FROM
EKB .FT                412.7 : KELLY BUSHING
EDF .FT                411.7 : DRILLING FLOOR
EGL .FT                399.7 : GROUND LEVEL
DATE.               03/16/88 : RUN DATE
RUN .                      1 : RUN NUMBER
DD  .FT                13841 : DEPTH DRILLER
DL  .FT                13632 : DEPTH LOGGER
BLI .FT                13626 : BOTTOM LOG INTERVAL
TLI .FT                 3814 : TOP LOG INTERVAL
CS  .IN                8.625 : CASING SIZE
CBD .FT                 3815 : CASING BOTTOM DRILLER
CBL .FT                 3814 : CASING BOTTOM LOGGER
BS  .IN                  8.5 : BIT SIZE
BSD .FT                13841 : BIT SIZE AT DEPTH
DFT .              DURA HOLE : DRILLING FLUID TYPE
DFD .                   11.1 : DRILLING FLUID DENSITY
DFV .                     46 : DRILLING FLUID VISCOSITY
DFPH.                   10.5 : DRILLING FLUID PH
DFL .                      6 : DRILLING FLUID LOSS
MSS .               MUD TNAK : MUD SAMPLE SOURCE
RMS .OHMM              0.601 : RESISTIVITY MUD SAMPLE
MST .DEGF                110 : MUD SAMPLE TEMPERATURE
RMF .OHMM               0.81 : RESISTIVITY MUD FILTRATE SAMPLE
MFST.DEGF                 89 : MUD FILTRATE SAMPLE TEMPERATURE
RMC .OHMM                0.9 : RESISTIVITY MUD CAKE
MCST.DEGF                110 : MUD CAKE SAMPLE TEMPERATURE
MFSS.                   MEAS : MUD FILTRATE SAMPLE SOURCE
MCSS.                   CALC : MUD CAKE SAMPLE SOURCE
RMB .OHMM              0.236 : RESISTIVITY MUD AT BHT
TCS .HRS                2100 : TIME CIRCULATED STOPPED
TLAB.HRS                 612 : TIME LOGGER AT BOTTOM
LUN .                   8268 : LOGGING UNIT NUMBER
LUL .             PLEASANTON : LOGGING UNIT LOCATION
ENGI.                  WILKE : RECORDING ENGINEER
WITN.  REQUAETH  NOVAK GIBBS : WITNESSED BY
CLNT.                A2DTECH : CLIENT CODE
ORIG.               5" PRINT : ORIGIN OF DATA
UWI .         42255311960000 : UNIQUE WELL ID
DICO. A2D Technologies, Inc. : DIGITIZING COMPANY
~Other -----------------------------------------------------
GRDED GAPS 12180-12250' DUE TO STICKING TOOL.
LDT-CNT PULLED TIGHT AT SEVERAL DEPTHS FROM AROUND 13000' UP. THIS MAY AFFECT LOG QUALITY.
~ASCII -----------------------------------------------------
# ...
 8600.00000    -999.25  999.00100    -999.25    -999.25    -999.25    -999.25    -999.25    1.00100    -999.25  102.28390    -999.25  102.28390    -999.25   80.83930   80.83930    1.00100    0.95980    0.95980    -999.25    -999.25    -999.25    -999.25    1.13400    0.30870    0.30870  -13.84600  -12.67690    1.13400    -999.25 2924.72050
 8650.00000    -999.25  902.93450    -999.25    -999.25    -999.25    -999.25    -999.25    1.10750    -999.25   88.82490    -999.25   88.82490    -999.25   80.85140   80.85140    1.10750    1.05960    1.05960    -999.25    -999.25    -999.25    -999.25    1.26040    0.26920    0.26920  -12.15180  -10.47430    1.26040    -999.25 2981.57370
 8700.00000    -999.25  793.46190    -999.25    -999.25    -999.25    -999.25    -999.25    1.26030    -999.25   92.80930    -999.25   92.80930    -999.25   84.93100   84.93100    1.26030    1.18180    1.18180    -999.25    -999.25    -999.25    -999.25    1.37190    0.27960    0.27960  -11.15690   -8.94900    1.37190    -999.25 3027.62010
 8750.00000    -999.25  973.61500    -999.25    -999.25    -999.25    -999.25    -999.25    1.02710    -999.25  103.64970    -999.25  103.64970    -999.25   83.04740   83.04740    1.02710    0.99600    0.99600    -999.25    -999.25    -999.25    -999.25    1.21540    0.31360    0.31360   -9.63900   -6.80070    1.21540    -999.25 3000.19580
 8800.00000    -999.25  728.75670    -999.25    -999.25    -999.25    -999.25    -999.25    1.37220    -999.25   85.34400    -999.25   85.34400    -999.25   83.01910   83.01910    1.37220    1.31860    1.31860    -999.25    -999.25    -999.25    -999.25    1.72320    0.23930    0.23930   -0.71760   -6.18610    1.72320    -999.25 3009.00340
 8850.00000    -999.25  329.90230    -999.25    -999.25    -999.25    -999.25    -999.25    3.03120    -999.25   75.95820    -999.25   75.95820    -999.25   76.04570   76.04570    3.03120    2.86920    2.86920    -999.25    -999.25    -999.25    -999.25    4.18420    0.20480    0.20480   -8.05600   -6.74630    4.18420    -999.25 2950.79590
 8900.00000    -999.25  967.30510    -999.25    -999.25    -999.25    -999.25    -999.25    1.03380    -999.25  105.39410    -999.25  105.39410    -999.25   78.70150   78.70150    1.03380    0.97990    0.97990    -999.25    -999.25    -999.25    -999.25    1.10610    0.32080    0.32080  -12.20740  -10.99750    1.10610    -999.25 3040.71410
 8950.00000    -999.25  981.93240    -999.25    -999.25    -999.25    -999.25    -999.25    1.01840    -999.25   96.55230    -999.25   96.55230    -999.25   73.95030   73.95030    1.01840    0.98660    0.98660    -999.25    -999.25    -999.25    -999.25    1.26120    0.29440    0.29440  -11.83980  -10.72980    1.26120    -999.25 3087.85380
 9000.00000    -999.25  927.55770    -999.25    -999.25    -999.25    -999.25    -999.25    1.07810    -999.25  101.73720    -999.25  101.73720    -999.25   72.08670   72.08670    1.07810    1.05310    1.05310    -999.25    -999.25    -999.25    -999.25    1.26620    0.30810    0.30810   -7.79340   -6.78320    1.26620    -999.25 3038.78320
 9050.00000    -999.25  933.70680    -999.25    -999.25    -999.25    -999.25    -999.25    1.07100    -999.25   95.73500    -999.25   95.73500    -999.25   79.81270   79.81270    1.07100    1.04270    1.04270    -999.25    -999.25    -999.25    -999.25    1.30210    0.28960    0.28960   -9.13650   -8.22610    1.30210    -999.25 3052.66210
 9100.00000    -999.25  786.96780    -999.25    -999.25    -999.25    -999.25    -999.25    1.27070    -999.25   93.10630    -999.25   93.10630    -999.25   70.12330   70.12330    1.27070    1.23460    1.23460    -999.25    -999.25    -999.25    -999.25    1.40570    0.27900    0.27900  -10.02680   -9.21630    1.40570    -999.25 3042.80200
 9150.00000    -999.25  660.32750    -999.25    -999.25    -999.25    -999.25    -999.25    1.51440    -999.25   87.15680    -999.25   87.15680    -999.25   91.73930   91.73930    1.51440    1.47450    1.47450    -999.25    -999.25    -999.25    -999.25    1.84950    0.25730    0.25730   -7.25350   -6.54280    1.84950    -999.25 3080.40260
 9200.00000    -999.25  804.76420    -999.25    -999.25    -999.25    -999.25    -999.25    1.24260    -999.25   93.41510    -999.25   93.41510    -999.25   87.70360   87.70360    1.24260    1.21080    1.21080    -999.25    -999.25    -999.25    -999.25    1.45530    0.28140    0.28140   -5.58460   -4.97370    1.45530    -999.25 3071.02270
 9250.00000    -999.25  593.11980    -999.25    -999.25    -999.25    -999.25    -999.25    1.68600    -999.25   90.59600    -999.25   90.59600    -999.25   98.86890   98.86890    1.68600    1.64290    1.64290    -999.25    -999.25    -999.25    -999.25    1.89520    0.27020    0.27020   -4.25490   -3.81600    1.89520    -999.25 3107.82450
 9300.00000    -999.25  809.97890    -999.25    -999.25    -999.25    -999.25    -999.25    1.23460    -999.25   91.63180    -999.25   91.63180    -999.25   91.54640   91.54640    1.23460    1.20290    1.20290    -999.25    -999.25    -999.25    -999.25    1.40860    0.27560    0.27560   -7.02220   -7.04410    1.40860    -999.25 3170.11910
 9350.00000    -999.25  656.34020    -999.25    -999.25    -999.25    -999.25    -999.25    1.52360    -999.25   89.99900    -999.25   89.99900    -999.25   88.38980   88.38980    1.52360    1.48450    1.48450    -999.25    -999.25    -999.25    -999.25    1.68440    0.27010    0.27010   -4.46230   -4.94490    1.68440    -999.25 3178.16380
 9400.00000    -999.25  678.84050    -999.25    -999.25    -999.25    -999.25    -999.25    1.47310    -999.25   92.43810    -999.25   92.43810    -999.25  100.50530  100.50530    1.47310    1.43560    1.43560    -999.25    -999.25    -999.25    -999.25    1.64910    0.27910    0.27910   -4.88490   -5.82830    1.64910    -999.25 3196.56880
 9450.00000    -999.25  516.26230    -999.25    -999.25    -999.25    -999.25    -999.25    1.93700    -999.25   84.21350    -999.25   84.21350    -999.25   93.98180   93.98180    1.93700    1.86520    1.86520    -999.25    -999.25    -999.25    -999.25    2.30040    0.24630    0.24630   -3.79050   -5.19460    2.30040    -999.25 3228.63530
 9500.00000    -999.25  574.21760    -999.25    -999.25    -999.25    -999.25    -999.25    1.74150    -999.25   89.64220    -999.25   89.64220    -999.25   95.85160   95.85160    1.74150    1.69470    1.69470    -999.25    -999.25    -999.25    -999.25    2.02080    0.26470    0.26470   -1.86320   -3.72800    2.02080    -999.25 3181.70120
 9550.00000    -999.25  693.67370    -999.25    -999.25    -999.25    -999.25    -999.25    1.44160    -999.25   92.39170    -999.25   92.39170    -999.25  104.06070  104.06070    1.44160    1.40220    1.40220    -999.25    -999.25    -999.25    -999.25    1.69540    0.27940    0.27940   -3.18010   -5.50570    1.69540    -999.25 3323.79860
 9600.00000    -999.25  596.26740    -999.25    -999.25    -999.25    -999.25    -999.25    1.67710    -999.25   89.86340    -999.25   89.86340    -999.25  101.76510  101.76510    1.67710    1.63300    1.63300    -999.25    -999.25    -999.25    -999.25    2.06180    0.26910    0.26910   -4.74400   -7.53030    2.06180    -999.25 3299.32740
 9650.00000    -999.25  527.53750    -999.25    -999.25    -999.25    -999.25    -999.25    1.89560    -999.25   82.41240    -999.25   82.41240    -999.25   86.04720   86.04720    1.89560    1.84600    1.84600    -999.25    -999.25    -999.25    -999.25    2.20200    0.23420    0.23420   -1.92780   -5.17480    2.20200    -999.25 3287.40580
 9700.00000    -999.25  536.27930    -999.25    -999.25    -999.25    -999.25    -999.25    1.86470    -999.25   86.54440    -999.25   86.54440    -999.25   82.74160   82.74160    1.86470    1.80570    1.80570    -999.25    -999.25    -999.25    -999.25    2.10410    0.25390    0.25390   -0.09090   -3.79870    2.10410    -999.25 3316.31640
 9750.00000    -999.25  447.90830    -999.25    -999.25    -999.25    -999.25    -999.25    2.23260    -999.25   83.61150    -999.25   83.61150    -999.25   86.17390   86.17390    2.23260    2.20100    2.20100    -999.25    -999.25    -999.25    -999.25    2.58200    0.24440    0.24440    0.03750   -4.12180    2.58200    -999.25 3286.13650
