~Version ---------------------------------------------------
VERS. 2.0 : CWLS log ASCII Standard -VERSION 2.0
WRAP.  NO : ONE LINE PER DEPTH STEP
~Well ------------------------------------------------------
STRT.F                   300.0 : START DEPTH
STOP.F                 13200.0 : STOP DEPTH
STEP.F                50.00000 : STEP LENGTH
NULL.                  -999.25 : NULL VALUE
COMP.              TEXACO INC. : COMPANY
WELL.     M. D. BURNS TRUST #1 : WELL
FLD .                  WILDCAT : FIELD
LOC .                          : LOCATION
CNTY.                 LA SALLE : COUNTY
STAT.                    TEXAS : STATE
CTRY. UNITED STATES OF AMERICA : COUNTRY
SRVC.                  Unknown : SERVICE COMPANY
DATE.              05-Aug-1984 : LOGDATE
API .           42283310960000 : API NUMBER
UWI .           42283310960000 : UNIQUE WELL ID
SLAT.WGS84       28.6375495728 : SURFACE LATITUDE
SLON.WGS84      -99.1304898901 : SURFACE LONGITUDE
~Curve Information -----------------------------------------
DEPT.F                 : 
SP  .MV   07 010 01 00 : SPONTANEOUS POTENTIAL
SFL .OHMM 07 220 01 00 : SPHERICAL FOCUSED RESISTIVITY
ILD .OHMM 07 120 46 00 : DEEP INDUCTION RESISTIVITY
ILM .OHMM 07 120 44 00 : 
GR  .GAPI 07 310 01 00 : GAMMA RAY
CALI.IN   07 280 01 00 : CALIPER
DCAL.IN   07 280 30 00 : DIFFERENTIAL CALIPER
DT  .US/F 60 520 00 00 : NO SPACING
NEUT.NAPI 40 330 01 00 : 
~Params ----------------------------------------------------
EKB .F                  536.0 : KELLY BUSHING
EGL .F                    506 : ELEVATION GROUND LEVEL
EDF .F                    535 : ELEVATION DERRICK FLOOR
EPD .F                    506 : ELEVATION PERMANENT DATUM
TD  .F                13219.0 : TOTAL DEPTH
DATE.             15-NOV-1984 : DATE LOGGED
CLNT.                 A2DTECH : CLIENT CODE
SL  . 1780' FSWL & 1500' FNWL : SURFACE LOCATION
PD  .                      GL : PERMANENT DATUM
LMF .                      KB : LOG MEASURED FROM
DMF .                      KB : DRILLING MEASURED FROM
DAPD.F                     30 : FEET ABOVE PERMANENT DATUM
DD  .F                  13219 : DEPTH DRILLER
DL  .F                  13218 : DEPTH LOGGER
BLI .F                  13212 : BOTTOM LOG INTERVAL
TLI .F                  11650 : TOP LOG INTERVAL
CS1 .IN                 7.625 : CASING SIZE
CBD1.         7.625" @ 11049' : CASING DRILLER 1
CBL1.F                  11049 : CASING LOGGER 1
BS1 .IN                   6.5 : BIT SIZE
BSD1.F                  13219 : DEPTH DRILLED WITH BIT1
DFT .          LIGNOSULFONATE : TYPE FLUID IN HOLE
DFD .                    10.5 : DENSITY
DFV .                      49 : VISCOSITY
DFPH.                    11.5 : PH
DFL .                       9 : FLUID LOSS
MSS .              CIRC. TANK : SOURCE OF SAMPLE
RMS .OHMM                0.98 : RM
RMF .OHMM                0.92 : RMF
RMC .OHMM                1.64 : RMC
MFSS.                    MEAS : SOURCE RMF.
MCSS.                    CALC : SOURCE RMC.
RMB .OHMM                0.33 : RM. AT BHT
BHT .F                    264 : BHT.
TCS .HRS                  530 : TIME CIRC. STOPPED
TLAB.                    1600 : TIME LOGGER AT BOTTOM
LUN .                    8268 : LOGGING UNIT NUMBER
LUL .                  LAREDO : LOGGING UNIT LOCATION
ENGI.                JAY KING : RECORDED BY
WITN.      MIKATAVAGE/ FARREL : WITNESSED BY
ORIG.                5" PRINT : ORIGIN OF DATA
UWI .          42283310960000 : UNIQUE WELL ID
DICO.  A2D TECHNOLOGIES, INC. : DIGITIZING COMPANY
~Other -----------------------------------------------------
~ASCII -----------------------------------------------------
# ...
 11200.00000  -28.50400   44.33200   23.61300   23.35600   71.82600    7.50700    -999.25   63.54700  563.57900
 11250.00000  -32.87900   66.04100   31.18400   22.37500   53.99000    7.50500    -999.25   57.85900  629.58600
 11300.00000  -49.74100   16.05100   15.60400   11.28100   64.90700    8.72300    -999.25   74.89600  242.87300
 11350.00000  -50.65300   32.04100   17.09200   14.15600   72.93700    7.58400    -999.25   72.77400  354.69000
 11400.00000  -45.52200   34.59300   18.47800   17.08700   74.48800    8.44700    -999.25   80.26900  283.24300
 11450.00000  -53.32400   56.55200   44.26500   43.86900   49.17600    7.03000    -999.25   65.93600  703.10200
 11500.00000  -32.98300  112.47600   56.40600   65.11800   63.86300    7.19000    -999.25   65.81100  611.29500
 11550.00000  -43.23800  106.60200   60.06400   55.90200   67.02800    7.21200    -999.25   64.60800  691.65100
 11600.00000  -15.23200   51.10200   27.50600   28.74700   80.82900    7.25300    -999.25   66.90600  649.97000
 11650.00000   -6.45900  261.08500   50.64500  114.80200   33.14700    7.23100    -999.25   58.65200  809.03200
 11700.00000  -10.51400   20.45400   11.10900   11.41200   70.47500    7.10700    -999.25   73.03900  523.36300
 11750.00000  -13.43900   10.11100    8.07700    7.56700   83.28100    7.46700    -999.25   71.66700  280.37000
 11800.00000  -39.11200   43.35400   50.00700   70.43600   37.39100    6.72500    -999.25   51.07800    -999.25
 11850.00000  -59.13100  101.98900  138.06200   93.46200   23.99700    6.59200    -999.25   51.33000    -999.25
 11900.00000  -55.01200   42.63500   21.97700   35.57300   37.15000    6.55700    -999.25   53.93900    -999.25
 11950.00000  -42.73000  118.40400  162.36600  184.85900   19.41100    6.55200    -999.25   48.52900    -999.25
 12000.00000  -75.80200  114.58700  136.74900  245.85100   34.73400    6.68800    -999.25   50.09800    -999.25
 12050.00000  -53.21800   95.03200  156.46700  503.45800   24.40600    6.71500    -999.25   40.88200    -999.25
 12100.00000  -78.69600  134.69200  381.71600  351.30500   31.21400    6.70800    -999.25   49.51000    -999.25
 12150.00000  -74.32800  126.47600  232.97400  396.00500   32.61300    6.64200    -999.25   48.80900    -999.25
 12200.00000  -82.05100  117.23700   72.63700  239.33300   29.52300    6.53200    -999.25   48.29100    -999.25
 12250.00000  -67.73300  114.90400  116.71100  129.07200   29.93600    6.53700    -999.25   51.61800    -999.25
 12300.00000  -63.98500  140.92300  229.22900  267.60100   28.58590    6.68700    -999.25   50.29400    -999.25
 12350.00000   -7.35210  645.86890  170.00650 1711.64200   40.70120    6.47330    -999.25   49.54700    -999.25
 12400.00000    1.90100  341.82700  639.19900  207.34320   36.48700    6.39400    -999.25   49.15400    -999.25
 12450.00000  -32.98100  145.44100  126.53200  180.84200   25.45800    6.42200    -999.25   51.71300    -999.25
 12500.00000   -2.46000  168.95100  182.82800   82.97800   26.59800    6.39700    -999.25   52.21300    -999.25
 12550.00000  -10.20000  333.62000  313.25600  107.52800   28.45300    6.43600    -999.25   49.70200    -999.25
 12600.00000   25.76800   41.18300   30.49800   22.88300   54.97200    6.47000    -999.25   56.09300    -999.25
 12650.00000   -9.93200  356.01500  402.83200   93.24900   28.13000    6.44100    -999.25   48.86000    -999.25
 12700.00000  -22.10900  101.88400   28.23000   22.62000   25.10800    6.50800    -999.25   50.32000    -999.25
 12750.00000   11.98400    8.64000    5.63600    4.82100  106.60200    8.21700    -999.25   77.89400    -999.25
 12800.00000    1.74600    7.88100    6.14300  255.38000   90.46900    7.54300    -999.25   49.35000    -999.25
 12850.00000  -27.45500   40.37700   14.68500   18.28600   64.98900    6.36300    -999.25   54.67300    -999.25
 12900.00000   -0.79800   53.93000   16.81000   17.92900   69.31900    6.43900    -999.25   57.41000    -999.25
 12950.00000  -34.87100   21.20200   26.53600   18.86600   42.61100    6.32400    -999.25   51.71300    -999.25
 13000.00000  -16.67500   41.56900   38.85300   32.86700   55.42400    6.45900    -999.25   52.32600    -999.25
 13050.00000   10.44700   18.15300   11.10900   11.00600  125.43500    6.34300    -999.25   67.44700    -999.25
 13100.00000    5.48400   55.67400   22.27700   22.98700   63.24900    6.17600    -999.25   56.33900    -999.25
 13150.00000   -2.98500   55.43600   29.02800   32.62200   41.12200    6.28400    -999.25   50.33500    -999.25
 13200.00000  -11.02500    9.20000    8.09600    8.60900    -999.25    6.73000    -999.25   54.46900    -999.25
