~Version ---------------------------------------------------
VERS. 2.0 : CWLS log ASCII Standard -VERSION 2.0
WRAP. YES : Multiple lines per depth step
~Well ------------------------------------------------------
STRT.FT                   3900.0 : START DEPTH
STOP.FT                   8150.0 : STOP DEPTH
STEP.FT                 50.00000 : STEP LENGTH
NULL.                    -999.25 : NULL VALUE
COMP. CHAMPLIN PETROLEUM COMPANY : COMPANY
WELL.          RAYMOND ZBORIL #1 : WELL
FLD .                   GIDDINGS : FIELD
LOC .                            : LOCATION
CNTY.                   BURLESON : COUNTY
STAT.                      TEXAS : STATE
CTRY.   UNITED STATES OF AMERICA : COUNTRY
SRVC.               Schlumberger : SERVICE COMPANY
DATE.                29-Aug-1980 : LOGDATE
API .             42051309240000 : API NUMBER
UWI .             42051309240000 : UNIQUE WELL ID
SLAT.WGS84         30.3934292239 : SURFACE LATITUDE
SLON.WGS84        -96.7526949791 : SURFACE LONGITUDE
~Curve Information -----------------------------------------
DEPT    .FT    : DEPTH
CALWS   .IN    : CALIPER (DCALED+8.75)
CONDWS  .MMHO  : CONDUCTIVITY (1000/DRESWS)
DCALED  .IN    : DIFFERENTIAL CALIPER
DCORWS  .G/C3  : DENSITY CORRECTION (DRHOED)
DENWS   .G/C3  : BULK DENSITY  (DPHISSED M=2.65 F=1/DPHILSED M=2.71 F=1)
DPHILSED.V/V   : DENSITY POROSITY LIMESTONE  (EDITED TOOL PULLS)
DPHISSED.V/V   : DENSITY POROSITY SANDSTONE  (EDITED TOOL PULLS)
DPOWS   .V/V   : DENSITY POROSITY (M=2.71 F=1 FROM DENWS)
DRESWS  .OHMM  : DEEP RESISTIVITY (ILDED)
DRHOED  .G/C3  : DENSITY CORRECTION (FILLED MISSING)(EDITED TOOL PULLS)
GRRED   .GAPI  : GAMMA RAY  (EDITED TOOL PULLS)
GRWS    .GAPI  : GAMMA RAY  (GRRED)
ILDED   .OHMM  : DEEP INDUCTION RESISTIVITY  (EDITED TOOL PULLS)
ILMED   .OHMM  : MEDIUM INDUCTION RESISTIVITY (EDITED TOOL PULLS)
MRESWS  .OHMM  : MEDIUM RESISTIVITY (ILMED)
NPHILSED.V/V   : NEUTRON POROSITY LIMESTONE (EDITED TOOL PULLS)
NPHISSED.V/V   : NEUTRON POROSITY SANDSTONE (EDITED TOOL PULLS)
NPOWS   .V/V   : NEUTRON POROSITY LIMESTONE (NPHISSED CONVERTED TO LS/NPHILSED)
SFLUED  .OHMM  : SPHERICALLY FOCUSED RESISTIVITY (EDITED TOOL PULLS)
SPRED   .MV    : SPONTANEOUS POTENTIAL  (EDITED TOOL PULLS)
SPWS    .MV    : SPONTANEOUS POTENTIAL BASELINE 0 MV (SPRED)
SRESWS  .OHMM  : SHALLOW RESISTIVITY (SFLUED)
~Params ----------------------------------------------------
PD  .                     GL : PERMANENT DATUM
EPD .FT                  334 : ELEVATION PERMANENT DATUM
LMF .                     KB : LOG MEASURED FROM
DAPD.FT                   14 : FEET ABOVE PERMANENT DATUM
DMF .                     KB : DRILLING MEASURED FROM
EKB .FT                  348 : KELLY BUSHING
EDF .FT                  347 : DRILLING FLOOR
EGL .FT                  334 : GROUND LEVEL
DATE.               08/29/80 : RUN DATE
RUN .                      1 : RUN NUMBER
DD  .FT                 8167 : DEPTH DRILLER
DL  .FT                 8178 : DEPTH LOGGER
BLI .FT                 8172 : BOTTOM LOG INTERVAL
TLI .FT                 3865 : TOP LOG INTERVAL
CS  .IN                9.625 : CASING SIZE
CBD .FT                 3850 : CASING BOTTOM DRILLER
CBL .FT                 3865 : CASING BOTTOM LOGGER
BS  .IN                 8.75 : BIT SIZE
BSD .FT                 8167 : BIT SIZE AT DEPTH
DFT .                 BEN-EX : DRILLING FLUID TYPE
DFD .                    9.7 : DRILLING FLUID DENSITY
DFV .                     38 : DRILLING FLUID VISCOSITY
DFPH.                      9 : DRILLING FLUID PH
DFL .                    9.6 : DRILLING FLUID LOSS
MSS .              CIRC TANK : MUD SAMPLE SOURCE
RMS .OHMM               1.37 : RESISTIVITY MUD SAMPLE
MST .DEGF                 75 : MUD SAMPLE TEMPERATURE
RMF .OHMM               1.02 : RESISTIVITY MUD FILTRATE SAMPLE
MFST.DEGF                 75 : MUD FILTRATE SAMPLE TEMPERATURE
RMC .OHMM                2.1 : RESISTIVITY MUD CAKE
MCST.DEGF                 75 : MUD CAKE SAMPLE TEMPERATURE
MFSS.                      M : MUD FILTRATE SAMPLE SOURCE
MCSS.                      C : MUD CAKE SAMPLE SOURCE
RMB .OHMM               0.56 : RESISTIVITY MUD AT BHT
TCS .HRS                2400 : TIME CIRCULATED STOPPED
TLAB.HRS                1800 : TIME LOGGER AT BOTTOM
CLNT.                A2DTECH : CLIENT CODE
ORIG.            2" 5" PRINT : ORIGIN OF DATA
UWI .         42051309240000 : UNIQUE WELL ID
DICO. A2D Technologies, Inc. : DIGITIZING COMPANY
~Other -----------------------------------------------------
~ASCII -----------------------------------------------------
# ...
 5500.00000   10.89680  806.25650    2.14680    0.09150    2.47820    -999.25    0.10410    0.13550    1.24030    0.09150   82.37730   82.37730    1.24030    1.21740    1.21740    -999.25    0.33110    0.37910    2.14530  -29.01800   -5.92550    2.14530
 5550.00000   11.72470  810.63550    2.97470    0.09450    2.43450    -999.25    0.13060    0.16110    1.23360    0.09450   79.17880   79.17880    1.23360    1.21090    1.21090    -999.25    0.39370    0.42540    2.07630  -27.40850   -4.75790    2.07630
 5600.00000   11.12880  801.86030    2.37880    0.06260    2.45690    -999.25    0.11700    0.14800    1.24710    0.06260   88.10480   88.10480    1.24710    1.22280    1.22280    -999.25    0.36550    0.40490    2.22550  -24.55020   -2.34150    2.22550
 5650.00000   10.36630  908.84310    1.61630    0.07920    2.36440    -999.25    0.17310    0.20210    1.10030    0.07920   93.09600   93.09600    1.10030    1.08000    1.08000    -999.25    0.38260    0.41740    1.66130  -21.21930    0.54750    1.66130
 5700.00000   10.69810  905.96120    1.94810    0.10090    2.39620    -999.25    0.15380    0.18350    1.10380    0.10090   96.33280   96.33280    1.10380    1.04800    1.04800    -999.25    0.32200    0.37200    1.65470  -22.24070   -0.91590    1.65470
 5750.00000   10.64610  785.60770    1.89610    0.08260    2.41190    -999.25    0.14430    0.17430    1.27290    0.08260   90.95170   90.95170    1.27290    1.24950    1.24950    -999.25    0.35740    0.39890    1.91600  -21.89170   -1.00880    1.91600
 5800.00000    9.26060  534.75930    0.51060    0.09950    2.48750    -999.25    0.09850    0.13010    1.87000    0.09950   73.53830   73.53830    1.87000    1.83560    1.83560    -999.25    0.31240    0.36460    2.85160  -22.61530   -2.17430    2.85160
 5850.00000    9.38780  565.89890    0.63780    0.05850    2.45650    -999.25    0.11730    0.14830    1.76710    0.05850   90.50950   90.50950    1.76710    1.72560    1.72560    -999.25    0.34500    0.38960    2.75620  -23.71980   -3.72070    2.75620
 5900.00000   10.45210  744.21370    1.70210    0.05050    2.39090    -999.25    0.15700    0.18660    1.34370    0.05050   84.47080   84.47080    1.34370    1.31910    1.31910    -999.25    0.38520    0.41930    2.08870  -22.49960   -2.94240    2.08870
 5950.00000   10.37810  726.37460    1.62810    0.07230    2.36080    -999.25    0.17530    0.20420    1.37670    0.07230   89.26550   89.26550    1.37670    1.35140    1.35140    -999.25    0.35390    0.39630    2.07490  -20.70930   -1.59410    2.07490
 6000.00000   10.56990  879.73960    1.81990    0.06560    2.39050    -999.25    0.15730    0.18690    1.13670    0.06560  116.13940  116.13940    1.13670    1.12090    1.12090    -999.25    0.34730    0.39130    1.82700  -19.98080   -1.30750    1.82700
 6050.00000   11.13200  911.66020    2.38200    0.10000    2.39240    -999.25    0.15610    0.18570    1.09690    0.10000  124.91250  124.91250    1.09690    1.07410    1.07410    -999.25    0.42600    0.44840    1.77010  -19.94600   -1.71460    1.77010
 6100.00000   10.09820  525.40330    1.34820    0.07190    2.51800    -999.25    0.08000    0.11230    1.90330    0.07190   79.27980   79.27980    1.90330    1.86700    1.86700    -999.25    0.30550    0.35920    2.82160  -21.60120   -3.81170    2.82160
 6150.00000    9.79830  538.85110    1.04830    0.10000    2.49920    -999.25    0.09140    0.12330    1.85580    0.10000   78.07260   78.07260    1.85580    1.81870    1.81870    -999.25    0.30850    0.36160    2.79930  -21.11410   -3.76660    2.79930
 6200.00000    9.84260  521.24050    1.09260    0.10000    2.50580    -999.25    0.08740    0.11940    1.91850    0.10000   80.49890   80.49890    1.91850    1.88270    1.88270    -999.25    0.30270    0.35700    2.99990  -20.79510   -3.88950    2.99990
 6250.00000    9.48920  503.22060    0.73920    0.02510    2.47860    -999.25    0.10390    0.13530    1.98720    0.02510   87.19250   87.19250    1.98720    1.95070    1.95070    -999.25    0.29850    0.35370    3.03730  -18.74480   -2.28110    3.03730
 6300.00000   11.92920  645.28620    3.17920    0.09630    2.50990    -999.25    0.08490    0.11700    1.54970    0.09630   82.33090   82.33090    1.54970    1.52080    1.52080    -999.25    0.32160    0.37170    2.39560  -25.42320   -9.40140    2.39560
 6350.00000   12.61390  766.10740    3.86390    0.10000    2.45790    -999.25    0.11640    0.14740    1.30530    0.10000   92.16220   92.16220    1.30530    1.28110    1.28110    -999.25    0.35690    0.39850    2.12270  -22.80240   -7.22260    2.12270
 6400.00000   12.21270  788.83020    3.46270    0.10000    2.46640    -999.25    0.11130    0.14250    1.26770    0.10000   82.29790   82.29790    1.26770    1.24440    1.24440    -999.25    0.37400    0.41110    2.08450  -21.48820   -6.35030    2.08450
 6450.00000   12.19600  762.89290    3.44600    0.08720    2.48150    0.13360    -999.25    0.13360    1.31080    0.08720   92.89790   92.89790    1.31080    1.28700    1.28700    0.32200    -999.25    0.32200    2.19450  -18.96800   -4.27200    2.19450
 6500.00000   11.21720  714.33670    2.46720    0.07330    2.48270    0.13290    -999.25    0.13290    1.39990    0.07330   78.75440   78.75440    1.39990    1.44040    1.44040    0.27940    -999.25    0.27940    2.24890  -19.64340   -5.38930    2.24890
 6550.00000    9.20650  347.93500    0.45650    0.04600    2.58040    0.07580    -999.25    0.07580    2.87410    0.04600   49.96300   49.96300    2.87410    3.91960    3.91960    0.15280    -999.25    0.15280    5.68140  -23.08540   -9.27330    5.68140
 6600.00000    9.22910  157.31930    0.47910    0.00350    2.52240    0.10970    -999.25    0.10970    6.35650    0.00350   34.36950   34.36950    6.35650    6.56040    6.56040    0.13550    -999.25    0.13550    6.28120  -23.23400   -9.86380    6.28120
 6650.00000    0.00170  404.12200   -8.74830    -999.25    -999.25    -999.25    -999.25    -999.25    2.47450    -999.25   54.40200   54.40200    2.47450    2.53400    2.53400    0.23030    -999.25    0.23030    3.35560  -16.16950   -3.24120    3.35560
 6700.00000    9.66410    -999.25    0.91410    0.07320    2.52090    0.11060    -999.25    0.11060    -999.25    0.07320   76.88690   76.88690    -999.25    -999.25    -999.25    0.30580    -999.25    0.30580    -999.25    -999.25    -999.25    -999.25
 6750.00000   10.94490  566.25140    2.19490    0.10000    2.50500    0.11990    -999.25    0.11990    1.76600    0.10000   86.61300   86.61300    1.76600    1.83180    1.83180    0.26050    -999.25    0.26050    2.81040  -16.86000   -4.85620    2.81040
 6800.00000   10.30750  388.66650    1.55750    0.03830    2.55110    0.09290    -999.25    0.09290    2.57290    0.03830   86.34990   86.34990    2.57290    2.63900    2.63900    0.21100    -999.25    0.21100    4.42000  -14.10970   -2.57200    4.42000
 6850.00000   10.41770  449.55940    1.66770    0.03930    2.57050    0.08160    -999.25    0.08160    2.22440    0.03930   84.50920   84.50920    2.22440    2.31140    2.31140    0.21060    -999.25    0.21060    3.76350  -14.17050   -3.09900    3.76350
 6900.00000   13.48980  527.34270    4.73980    0.10000    2.43880    0.15860    -999.25    0.15860    1.89630    0.10000   80.38710   80.38710    1.89630    1.81780    1.81780    0.32930    -999.25    0.32930    2.81450  -14.38550   -3.78010    2.81450
 6950.00000   14.13230  537.43210    5.38230    0.10000    2.50380    0.12060    -999.25    0.12060    1.86070    0.10000   80.28620   80.28620    1.86070    1.92680    1.92680    0.29470    -999.25    0.29470    3.04240  -16.35060   -6.21130    3.04240
 7000.00000   12.70260  555.30880    3.95260    0.10000    2.51030    0.11680    -999.25    0.11680    1.80080    0.10000   80.98710   80.98710    1.80080    1.86380    1.86380    0.28370    -999.25    0.28370    2.91570  -14.95440   -5.28130    2.91570
 7050.00000   13.04920  505.56120    4.29920    0.10000    2.51390    0.11470    -999.25    0.11470    1.97800    0.10000   79.92900   79.92900    1.97800    2.04720    2.04720    0.27380    -999.25    0.27380    3.37230  -14.82360   -5.61660    3.37230
