~Version ---------------------------------------------------
VERS. 2.0 : CWLS log ASCII Standard -VERSION 2.0
WRAP. YES : MULTIPLE LINES PER DEPTH STEP
~Well ------------------------------------------------------
STRT.FT                 2050.0 : START DEPTH
STOP.FT                15100.0 : STOP DEPTH
STEP.FT               50.00000 : STEP LENGTH
NULL.                  -999.25 : NULL VALUE
COMP. BUTTES RESOURCES COMPANY : COMPANY
WELL.             KING GAIL #1 : WELL
FLD .                  WILDCAT : FIELD
LOC .                          : LOCATION
CNTY.                     LEON : COUNTY
STAT.                    TEXAS : STATE
CTRY. UNITED STATES OF AMERICA : COUNTRY
SRVC.             Schlumberger : SERVICE COMPANY
DATE.              13-Apr-1977 : LOGDATE
API .           42289301060000 : API NUMBER
UWI .           42289301060000 : UNIQUE WELL ID
SLAT.WGS84        31.383896527 : SURFACE LATITUDE
SLON.WGS84      -96.2493859425 : SURFACE LONGITUDE
~Curve Information -----------------------------------------
DEPT    .FT    : DEPTH FEET
CALDED  .IN    : CALIPER FROM DENSITY LOG [AJD TO ILDED]
CALWS   .IN    : CALIPER [CALDED]
CONDWS  .MMHO  : CONDUCTIVITY [1000/DRESWS]
CORRED  .G/C3  : DENSITY CORRECTION FROM DENSITY LOG [AJD TO ILDED]
DCORWS  .G/C3  : DENSITY CORRECTION [CORRED]
DENWS   .G/C3  : BULK DENSITY [M=2.71 F=1.0] [CALCULATED FROM DPOWS]
DPHILSED.V/V   : DENSITY POROSITY [M=2.71 F=1.0] FROM DENSITY LOG [AJD TO ILDED]
DPOWS   .V/V   : DENSITY POROSITY [M=2.71 F=1.0] [DPHILSED]
DRESWS  .OHMM  : DEEP RESISTIVITY [ILDED]
DRHOED  .G/C3  : DENSITY CORRECTION FROM DENSITY LOG [AJD TO ILDED]
DTED    .US/F  : DELTA TIME FROM SONIC LOG [AJD TO RHOBED]
DTWS    .US/F  : DELTA TIME [DTED]
GRDED   .GAPI  : GAMMA RAY FROM DENSITY LOG [AJD TO ILDED]
GRWS    .GAPI  : GAMMA RAY [GRDED]
ILDED   .OHMM  : INDUCTION LOG DEEP RESISTIVITY
ILMED   .OHMM  : INDUCTION LOG MEDIUM RESISTIVITY
LL8ED   .OHMM  : 8 INCH LATEROLOG RESISTIVITY
MCALED  .IN    : CALIPER MICROLOG [AJD TO SPRED]
MRESWS  .OHMM  : MEDIUM RESISTIVITY [ILMED]
NPHILSED.V/V   : NEUTRON POROSITY LIMESTONE FROM DENSITY LOG [AJD TO ILDED]
NPOWS   .V/V   : NEUTRON POROSITY LIMESTONE [NPHILSED]
RHOBED  .G/C3  : BULK DENSITY FROM DENSITY LOG [AJD TO ILDED]
SFLED   .OHMM  : SPHERICALLY FOCUSED LOG RESISTIVITY [AJD TO ILDED]
SPMED   .MV    : SPONTANEOUS POTENTIAL FROM MICROLOGLOG [AJD TO SPRED]
SPRED   .MV    : SPONTANEOUS POTENTIAL FROM RESISTIVITY LOG
SPWS    .MV    : SPONTANEOUS POTENTIAL [BASELINE 0 MV] [SPRED]
SRESWS  .OHMM  : SHALLOW RESISTIVITY [SPL SFLED <14485> LL8ED]
TENDED  .LBF   : TENSION FROM DENSITY LOG
~Params ----------------------------------------------------
PD  .                     GL : PERMANENT DATUM
EPD .FT                  503 : ELEVATION PERMANENT DATUM
LMF .                     KB : LOG MEASURED FROM
DAPD.FT                   18 : FEET ABOVE PERMANENT DATUM
DMF .                     KB : DRILLING MEASURED FROM
EKB .FT                  521 : KELLY BUSHING
EDF .FT                  520 : DRILLING FLOOR
EGL .FT                  503 : GROUND LEVEL
DATE.               04/13/77 : RUN DATE
RUN .                      1 : RUN NUMBER
DD  .FT                15147 : DEPTH DRILLER
DL  .FT                15148 : DEPTH LOGGER
BLI .FT                15147 : BOTTOM LOG INTERVAL
TLI .FT                13098 : TOP LOG INTERVAL
CS  .IN                    7 : CASING SIZE
CBD .FT                13097 : CASING BOTTOM DRILLER
CBL .FT                13098 : CASING BOTTOM LOGGER
BS  .IN                    6 : BIT SIZE
BSD .FT                15147 : BIT SIZE AT DEPTH
DFT .               LOW LIME : DRILLING FLUID TYPE
DFD .                   15.7 : DRILLING FLUID DENSITY
DFV .                     48 : DRILLING FLUID VISCOSITY
DFPH.                   12.5 : DRILLING FLUID PH
DFL .                   10.8 : DRILLING FLUID LOSS
MSS .                    PIT : MUD SAMPLE SOURCE
RMS .OHMM               0.89 : RESISTIVITY MUD SAMPLE
MST .DEGF                 75 : MUD SAMPLE TEMPERATURE
RMF .OHMM               0.67 : RESISTIVITY MUD FILTRATE SAMPLE
MFST.DEGF                 75 : MUD FILTRATE SAMPLE TEMPERATURE
RMC .OHMM               0.34 : RESISTIVITY MUD CAKE
MCST.DEGF                 75 : MUD CAKE SAMPLE TEMPERATURE
MFSS.                      M : MUD FILTRATE SAMPLE SOURCE
MCSS.                      C : MUD CAKE SAMPLE SOURCE
RMB .OHMM               0.21 : RESISTIVITY MUD AT BHT
TCS .HRS                2000 : TIME CIRCULATED STOPPED
TLAB.HRS                 300 : TIME LOGGER AT BOTTOM
LUN .                   7659 : LOGGING UNIT NUMBER
LUL .                 DAYTON : LOGGING UNIT LOCATION
ENGI.          CHENAULT EAST : RECORDING ENGINEER
WITN.                  MILES : WITNESSED BY
CLNT.                A2DTECH : CLIENT CODE
ORIG.            2" 5" PRINT : ORIGIN OF DATA
UWI .         42289301060000 : UNIQUE WELL ID
DICO. A2D Technologies, Inc. : DIGITIZING COMPANY
~Other -----------------------------------------------------
~ASCII -----------------------------------------------------
# ...
 5800.00000   12.97460   12.97460  201.24770    0.04060    -999.25    2.59220    0.06890    0.06890    4.96900    -999.25    -999.25    -999.25   41.85150   41.85150    4.96900    5.11650    -999.25   12.78450    5.11650    0.12990    0.12990    2.59510    4.86770  -63.83390  -63.78600   -3.52610    4.86770  240.74520
 5850.00000   11.32160   11.32160  110.64520   -0.00290    -999.25    2.65490    0.03220    0.03220    9.03790    -999.25    -999.25    -999.25   28.93210   28.93210    9.03790    9.51890    -999.25   11.04220    9.51890    0.09780    0.09780    2.64570    9.30690  -66.97480  -66.50810   -6.28160    9.30690  321.04960
 5900.00000   11.20660   11.20660   83.30140    0.02670    -999.25    2.63190    0.04570    0.04570   12.00460    -999.25    -999.25    -999.25   22.22020   22.22020   12.00460   12.59240    -999.25   11.24220   12.59240    0.07330    0.07330    2.62910   12.98940  -76.45300  -76.07120  -15.87820   12.98940  336.88870
 5950.00000   11.40220   11.40220   82.51230    0.03960    -999.25    2.64880    0.03580    0.03580   12.11940    -999.25    -999.25    -999.25   17.03470   17.03470   12.11940   12.57540    -999.25   11.45790   12.57540    0.07720    0.07720    2.64620   11.26990  -79.79870  -81.21500  -21.05540   11.26990  282.39270
 6000.00000   11.78460   11.78460   67.68010    0.02630    -999.25    2.65240    0.03370    0.03370   14.77540    -999.25    -999.25    -999.25   23.13880   23.13880   14.77540   16.79170    -999.25   11.83820   16.79170    0.05780    0.05780    2.64270   17.46390  -72.77470  -73.44050  -13.31440   17.46390  291.60710
 6050.00000   12.01910   12.01910   67.18980    0.02020    -999.25    2.62400    0.05030    0.05030   14.88320    -999.25    -999.25    -999.25   19.49940   19.49940   14.88320   16.64240    -999.25   11.96540   16.64240    0.05670    0.05670    2.62360   14.38570  -74.60780  -75.52650  -15.43380   14.38570  262.63470
 6100.00000   12.11370   12.11370   79.19160    0.06170    -999.25    2.62020    0.05250    0.05250   12.62760    -999.25    -999.25    -999.25   20.52760   20.52760   12.62760   13.16030    -999.25   11.66940   13.16030    0.04660    0.04660    2.62260   10.51620  -76.41540  -75.66760  -15.60840   10.51620  261.49570
 6150.00000   11.80750   11.80750  138.00910    0.08080    -999.25    2.64810    0.03620    0.03620    7.24590    -999.25    -999.25    -999.25   36.67990   36.67990    7.24590    7.42710    -999.25   12.19010    7.42710    0.10870    0.10870    2.63510    7.61760  -61.80920  -61.82690   -1.80110    7.61760  254.98320
 6200.00000   11.28910   11.28910  120.05810    0.03140    -999.25    2.67150    0.02250    0.02250    8.32930    -999.25    -999.25    -999.25   32.01440   32.01440    8.32930    8.56890    -999.25   11.29590    8.56890    0.10100    0.10100    2.66280    8.99220  -60.85470  -61.02500   -1.11600    8.99220  248.21550
 6250.00000   10.36110   10.36110   66.25190   -0.01060    -999.25    2.63360    0.04470    0.04470   15.09390    -999.25    -999.25    -999.25   27.79840   27.79840   15.09390   16.04450    -999.25   10.41230   16.04450    0.04450    0.04450    2.63400   17.44430  -69.99790  -70.14970  -10.63630   17.44430  304.31120
 6300.00000   11.28780   11.28780  122.37210    0.02640    -999.25    2.61120    0.05780    0.05780    8.17180    -999.25    -999.25    -999.25   53.66070   53.66070    8.17180   10.57280    -999.25   11.18510   10.57280    0.13220    0.13220    2.61960    9.12570  -60.37820  -59.84500   -0.72730    9.12570  264.19960
 6350.00000   10.65660   10.65660   74.37760    0.00370    -999.25    2.65100    0.03450    0.03450   13.44490    -999.25    -999.25    -999.25   33.31550   33.31550   13.44490   14.29400    -999.25   10.61800   14.29400    0.04970    0.04970    2.64090   15.78020  -80.77610  -80.13040  -21.40830   15.78020  262.86600
 6400.00000    8.33670    8.33670   85.25150   -0.00590    -999.25    2.63560    0.04350    0.04350   11.73000    -999.25    -999.25    -999.25   46.54930   46.54930   11.73000   12.05810    -999.25   10.58440   12.05810    0.07600    0.07600    2.63590   12.12480  -66.30410  -66.80080   -8.47440   12.12480  308.74710
 6450.00000   10.48820   10.48820   61.16130   -0.01080    -999.25    2.64860    0.03590    0.03590   16.35020    -999.25    -999.25    -999.25   33.18680   33.18680   16.35020   18.94800    -999.25   10.31080   18.94800    0.05760    0.05760    2.64280   16.03860  -80.22900  -80.28070  -22.34990   16.03860  294.33370
 6500.00000   10.96350   10.96350  192.73390   -0.00520    -999.25    2.63490    0.04390    0.04390    5.18850    -999.25    -999.25    -999.25   81.63260   81.63260    5.18850    6.22050    -999.25   10.51230    6.22050    0.10280    0.10280    2.62810    7.27730  -60.04920  -60.03200   -2.49680    7.27730  279.79550
 6550.00000    9.59720    9.59720  539.14170    0.15090    -999.25    2.20040    0.29800    0.29800    1.85480    -999.25    -999.25    -999.25   63.92630   63.92630    1.85480    1.74210    -999.25   12.42490    1.74210    0.28580    0.28580    2.21220    2.36450  -59.48660  -59.95390   -2.81440    2.36450  284.60480
 6600.00000   12.04890   12.04890  270.59940    0.00290    -999.25    2.61580    0.05510    0.05510    3.69550    -999.25    -999.25    -999.25   66.50690   66.50690    3.69550    4.59620    -999.25   10.40150    4.59620    0.12460    0.12460    2.57600    6.45040  -57.70510  -58.09140   -1.25700    6.45040  313.59530
 6650.00000   11.74410   11.74410  405.79480   -0.00060    -999.25    2.53780    0.10070    0.10070    2.46430    -999.25    -999.25    -999.25   72.55940   72.55940    2.46430    2.87680    -999.25   11.50340    2.87680    0.14340    0.14340    2.53630    3.58270  -57.41380  -58.18770   -1.55620    3.58270  388.45980
 6700.00000   10.39570   10.39570   87.03220    0.01250    -999.25    2.69910    0.00640    0.00640   11.49000    -999.25    -999.25    -999.25   44.79590   44.79590   11.49000   12.63180    -999.25   10.09540   12.63180    0.05890    0.05890    2.68300   11.30120  -61.64420  -62.61830   -6.18970   11.30120  269.93220
 6750.00000   10.49180   10.49180  250.23150    0.09020    -999.25    2.64620    0.03730    0.03730    3.99630    -999.25    -999.25    -999.25   53.31370   53.31370    3.99630    4.24750    -999.25   10.36780    4.24750    0.16640    0.16640    2.63460    5.47350  -56.03030  -57.07600   -0.85040    5.47350  200.16800
 6800.00000   13.60310   13.60310  620.53990    0.11060    -999.25    -999.25    -999.25    -999.25    1.61150    -999.25    -999.25    -999.25   64.18950   64.18950    1.61150    1.70950    -999.25   12.47870    1.70950    0.28660    0.28660    1.99670    2.60210  -59.18660  -60.13120   -4.10850    2.60210   47.63990
 6850.00000   13.09390   13.09390 1028.80660    0.01140    -999.25    1.94410    0.44790    0.44790    0.97200    -999.25    -999.25    -999.25   66.60150   66.60150    0.97200    1.07460    -999.25   13.98830    1.07460    0.28350    0.28350    1.99900    1.98670  -59.99710  -61.68120   -5.86140    1.98670  659.00160
 6900.00000   11.59380   11.59380  487.54330    0.07740    -999.25    2.13360    0.33710    0.33710    2.05110    -999.25    -999.25    -999.25   52.00240   52.00240    2.05110    2.24690    -999.25   12.01570    2.24690    0.26540    0.26540    2.14520    1.97830  -59.90930  -61.30940   -5.69260    1.97830  294.40590
 6950.00000   10.36320   10.36320  761.55660   -0.01220    -999.25    1.93840    0.45120    0.45120    1.31310    -999.25    -999.25    -999.25   52.84760   52.84760    1.31310    1.42210    -999.25   13.16350    1.42210    0.28650    0.28650    1.99890    1.93310  -60.61960  -61.45760   -6.04370    1.93310  265.90560
 7000.00000   10.51600   10.51600   89.68450   -0.00080    -999.25    2.66860    0.02420    0.02420   11.15020    -999.25    -999.25    -999.25   31.96870   31.96870   11.15020   11.39560    -999.25   10.35890   11.39560    0.05070    0.05070    2.66580   11.41500  -60.18580  -59.96400   -4.75300   11.41500  286.70410
