~Version ---------------------------------------------------
VERS.      2.0 : CWLS log ASCII Standard -VERSION 2.0
WRAP.      YES : Multiple lines per depth step
CREA. 03/30/13 : LAS Creation Date
~Well ------------------------------------------------------
STRT.FT                 1500.0 : START DEPTH
STOP.FT                10200.0 : STOP DEPTH
STEP.FT               50.00000 : STEP LENGTH
NULL.                  -999.25 : NULL VALUE
COMP.     MARATHON OIL COMPANY : COMPANY
WELL.   MARATHON MARSHALL A #7 : WELL
FLD .               BEAR GRASS : FIELD
LOC .                          : LOCATION
CNTY.                     LEON : COUNTY
STAT.                    TEXAS : STATE
CTRY. UNITED STATES OF AMERICA : COUNTRY
SRVC.             Schlumberger : SERVICE COMPANY
DATE.              17-Feb-1998 : LOGDATE
API .           42289312850000 : API NUMBER
UWI .           42289312850000 : UNIQUE WELL ID
SLAT.WGS84       31.3583372232 : SURFACE LATITUDE
SLON.WGS84      -96.2380251185 : SURFACE LONGITUDE
~Curve Information -----------------------------------------
DEPT    .FT    : DEPTH FEET
AHT10ED .OHMM  : 10 INCH RESISTIVITY TWO FOOT RESOLUTION FROM RESISTIVITY LOG
AHT20ED .OHMM  : 20 INCH RESISTIVITY TWO FOOT RESOLUTION FROM RESISTIVITY LOG
AHT30ED .OHMM  : 30 INCH RESISTIVITY TWO FOOT RESOLUTION FROM RESISTIVITY LOG
AHT60ED .OHMM  : 60 INCH RESISTIVITY TWO FOOT RESOLUTION FROM RESISTIVITY LOG
AHT90ED .OHMM  : 90 INCH RESISTIVITY TWO FOOT RESOLUTION FROM RESISTIVITY LOG
CALWS   .IN    : CALIPER [DCALRED+BITS]
CONDWS  .MMHO  : CONDUCTIVITY [1000/DRESWS]
DCALRED .IN    : DIFFERENTIAL CALIPER FROM RESISTIVITY LOG
DCORWS  .G/C3  : DENSITY CORRECTION [HDRAED]
DENWS   .G/C3  : FORMATION BULK DENSITY [CALC FROM DPOWS, M=2.71,F=1.0]
DPHZLSED.V/V   : DENSITY POROSITY LIMESTONE [M=2.71,F=1.0] FROM DENSITY LOG
DPOWS   .V/V   : DENSITY POROSITY LIMESTONE [DPHZLSED]
DRESWS  .OHMM  : DEEP RESISTIVITY [AHT90ED]
DTED    .US/F  : DELTA TIME FROM SONIC LOG
DTWS    .US/F  : COMPRESSIONAL SONIC [DTED]
GRMED   .GAPI  : GAMMA RAY FROM MICROLOG
GRRED   .GAPI  : GAMMA RAY FROM RESISTIVITY LOG
GRWS    .GAPI  : GAMMA RAY [GRRED SPL. TO GRMED @ 4602']
HDRAED  .G/C3  : DENSITY CORRECTION FROM DENSITY LOG
MCALED  .IN    : CALIPER FROM MICROLOG
MRESWS  .OHMM  : MEDIUM RESISTIVITY [AHT30ED]
NPHILSED.V/V   : NEUTRON POROSITY LIMESTONE FROM DENSITY LOG
NPOWS   .V/V   : NEUTRON POROSITY LIMESTONE [NPHILSED]
SPRED   .MV    : SPONTANEOUS POTENTIAL FROM RESISTIVITY LOG
SPWS    .MV    : SPONTANEOUS POTENTIAL [BASELINE 0 MV, SPRED]
SRESWS  .OHMM  : SHALLOW RESISTIVITY [AHT10ED]
TENRED  .LBF   : TENSION FROM RESISTIVITY LOG
~Params ----------------------------------------------------
PD  .                     GL : PERMANENT DATUM
EPD .FT                  472 : ELEVATION PERMANENT DATUM
LMF .                     KB : LOG MEASURED FROM
DAPD.FT                   17 : FEET ABOVE PERMANENT DATUM
DMF .                     KB : DRILLING MEASURED FROM
EKB .FT                  489 : KELLY BUSHING
EDF .FT                  488 : DRILLING FLOOR
EGL .FT                  472 : GROUND LEVEL
DATE.               02/17/98 : RUN DATE
RUN .                      1 : RUN NUMBER
DD  .FT                10250 : DEPTH DRILLER
DL  .FT                10240 : DEPTH LOGGER
BLI .FT                10240 : BOTTOM LOG INTERVAL
TLI .FT                 1610 : TOP LOG INTERVAL
MST .DEGF                110 : MUD SAMPLE TEMPERATURE
MFST.DEGF                109 : MUD FILTRATE SAMPLE TEMPERATURE
MCST.DEGF                109 : MUD CAKE SAMPLE TEMPERATURE
MFSS.                   CALC : MUD FILTRATE SAMPLE SOURCE
MCSS.                   CALC : MUD CAKE SAMPLE SOURCE
CLNT.                A2DTECH : CLIENT CODE
ORIG.         1" 2" 5" PRINT : ORIGIN OF DATA
UWI .         42289312850000 : UNIQUE WELL ID
DICO. A2D Technologies, Inc. : DIGITIZING COMPANY
~Other -----------------------------------------------------
AIT & LDT-CNL & BHC & ML RUN IN COMBO
~ASCII -----------------------------------------------------
# ...
 4100.00000    1.00070    1.10140    1.12900    1.16060    1.17830   13.53260  848.68030    5.65760    -999.25    -999.25    -999.25    -999.25    1.17830  113.99450  113.99450    -999.25   84.27380   84.27380    -999.25    -999.25    1.12900    -999.25    -999.25  -52.48350   -7.18220    1.00070 2404.15380
 4150.00000    0.99450    1.08510    1.11660    1.13690    1.15780   14.16750  863.70700    6.29250    -999.25    -999.25    -999.25    -999.25    1.15780  115.64800  115.64800    -999.25   75.26130   75.26130    -999.25    -999.25    1.11660    -999.25    -999.25  -51.96600   -6.06330    0.99450 2458.07810
 4200.00000    1.01250    1.11070    1.13780    1.16020    1.18450   14.84450  844.23810    6.96950    -999.25    -999.25    -999.25    -999.25    1.18450  115.90610  115.90610    -999.25   71.10520   71.10520    -999.25    -999.25    1.13780    -999.25    -999.25  -50.09970   -3.59560    1.01250 2471.04760
 4250.00000    0.97230    1.02390    1.05550    1.09640    1.10520   13.62920  904.81360    5.75420    -999.25    -999.25    -999.25    -999.25    1.10520  117.02840  117.02840    -999.25   76.39630   76.39630    -999.25    -999.25    1.05550    -999.25    -999.25  -51.50950   -4.40410    0.97230 2428.38720
 4300.00000    3.52440    3.35260    3.20170    3.07750    3.00270   10.81350  333.03360    2.93850    -999.25    -999.25    -999.25    -999.25    3.00270   85.04100   85.04100    -999.25   57.03650   57.03650    -999.25    -999.25    3.20170    -999.25    -999.25  -61.06840  -13.34020    3.52440 2448.86430
 4350.00000    1.35460    1.38590    1.41240    1.43660    1.47110   11.11540  679.76340    3.24040    -999.25    -999.25    -999.25    -999.25    1.47110  107.13940  107.13940    -999.25   83.80170   83.80170    -999.25    -999.25    1.41240    -999.25    -999.25  -51.84580   -3.37330    1.35460 2527.44560
 4400.00000    2.92720    2.99810    3.06950    3.13050    3.24380   11.89850  308.28040    4.02350    -999.25    -999.25    -999.25    -999.25    3.24380   91.08670   91.08670    -999.25   68.92430   68.92430    -999.25    -999.25    3.06950    -999.25    -999.25  -52.73990   -3.52310    2.92720 2568.26200
 4450.00000    1.37420    1.48150    1.68550    1.61600    1.80990   12.89410  552.51670    5.01910    -999.25    -999.25    -999.25    -999.25    1.80990  101.59800  101.59800    -999.25   85.87320   85.87320    -999.25    -999.25    1.68550    -999.25    -999.25  -53.57850   -3.61740    1.37420 2600.48580
 4500.00000    1.57830    1.66960    1.71000    1.74870    1.79420   11.42040  557.35150    3.54540    -999.25    -999.25    -999.25    -999.25    1.79420  105.93890  105.93890    -999.25   66.05200   66.05200    -999.25    -999.25    1.71000    -999.25    -999.25  -54.31190   -3.60660    1.57830 2529.60550
 4550.00000    2.14320    2.19200    2.27050    2.32490    2.42250    9.62910  412.79670    1.75410    -999.25    -999.25    -999.25    -999.25    2.42250   93.38870   93.38870    -999.25   51.79080   51.79080    -999.25    -999.25    2.27050    -999.25    -999.25  -54.91870   -3.46910    2.14320 2616.18040
 4600.00000    0.89630    0.99260    1.09410    1.20460    1.34400    9.45500  744.04760    1.58000    -999.25    -999.25    -999.25    -999.25    1.34400  104.59910  104.59910    -999.25   68.52110   68.52110    -999.25    -999.25    1.09410    -999.25    -999.25  -54.35150   -2.11370    0.89630 2605.10180
 4650.00000    3.02410    3.09360    3.18080    3.21570    3.25730    9.89590  307.00270    2.02090    0.00370    2.52000    0.11110    0.11110    3.25730   85.52020   85.52020   43.74940   44.39750   43.74940    0.00370    9.91460    3.18080    0.19400    0.19400  -59.27150   -5.88980    3.02410 2659.95410
 4700.00000    3.02700    2.88970    2.79510    2.71150    2.64820   10.00330  377.61500    2.12830    0.03070    2.53870    0.10020    0.10020    2.64820   81.96080   81.96080   33.17340   33.30110   33.17340    0.03070    9.99520    2.79510    0.17470    0.17470  -59.86820   -5.34270    3.02700 2688.95140
 4750.00000    3.06030    2.66510    2.38640    2.17830    2.03170   10.25810  492.19870    2.38310    0.03320    2.57750    0.07750    0.07750    2.03170   95.23780   95.23780   42.55210   42.02370   42.55210    0.03320   10.17880    2.38640    0.20000    0.20000  -59.95850   -4.28920    3.06030 2733.98000
 4800.00000    3.78860    3.74600    3.66030    3.62750    3.54210   10.75380  282.31840    2.87880    0.02340    2.52000    0.11110    0.11110    3.54210   82.33150   82.33150   47.04610   47.20090   47.04610    0.02340   10.72290    3.66030    0.20030    0.20030  -62.46650   -5.65330    3.78860 2860.80660
 4850.00000    3.93490    3.66090    3.50180    3.24110    3.10610   10.05240  321.94710    2.17740    0.03280    2.50330    0.12090    0.12090    3.10610   80.36450   80.36450   38.80720   38.84130   38.80720    0.03280   10.02420    3.50180    0.19380    0.19380  -77.35200  -19.39500    3.93490 2673.16090
 4900.00000    5.32630    4.99640    4.80860    4.52850    4.24090    9.83200  235.79900    1.95700   -0.00070    2.42730    0.16530    0.16530    4.24090   81.02000   81.02000   41.12550   43.13900   41.12550   -0.00070    9.81040    4.80860    0.19650    0.19650  -73.10420  -14.00330    5.32630 2764.36570
 4950.00000    0.80400    0.91060    0.97160    0.99030    1.01520   11.50750  985.02760    3.63250    0.10970    2.18140    0.30910    0.30910    1.01520  120.49920  120.49920   88.39120   89.25920   88.39120    0.10970   11.47170    0.97160    0.39860    0.39860  -64.51030   -4.26560    0.80400 2777.18530
 5000.00000    4.46420    4.93470    5.39160    5.75470    6.44170   10.35280  155.23850    2.47780    0.00200    2.55400    0.09120    0.09120    6.44170   78.14760   78.14760   46.06930   46.11700   46.06930    0.00200   10.27630    5.39160    0.17730    0.17730  -79.41080  -18.13370    4.46420 2712.88750
 5050.00000    1.41910    1.51600    1.54060    1.56940    1.61720   12.76210  618.35270    4.88710    0.18680    2.32030    0.22790    0.22790    1.61720  101.94520  101.94520   76.61500   76.41310   76.61500    0.18680   12.71730    1.54060    0.31490    0.31490  -67.34540   -5.37050    1.41910 2830.66310
 5100.00000    1.22680    1.39970    1.49720    1.54740    1.61080   12.25700  620.80950    4.38200    0.04670    2.33790    0.21760    0.21760    1.61080  104.31950  104.31950   82.77990   82.72810   82.77990    0.04670   12.25820    1.49720    0.37240    0.37240  -69.22760   -6.55480    1.22680 2690.56620
 5150.00000    1.15390    1.12020    0.82360    0.69700    0.67550   13.43150 1480.38490    5.55650    0.10070    2.34900    0.21110    0.21110    0.67550  104.76000  104.76000   81.76750   82.83550   81.76750    0.10070   13.51350    0.82360    0.38510    0.38510  -66.24690   -2.87630    1.15390 2684.79100
 5200.00000    1.64460    1.70150    1.75800    1.79030    1.83070   13.83930  546.23910    5.96430    0.04580    2.48630    0.13080    0.13080    1.83070   94.88380   94.88380   76.95100   77.30030   76.95100    0.04580   13.61310    1.75800    0.37020    0.37020  -69.16160   -5.09310    1.64460 2740.91990
 5250.00000    1.24480    1.30660    1.37970    1.40740    1.44190   12.44980  693.52940    4.57480    0.04620    2.35740    0.20620    0.20620    1.44190  105.06270  105.06270   87.95860   87.42820   87.95860    0.04620   12.57390    1.37970    0.35890    0.35890  -66.49310   -1.72680    1.24480 2819.85450
 5300.00000    1.85120    1.91880    1.94950    1.98610    2.03070   11.94770  492.44100    4.07270    0.13120    2.44240    0.15650    0.15650    2.03070  100.75700  100.75700   90.35380   91.40500   90.35380    0.13120   11.94290    1.94950    0.34990    0.34990  -69.44030   -3.97610    1.85120 2788.80130
 5350.00000    2.43970    2.51210    2.55250    2.59970    2.65860   11.06720  376.13780    3.19220    0.06730    2.46260    0.14470    0.14470    2.65860   96.32390   96.32390   98.05540   97.77350   98.05540    0.06730   10.94930    2.55250    0.32140    0.32140  -69.04860   -2.88660    2.43970 2795.78960
