~Version ---------------------------------------------------
VERS.      2.0 : CWLS log ASCII Standard -VERSION 2.0
WRAP.       NO : One line per depth step
CREA. 08/30/12 : LAS Creation Date
~Well ------------------------------------------------------
STRT.FT                 3800.0 : START DEPTH
STOP.FT                 8150.0 : STOP DEPTH
STEP.FT               50.00000 : STEP LENGTH
NULL.                  -999.25 : NULL VALUE
COMP.          FISHER-WEBB INC : COMPANY
WELL.             MARESH A. #1 : WELL
FLD .                 CALDWELL : FIELD
LOC .                          : LOCATION
CNTY.                 BURLESON : COUNTY
STAT.                    TEXAS : STATE
CTRY. UNITED STATES OF AMERICA : COUNTRY
SRVC.            Dresser Atlas : SERVICE COMPANY
DATE.              07-Oct-1980 : LOGDATE
API .           42051309880000 : API NUMBER
UWI .           42051309880000 : UNIQUE WELL ID
SLAT.WGS84       30.4235982939 : SURFACE LATITUDE
SLON.WGS84      -96.7541650727 : SURFACE LONGITUDE
~Curve Information -----------------------------------------
DEPT  .FT                                                               : DEPTH FEET
CALRED.IN                                                               : CALIPER FROM CDL-DIFL LOG
CALWS .IN                                                               : CALIPER [CALRED]
CONDWS.MMHO                                                             : CONDUCTIVITY [1000/DRESWS]
DENWS .G/C3 :   FORMATIONBULK DENSITY [CALCULATED FROM DPHIED, M:2.71,F : 1.0]
DPHIED.V/V                                                              : DENSITY POROSITY FROM CDL-DIFL LOG
DPOWS .V/V                                                              : DENSITY POROSITY [DPHILSED]
DRESWS.OHMM                                                             : DEEP RESISTIVITY [ILDED]
GRNED .GAPI                                                             : GAMMA RAY FROM GRN LOG [ADJ. TO GRRED]
GRRED .GAPI                                                             : GAMMA RAY FROM CDL-DIFL LOG
GRWS  .GAPI                                                             : GAMMA RAY [GRNED SPL. TO GRRED @ 7120.5']
ILDED .OHMM                                                             : DEEP INDUCTION RESISTIVITY FROM CDL-DIFL LOG
ILMED .OHMM                                                             : MEDIUM INDUCTION RESISTIVITY FROM CDL-DIFL LOG
MRESWS.OHMM                                                             : MEDIUM RESISTIVITY [ILMED]
NEUTED.NAPI                                                             : NEUTRON FROM GRN LOG [ADJ. TO GRRED]
NEUTWS.NAPI                                                             : NEUTRON [NEUTED]
SFLED .OHMM                                                             : SPHERICALLY FOCUSED FROM CDL-DIFL LOG
SPRED .MV                                                               : SPONTANEOUS POTENTIAL FROM CDL-DIFL LOG
SPWS  .MV                                                               : SPONTANEOUS POTENTIAL
SRESWS.OHMM                                                             : SHALLOW RESISTIVITY [SFLED]
~Params ----------------------------------------------------
PD  .                     GL : PERMANENT DATUM
EPD .FT                  396 : ELEVATION PERMANENT DATUM
LMF .                     KB : LOG MEASURED FROM
DAPD.FT                   18 : FEET ABOVE PERMANENT DATUM
DMF .                     KB : DRILLING MEASURED FROM
EKB .FT                  414 : KELLY BUSHING
EDF .FT                  413 : DRILLING FLOOR
EGL .FT                  396 : GROUND LEVEL
DATE.               10/07/80 : RUN DATE
RUN .                      1 : RUN NUMBER
DD  .FT                 8170 : DEPTH DRILLER
DL  .FT                 8161 : DEPTH LOGGER
BLI .FT                 8159 : BOTTOM LOG INTERVAL
TLI .FT                 3806 : TOP LOG INTERVAL
CS  .IN                8.625 : CASING SIZE
CBD .FT                 3820 : CASING BOTTOM DRILLER
CBL .FT                 3806 : CASING BOTTOM LOGGER
BS  .IN                7.875 : BIT SIZE
BSD .FT                 8170 : BIT SIZE AT DEPTH
DFT .          LIGNITE LIGNO : DRILLING FLUID TYPE
DFD .                    9.7 : DRILLING FLUID DENSITY
DFV .                     40 : DRILLING FLUID VISCOSITY
DFPH.                    8.5 : DRILLING FLUID PH
DFL .                    7.2 : DRILLING FLUID LOSS
MSS .                   TANK : MUD SAMPLE SOURCE
RMS .OHMM                3.5 : RESISTIVITY MUD SAMPLE
MST .DEGF                 85 : MUD SAMPLE TEMPERATURE
RMF .OHMM                2.6 : RESISTIVITY MUD FILTRATE SAMPLE
MFST.DEGF                 85 : MUD FILTRATE SAMPLE TEMPERATURE
RMC .OHMM                4.4 : RESISTIVITY MUD CAKE
MCST.DEGF                 85 : MUD CAKE SAMPLE TEMPERATURE
MFSS.                   CALC : MUD FILTRATE SAMPLE SOURCE
MCSS.                   CALC : MUD CAKE SAMPLE SOURCE
RMB .OHMM                1.5 : RESISTIVITY MUD AT BHT
TCS .HRS                  10 : TIME CIRCULATED STOPPED
LUN .                   6082 : LOGGING UNIT NUMBER
LUL .                  BRYAN : LOGGING UNIT LOCATION
ENGI.                  CROSS : RECORDING ENGINEER
WITN.        BURDELL MENEFEE : WITNESSED BY
CLNT.                A2DTECH : CLIENT CODE
ORIG.          1" 2.5" PRINT : ORIGIN OF DATA
UWI .         42051309880000 : UNIQUE WELL ID
DICO. A2D Technologies, Inc. : DIGITIZING COMPANY
~Other -----------------------------------------------------
GRRED FAILED AT 7120'
~ASCII -----------------------------------------------------
# ...
 5650.00000    8.54750    8.54750  637.75510    -999.25    -999.25    -999.25    1.56800    -999.25    -999.25    -999.25    1.56800    1.57130    1.57130    -999.25    -999.25    1.95210  -28.29750  -28.29750    1.95210
 5700.00000    8.33630    8.33630  785.91640    -999.25    -999.25    -999.25    1.27240    -999.25    -999.25    -999.25    1.27240    1.19020    1.19020    -999.25    -999.25    1.80300  -27.18940  -27.18940    1.80300
 5750.00000    8.15950    8.15950  602.22820    -999.25    -999.25    -999.25    1.66050    -999.25    -999.25    -999.25    1.66050    1.60570    1.60570    -999.25    -999.25    2.08820  -26.34060  -26.34060    2.08820
 5800.00000    8.37470    8.37470  610.64970    -999.25    -999.25    -999.25    1.63760    -999.25    -999.25    -999.25    1.63760    1.59500    1.59500    -999.25    -999.25    2.01170  -28.62250  -28.62250    2.01170
 5850.00000    8.21700    8.21700  698.03160    -999.25    -999.25    -999.25    1.43260    -999.25    -999.25    -999.25    1.43260    1.34800    1.34800    -999.25    -999.25    1.82350  -25.28380  -25.28380    1.82350
 5900.00000    8.20100    8.20100  405.91010    -999.25    -999.25    -999.25    2.46360    -999.25    -999.25    -999.25    2.46360    2.50530    2.50530    -999.25    -999.25    2.75270  -29.69370  -29.69370    2.75270
 5950.00000    8.24930    8.24930  414.33600    -999.25    -999.25    -999.25    2.41350    -999.25    -999.25    -999.25    2.41350    2.52650    2.52650    -999.25    -999.25    2.71210  -26.51720  -26.51720    2.71210
 6000.00000    8.54720    8.54720  401.50970    -999.25    -999.25    -999.25    2.49060    -999.25    -999.25    -999.25    2.49060    2.54980    2.54980    -999.25    -999.25    2.96860  -27.10210  -27.10210    2.96860
 6050.00000    8.77690    8.77690  421.08810    -999.25    -999.25    -999.25    2.37480    -999.25    -999.25    -999.25    2.37480    2.43220    2.43220    -999.25    -999.25    2.84670  -26.22160  -26.22160    2.84670
 6100.00000   10.09490   10.09490  556.85490    -999.25    -999.25    -999.25    1.79580    -999.25    -999.25    -999.25    1.79580    1.85000    1.85000    -999.25    -999.25    2.42500  -28.75960  -28.75960    2.42500
 6150.00000   10.73750   10.73750  539.69450    -999.25    -999.25    -999.25    1.85290    -999.25    -999.25    -999.25    1.85290    1.92270    1.92270    -999.25    -999.25    2.44480  -32.15390  -32.15390    2.44480
 6200.00000   10.96980   10.96980  570.12540    -999.25    -999.25    -999.25    1.75400    -999.25    -999.25    -999.25    1.75400    1.79700    1.79700    -999.25    -999.25    2.30220  -32.18830  -32.18830    2.30220
 6250.00000   10.52190   10.52190  525.79000    -999.25    -999.25    -999.25    1.90190    -999.25    -999.25    -999.25    1.90190    1.94660    1.94660    -999.25    -999.25    2.35720  -32.22420  -32.22420    2.35720
 6300.00000    8.99770    8.99770  501.22800    -999.25    -999.25    -999.25    1.99510    -999.25    -999.25    -999.25    1.99510    2.09570    2.09570    -999.25    -999.25    2.45410  -29.30190  -29.30190    2.45410
 6350.00000    8.04360    8.04360  220.68230    -999.25    -999.25    -999.25    4.53140    -999.25    -999.25    -999.25    4.53140    4.84530    4.84530    -999.25    -999.25    4.98470  -25.22200  -25.22200    4.98470
 6400.00000    8.00520    8.00520  184.92830    -999.25    -999.25    -999.25    5.40750    -999.25    -999.25    -999.25    5.40750    5.53090    5.53090    -999.25    -999.25    6.67920  -27.35060  -27.35060    6.67920
 6450.00000    8.27380    8.27380  264.50830    -999.25    -999.25    -999.25    3.78060    -999.25    -999.25    -999.25    3.78060    3.93460    3.93460    -999.25    -999.25    4.84200  -19.57410  -19.57410    4.84200
 6500.00000    8.94890    8.94890  493.43730    -999.25    -999.25    -999.25    2.02660    -999.25    -999.25    -999.25    2.02660    2.10310    2.10310    -999.25    -999.25    2.86620  -26.05310  -26.05310    2.86620
 6550.00000    8.73000    8.73000  340.69230    -999.25    -999.25    -999.25    2.93520    -999.25    -999.25    -999.25    2.93520    2.99070    2.99070    -999.25    -999.25    3.73100  -22.73230  -22.73230    3.73100
 6600.00000    9.22640    9.22640  286.83700    -999.25    -999.25    -999.25    3.48630    -999.25    -999.25    -999.25    3.48630    3.80760    3.80760    -999.25    -999.25    4.08360  -17.94070  -17.94070    4.08360
 6650.00000    9.29890    9.29890  303.57310    2.54240    0.09800    0.09800    3.29410    -999.25    -999.25    -999.25    3.29410    3.55250    3.55250    -999.25    -999.25    4.17530  -17.22800  -17.22800    4.17530
 6700.00000    9.10280    9.10280  274.61210    2.61710    0.05430    0.05430    3.64150    -999.25    -999.25    -999.25    3.64150    3.99530    3.99530    -999.25    -999.25    4.31170  -17.01770  -17.01770    4.31170
 6750.00000   10.08470   10.08470  415.07550    2.48980    0.12880    0.12880    2.40920    -999.25    -999.25    -999.25    2.40920    2.48370    2.48370    -999.25    -999.25    3.11930  -21.63380  -21.63380    3.11930
 6800.00000   10.49290   10.49290  401.55800    2.46020    0.14610    0.14610    2.49030   73.46980    -999.25   73.46980    2.49030    2.56860    2.56860  179.69820  179.69820    3.18620  -24.30560  -24.30560    3.18620
 6850.00000    9.59220    9.59220  424.01630    2.51930    0.11150    0.11150    2.35840   60.24960    -999.25   60.24960    2.35840    2.42330    2.42330  177.57260  177.57260    3.25640  -20.96200  -20.96200    3.25640
 6900.00000    9.85710    9.85710  389.48390    2.52020    0.11100    0.11100    2.56750   65.46050    -999.25   65.46050    2.56750    2.67060    2.67060  187.40330  187.40330    3.34250  -22.14370  -22.14370    3.34250
 6950.00000   10.37970   10.37970  348.37140    2.53990    0.09950    0.09950    2.87050   62.23940    -999.25   62.23940    2.87050    3.00500    3.00500  206.35680  206.35680    3.74140  -18.12710  -18.12710    3.74140
 7000.00000    9.07710    9.07710  256.68670    2.61770    0.05400    0.05400    3.89580   51.24910  150.00000   51.24910    3.89580    4.46920    4.46920  268.12210  268.12210    4.82300  -18.73920  -18.73920    4.82300
 7050.00000    9.04280    9.04280  234.19200    2.53830    0.10040    0.10040    4.27000   34.73900  150.00000   34.73900    4.27000    5.21990    5.21990  308.78590  308.78590   12.52410  -27.71950  -27.71950   12.52410
 7100.00000    8.88030    8.88030  107.25360    2.64140    0.04010    0.04010    9.32370   17.82310    0.00000   17.82310    9.32370   12.90500   12.90500  368.71650  368.71650   14.03520  -37.94520  -37.94520   14.03520
 7150.00000   10.81170   10.81170  167.71210    2.63610    0.04320    0.04320    5.96260   24.73970   30.10780   30.10780    5.96260    8.21920    8.21920  272.92700  272.92700   12.89590  -32.02640  -32.02640   12.89590
 7200.00000   10.46750   10.46750  164.90220    2.64300    0.03920    0.03920    6.06420   28.31450   35.41630   35.41630    6.06420    8.72320    8.72320  294.80450  294.80450    7.97790  -25.95130  -25.95130    7.97790
 7250.00000   10.45950   10.45950  190.41820    2.67070    0.02300    0.02300    5.25160   26.10040   45.44860   45.44860    5.25160    6.42450    6.42450  284.95570  284.95570    7.04240  -20.94900  -20.94900    7.04240
 7300.00000   10.50120   10.50120  302.88350    2.61060    0.05810    0.05810    3.30160   30.77480   61.88320   61.88320    3.30160    3.84380    3.84380  244.05550  244.05550    4.60590  -17.46530  -17.46530    4.60590
 7350.00000    9.87570    9.87570  216.12280    2.63630    0.04310    0.04310    4.62700   24.66120   31.91400   31.91400    4.62700    4.99610    4.99610  282.88920  282.88920    5.43070  -27.18900  -27.18900    5.43070
 7400.00000    9.80830    9.80830  188.03710    2.59890    0.06500    0.06500    5.31810   33.15260   51.05980   51.05980    5.31810    8.58480    8.58480  263.11990  263.11990    7.92310  -24.95540  -24.95540    7.92310
 7450.00000    9.81610    9.81610  147.58190    2.60380    0.06210    0.06210    6.77590   42.08920   68.18120   68.18120    6.77590    9.67060    9.67060  275.94270  275.94270    5.08800  -25.18130  -25.18130    5.08800
