~Version ---------------------------------------------------
VERS. 2.0 : CWLS log ASCII Standard -VERSION 2.0
WRAP. YES : MULTIPLE LINES PER DEPTH STEP
~Well ------------------------------------------------------
STRT.FT                  300.0 : START DEPTH
STOP.FT                18600.0 : STOP DEPTH
STEP.FT               50.00000 : STEP LENGTH
NULL.                  -999.25 : NULL VALUE
COMP.        SHELL OIL COMPANY : COMPANY
WELL. PAWELEK BEN A ET AL A #1 : WELL
FLD .    PERSON AREA (WILDCAT) : FIELD
LOC .                          : LOCATION
CNTY.                   KARNES : COUNTY
STAT.                    TEXAS : STATE
CTRY. UNITED STATES OF AMERICA : COUNTRY
SRVC.             Schlumberger : SERVICE COMPANY
DATE.              22-May-1978 : LOGDATE
API .           42255305980000 : API NUMBER
UWI .           42255305980000 : UNIQUE WELL ID
SLAT.WGS84       29.0241796548 : SURFACE LATITUDE
SLON.WGS84      -97.8796797249 : SURFACE LONGITUDE
~Curve Information -----------------------------------------
DEPT    .FT    : DEPTH FEET
CALDED  .IN    : CALIPER FROM DENSITY LOG [DEP ADJ TO GRSED]
CALMED  .IN    : CALIPER FROM MICROLOG [DEP ADJ TO SFLED]
CALSED  .IN    : CALIPER FROM SONIC LOG
CALWS   .IN    : CALIPER [10 CALDED 4845.5 CALMED 4849 CALDED 17451 CALSED 17577 CALDED]
CONDWS  .MMHO  : CONDUCTIVITY [1000/DRESWS]
DCORWS  .G/C3  : DENSITY CORRECTION [DRHOED]
DENWS   .G/C3  : BULK DENSITY [M=2.71 F=1.0] [RHOBED]
DPHILSED.V/V   : DENSITY POROSITY [M=2.71 F=1.0] FROM DENSITY LOG [DEP ADJ TO GRSED/RHOBED]
DPHISSED.V/V   : DENSITY POROSITY [M=2.65 F=1.0] FROM DENSITY LOG [DEP ADJ TO GRSED/RHOBED]
DPOLSWS .V/V   : DENSITY POROSITY [M=2.71 F=1.0] [CAL FR DENWS]
DRESWS  .OHMM  : DEEP RESISTIVITY [ILDED]
DRHOED  .G/C3  : DENSITY CORRECTION FROM DENSITY LOG [DEP ADJ TO GRSED]
DTED    .US/F  : DELTA TIME FROM SONIC LOG
DTWS    .US/F  : DELTA TIME [DTED]
GRDED   .GAPI  : GAMMA RAY FROM DENSITY LOG
GRRED   .GAPI  : GAMMA RAY FROM RESISTIVITY LOG [DEP ADJ TO GRSED]
GRSED   .GAPI  : GAMMA RAY FROM SONIC LOG
GRWS    .GAPI  : GAMMA RAY [70 GRDED 4800.5 GRDEDNRM [0-100 TO 0-140]4844.5 GRSED 4853.5 GRDED 12903.5 GRSED 12939.5 GRDED 12962 GRSED 17526 GRDED 17550 GRRED 18607 GRDED]
ILDED   .OHMM  : INDUCTION LOG DEEP RESISTIVITY
ILMED   .OHMM  : INDUCTION LOG MEDIUM RESISTIVITY
MRESWS  .OHMM  : MEDIUM RESISTIVITY [ILMED]
NPHILSED.V/V   : NEUTRON POROSITY LISTONE FROM DENSITY LOG [DEP ADJ TO GRSED/RHOBED]
NPHISSED.V/V   : NEUTRON POROSITY SANDSTONE FROM DENSITY LOG [DEP ADJ TO GRSED/RHOBED]
NPOLSWS .V/V   : NEUTRON POROSITY LIMESTONE [10 NPOLSCAL 9446 NPHILSED] [NPHISSED IS CONVERTED TO NPOLSCAL USING POWERLOG MODULE]
PROXED  .OHMM  : PROXIMITY RESISTIVITY FROM MICROLOG [DEP ADJ TO SFLED]
RHOBED  .G/C3  : BULK DENSITY FROM DENSITY LOG [DEP ADJ TO GRSED]
SFLED   .OHMM  : SPHERICALLY FOCUSED LOG RESISTIVITY
SPRED   .MV    : SPONTANEOUS POTENTIAL FROM RESISTIVITY LOG [SHIFTS ARE REMOVED]
SPWS    .MV    : SPONTANEOUS POTENTIAL [BASELINE 0 MV] [SPRED][PL. USE W/ RESERVATIONS]
SRESWS  .OHMM  : SHALLOW RESISTIVITY [SFLED]
TENDED  .LBF   : TENSION FROM DENSITY LOG [DEP ADJ TO GRSED]
~Params ----------------------------------------------------
PD  .                     GL : PERMANENT DATUM
EPD .FT                  335 : ELEVATION PERMANENT DATUM
LMF .                     KB : LOG MEASURED FROM
DAPD.FT                   28 : FEET ABOVE PERMANENT DATUM
DMF .                     KB : DRILLING MEASURED FROM
EKB .FT                  363 : KELLY BUSHING
EDF .FT                  362 : DRILLING FLOOR
EGL .FT                  335 : GROUND LEVEL
DATE.               05/22/78 : RUN DATE
RUN .                      4 : RUN NUMBER
DD  .FT                18626 : DEPTH DRILLER
DL  .FT                18642 : DEPTH LOGGER
BLI .FT                18637 : BOTTOM LOG INTERVAL
TLI .FT                17550 : TOP LOG INTERVAL
CS  .IN                    7 : CASING SIZE
CBD .FT                17544 : CASING BOTTOM DRILLER
CBL .FT                17550 : CASING BOTTOM LOGGER
BS  .IN                    6 : BIT SIZE
BSD .FT                18626 : BIT SIZE AT DEPTH
DFT .               INVERMUL : DRILLING FLUID TYPE
DFD .                   17.6 : DRILLING FLUID DENSITY
DFV .                     70 : DRILLING FLUID VISCOSITY
DFL .                      2 : DRILLING FLUID LOSS
LUN .                   7799 : LOGGING UNIT NUMBER
LUL .                  PLEAS : LOGGING UNIT LOCATION
ENGI.             TURBEVILLE : RECORDING ENGINEER
WITN.                JARRELL : WITNESSED BY
CLNT.                A2DTECH : CLIENT CODE
ORIG.            2" 5" PRINT : ORIGIN OF DATA
UWI .         42255305980000 : UNIQUE WELL ID
DICO. A2D Technologies, Inc. : DIGITIZING COMPANY
~Other -----------------------------------------------------
~ASCII -----------------------------------------------------
# ...
 12950.00000   14.58830   13.80280    8.80220   14.58830  249.86880    -999.25    2.56240    0.09160    -999.25    0.08630    4.00210    -999.25  184.32180    -999.25   56.38200    -999.25    -999.25   56.38200    4.00210    3.50370    3.50370    0.13100    -999.25    0.13100    0.74160    2.56240    6.79480  -21.78750   -5.42220    6.79480 10023.17680
 13000.00000   14.35970   14.00100   13.04020   14.35970  137.11780    -999.25    2.60580    0.06180    -999.25    0.06090    7.29300    -999.25   84.14810   84.14810   69.29200    -999.25   74.17430   74.17430    7.29300    6.18620    6.18620    0.10820    -999.25    0.10820   11.86660    2.60580   11.39510  -20.14330   -4.14020   11.39510 10027.61130
 13050.00000   16.25690   14.75100   14.49710   16.25690  134.56050    -999.25    2.49920    0.02640    -999.25    0.12330    7.43160    -999.25   86.08720   86.08720   61.70930    -999.25   62.27840   62.27840    7.43160   13.72400   13.72400    0.20300    -999.25    0.20300    5.13180    2.49920    7.25980  -22.23740   -6.59650    7.25980 10033.03910
 13100.00000   16.28550   14.57070   14.28970   16.28550  217.64210    0.05040    2.65450    0.04490    -999.25    0.03250    4.59470    0.05040   91.61330   91.61330   66.58890    -999.25   76.92770   76.92770    4.59470    3.75910    3.75910    0.21060    -999.25    0.21060    4.52420    2.65450    7.78390  -17.83260   -2.55390    7.78390 10023.06640
 13150.00000   15.28770   14.22610   12.13460   15.28770   45.60230    0.06990    2.57510    0.07190    -999.25    0.07890   21.92870    0.06990   58.91070   58.91070   62.00850    -999.25   67.64350   67.64350   21.92870   22.46990   22.46990    0.19810    -999.25    0.19810   16.23970    2.57510   33.39610  -16.98090   -2.06430   33.39610 9957.81350
 13200.00000   12.30850   13.10340   11.64550   12.30850   17.89140    0.01290    2.76580   -0.01760    -999.25   -0.03260   55.89290    0.01290   51.55770   51.55770   20.14490    -999.25   23.54410   23.54410   55.89290   16.98450   16.98450   -0.00130    -999.25   -0.00130   72.34720    2.76580  157.27340  -27.06480  -12.38260  157.27340 9973.56540
 13250.00000   11.71580   12.68130   11.13190   11.71580    7.65360   -0.00210    2.76530   -0.01710    -999.25   -0.03230  130.65670   -0.00210   51.71310   51.71310   28.04810    -999.25   31.80440   31.80440  130.65670   31.34000   31.34000    0.00180    -999.25    0.00180  108.21770    2.76530  336.08190  -36.70540  -21.97300  336.08190 9941.82420
 13300.00000   11.98760   12.67600   11.34830   11.98760   18.49170    0.02120    2.78060   -0.02060    -999.25   -0.04130   54.07830    0.02120   51.18780   51.18780   28.17580    -999.25   36.13420   36.13420   54.07830   15.89350   15.89350    0.00500    -999.25    0.00500   39.45430    2.78060  100.55120  -38.17410  -23.39160  100.55120 9931.19730
 13350.00000   11.68330   12.43820   11.34240   11.68330    1.95680    0.00730    2.70680    0.01850    -999.25    0.00190  511.04950    0.00730   52.85460   52.85460   21.36120    -999.25   26.40740   26.40740  511.04950 1525.63440 1525.63440    0.00020    -999.25    0.00020   45.86880    2.70680 1081.59410  -50.87100  -36.03830 1081.59410 9898.66500
 13400.00000   12.17370   12.11360   11.92330   12.17370    7.64500    0.01870    2.78900   -0.03040    -999.25   -0.04620  130.80410    0.01870   50.42230   50.42230   22.89470    -999.25   27.62040   27.62040  130.80410   22.64600   22.64600    0.00290    -999.25    0.00290   41.85670    2.78900 1551.28200  -50.16310  -35.28030 1551.28200 9940.32030
 13450.00000   11.95530   12.55150   10.72970   11.95530   27.18360    0.00310    2.74050   -0.02330    -999.25   -0.01780   36.78690    0.00310   52.11610   52.11610   27.86840    -999.25   32.14930   32.14930   36.78690   17.74050   17.74050   -0.00090    -999.25   -0.00090   17.15140    2.74050   44.36150  -44.40810  -29.47510   44.36150 9838.02640
 13500.00000   11.77480   12.49690   10.86610   11.77480    4.38400    0.00310    2.75410   -0.01230    -999.25   -0.02580  228.10330    0.00310   51.40120   51.40120   19.65070    -999.25   25.90070   25.90070  228.10330   27.54720   27.54720   -0.00430    -999.25   -0.00430   65.27280    2.75410  771.56120  -48.26500  -33.28190  771.56120 9841.06350
 13550.00000   10.59170   11.67860   11.29150   10.59170   14.93630    0.02150    2.76270   -0.03170    -999.25   -0.03080   66.95120    0.02150   53.30430   53.30430   25.01070    -999.25   31.48350   31.48350   66.95120   28.77060   28.77060    0.05370    -999.25    0.05370   25.30990    2.76270   70.37490  -54.67970  -39.64640   70.37490 9830.46880
 13600.00000   12.08930   11.80670   11.04890   12.08930    3.77900    0.02310    2.73820   -0.01900    -999.25   -0.01650  264.61800    0.02310   49.00520   49.00520   21.02190    -999.25   24.58210   24.58210  264.61800   26.37040   26.37040    0.00040    -999.25    0.00040   53.70920    2.73820  113.52100  -53.94650  -38.86310  113.52100 9834.16410
 13650.00000   11.28260   11.61130   10.56700   11.28260   39.82680    0.03550    2.83330   -0.05360    -999.25   -0.07210   25.10870    0.03550   53.68360   53.68360   28.75940    -999.25   34.22800   34.22800   25.10870   12.27010   12.27010    0.00300    -999.25    0.00300   10.68700    2.83330   14.77950  -46.34220  -31.20860   14.77950 9796.83200
 13700.00000   11.27850   11.52370   10.90900   11.27850   26.52610    0.01210    2.77830   -0.03970    -999.25   -0.03990   37.69870    0.01210   49.99490   49.99490   26.51230    -999.25   34.27510   34.27510   37.69870   20.45680   20.45680    0.04510    -999.25    0.04510   26.44970    2.77830   68.74710  -65.83040  -50.64670   68.74710 9873.02050
 13750.00000   11.65460   11.47870   10.53920   11.65460  199.33420    0.00810    2.79010   -0.04080    -999.25   -0.04680    5.01670    0.00810   56.32290   56.32290   24.91370    -999.25   32.68080   32.68080    5.01670    6.46470    6.46470   -0.00090    -999.25   -0.00090    7.84830    2.79010   24.18760  -66.37260  -51.13870   24.18760 9809.93950
 13800.00000   12.40530   11.77560   11.13590   12.40530   74.87100    0.03670    2.79980   -0.06250    -999.25   -0.05250   13.35630    0.03670   52.16800   52.16800   25.39100    -999.25   31.22340   31.22340   13.35630   10.34650   10.34650    0.06300    -999.25    0.06300    8.79870    2.79980   15.58240  -63.52110  -48.23710   15.58240 9816.82130
 13850.00000   15.71470   13.41060   13.37400   15.71470   36.62010    0.03580    2.73860   -0.01060    -999.25   -0.01670   27.30740    0.03580   51.73390   51.73390   23.54820    -999.25   30.06900   30.06900   27.30740   15.76940   15.76940   -0.00520    -999.25   -0.00520   31.29640    2.73860   58.25630  -51.95970  -36.62550   58.25630 9739.92580
 13900.00000   12.29670   12.68680   11.89650   12.29670   94.77240    0.04140    2.77780   -0.03720    -999.25   -0.03960   10.55160    0.04140   53.03380   53.03380   25.99490    -999.25   27.94260   27.94260   10.55160    7.07460    7.07460    0.07860    -999.25    0.07860   27.25060    2.77780   15.82880  -64.06880  -48.68450   15.82880 9730.07320
 13950.00000   12.13280   12.81030   11.99820   12.13280   32.38660    0.02850    2.82180   -0.07070    -999.25   -0.06540   30.87700    0.02850   50.99030   50.99030   24.88100    -999.25   27.73200   27.73200   30.87700   16.81810   16.81810    0.00410    -999.25    0.00410   39.87230    2.82180   65.78930  -52.93400  -37.49950   65.78930 9693.98630
 14000.00000   13.62750   13.78620   13.05330   13.62750  303.10380    0.02600    2.68740    0.01110    -999.25    0.01320    3.29920    0.02600   57.50600   57.50600   37.47650    -999.25   44.65370   44.65370    3.29920    3.85420    3.85420    0.13250    -999.25    0.13250    8.33510    2.68740    7.14370  -53.89550  -38.41090    7.14370 9713.18950
 14050.00000   14.49470   14.55960   13.77460   14.49470  361.44140    0.04040    2.71210   -0.00090    -999.25   -0.00120    2.76670    0.04040   60.29760   60.29760   28.82050    -999.25   33.05850   33.05850    2.76670    2.53320    2.53320    0.06740    -999.25    0.06740    3.26130    2.71210    4.12800  -59.20390  -43.66910    4.12800 9629.94730
