~Version ---------------------------------------------------
VERS. 2.0 : CWLS log ASCII Standard -VERSION 2.0
WRAP.  NO : ONE LINE PER DEPTH STEP
~Well ------------------------------------------------------
STRT.F                      550.0 : START DEPTH
STOP.F                     8700.0 : STOP DEPTH
STEP.F                   50.00000 : STEP LENGTH
NULL.                     -999.25 : NULL VALUE
COMP. HENRY PETROLEUM CORPORATION : COMPANY
WELL.                  BROWN A #1 : WELL
FLD .                          WC : FIELD
LOC .                             : LOCATION
CNTY.                      WILSON : COUNTY
STAT.                       TEXAS : STATE
CTRY.    UNITED STATES OF AMERICA : COUNTRY
SRVC.                Schlumberger : SERVICE COMPANY
DATE.                 18-Aug-1980 : LOGDATE
API .              42493306840000 : API NUMBER
UWI .              42493306840000 : UNIQUE WELL ID
SLAT.WGS84          28.9325521974 : SURFACE LATITUDE
SLON.WGS84         -98.2324070688 : SURFACE LONGITUDE
~Curve Information -----------------------------------------
DEPT.F                 : 
CILD.MMHO 07 110 46 00 : CONDUCTIVITY INDUCTION LOG DEEP
SPR .MV   07 010 01 00 : SPONTANEOUS POTENTIAL FROM RES. LOG
GRR .GAPI 07 310 01 00 : GAMMA RAY FROM RES. LOG
RILD.OHMM 07 120 46 00 : INDUCTION LOG DEEP RESISTIVITY
ASFL.OHMM 07 221 06 00 : AMPLIFIED SHALLOW FOCUSED LOG RESISTIVITY
CALD.IN   45 280 60 00 : CALIPER FROM DENSITY LOG
DPHI.DEC  45 890 10 00 : DENSITY POROSITY LIMESTONE
NPHI.DEC  42 890 01 00 : NEUTRON POROSITY LIMESTONE
CORR.G/C3 45 356 01 00 : DENSITY CORRECTION
RHOB.G/C3 45 350 01 00 : BULK DENSITY
~Params ----------------------------------------------------
PD  .                     GL : PERMANENT DATUM
EPD .F                   355 : ELEVATION PERMANENT DATUM
LMF .                     KB : LOG MEASURED FROM
DMF .                     KB : DRILLING MEASURED FROM
EKB .F                 369.6 : KELLING BUSHING
EDF .F                 368.3 : DRILLING FLOOR
EGL .F                   355 : GROUND LEVEL
DATE.               08/18/80 : RUN DATE
RUN .                      1 : RUN NUMBER
DD  .F                  8730 : DEPTH DRILLER
DL  .F                  8740 : DEPTH LOGGER
BLI .F                  8734 : BOTTOM LOG INTERVAL
TLI .F                   520 : TOP LOG INTERVAL
CS  .IN                8.625 : CASING SIZE
CBD .F                   515 : CASING BOTTOM DRILLER
CBL .F                   520 : CASING BOTTOM LOGGER
BS  .IN                7.875 : BIT SIZE
BSD .F                  8730 : BIT SIZE AT DEPTH
DFT .                  LIGNO : DRILLING FLUID TYPE
DFD .                    9.1 : DRILLING FLUID DENSITY
DFV .                     44 : DRILLING FLUID VISCOSITY
DFPH.                     10 : DRILLING FLUID PH
DFL .                    6.8 : DRILLING FLUID LOSS
MSS .                    BIN : MUD SAMPLE SOURCE
RMS .OHMM               1.87 : RESISTIVITY MUD SAMPLE
MST .F                    76 : MUD SAMPLE TEMPERATURE
RMF .OHMM               2.15 : RESISTIVITY MUD FILTRATE SAMPLE
MFST.F                    76 : MUD FILTRATE SAMPLE TEMPERATURE
RMC .OHMM               1.52 : RESISTIVITY MUD CAKE
MCST.F                    76 : MUD CAKE SAMPLE TEMPERATURE
MFSS.                   MEAS : MUD FILTRATE SAMPLE SOURCE
MCSS.                  CHART : MUD CAKE SAMPLE SOURCE
RMB .OHMM               0.84 : RESISTIVITY MUD AT BHT
TCS .HRS                2400 : TIME CURCULATED STOPPED
TLAB.HRS                 945 : TIME LOGGER AT BOTTOM
LUN .                   8137 : LOGGING UNIT NUMBER
LUL .                  PLEAS : LOGGING UNIT LOCATION
ENGI.             TURBEVILLE : RECORDING ENGINEER
WITN.           ROBERSON POP : WITNESSED BY
CLNT.                A2DTECH : CLIENT CODE
ORIG.               1" PRINT : ORIGIN OF DATA
UWI .         42493306840000 : UNIQUE WELL ID
DICO. A2D Technologies, Inc. : DIGITIZING COMPANY
~Other -----------------------------------------------------
~ASCII -----------------------------------------------------
  550.00000  204.36510  -37.82290   45.41960    4.33500    3.64490    -999.25    -999.25    -999.25    -999.25    -999.25
  600.00000  403.03770  -33.38400   68.27020    2.32800    2.16670    -999.25    -999.25    -999.25    -999.25    -999.25
  650.00000  309.60740  -36.43580   54.78900    3.01660    2.78580    -999.25    -999.25    -999.25    -999.25    -999.25
  700.00000  455.68280  -36.52100   71.04430    2.16620    1.92410    -999.25    -999.25    -999.25    -999.25    -999.25
  750.00000  380.95240  -37.28870   65.34410    2.56610    2.23540    -999.25    -999.25    -999.25    -999.25    -999.25
  800.00000  837.30160  -35.72630   71.30940    1.30890    1.25890    -999.25    -999.25    -999.25    -999.25    -999.25
  850.00000  638.88890  -37.10230   58.00710    1.64160    1.53550    -999.25    -999.25    -999.25    -999.25    -999.25
  900.00000  567.46030  -36.92530   71.80350    1.75710    1.73340    -999.25    -999.25    -999.25    -999.25    -999.25
  950.00000  590.46200  -36.95240   59.09610    1.77250    1.63000    -999.25    -999.25    -999.25    -999.25    -999.25
 1000.00000  595.51170  -38.23230   67.37840    1.50820    1.63980    -999.25    -999.25    -999.25    -999.25    -999.25
 1050.00000  456.34920  -36.81910   69.04400    1.92840    1.85280    -999.25    -999.25    -999.25    -999.25    -999.25
 1100.00000  447.90380  -37.85770   60.21670    2.31720    2.02640    -999.25    -999.25    -999.25    -999.25    -999.25
 1150.00000  210.48710  -40.75210   38.01520    4.46370    3.18660    -999.25    -999.25    -999.25    -999.25    -999.25
 1200.00000  202.38100  -40.96750   45.73530    4.96180    4.36290    -999.25    -999.25    -999.25    -999.25    -999.25
 1250.00000  367.46030  -37.55640   74.85660    2.87200    2.37730    -999.25    -999.25    -999.25    -999.25    -999.25
 1300.00000  376.98410  -37.36070   50.54880    3.02690    2.26710    -999.25    -999.25    -999.25    -999.25    -999.25
 1350.00000  301.19050  -34.94830   51.70380    4.71160    3.17040    -999.25    -999.25    -999.25    -999.25    -999.25
 1400.00000  130.95240  -32.30070   70.38460    7.23220    5.82430    -999.25    -999.25    -999.25    -999.25    -999.25
 1450.00000  611.11110  -38.13390   59.41400    2.00210    1.64090    -999.25    -999.25    -999.25    -999.25    -999.25
 1500.00000  158.23520  -35.88250   75.71780    6.16640    5.34380    -999.25    -999.25    -999.25    -999.25    -999.25
 1550.00000  109.63270  -28.62980   46.13370    8.62060    6.13720    -999.25    -999.25    -999.25    -999.25    -999.25
 1600.00000  130.23680  -31.40940   45.74540    7.25230    5.78320    -999.25    -999.25    -999.25    -999.25    -999.25
 1650.00000  231.64680  -34.91540   65.70590    3.67420    3.01410    -999.25    -999.25    -999.25    -999.25    -999.25
 1700.00000  107.14290  -37.01980   81.29020    7.87260    6.34580    -999.25    -999.25    -999.25    -999.25    -999.25
 1750.00000   98.04500  -28.81460   42.78690    9.37880    7.07550    -999.25    -999.25    -999.25    -999.25    -999.25
 1800.00000  102.17020  -31.72810   50.29250    8.64400    6.53710    -999.25    -999.25    -999.25    -999.25    -999.25
 1850.00000   98.21430  -27.34670   53.31990    9.99940    7.18690    -999.25    -999.25    -999.25    -999.25    -999.25
 1900.00000  101.14780  -27.39520   72.52160    8.94140    6.85500    -999.25    -999.25    -999.25    -999.25    -999.25
 1950.00000  126.15390  -32.34000   98.51360    7.57240    6.98010    -999.25    -999.25    -999.25    -999.25    -999.25
 2000.00000  139.99280  -31.92540   67.94730    7.11030    6.22620    -999.25    -999.25    -999.25    -999.25    -999.25
 2050.00000  113.94560  -29.98820   60.83370    7.52680    6.28600    -999.25    -999.25    -999.25    -999.25    -999.25
 2100.00000   89.12540  -27.83820   51.17320    9.64720    6.94330    -999.25    -999.25    -999.25    -999.25    -999.25
 2150.00000  119.04760  -32.14110   57.89760    7.08110    5.94120    -999.25    -999.25    -999.25    -999.25    -999.25
 2200.00000  199.84720  -38.62100   82.51270    4.62910    3.90130    -999.25    -999.25    -999.25    -999.25    -999.25
 2250.00000  226.19050  -38.06250   78.50510    4.44160    3.94320    -999.25    -999.25    -999.25    -999.25    -999.25
 2300.00000  329.53960  -38.43930   67.92450    2.67580    3.06710    -999.25    -999.25    -999.25    -999.25    -999.25
 2350.00000  284.12700  -37.47970   64.76360    3.37360    3.06750    -999.25    -999.25    -999.25    -999.25    -999.25
 2400.00000  281.74600  -37.50210   72.73260    3.31370    3.05910    -999.25    -999.25    -999.25    -999.25    -999.25
 2450.00000  361.11110  -39.49740   87.10610    2.56430    2.64950    -999.25    -999.25    -999.25    -999.25    -999.25
 2500.00000   98.51240  -35.78150   73.97040    8.54100    7.56440    -999.25    -999.25    -999.25    -999.25    -999.25
 2550.00000   48.65150  -18.85160   51.99070   15.57840   10.57190    -999.25    -999.25    -999.25    -999.25    -999.25
 2600.00000  119.03120  -28.94050   54.31210    8.85580    7.48460    -999.25    -999.25    -999.25    -999.25    -999.25
 2650.00000   35.68560  -13.08640   38.55310   20.60110   13.41770    -999.25    -999.25    -999.25    -999.25    -999.25
 2700.00000   35.71430  -17.79190   47.12740   22.63200   18.20170    -999.25    -999.25    -999.25    -999.25    -999.25
 2750.00000   27.77780  -10.11940   21.50210   23.12210   16.80780    -999.25    -999.25    -999.25    -999.25    -999.25
 2800.00000   28.99000  -15.98070   61.69610   23.50190   13.60780    -999.25    -999.25    -999.25    -999.25    -999.25
 2850.00000   27.65280  -10.61790   29.03540   25.88240   16.31700    -999.25    -999.25    -999.25    -999.25    -999.25
 2900.00000   27.77780   -6.48480   27.81830   30.95930   19.41180    -999.25    -999.25    -999.25    -999.25    -999.25
 2950.00000   11.90480   -3.06170   30.43860   48.69060   17.17560    -999.25    -999.25    -999.25    -999.25    -999.25
 3000.00000   42.71360   -0.71000   30.67960   20.00000   18.71080    -999.25    -999.25    -999.25    -999.25    -999.25
 3050.00000   59.52380   -9.80780   62.99450   17.94480   13.88700    -999.25    -999.25    -999.25    -999.25    -999.25
 3100.00000   27.77780   -6.76100   89.50440   25.94000   19.56860    -999.25    -999.25    -999.25    -999.25    -999.25
 3150.00000   50.99940   -8.59090   87.03860   18.51260   13.57300    -999.25    -999.25    -999.25    -999.25    -999.25
 3200.00000   19.84130   -2.55780   57.20890   26.36900   18.47060    -999.25    -999.25    -999.25    -999.25    -999.25
 3250.00000   75.39680  -13.51250   83.83100   14.17360   11.45600    -999.25    -999.25    -999.25    -999.25    -999.25
 3300.00000   51.58730  -10.12440   63.97610   16.87440   13.46120    -999.25    -999.25    -999.25    -999.25    -999.25
 3350.00000   43.18390   -5.26460   57.24440   17.86730   13.24170    -999.25    -999.25    -999.25    -999.25    -999.25
 3400.00000  308.96390  -11.33930   81.03030    2.99730    4.01180    -999.25    -999.25    -999.25    -999.25    -999.25
 3450.00000   99.20640  -11.57470   72.18470    9.95000    7.80390    -999.25    -999.25    -999.25    -999.25    -999.25
 3500.00000   91.26980  -17.46420   70.47430   11.35020    9.69690    -999.25    -999.25    -999.25    -999.25    -999.25
 3550.00000   79.36510  -11.83910   62.27810   11.29390   10.10980    -999.25    -999.25    -999.25    -999.25    -999.25
 3600.00000  210.31750  -21.95050  111.22890    4.52080    4.82290    -999.25    -999.25    -999.25    -999.25    -999.25
 3650.00000  111.28230  -22.07930   68.16490    7.78350    6.37910    -999.25    -999.25    -999.25    -999.25    -999.25
 3700.00000  125.93340  -23.81650   84.92750    7.14930    7.15930    -999.25    -999.25    -999.25    -999.25    -999.25
 3750.00000  146.32940  -22.81580  156.57630    6.54630    6.03920    -999.25    -999.25    -999.25    -999.25    -999.25
 3800.00000  339.96420  -24.77730   83.34010    2.86180    3.34320    -999.25    -999.25    -999.25    -999.25    -999.25
