~Version ---------------------------------------------------
VERS.      2.0 : CWLS log ASCII Standard -VERSION 2.0
WRAP.      YES : Multiple lines per depth step
CREA. 07/19/18 : LAS Creation Date
~Well ------------------------------------------------------
STRT.FT                           3800.0 : START DEPTH
STOP.FT                          13600.0 : STOP DEPTH
STEP.FT                         50.00000 : STEP LENGTH
NULL.                            -999.25 : NULL VALUE
COMP. TEXSTAR NORTH AMERICA INCORPORATED : COMPANY
WELL.                  BERRY GAS UNIT #1 : WELL
FLD .                 SW KENEDY PROSPECT : FIELD
LOC .                                    : LOCATION
CNTY.                             KARNES : COUNTY
STAT.                              TEXAS : STATE
CTRY.           UNITED STATES OF AMERICA : COUNTRY
SRVC.                       Schlumberger : SERVICE COMPANY
DATE.                        16-Mar-1988 : LOGDATE
API .                     42255311960000 : API NUMBER
UWI .                     42255311960000 : UNIQUE WELL ID
SLAT.WGS84                 28.7645998907 : SURFACE LATITUDE
SLON.WGS84                -97.8956197689 : SURFACE LONGITUDE
~Curve Information -----------------------------------------
DEPT    .FT    : DEPTH FEET
CALWS   .IN    : CALIPER [DCALDED+BIT]
CONDWS  .MMHO  : DEEP CONDUCTIVITY [1000/DRESWS]
DCALDED .IN    : DIFFERENTIAL CALIPER FROM LDT-CNT LOG [DSH. TO RESISTIVITY]
DCORWS  .G/C3  : DENSITY CORRECTION [DRHOED]
DENWS   .G/C3  : BULK DENSITY [CALC. FROM DPOLSWS]
DPHILSED.V/V   : DENSITY POROSITY (LS) [M=2.71 F=1.00] FROM LDT-CNT LOG [DSH. TO RESISTIVITY]
DPOLSWS .V/V   : DENSITY POROSITY (LS) [M=2.71 F=1.00] [DPHILSED]
DRESWS  .OHMM  : DEEP RESISTIVITY [ILDED]
DRHOED  .G/C3  : DENSITY CORRECTION FROM LDT-CNT LOG [DSH. TO RESISTIVITY]
DTED    .US/F  : DELTA TIME FROM DISFL-SONIC LOG [DSH. TO RES LOG]
DTLED   .US/F  : DELTA TIME LONG SPACING FROM DISFL-SONIC LOG [DSH. TO RESISTIVITY]
DTWS    .US/F  : DELTA TIME COMPRESSIONAL [DTED]
GRDED   .GAPI  : GAMMA RAY FROM LDT-CNT LOG [DSH. TO RESISTIVITY]
GRRED   .GAPI  : GAMMA RAY FROM DISFL-SONIC LOG [DSH. TO RESISTIVITY]
GRWS    .GAPI  : GAMMA RAY [GRRED]
ILDED   .OHMM  : DEEP INDUCTION RESISTIVITY
ILMED   .OHMM  : MEDIUM INDUCTION RESISTIVITY
MRESWS  .OHMM  : MEDIUM RESISTIVITY [ILMED]
NPHILSED.V/V   : NEUTRON POROSITY LIMESTONE FROM LDT-CNT LOG [DSH. TO RESISTIVITY]
NPOLSWS .V/V   : NEUTRON POROSITY LIMESTONE [NPHILSED]
PEFED   .B/E   : PHOTOELECTRIC FACTOR FROM LDT-CNT LOG [DSH. TO RESISTIVITY]
PEFWS   .B/E   : PHOTOELECTRIC FACTOR [PEFED]
SFLUED  .OHMM  : SPHERICALLY FOCUSED LOG RESISTIVITY
SPHILSED.V/V   : SONIC POROSITY (LS) FROM DISFL-SONIC LOG [DSH. TO RESISTIVITY]
SPOLSWS .V/V   : SONIC POROSITY (LS) [SPHILSED]
SPRED   .MV    : SPONTANEOUS POTENTIAL FROM DISFL-SONIC LOG
SPWS    .MV    : SPONTANEOUS POTENTIAL [BASELINE 0 MV] [SPRED]
SRESWS  .OHMM  : SHALLOW RESISTIVITY [SFLUED]
TENDED  .LBF   : TENSION FROM LDT-CNT LOG [DSH. TO RES LOG]
TENRED  .LBF   : TENSION FROM DISFL-SONIC LOG
~Params ----------------------------------------------------
PD  .                     GL : PERMANENT DATUM
EPD .FT                399.7 : ELEVATION PERMANENT DATUM
LMF .                     KB : LOG MEASURED FROM
DAPD.FT                   13 : FEET ABOVE PERMANENT DATUM
DMF .                     KB : DRILLING MEASURED FROM
EKB .FT                412.7 : KELLY BUSHING
EDF .FT                411.7 : DRILLING FLOOR
EGL .FT                399.7 : GROUND LEVEL
DATE.               03/16/88 : RUN DATE
RUN .                      1 : RUN NUMBER
DD  .FT                13841 : DEPTH DRILLER
DL  .FT                13632 : DEPTH LOGGER
BLI .FT                13626 : BOTTOM LOG INTERVAL
TLI .FT                 3814 : TOP LOG INTERVAL
CS  .IN                8.625 : CASING SIZE
CBD .FT                 3815 : CASING BOTTOM DRILLER
CBL .FT                 3814 : CASING BOTTOM LOGGER
BS  .IN                  8.5 : BIT SIZE
BSD .FT                13841 : BIT SIZE AT DEPTH
DFT .              DURA HOLE : DRILLING FLUID TYPE
DFD .                   11.1 : DRILLING FLUID DENSITY
DFV .                     46 : DRILLING FLUID VISCOSITY
DFPH.                   10.5 : DRILLING FLUID PH
DFL .                      6 : DRILLING FLUID LOSS
MSS .               MUD TNAK : MUD SAMPLE SOURCE
RMS .OHMM              0.601 : RESISTIVITY MUD SAMPLE
MST .DEGF                110 : MUD SAMPLE TEMPERATURE
RMF .OHMM               0.81 : RESISTIVITY MUD FILTRATE SAMPLE
MFST.DEGF                 89 : MUD FILTRATE SAMPLE TEMPERATURE
RMC .OHMM                0.9 : RESISTIVITY MUD CAKE
MCST.DEGF                110 : MUD CAKE SAMPLE TEMPERATURE
MFSS.                   MEAS : MUD FILTRATE SAMPLE SOURCE
MCSS.                   CALC : MUD CAKE SAMPLE SOURCE
RMB .OHMM              0.236 : RESISTIVITY MUD AT BHT
TCS .HRS                2100 : TIME CIRCULATED STOPPED
TLAB.HRS                 612 : TIME LOGGER AT BOTTOM
LUN .                   8268 : LOGGING UNIT NUMBER
LUL .             PLEASANTON : LOGGING UNIT LOCATION
ENGI.                  WILKE : RECORDING ENGINEER
WITN.  REQUAETH  NOVAK GIBBS : WITNESSED BY
CLNT.                A2DTECH : CLIENT CODE
ORIG.               5" PRINT : ORIGIN OF DATA
UWI .         42255311960000 : UNIQUE WELL ID
DICO. A2D Technologies, Inc. : DIGITIZING COMPANY
~Other -----------------------------------------------------
GRDED GAPS 12180-12250' DUE TO STICKING TOOL.
LDT-CNT PULLED TIGHT AT SEVERAL DEPTHS FROM AROUND 13000' UP. THIS MAY AFFECT LOG QUALITY.
~ASCII -----------------------------------------------------
# ...
 11000.00000    -999.25  538.12620    -999.25    -999.25    -999.25    -999.25    -999.25    1.85830    -999.25   89.27090   88.78500   89.27090    -999.25   80.45280   80.45280    1.85830    1.80790    1.80790    -999.25    -999.25    -999.25    -999.25    2.10710    0.26720    0.26720   -1.79260  -10.31650    2.10710    -999.25 3725.69040
 11050.00000    -999.25  552.18110    -999.25    -999.25    -999.25    -999.25    -999.25    1.81100    -999.25   89.45760   90.29030   89.45760    -999.25   75.60890   75.60890    1.81100    1.76020    1.76020    -999.25    -999.25    -999.25    -999.25    1.91410    0.27100    0.27100    1.06320   -7.65710    1.91410    -999.25 3789.04540
 11100.00000    -999.25  659.93530    -999.25    -999.25    -999.25    -999.25    -999.25    1.51530    -999.25   93.38720   93.88820   93.38720    -999.25   79.05700   79.05700    1.51530    1.42140    1.42140    -999.25    -999.25    -999.25    -999.25    1.65190    0.28340    0.28340    0.20420   -8.71240    1.65190    -999.25 3862.29640
 11150.00000    -999.25  424.35820    -999.25    -999.25    -999.25    -999.25    -999.25    2.35650    -999.25   80.26140   80.71310   80.26140    -999.25   73.83940   73.83940    2.35650    2.28140    2.28140    -999.25    -999.25    -999.25    -999.25    2.76340    0.22610    0.22610    5.61410   -3.49890    2.76340    -999.25 3729.58350
 11200.00000    -999.25  400.68920    -999.25    -999.25    -999.25    -999.25    -999.25    2.49570    -999.25   83.47150   84.79950   83.47150    -999.25   71.29320   71.29320    2.49570    2.43170    2.43170    -999.25    -999.25    -999.25    -999.25    2.86650    0.24180    0.24180    4.47310   -4.83620    2.86650    -999.25 3756.97220
 11250.00000    -999.25  419.26960    -999.25    -999.25    -999.25    -999.25    -999.25    2.38510    -999.25   85.08060   85.43320   85.08060    -999.25   74.81280   74.81280    2.38510    2.32370    2.32370    -999.25    -999.25    -999.25    -999.25    2.55030    0.24920    0.24920    4.26470   -5.24090    2.55030    -999.25 3797.61620
 11300.00000    -999.25  452.83700    -999.25    -999.25    -999.25    -999.25    -999.25    2.20830    -999.25   82.76210   84.40680   82.76210    -999.25   91.04120   91.04120    2.20830    2.04290    2.04290    -999.25    -999.25    -999.25    -999.25    2.18380    0.24090    0.24090    1.14330   -8.35160    2.18380    -999.25 3787.74240
 11350.00000    -999.25  304.33990    -999.25    -999.25    -999.25    -999.25    -999.25    3.28580    -999.25   73.73900   73.51270   73.73900    -999.25   74.74020   74.74020    3.28580    3.35460    3.35460    -999.25    -999.25    -999.25    -999.25    3.78120    0.19240    0.19240    4.28410   -4.83180    3.78120    -999.25 3826.93360
 11400.00000    -999.25  327.55740    -999.25    -999.25    -999.25    -999.25    -999.25    3.05290    -999.25   76.68200   76.85800   76.68200    -999.25   71.43720   71.43720    3.05290    3.01390    3.01390    -999.25    -999.25    -999.25    -999.25    3.16040    0.20620    0.20620    3.43000   -5.30700    3.16040    -999.25 3753.33520
 11450.00000    -999.25  329.20730    -999.25    -999.25    -999.25    -999.25    -999.25    3.03760    -999.25   77.35780   77.82760   77.35780    -999.25   72.96010   72.96010    3.03760    2.95130    2.95130    -999.25    -999.25    -999.25    -999.25    3.09480    0.21290    0.21290    5.19910   -3.15890    3.09480    -999.25 3823.94700
 11500.00000    -999.25  483.39540    -999.25    -999.25    -999.25    -999.25    -999.25    2.06870    -999.25   83.52550   85.26030   83.52550    -999.25   79.61930   79.61930    2.06870    2.00370    2.00370    -999.25    -999.25    -999.25    -999.25    2.11810    0.23980    0.23980    3.15950   -4.81960    2.11810    -999.25 3834.21460
 11550.00000    -999.25  462.55610    -999.25    -999.25    -999.25    -999.25    -999.25    2.16190    -999.25   85.85410   86.04520   85.85410    -999.25   77.15430   77.15430    2.16190    2.10050    2.10050    -999.25    -999.25    -999.25    -999.25    2.22940    0.25340    0.25340   -0.14720   -7.74730    2.22940    -999.25 3863.30910
 11600.00000    -999.25  458.21110    -999.25    -999.25    -999.25    -999.25    -999.25    2.18240    -999.25   86.74370   86.63760   86.74370    -999.25   74.73680   74.73680    2.18240    2.15480    2.15480    -999.25    -999.25    -999.25    -999.25    2.39170    0.25550    0.25550   -0.68180   -7.90300    2.39170    -999.25 3913.10720
 11650.00000    -999.25  268.39150    -999.25    -999.25    -999.25    -999.25    -999.25    3.72590    -999.25   76.33490   75.83470   76.33490    -999.25   60.31850   60.31850    3.72590    3.66580    3.66580    -999.25    -999.25    -999.25    -999.25    3.81330    0.20490    0.20490    0.14680   -6.69540    3.81330    -999.25 3838.81690
 11700.00000    -999.25  439.57980    -999.25    -999.25    -999.25    -999.25    -999.25    2.27490    -999.25   84.82830   85.44870   84.82830    -999.25   85.65200   85.65200    2.27490    2.20920    2.20920    -999.25    -999.25    -999.25    -999.25    2.34190    0.24670    0.24670   -0.51710   -6.98040    2.34190    -999.25 3893.95610
 11750.00000    -999.25  284.09900    -999.25    -999.25    -999.25    -999.25    -999.25    3.51990    -999.25   76.78020   77.19940   76.78020    -999.25   69.74040   69.74040    3.51990    3.46820    3.46820    -999.25    -999.25    -999.25    -999.25    3.75070    0.20890    0.20890    1.76810   -4.31630    3.75070    -999.25 3817.54250
 11800.00000    -999.25  300.21010    -999.25    -999.25    -999.25    -999.25    -999.25    3.33100    -999.25   76.68160   75.84100   76.68160    -999.25   74.84100   74.84100    3.33100    3.25720    3.25720    -999.25    -999.25    -999.25    -999.25    3.85400    0.20600    0.20600    0.01160   -5.69380    3.85400    -999.25 3928.28540
 11850.00000    -999.25  410.76200    -999.25    -999.25    -999.25    -999.25    -999.25    2.43450    -999.25   82.44200   84.18280   82.44200    -999.25   76.61080   76.61080    2.43450    2.46790    2.46790    -999.25    -999.25    -999.25    -999.25    2.77640    0.23690    0.23690   -0.49720   -5.82370    2.77640    -999.25 4029.27220
 11900.00000   13.55540  444.46420    5.05540    -999.25    -999.25    -999.25    -999.25    2.24990    -999.25   85.86170   85.50440   85.86170   84.63630   74.87360   74.87360    2.24990    2.30470    2.30470    -999.25    -999.25    -999.25    -999.25    2.60160    0.25120    0.25120   -0.85320   -5.80070    2.60160 4628.54540 3949.80910
 11950.00000   13.63060  444.62230    5.13060    -999.25    -999.25    -999.25    -999.25    2.24910    -999.25   89.60440   89.18430   89.60440   78.59700   77.42310   77.42310    2.24910    2.22730    2.22730    -999.25    -999.25    -999.25    -999.25    2.51340    0.26740    0.26740   -0.51980   -5.08840    2.51340 4483.94870 3970.19700
 12000.00000   13.77220  426.45740    5.27220    -999.25    -999.25    -999.25    -999.25    2.34490    -999.25   84.50520   84.67130   84.50520   85.68220   72.43360   72.43360    2.34490    2.30490    2.30490    -999.25    -999.25    -999.25    -999.25    2.67720    0.24780    0.24780   -0.33810   -4.52770    2.67720 4201.06400 4030.22220
 12050.00000   12.40140  399.23350    3.90140    -999.25    -999.25    -999.25    -999.25    2.50480    -999.25   85.07030   84.09830   85.07030   91.52380   91.03910   91.03910    2.50480    2.58890    2.58890    -999.25    -999.25    -999.25    -999.25    3.27710    0.25070    0.25070    1.45830   -3.30430    3.27710 4283.09280 4115.90380
 12100.00000   11.60070  439.38660    3.10070    -999.25    -999.25    -999.25    -999.25    2.27590    -999.25   89.09540   89.59820   89.09540  101.07050   94.47940   94.47940    2.27590    2.41520    2.41520    -999.25    -999.25    -999.25    -999.25    2.57530    0.26550    0.26550    0.39210   -5.02630    2.57530 4511.53420 4058.33810
 12150.00000   14.46010  425.20620    5.96010    -999.25    -999.25    -999.25    -999.25    2.35180    -999.25   84.58320   84.74890   84.58320   84.16250   73.36600   73.36600    2.35180    2.30420    2.30420    -999.25    -999.25    -999.25    -999.25    2.79160    0.24700    0.24700    1.44460   -4.62960    2.79160 4215.77050 4046.68900
