~Version ---------------------------------------------------
VERS. 2.0 : CWLS log ASCII Standard -VERSION 2.0
WRAP. YES : Multiple lines per depth step
~Well ------------------------------------------------------
STRT.FT                 3750.0 : START DEPTH
STOP.FT                15800.0 : STOP DEPTH
STEP.FT               50.00000 : STEP LENGTH
NULL.                  -999.25 : NULL VALUE
COMP.        EOG RESOURCES INC : COMPANY
WELL.         JOHNSON A B  #1R : WELL
FLD .             BRANTON WEST : FIELD
LOC .                          : LOCATION
CNTY.                     LEON : COUNTY
STAT.                    TEXAS : STATE
CTRY. UNITED STATES OF AMERICA : COUNTRY
SRVC.             Schlumberger : SERVICE COMPANY
DATE.              24-Sep-2006 : LOGDATE
API .           42289315440000 : API NUMBER
UWI .           42289315440000 : UNIQUE WELL ID
SLAT.WGS84       31.3479375148 : SURFACE LATITUDE
SLON.WGS84      -96.2310147208 : SURFACE LONGITUDE
~Curve Information -----------------------------------------
DEPT    .FT        : DEPTH FEET
AT10ED  .OHMM      : 10 INCH RESISTIVITY TWO FOOT RESOLUTION FROM AIT LOG
AT20ED  .OHMM      : 20 INCH RESISTIVITY TWO FOOT RESOLUTION FROM AIT LOG
AT30ED  .OHMM      : 30 INCH RESISTIVITY TWO FOOT RESOLUTION FROM AIT LOG
AT60ED  .OHMM      : 60 INCH RESISTIVITY TWO FOOT RESOLUTION FROM AIT LOG
AT90ED  .OHMM      : 90 INCH RESISTIVITY TWO FOOT RESOLUTION FROM AIT LOG
CALWS   .IN        : CALIPER [DCALED+BITS]
CONDWS  .MMHO      : CONDUCTIVITY [1000/DRESWS]
DCALED  .IN        : DIFFERENTIAL CALIPER FROM AIT LOG
DCORWS  .G/C3      : DENSITY CORRECTION [HDRAED]
DENWS   .G/C3      : FORMATION BULK DENSITY [CALC FROM DPOWS, M=2.71,F=1.0]
DPHZLSED.V/V       : DENSITY POROSITY LIMESTONE [M=2.71, F=1.0] FROM DENSITY LOG
DPOWS   .V/V       : DENSITY POROSITY LIMESTONE [DPHZLSED]
DRESWS  .OHMM      : DEEP RESISTIVITY [AT90ED]
DTED    .US/F      : DELTA-T FROM SONIC LOG
GRED    .GAPI      : GAMMA RAY FROM CBL LOG [ADJ.TO AIT LOG <13840> SONIC LOG]
GRRED   .GAPI      : GAMMA RAY FROM AIT LOG
GRSED   .GAPI      : GAMMA RAY FROM SONIC LOG
GRTED   .GAPI      : THORIUM GAMMA RAY FROM RST LOG [ADJ.TO SONIC LOG]
GRWS    .GAPI      : GAMMA RAY [GRRED SPL.TO GRED 13840' TO TD.]
HDRAED  .G/C3      : DENSITY CORRECTION FROM DENSITY LOG
MRESWS  .OHMM      : MEDIUM RESISTIVITY [AT30ED]
NPHILSED.V/V       : NEUTRON POROSITY LIMESTONE FROM DENSITY LOG
NPOWS   .V/V       : NEUTRON POROSITY LIMESTONE [NPHILSED]
PEFWS   .B/E       : PHOTOELECTRIC FACTOR [PEFZED]
PEFZED  .B/E       : PHOTOELECTRIC FACTOR FROM DENSITY LOG
RATIOED .UNITLESS  : RATIO FROM RST LOG [ADJ.TO SONIC LOG]
SIGMED  .CU        : NEUTRON CAPTURE CROSS SECTION FROM RST LOG [ADJ.TO SONIC LOG]
SPHIED  .V/V       : SONIC POROSITY [DTM=47.6, DTF=189] FROM SONIC LOG
SPRED   .MV        : SPONTANEOUS POTENTIAL FROM AIT LOG
SPWS    .MV        : SPONTANEOUS POTENTIAL [BASELINE 0 MV,SPRED]
SRESWS  .OHMM      : SHALLOW RESISTIVITY [AT10ED]
TENRED  .LBF       : TENSION FROM AIT LOG
TENSED  .LBF       : TENSION FROM SONIC LOG
TPHILSED.V/V       : THERMAL POROSITY LIMESTONE FROM RST LOG [ADJ.TO SONIC LOG]
~Params ----------------------------------------------------
PD  .                     GL : PERMANENT DATUM
EPD .FT                  449 : ELEVATION PERMANENT DATUM
LMF .                     KB : LOG MEASURED FROM
DAPD.FT                   27 : FEET ABOVE PERMANENT DATUM
DMF .                     KB : DRILLING MEASURED FROM
EKB .FT                  476 : KELLY BUSHING
EDF .FT                  475 : DRILLING FLOOR
EGL .FT                  449 : GROUND LEVEL
DATE.               09/24/06 : RUN DATE
RUN .                      1 : RUN NUMBER
DD  .FT                13864 : DEPTH DRILLER
DL  .FT                13877 : DEPTH LOGGER
BLI .FT                13869 : BOTTOM LOG INTERVAL
TLI .FT                 3829 : TOP LOG INTERVAL
CS  .IN                10.75 : CASING SIZE
CBD .FT                 3825 : CASING BOTTOM DRILLER
CBL .FT                 3829 : CASING BOTTOM LOGGER
BS  .IN                9.875 : BIT SIZE
BSD .FT                13864 : BIT SIZE AT DEPTH
DFT .  WATER BASED DISPERSED : DRILLING FLUID TYPE
DFD .                   11.6 : DRILLING FLUID DENSITY
DFV .                     42 : DRILLING FLUID VISCOSITY
DFPH.                   10.2 : DRILLING FLUID PH
DFL .                     16 : DRILLING FLUID LOSS
MSS .       CIRCULATION TANK : MUD SAMPLE SOURCE
RMS .OHMM              0.873 : RESISTIVITY MUD SAMPLE
MST .DEGF                 82 : MUD SAMPLE TEMPERATURE
RMF .OHMM              0.698 : RESISTIVITY MUD FILTRATE SAMPLE
MFST.DEGF                 82 : MUD FILTRATE SAMPLE TEMPERATURE
RMC .OHMM              1.048 : RESISTIVITY MUD CAKE
MCST.DEGF                 82 : MUD CAKE SAMPLE TEMPERATURE
MFSS.             CALCULATED : MUD FILTRATE SAMPLE SOURCE
MCSS.             CALCULATED : MUD CAKE SAMPLE SOURCE
RMB .OHMM              0.251 : RESISTIVITY MUD AT BHT
TCS .HRS                2300 : TIME CIRCULATED STOPPED
TLAB.HRS                1015 : TIME LOGGER AT BOTTOM
LUN .                   2267 : LOGGING UNIT NUMBER
LUL .                  TYLER : LOGGING UNIT LOCATION
ENGI.        BELKNA[ MUSTATA : RECORDING ENGINEER
WITN.                  SMITH : WITNESSED BY
CLNT.                A2DTECH : CLIENT CODE
ORIG.         1" 2" 5" PRINT : ORIGIN OF DATA
UWI .         42289315440000 : UNIQUE WELL ID
DICO. A2D Technologies, Inc. : DIGITIZING COMPANY
~Other -----------------------------------------------------
AIT-CDL-CNL RUN IN COMBO & ARRAY SONIC & RST-CBL LOG RUN
GRED,GRSED,DTED,SPHIED,GRTED & TDT LOG RUN IN CSG.[NOT DELETED FROM WELL AS FOR THIS INTERVAL NO WIRELINE DATA FOUND FOR PROCESSING]
DENSITY AFFECTED BY HEAVY MUD & MUD CAKE BELOW 10,000'
SP AFFECTED AT 8400' DUE TO HIGH AC AUX USED TO CLOSE POWER POSITION CALIPER
~ASCII -----------------------------------------------------
# ...
 11100.00000   67.42200   51.64730   43.02860   60.88430   39.90680   10.19210   25.05840    0.31710   -0.00000    2.58180    0.07500    0.07500   39.90680    -999.25    -999.25   30.44220    -999.25    -999.25   30.44220   -0.00000   43.02860    0.00920    0.00920    2.50150    2.50150    -999.25    -999.25    -999.25  -80.23380  -51.47180   67.42200 4918.04350    -999.25    -999.25
 11150.00000   10.97070   13.39710   20.22620   28.04130   30.47010   10.33500   32.81910    0.46000    0.04380    2.62260    0.05110    0.05110   30.47010    -999.25    -999.25   55.74590    -999.25    -999.25   55.74590    0.04380   20.22620    0.10530    0.10530    6.21260    6.21260    -999.25    -999.25    -999.25  -54.96340  -29.39430   10.97070 4766.00780    -999.25    -999.25
 11200.00000    8.65390   22.95250   19.58000   25.01320   26.66630   10.30130   37.50050    0.42630    0.16980    2.51950    0.11140    0.11140   26.66630    -999.25    -999.25   55.58120    -999.25    -999.25   55.58120    0.16980   19.58000    0.07710    0.07710    9.97810    9.97810    -999.25    -999.25    -999.25  -38.41510  -16.03890    8.65390 4805.11280    -999.25    -999.25
 11250.00000   65.26240   44.81260   42.91790   41.99240   40.91230    9.95290   24.44250    0.07790    0.00530    2.61560    0.05520    0.05520   40.91230    -999.25    -999.25   19.75540    -999.25    -999.25   19.75540    0.00530   42.91790    0.01070    0.01070    3.15730    3.15730    -999.25    -999.25    -999.25  -47.93270  -28.74930   65.26240 4919.13280    -999.25    -999.25
 11300.00000   13.27530   12.80370   12.23670   11.80170   11.19050   10.14460   89.36150    0.26960    0.03120    2.68490    0.01470    0.01470   11.19050    -999.25    -999.25   69.66700    -999.25    -999.25   69.66700    0.03120   12.23670    0.09970    0.09970    5.37440    5.37440    -999.25    -999.25    -999.25  -25.44140   -9.45090   13.27530 4777.43800    -999.25    -999.25
 11350.00000   35.15880   41.96910   50.33340   35.02890   35.46800   10.56610   28.19440    0.69110    0.06940    2.54930    0.09400    0.09400   35.46800    -999.25    -999.25   26.01950    -999.25    -999.25   26.01950    0.06940   50.33340    0.03560    0.03560   10.03320   10.03320    -999.25    -999.25    -999.25  -42.36330  -29.09400   35.15880 4866.75880    -999.25    -999.25
 11400.00000   27.55030   19.79380   19.94240   18.43600   16.36910   10.39150   61.09070    0.51650   -0.02030    2.63800    0.04210    0.04210   16.36910    -999.25    -999.25   74.33330    -999.25    -999.25   74.33330   -0.02030   19.94240    0.05840    0.05840    4.02610    4.02610    -999.25    -999.25    -999.25  -24.77640  -13.45850   27.55030 4891.19090    -999.25    -999.25
 11450.00000  534.09760   46.06600   49.59040   54.19510   58.74480    9.98420   17.02280    0.10920    0.00970    2.60620    0.06070    0.06070   58.74480    -999.25    -999.25   28.36120    -999.25    -999.25   28.36120    0.00970   49.59040    0.01320    0.01320    2.91890    2.91890    -999.25    -999.25    -999.25  -50.12370  -40.75720  534.09760 4973.09620    -999.25    -999.25
 11500.00000   21.77000   18.83270   20.65200   18.93730   17.54740   10.10340   56.98850    0.22840    0.00800    2.63580    0.04340    0.04340   17.54740    -999.25    -999.25   31.80060    -999.25    -999.25   31.80060    0.00800   20.65200    0.03860    0.03860    2.62960    2.62960    -999.25    -999.25    -999.25  -46.95460  -39.53960   21.77000 4961.84910    -999.25    -999.25
 11550.00000   39.22930   35.52830   29.90710   27.17440   21.83250   10.42090   45.80330    0.54590    0.00400    2.60950    0.05880    0.05880   21.83250    -999.25    -999.25   45.54710    -999.25    -999.25   45.54710    0.00400   29.90710    0.04440    0.04440    4.30920    4.30920    -999.25    -999.25    -999.25  -35.17450  -29.71090   39.22930 4886.52050    -999.25    -999.25
 11600.00000   12.31780   74.10850   61.34350   43.02760   32.06350    9.95990   31.18810    0.08490    0.00010    2.60670    0.06040    0.06040   32.06350    -999.25    -999.25   23.04770    -999.25    -999.25   23.04770    0.00010   61.34350    0.00710    0.00710    3.11050    3.11050    -999.25    -999.25    -999.25  -29.39030  -25.87810   12.31780 4989.64700    -999.25    -999.25
 11650.00000  429.89020   43.37510   34.82270   32.26190   26.76010   10.09570   37.36910    0.22070   -0.00570    2.57170    0.08090    0.08090   26.76010    -999.25    -999.25   18.13490    -999.25    -999.25   18.13490   -0.00570   34.82270   -0.00150   -0.00150    2.82680    2.82680    -999.25    -999.25    -999.25  -49.07200  -47.51120  429.89020 4917.82420    -999.25    -999.25
 11700.00000   23.80370   33.02070   41.70630   48.72630   72.94990   10.01190   13.70800    0.13690    0.02290    2.61360    0.05640    0.05640   72.94990    -999.25    -999.25   25.39650    -999.25    -999.25   25.39650    0.02290   41.70630    0.00890    0.00890    4.23490    4.23490    -999.25    -999.25    -999.25  -55.35960  -55.75030   23.80370 4966.17430    -999.25    -999.25
 11750.00000  146.55890   57.94220   66.70350   85.25560   90.23060   10.23600   11.08270    0.36100   -0.00030    2.67970    0.01770    0.01770   90.23060    -999.25    -999.25   20.87460    -999.25    -999.25   20.87460   -0.00030   66.70350    0.02280    0.02280    3.21410    3.21410    -999.25    -999.25    -999.25  -48.49050  -50.83260  146.55890 5058.13870    -999.25    -999.25
 11800.00000   10.50230   13.78840   19.49620   21.98050   24.32430   10.06750   41.11120    0.19250   -0.01180    2.49560    0.12540    0.12540   24.32430    -999.25    -999.25   32.20480    -999.25    -999.25   32.20480   -0.01180   19.49620    0.01210    0.01210    5.37520    5.37520    -999.25    -999.25    -999.25  -43.40240  -47.69590   10.50230 5080.89600    -999.25    -999.25
 11850.00000   72.35320   53.57230   48.54370   42.71100   39.87110    9.89550   25.08080    0.02050    0.01690    2.62690    0.04860    0.04860   39.87110    -999.25    -999.25   20.93380    -999.25    -999.25   20.93380    0.01690   48.54370    0.00650    0.00650    3.01200    3.01200    -999.25    -999.25    -999.25  -44.11880  -50.36380   72.35320 5052.69190    -999.25    -999.25
 11900.00000   22.37920   20.22630   16.77630   30.14650   21.51460   11.21780   46.48010    1.34280    0.20000    2.46140    0.14540    0.14540   21.51460    -999.25    -999.25   32.46580    -999.25    -999.25   32.46580    0.20000   16.77630    0.00760    0.00760    4.99000    4.99000    -999.25    -999.25    -999.25  -35.98250  -44.17890   22.37920 4939.86620    -999.25    -999.25
 11950.00000   12.98370   32.56700   48.91790   31.56120   25.96670   10.05270   38.51090    0.17770   -0.00550    2.55080    0.09310    0.09310   25.96670    -999.25    -999.25   32.47330    -999.25    -999.25   32.47330   -0.00550   48.91790    0.00970    0.00970    3.93440    3.93440    -999.25    -999.25    -999.25  -40.43990  -50.58770   12.98370 5057.94290    -999.25    -999.25
 12000.00000   32.97610   37.48750   40.83330   47.34660   50.70670   10.33400   19.72130    0.45900    0.00400    2.62180    0.05160    0.05160   50.70670    -999.25    -999.25   39.52150    -999.25    -999.25   39.52150    0.00400   40.83330    0.02800    0.02800    3.92490    3.92490    -999.25    -999.25    -999.25  -26.83440  -38.93360   32.97610 5042.86520    -999.25    -999.25
 12050.00000   19.82170   30.83120   28.07830   37.40960   22.93690   10.23220   43.59790    0.35720    0.12200    2.59950    0.06460    0.06460   22.93690    -999.25   24.72890   39.63960    -999.25    -999.25   39.63960    0.12200   28.07830    0.02940    0.02940    4.61510    4.61510    -999.25    -999.25    -999.25  -20.91910  -34.96980   19.82170 4981.26220    -999.25    -999.25
 12100.00000   13.83040   13.73960   13.41550   12.92670   12.47780   10.18390   80.14230    0.30890   -0.00050    2.66060    0.02890    0.02890   12.47780    -999.25   29.02820   72.37350    -999.25    -999.25   72.37350   -0.00050   13.41550    0.11090    0.11090    5.37340    5.37340    -999.25    -999.25    -999.25   -7.90670  -23.90880   13.83040 5035.05130    -999.25    -999.25
