~Version ---------------------------------------------------
VERS. 2.0 : CWLS log ASCII Standard -VERSION 2.0
WRAP.  NO : ONE LINE PER DEPTH STEP
~Well ------------------------------------------------------
STRT.F                        1350.0 : START DEPTH
STOP.F                       10400.0 : STOP DEPTH
STEP.F                      50.00000 : STEP LENGTH
NULL.                        -999.25 : NULL VALUE
COMP. ANADARKO PETROLEUM CORPORATION : COMPANY
WELL.                       COOKE #1 : WELL
FLD .                          COOKE : FIELD
LOC .                                : LOCATION
CNTY.                       LA SALLE : COUNTY
STAT.                          TEXAS : STATE
CTRY.       UNITED STATES OF AMERICA : COUNTRY
SRVC.                   Schlumberger : SERVICE COMPANY
DATE.                    06-Feb-1994 : LOGDATE
API .                 42283315400000 : API NUMBER
UWI .                 42283315400000 : UNIQUE WELL ID
SLAT.WGS84             28.3237548927 : SURFACE LATITUDE
SLON.WGS84            -99.0567652111 : SURFACE LONGITUDE
~Curve Information -----------------------------------------
DEPT.F                 : 
DTLF.US/F 60 523 00 00 : ACOUSTIC TRANSIT TIME, LONG SPACED, FAR ARRAY
DTLN.US/F 60 523 00 00 : ACOUSTIC TRANSIT TIME, LONG SPACED, NEAR ARRAY
DPHI.DEC  45 890 10 00 : DENSITY POROSITY LIMESTONE
NPHI.DEC  42 890 01 00 : NEUTRON POROSITY LIMESTONE
DRHO.G/C3 45 356 01 00 : DENSITY CORRECTION
PEF .B/E  45 358 01 00 : PHOTOELECTRIC FACTOR
SPR .MV   07 010 01 00 : SPONTANEOUS POTENTIAL FROM RES. LOG
CALR.IN   07 280 01 00 : CALIPER FROM RESISTIVITY
GRR .GAPI 07 310 01 00 : GAMMA RAY FROM RES. LOG
SFLU.OHMM 07 220 01 00 : SPHERICALLY FOCUSED LOG UNAVERAGED RESISTIVITY
IMPH.OHMM 07 120 44 00 : INDUCTION MEDIUM PHASOR RES.
IDPH.OHMM 07 120 46 00 : INDUCTION DEEP PHASOR RES.
~Params ----------------------------------------------------
PD  .                     GL : PERMANENT DATUM
EPD .F                   355 : ELEVATION PERMANENT DATUM
LMF .                     KB : LOG MEASURED FROM
DAPD.F                    18 : FEET ABOVE PERMANENT DATUM
DMF .                     KB : DRILLING MEASURED FROM
EKB .F                   373 : KELLING BUSHING
EDF .F                   372 : DRILLING FLOOR
EGL .F                   355 : GROUND LEVEL
DATE.             02-06-1994 : RUN DATE
RUN .                      1 : RUN NUMBER
DD  .F                 10500 : DEPTH DRILLER
DL  .F                 10450 : DEPTH LOGGER
BLI .F                 10442 : BOTTOM LOG INTERVAL
CLNT.                A2DTECH : CLIENT CODE
ORIG.               5" PRINT : ORIGIN OF DATA
UWI .         42283315400000 : UNIQUE WELL ID
DICO. A2D Technologies, Inc. : DIGITIZING COMPANY
~Other -----------------------------------------------------
~ASCII -----------------------------------------------------
# ...
 4150.00000  101.82140  102.18130    -999.25    -999.25    -999.25    -999.25    4.02240   12.12430   73.75880    2.30340    2.06150    1.81380
 4200.00000   92.31750   94.86560    -999.25    -999.25    -999.25    -999.25   -2.38660   10.77840   71.24540    2.93390    2.74310    2.78080
 4250.00000   90.28990   94.32750    -999.25    -999.25    -999.25    -999.25    5.38010   12.52770   81.21300    2.83850    2.34570    2.20450
 4300.00000   96.93620   96.95800    -999.25    -999.25    -999.25    -999.25    4.91120   12.37390   96.32140    2.78590    2.65720    2.67590
 4350.00000   96.08260   96.76100    -999.25    -999.25    -999.25    -999.25    1.19840   13.07090   98.94290    2.76020    2.80620    2.93670
 4400.00000   87.65050   88.07770    -999.25    -999.25    -999.25    -999.25   -6.72580   11.36820   82.22900    5.96840    4.91500    4.73910
 4450.00000   59.93030   61.70090    -999.25    -999.25    -999.25    -999.25   -0.68620   10.66200   57.08180   23.54970   10.97400    7.53170
 4500.00000   82.34060   83.17630    -999.25    -999.25    -999.25    -999.25   -7.76300   15.30290   76.00400    4.26340    4.99870    4.58070
 4550.00000   84.97430   85.45670    -999.25    -999.25    -999.25    -999.25   -1.79490   13.25580   74.61670    4.51800    4.42130    4.42660
 4600.00000   84.93310   85.17210    -999.25    -999.25    -999.25    -999.25  -23.16110   12.80420   65.31360    5.30300    4.43700    4.05100
 4650.00000   90.34860   90.58760    -999.25    -999.25    -999.25    -999.25   -2.86790   12.38280   76.03000    3.12250    2.96780    2.69570
 4700.00000   86.88250   86.66410    -999.25    -999.25    -999.25    -999.25   -5.14790   11.88760   86.67130    4.45070    4.11740    4.08690
 4750.00000   79.69050   81.29840    -999.25    -999.25    -999.25    -999.25   -6.82130   10.56800   84.01460    6.07790    5.70310    5.56960
 4800.00000   85.98940   86.22840    -999.25    -999.25    -999.25    -999.25  -31.83420   10.32510   70.01000    7.62910    6.04080    4.73680
 4850.00000   91.61460   94.22660    -999.25    -999.25    -999.25    -999.25  -46.40020   10.56790   47.47660    2.74220    2.66460    2.57840
 4900.00000   89.09740   91.30480    -999.25    -999.25    -999.25    -999.25   -2.61720   16.32930   62.72190    3.30900    3.31800    3.34930
 4950.00000   81.47440   83.03110    -999.25    -999.25    -999.25    -999.25  -46.46940   12.36100   52.57650    6.84050    4.03700    3.20890
 5000.00000   68.35800   67.93820    -999.25    -999.25    -999.25    -999.25  -23.73770   12.95760   61.44970   12.24060    6.93590    5.44970
 5050.00000   83.78490   84.10880    -999.25    -999.25    -999.25    -999.25   -5.63330   13.54440   83.04660    4.55030    3.99680    3.89980
 5100.00000   97.32870   95.84660    -999.25    -999.25    -999.25    -999.25   -2.90770   14.01030   83.04450    2.46040    2.26320    2.33960
 5150.00000   99.46920   98.72420    -999.25    -999.25    -999.25    -999.25   -1.84100   13.88140   95.76280    2.13630    2.09040    2.02920
 5200.00000   80.97120   81.56000    -999.25    -999.25    -999.25    -999.25  -12.30080   11.76630   72.66270    5.60040    5.06730    4.38980
 5250.00000   81.38700   82.23560    -999.25    -999.25    -999.25    -999.25  -12.30380   12.53880   78.16100    4.40130    4.22750    4.00050
 5300.00000   86.05900   86.16530    0.19530    0.20670    0.01360    2.47630  -17.57400   12.02200   68.97160    3.12970    2.90050    2.69520
 5350.00000   81.42480   81.92210    0.13890    0.19670    0.00590    2.81520  -15.00990   10.57030   74.85000    4.44150    4.21730    3.80680
 5400.00000   81.45920   81.69820    0.12950    0.21130    0.05310    3.08480  -11.92550    9.88340   59.98690    4.71190    4.91540    4.60720
 5450.00000   79.68880   79.92780    0.12910    0.22360    0.02150    2.83100  -10.27610   10.55060   78.46000    4.57470    4.50240    4.50540
 5500.00000   83.57430   84.63460    0.11960    0.24370    0.15220    3.26060   -3.96450   11.39450  102.11950    4.34160    3.53730    3.52240
 5550.00000   83.59560   83.49740    0.20410    0.20840    0.11980    3.17190   -6.33140   13.70220   87.42600    3.94660    3.50010    3.33540
 5600.00000   88.13750   86.66890    0.15590    0.20300    0.17270    3.41310   -7.11600   15.01160   88.90530    2.96350    2.99060    2.91010
 5650.00000   82.28890   83.12050    -999.25    -999.25    -999.25    -999.25   -8.36840   15.39840   87.02930    4.07430    4.09180    4.02360
 5700.00000   90.97200   91.64820    -999.25    -999.25    -999.25    -999.25   -7.13020   18.31160   79.43790    2.57210    2.33960    2.30050
 5750.00000   93.75500   94.83070    -999.25    -999.25    -999.25    -999.25   -7.41620   17.11440   87.72190    2.34210    2.14270    2.07880
 5800.00000   87.83870   88.55580    -999.25    -999.25    -999.25    -999.25   -7.58070   14.98420   93.34320    2.33960    2.29010    2.32030
 5850.00000   91.13230   91.93290    -999.25    -999.25    -999.25    -999.25   -6.17960   13.11790   90.08880    2.23550    2.15080    2.12650
 5900.00000   82.09700   83.43940    -999.25    -999.25    -999.25    -999.25   -6.69620   10.36880   72.92900    3.91960    3.00540    2.87740
 5950.00000   90.83480   92.38050    -999.25    -999.25    -999.25    -999.25   -6.13410    9.74040   93.19530    2.10630    2.13230    2.03290
 6000.00000   96.32470   97.85000    -999.25    -999.25    -999.25    -999.25   -5.93690   10.73840   92.31230    1.93690    1.87150    1.86440
 6050.00000   89.23140   89.47050    -999.25    -999.25    -999.25    -999.25   -5.54240   10.12000   85.19650    2.29750    2.24760    2.22160
 6100.00000   89.25580   89.87430    -999.25    -999.25    -999.25    -999.25   -5.64300   10.67910   82.98820    2.44040    2.13680    2.10070
 6150.00000   94.19720   95.14910    -999.25    -999.25    -999.25    -999.25   -5.54240   10.82910   94.23080    2.04370    1.75330    1.71750
 6200.00000   86.89370   87.39180    0.17360    0.22850    0.11150    3.13300   -6.50730    9.70510   76.12430    2.58560    2.30530    2.23050
 6250.00000   98.61710   98.81980    0.19440    0.25720    0.09880    3.29300   -5.73960    9.80190   94.40260    1.82310    1.67910    1.61920
 6300.00000   82.34960   82.58870    0.10060    0.15560   -0.00070    2.85070   -9.72960   10.36730   82.98820    4.18660    3.72450    3.55650
 6350.00000   81.69120   81.17840    0.09270    0.12940    0.00120    3.00930  -10.17300   10.97020   73.28800    4.34300    3.79560    3.69840
 6400.00000   96.78880   97.14650    0.20550    0.28290    0.10450    3.29220  -11.07750   10.57620   76.86050    2.00450    1.70170    1.62210
 6450.00000   84.98620   85.84960    0.26050    0.21660    0.16480    3.93190  -11.35680   12.02780   76.79080    3.45890    3.15830    2.83260
 6500.00000   73.34390   76.41990    0.08240    0.06890    0.01120    3.38460  -13.35010   10.00570   51.16020    3.40000    3.60050    3.36280
 6550.00000   89.73280   89.52860    -999.25    -999.25    -999.25    -999.25  -12.63560   10.78860   75.76060    2.42310    2.34530    2.33220
 6600.00000   89.99290   91.19860    -999.25    -999.25    -999.25    -999.25  -12.95350   10.54100   73.35790    2.07880    2.13630    2.15280
 6650.00000   87.44550   88.82730    -999.25    -999.25    -999.25    -999.25  -14.21090   10.99540   69.71290    2.52740    2.44360    2.29700
 6700.00000   87.27660   88.25010    -999.25    -999.25    -999.25    -999.25  -13.10610   10.57340   70.41030    2.76040    2.54320    2.47980
 6750.00000   86.68520   87.89840    -999.25    -999.25    -999.25    -999.25  -12.05130   11.22830   75.27350    2.88380    2.70640    2.78410
 6800.00000   92.52630   92.75860    -999.25    -999.25    -999.25    -999.25  -12.80080   12.67490   74.70410    2.38260    2.25900    2.25610
 6850.00000   98.17300   99.79210    -999.25    -999.25    -999.25    -999.25  -12.05130   13.48690   83.06490    1.91320    1.74270    1.70190
 6900.00000   94.77430   95.68460    -999.25    -999.25    -999.25    -999.25  -10.88200   12.57790   78.83740    2.05360    2.05120    2.01540
