~Version ---------------------------------------------------
VERS. 2.0 : CWLS log ASCII Standard -VERSION 2.0
WRAP. YES : Multiple lines per depth step
~Well ------------------------------------------------------
STRT.FT                   4050.0 : START DEPTH
STOP.FT                   9250.0 : STOP DEPTH
STEP.FT                 50.00000 : STEP LENGTH
NULL.                    -999.25 : NULL VALUE
COMP. CHAMPLIN PETROLEUM COMPANY : COMPANY
WELL.         JOE F. CHARANZA #1 : WELL
FLD .                      BIG A : FIELD
LOC .                            : LOCATION
CNTY.                   BURLESON : COUNTY
STAT.                      TEXAS : STATE
CTRY.   UNITED STATES OF AMERICA : COUNTRY
SRVC.               Schlumberger : SERVICE COMPANY
DATE.                26-Nov-1980 : LOGDATE
API .             42051310600000 : API NUMBER
UWI .             42051310600000 : UNIQUE WELL ID
SLAT.WGS84         30.3900288698 : SURFACE LATITUDE
SLON.WGS84        -96.6349604611 : SURFACE LONGITUDE
~Curve Information -----------------------------------------
DEPT    .FT    : 
CALWS   .IN    : CALIPER [DCALED+8.5]
CONDWS  .MMHO  : CONDUCTIVITY [1000/DRESWS]
DCALED  .IN    : DIFFERENTIAL CALIPER FROM DIL-SFL-CNFD LOG
DCORWS  .G/C3  : DENSITY CORRECTION [DRHOED]
DENWS   .G/C3  : FORMATION BULK DENSITY [CALCULATED FROM DPOWS, M=2.71, F=1.0]
DPHILSED.V/V   : DENSITY POROSITY LIMESTONE [M=2.71, F=1.0] FROM DIL-SFL-CNFD LOG [ADJ. TO GRRED]
DPHISSED.V/V   : DENSITY POROSITY SANDSTONE [M=2.65, F=1.0] FROM DIL-SFL-CNFD LOG [ADJ. TO GRRED]
DPOWS   .V/V   : DENSITY POROSITY LIMESTONE [DPHISSED CONVERTED TO LIMESTONE MATRIX(M=2.71, F=1.0) & SPL. TO DPHILSED @7500']
DRESWS  .OHMM  : DEEP RESISTIVITY [ILDED]
DRHOED  .G/C3  : BULK DENSITY CORRECTION FROM DIL-SFL-CNFD LOG [ADJ. TO GRRED]
GRRED   .GAPI  : GAMMA RAY FROM DIL-SFL-CNFD LOG
GRWS    .GAPI  : GAMMA RAY [GRRED] CSG < 4028'
ILDED   .OHMM  : INDUCTION DEEP RESISTIVITY FROM DIL-SFL-CNFD LOG
ILMED   .OHMM  : INDUCTION MEDIUM RESISTIVITY FROM DIL-SFL-CNFD LOG
MRESWS  .OHMM  : MEDIUM RESISTIVITY [ILMED]
NPHILSED.V/V   : NEUTRON POROSITY LIMESTONE FROM DIL-SFL-CNFD LOG [ADJ. TO GRRED]
NPHISSED.V/V   : NEUTRON POROSITY SANDSTONE FROM DIL-SFL-CNFD LOG [ADJ. TO GRRED]
NPOWS   .V/V   : NEUTRON POROSITY LIMESTONE [NPHISSED MATRIX CONVERSION FOR LIMESTONE & SPL. TO NPHILSED @7500'] CSG < 4028'
SFLUED  .OHMM  : SHALLOW FOCUSED RESISTIVITY (UNAVERAGED) FROM DIL-SFL-CNFD LOG
SPRED   .MV    : SPONTANEOUS POTENTIAL FROM DIL-SFL-CNFD LOG
SPWS    .MV    : SPONTANEOUS POTENTIAL [BASELINE 0 MV, SPRED]
SRESWS  .OHMM  : SHALLOW RESISTIVITY [SFLUED]
~Params ----------------------------------------------------
PD  .                     GL : PERMANENT DATUM
EPD .FT                  323 : ELEVATION PERMANENT DATUM
LMF .                     KB : LOG MEASURED FROM
DAPD.FT                   13 : FEET ABOVE PERMANENT DATUM
DMF .                     KB : DRILLING MEASURED FROM
EKB .FT                  336 : KELLY BUSHING
EDF .FT                  335 : DRILLING FLOOR
EGL .FT                  323 : GROUND LEVEL
DATE.               11/26/80 : RUN DATE
RUN .                      1 : RUN NUMBER
DD  .FT                 9321 : DEPTH DRILLER
DL  .FT                 9294 : DEPTH LOGGER
BLI .FT                 9288 : BOTTOM LOG INTERVAL
TLI .FT                 4028 : TOP LOG INTERVAL
CS  .IN                9.625 : CASING SIZE
CBD .FT                 4035 : CASING BOTTOM DRILLER
CBL .FT                 4028 : CASING BOTTOM LOGGER
BS  .IN                 8.75 : BIT SIZE
BSD .FT                 9321 : BIT SIZE AT DEPTH
DFT .                 BEN EX : DRILLING FLUID TYPE
DFD .                    9.4 : DRILLING FLUID DENSITY
DFV .                     43 : DRILLING FLUID VISCOSITY
DFPH.                      9 : DRILLING FLUID PH
DFL .                    7.2 : DRILLING FLUID LOSS
MSS .                   TANK : MUD SAMPLE SOURCE
RMS .OHMM               2.79 : RESISTIVITY MUD SAMPLE
MST .DEGF                 75 : MUD SAMPLE TEMPERATURE
RMF .OHMM               2.08 : RESISTIVITY MUD FILTRATE SAMPLE
MFST.DEGF                 75 : MUD FILTRATE SAMPLE TEMPERATURE
RMC .OHMM               4.18 : RESISTIVITY MUD CAKE
MCST.DEGF                 75 : MUD CAKE SAMPLE TEMPERATURE
MFSS.                      M : MUD FILTRATE SAMPLE SOURCE
MCSS.                      C : MUD CAKE SAMPLE SOURCE
RMB .OHMM               1.07 : RESISTIVITY MUD AT BHT
TCS .HRS                 600 : TIME CIRCULATED STOPPED
TLAB.HRS                1400 : TIME LOGGER AT BOTTOM
LUN .                   8096 : LOGGING UNIT NUMBER
LUL .                BRENHAM : LOGGING UNIT LOCATION
ENGI.              ZIMMERMAN : RECORDING ENGINEER
WITN.                  DRAKE : WITNESSED BY
CLNT.                A2DTECH : CLIENT CODE
ORIG.          1" 2.5" PRINT : ORIGIN OF DATA
UWI .         42051310600000 : UNIQUE WELL ID
DICO. A2D Technologies, Inc. : DIGITIZING COMPANY
~Other -----------------------------------------------------
~ASCII -----------------------------------------------------
# ...
 7250.00000    9.74150  499.67520    0.99150    0.02470    2.53040    -999.25    0.07250    0.10500    2.00130    0.02470  102.64900  102.64900    2.00130    2.02770    2.02770    -999.25    0.26210    0.21810    2.32060   -1.09070   -2.47830    2.32060
 7300.00000   10.35520  549.02820    1.60520    0.03210    2.52820    -999.25    0.07380    0.10630    1.82140    0.03210   95.41490   95.41490    1.82140    1.84540    1.84540    -999.25    0.26130    0.21730    2.08790   -1.21730   -2.58570    2.08790
 7350.00000   10.05080  462.08590    1.30080    0.01630    2.51780    -999.25    0.08010    0.11240    2.16410    0.01630  111.58080  111.58080    2.16410    2.19240    2.19240    -999.25    0.25440    0.21050    2.24400   -0.58960   -1.93870    2.24400
 7400.00000   10.93110  595.73450    2.18110    0.09300    2.52210    -999.25    0.07750    0.10990    1.67860    0.09300  104.91570  104.91570    1.67860    1.70140    1.70140    -999.25    0.26250    0.21850    2.18220   -0.69480   -2.02460    2.18220
 7450.00000   11.16610  646.37060    2.41610    0.05170    2.48530    -999.25    0.09980    0.13140    1.54710    0.05170   89.85290   89.85290    1.54710    1.56840    1.56840    -999.25    0.28660    0.24260    1.75260   -0.56130   -1.87190    1.75260
 7500.00000   10.13450  499.80010    1.38450    0.10060    2.50630    -999.25    0.08710    0.11910    2.00080    0.10060   85.39050   85.39050    2.00080    2.02960    2.02960    0.18320    -999.25    -999.25    2.31720    0.31060   -0.98070    2.31720
 7550.00000    9.52370  261.35590    0.77370   -0.00830    2.59820    0.06540    -999.25    0.06540    3.82620   -0.00830   55.98870   55.98870    3.82620    3.89560    3.89560    0.10990    -999.25    0.10990    4.19610   -1.91900   -3.19110    4.19610
 7600.00000    9.37090  244.11680    0.62090    0.00300    2.61010    0.05840    -999.25    0.05840    4.09640    0.00300   54.99050   54.99050    4.09640    4.17020    4.17020    0.10860    -999.25    0.10860    4.94830   -3.06120   -4.31400    4.94830
 7650.00000    9.12120  173.32220    0.37120   -0.01090    2.58790    0.07140    -999.25    0.07140    5.76960   -0.01090   53.77620   53.77620    5.76960    5.85660    5.85660    0.07460    -999.25    0.07460    6.44440   -6.55640   -7.78990    6.44440
 7700.00000    9.46990  361.21950    0.71990    0.02320    2.58860    0.07100    -999.25    0.07100    2.76840    0.02320   89.33340   89.33340    2.76840    2.80470    2.80470    0.16860    -999.25    0.16860    3.28720   -2.07850   -3.29280    3.28720
 7750.00000    9.61350  426.45740    0.86350    0.02230    2.51150    0.11610    -999.25    0.11610    2.34490    0.02230   91.09570   91.09570    2.34490    2.37660    2.37660    0.18920    -999.25    0.18920    2.73560   -3.62390   -4.81890    2.73560
 7800.00000    8.88790  340.43710    0.13790    0.01580    2.57990    0.07610    -999.25    0.07610    2.93740    0.01580   95.28830   95.28830    2.93740    2.97630    2.97630    0.15570    -999.25    0.15570    3.63580   -1.27960   -2.45530    3.63580
 7850.00000    8.82070  320.70810    0.07070   -0.00280    2.58060    0.07570    -999.25    0.07570    3.11810   -0.00280   91.97700   91.97700    3.11810    3.16050    3.16050    0.15120    -999.25    0.15120    3.61420   -2.39190   -3.54840    3.61420
 7900.00000    8.79500  395.03830    0.04500    0.00140    2.55750    0.08920    -999.25    0.08920    2.53140    0.00140  100.95750  100.95750    2.53140    2.56470    2.56470    0.18560    -999.25    0.18560    3.07950   -1.13680   -2.27400    3.07950
 7950.00000    8.96710  439.57980    0.21710    0.02930    2.53540    0.10210    -999.25    0.10210    2.27490    0.02930  101.06240  101.06240    2.27490    2.30560    2.30560    0.22330    -999.25    0.22330    2.80210   -1.76710   -2.88510    2.80210
 8000.00000    8.96200  192.48170    0.21200   -0.00700    2.60260    0.06280    -999.25    0.06280    5.19530   -0.00700   69.57770   69.57770    5.19530    5.43640    5.43640    0.11600    -999.25    0.11600    7.34370   -0.80630   -1.90500    7.34370
 8050.00000    9.57380  490.48460    0.82380    0.07810    2.53470    0.10250    -999.25    0.10250    2.03880    0.07810  114.23570  114.23570    2.03880    2.07000    2.07000    0.24050    -999.25    0.24050    2.59420   -0.62110   -1.70050    2.59420
 8100.00000    9.85590  509.94390    1.10590    0.09530    2.55730    0.08930    -999.25    0.08930    1.96100    0.09530  105.04890  105.04890    1.96100    1.98690    1.98690    0.24350    -999.25    0.24350    2.46230   -2.99540   -4.40610    2.46230
 8150.00000    9.70870  461.33970    0.95870    0.09070    2.54990    0.09360    -999.25    0.09360    2.16760    0.09070  103.67110  103.67110    2.16760    2.19710    2.19710    0.22060    -999.25    0.22060    2.74080   -1.26770   -3.33310    2.74080
 8200.00000   10.03000  465.48430    1.28000    0.09600    2.54530    0.09630    -999.25    0.09630    2.14830    0.09600  102.28230  102.28230    2.14830    2.21880    2.21880    0.22330    -999.25    0.22330    2.69450   -0.38420   -3.10440    2.69450
 8250.00000   11.07480  517.97370    2.32480    0.04650    2.52450    0.10850    -999.25    0.10850    1.93060    0.04650  103.64360  103.64360    1.93060    1.95710    1.95710    0.22750    -999.25    0.22750    2.36650   -0.85020   -4.22520    2.36650
 8300.00000   11.53100  570.93920    2.78100    0.08230    2.46650    0.14240    -999.25    0.14240    1.75150    0.08230  104.60020  104.60020    1.75150    1.77450    1.77450    0.29970    -999.25    0.29970    2.14960   -2.42750   -6.45720    2.14960
 8350.00000   11.32010  557.04100    2.57010    0.10110    2.56050    0.08740    -999.25    0.08740    1.79520    0.10110  100.25440  100.25440    1.79520    1.81870    1.81870    0.23840    -999.25    0.23840    2.20000   -2.07280   -6.75730    2.20000
 8400.00000   10.76860  457.58210    2.01860    0.07470    2.55900    0.08830    -999.25    0.08830    2.18540    0.07470  107.20560  107.20560    2.18540    2.21430    2.21430    0.23190    -999.25    0.23190    2.76020   -0.03910   -5.37830    2.76020
 8450.00000   11.31500  492.92650    2.56500    0.09980    2.56500    0.08480    -999.25    0.08480    2.02870    0.09980  113.15050  113.15050    2.02870    2.05530    2.05530    0.22490    -999.25    0.22490    2.51530   -0.64880   -6.64280    2.51530
 8500.00000   10.67390  482.39270    1.92390    0.07450    2.53130    0.10450    -999.25    0.10450    2.07300    0.07450  113.23960  113.23960    2.07300    2.10010    2.10010    0.23470    -999.25    0.23470    2.55930    0.43470   -6.21410    2.55930
 8550.00000    9.77340   78.08110    1.02340   -0.00330    2.62790    0.04800    -999.25    0.04800   12.80720   -0.00330   43.04180   43.04180   12.80720    8.91320    8.91320    0.04040    -999.25    0.04040   10.20790    1.39830   -5.90520   10.20790
 8600.00000    9.60420   70.30770    0.85420   -0.01090    2.61030    0.05830    -999.25    0.05830   14.22320   -0.01090   43.36620   43.36620   14.22320    7.63400    7.63400    0.07570    -999.25    0.07570    8.45150    0.01290   -7.81930    8.45150
 8650.00000    9.23640   38.58560    0.48640   -0.00520    2.60650    0.06050    -999.25    0.06050   25.91640   -0.00520   43.35950   43.35950   25.91640   12.90800   12.90800    0.05570    -999.25    0.05570   16.33410   -2.38800  -10.40800   16.33410
 8700.00000    9.46540   45.05210    0.71540   -0.00080    2.60770    0.05980    -999.25    0.05980   22.19650   -0.00080   60.34080   60.34080   22.19650   13.11450   13.11450    0.06180    -999.25    0.06180   14.79230   -4.95220  -13.16000   14.79230
 8750.00000    9.22150   75.34660    0.47150    0.05350    2.59460    0.06750    -999.25    0.06750   13.27200    0.05350   54.83690   54.83690   13.27200   13.66970   13.66970    0.06620    -999.25    0.06620   14.48630   -6.39680  -14.79240   14.48630
 8800.00000    8.80800   60.85830    0.05800   -0.01110    2.57660    0.07800    -999.25    0.07800   16.43160   -0.01110   53.14880   53.14880   16.43160   22.78760   22.78760    0.07310    -999.25    0.07310   25.02310  -24.69670  -33.28010   25.02310
