~Version ---------------------------------------------------
VERS. 2.0 : CWLS log ASCII Standard -VERSION 2.0
WRAP. YES : MULTIPLE LINES PER DEPTH STEP
~Well ------------------------------------------------------
STRT.FT                 3400.0 : START DEPTH
STOP.FT                 8300.0 : STOP DEPTH
STEP.FT               50.00000 : STEP LENGTH
NULL.                  -999.25 : NULL VALUE
COMP.      SAGE ENERGY COMPANY : COMPANY
WELL.       VAN DRESAR UNIT #1 : WELL
FLD .                 GIDDINGS : FIELD
LOC .                          : LOCATION
CNTY.                 BURLESON : COUNTY
STAT.                    TEXAS : STATE
CTRY. UNITED STATES OF AMERICA : COUNTRY
SRVC.            Dresser Atlas : SERVICE COMPANY
DATE.              05-Jan-1984 : LOGDATE
API .           42051326100000 : API NUMBER
UWI .           42051326100000 : UNIQUE WELL ID
SLAT.WGS84       30.5520329185 : SURFACE LATITUDE
SLON.WGS84      -96.5959283516 : SURFACE LONGITUDE
~Curve Information -----------------------------------------
DEPT    .FT    : DEPTH FEET
CALRED  .IN    : CALIPER FROM RESISTIVITY LOG
CALWS   .IN    : CALIPER [CALRED]
CNLSED  .V/V   : NEUTRON POROSITY LIMESTONE FROM COMPOSITE LOG
CNSSED  .V/V   : NEUTRON POROSITY SANDTONE FROM COMPOSITE LOG
CONDWS  .MMHO  : CONDUCTIVITY [1000/DRESWS]
DENWS   .G/C3  : BULK DENSITY [CALCULATED FROM DPOWS][M=2.65 F=1.0]<5850>[M=2.71 F=1.0]
DPOWS   .V/V   : DENSITY POROSITY [M=2.65 F=1.0] [PORDSSED]<5850>[M=2.71 F=1.0] [PORDLSED]
DRESWS  .OHMM  : DEEP RESISTIVITY [RILDED]
GRNED   .CPS   : GAMMA RAY FROM NEUTRON LOG, DEPTH ADJUSTED WITH [GRRED]
GRRED   .GAPI  : GAMMA RAY FROM RESISTIVITY LOG
GRWS    .GAPI  : GAMMA RAY [GRRED]
MRESWS  .OHMM  : MEDIUM RESISTIVITY [RILMED]
NEUTED  .NAPI  : NEUTRON FROM NEUTRON LOG, DEPTH ADJUSTED WITH [GRRED]
NEUTWS  .NAPI  : NEUTRON [NEUTED]
NPOWS   .V/V   : NEUTRON POROSITY SANDSTONE [CNSSED]<5850>[CNLSED]
PORDLSED.V/V   : DENSITY POROSITY LIMESTONE FROM COMPOSITE LOG
PORDSSED.V/V   : DENSITY POROSITY SANDSTONE FROM COMPOSITE LOG
RFOCED  .OHMM  : FOCUSED RESISTIVITY
RILDED  .OHMM  : INDUCTION LOG DEEP RESISTIVITY
RILMED  .OHMM  : INDUCTION LOG MEDIUM RESISTIVITY
SPRED   .MV    : SPONTANEOUS POTENTIAL FROM RESISTIVITY LOG
SPWS    .MV    : SPONTANEOUS POTENTIAL [BASELINE 0 MV] [SPRED]
SRESWS  .OHMM  : SHALLOW RESISTIVITY [RFOCED]
TENRED  .LBF   : TENSION FROM RESISTIVITY LOG
~Params ----------------------------------------------------
PD  .                     GL : PERMANENT DATUM
EPD .FT                  375 : ELEVATION PERMANENT DATUM
LMF .                     KB : LOG MEASURED FROM
DAPD.FT                   16 : FEET ABOVE PERMANENT DATUM
DMF .                     KB : DRILLING MEASURED FROM
EKB .FT                  391 : KELLY BUSHING
EDF .FT                  390 : DRILLING FLOOR
EGL .FT                  375 : GROUND LEVEL
DATE.               01/05/84 : RUN DATE
RUN .                      1 : RUN NUMBER
DD  .FT                 8320 : DEPTH DRILLER
DL  .FT                 8317 : DEPTH LOGGER
BLI .FT                 8314 : BOTTOM LOG INTERVAL
TLI .FT                 3403 : TOP LOG INTERVAL
CS  .IN                8.625 : CASING SIZE
CBD .FT                 3415 : CASING BOTTOM DRILLER
CBL .FT                 3403 : CASING BOTTOM LOGGER
BS  .IN                7.875 : BIT SIZE
BSD .FT                 8320 : BIT SIZE AT DEPTH
DFT .        LINGOSULPHONATE : DRILLING FLUID TYPE
DFD .                    9.5 : DRILLING FLUID DENSITY
DFV .                     44 : DRILLING FLUID VISCOSITY
DFPH.                    9.5 : DRILLING FLUID PH
DFL .                    7.4 : DRILLING FLUID LOSS
MSS .               FLOWLINE : MUD SAMPLE SOURCE
RMS .OHMM               2.79 : RESISTIVITY MUD SAMPLE
MST .DEGF                 75 : MUD SAMPLE TEMPERATURE
RMF .OHMM               4.44 : RESISTIVITY MUD FILTRATE SAMPLE
MFST.DEGF                 75 : MUD FILTRATE SAMPLE TEMPERATURE
RMC .OHMM               3.63 : RESISTIVITY MUD CAKE
MCST.DEGF                 75 : MUD CAKE SAMPLE TEMPERATURE
MFSS.               MEASURED : MUD FILTRATE SAMPLE SOURCE
MCSS.               MEASURED : MUD CAKE SAMPLE SOURCE
RMB .OHMM              1.125 : RESISTIVITY MUD AT BHT
TCS .HRS                   6 : TIME CIRCULATED STOPPED
LUN .                HL 6304 : LOGGING UNIT NUMBER
LUL .                  BRYAN : LOGGING UNIT LOCATION
ENGI.            KIRK WRIGHT : RECORDING ENGINEER
WITN.                  BAKER : WITNESSED BY
CLNT.                A2DTECH : CLIENT CODE
ORIG.            2" 5" PRINT : ORIGIN OF DATA
UWI .         42051326100000 : UNIQUE WELL ID
DICO. A2D Technologies, Inc. : DIGITIZING COMPANY
~Other -----------------------------------------------------
~ASCII -----------------------------------------------------
# ...
 4850.00000   10.95880   10.95880    -999.25    -999.25 1122.58640    -999.25    -999.25    0.89080    -999.25   82.74620   82.74620    0.93600    -999.25    -999.25    -999.25    -999.25    -999.25    1.53550    0.89080    0.93600   -2.78210   -2.13630    1.53550    0.00000
 4900.00000   11.04930   11.04930    -999.25    0.34590 1220.85220    2.26360    0.23420    0.81910    -999.25   85.80270   85.80270    0.87570    -999.25    -999.25    0.34590    -999.25    0.23420    1.48940    0.81910    0.87570   -3.02160   -2.41090    1.48940   12.76680
 4950.00000    8.81030    8.81030    -999.25    0.25860  432.37630    2.37350    0.16760    2.31280    -999.25   76.37460   76.37460    2.35110    -999.25    -999.25    0.25860    -999.25    0.16760    2.76570    2.31280    2.35110   -2.19540   -1.61980    2.76570    0.00000
 5000.00000    9.98930    9.98930    -999.25    0.29710  587.88950    2.31520    0.20290    1.70100    -999.25   76.74410   76.74410    1.78790    -999.25    -999.25    0.29710    -999.25    0.20290    2.27100    1.70100    1.78790   -6.23120   -5.69070    2.27100   24.88450
 5050.00000    9.20910    9.20910    -999.25    0.32400  678.51810    2.33250    0.19240    1.47380    -999.25   81.37150   81.37150    1.54320    -999.25    -999.25    0.32400    -999.25    0.19240    2.13820    1.47380    1.54320   -5.15710   -4.65170    2.13820    7.84700
 5100.00000   10.57590   10.57590    -999.25    0.35990  857.33890    2.32000    0.20000    1.16640    -999.25   80.63540   80.63540    1.19580    -999.25    -999.25    0.35990    -999.25    0.20000    1.85440    1.16640    1.19580   -4.66920   -4.19890    1.85440    7.19080
 5150.00000   10.50860   10.50860    -999.25    0.32640  871.53560    2.23240    0.25310    1.14740    -999.25   82.20010   82.20010    1.19240    -999.25    -999.25    0.32640    -999.25    0.25310    1.77700    1.14740    1.19240   -4.19960   -3.76440    1.77700   12.75350
 5200.00000   10.60520   10.60520    -999.25    0.37430  789.76470    2.30880    0.20680    1.26620    -999.25   85.62110   85.62110    1.30800    -999.25    -999.25    0.37430    -999.25    0.20680    1.85740    1.26620    1.30800   -8.03280   -7.63270    1.85740    9.46880
 5250.00000   10.34940   10.34940    -999.25    0.34440  851.49870    2.31600    0.20240    1.17440    -999.25   75.30880   75.30880    1.24170    -999.25    -999.25    0.34440    -999.25    0.20240    1.83960    1.17440    1.24170   -4.45150   -4.08650    1.83960   11.38940
 5300.00000   10.58690   10.58690    -999.25    0.35560  845.45140    2.34280    0.18620    1.18280    -999.25   77.39850   77.39850    1.23960    -999.25    -999.25    0.35560    -999.25    0.18620    1.85340    1.18280    1.23960   -7.23120   -6.90130    1.85340    0.00000
 5350.00000   10.42600   10.42600    -999.25    0.37840  905.63310    2.25800    0.23760    1.10420    -999.25   80.70300   80.70300    1.14000    -999.25    -999.25    0.37840    -999.25    0.23760    1.74550    1.10420    1.14000   -7.85750   -7.56270    1.74550    0.00000
 5400.00000   10.57250   10.57250    -999.25    0.35680  866.17580    2.32170    0.19900    1.15450    -999.25   82.86360   82.86360    1.23380    -999.25    -999.25    0.35680    -999.25    0.19900    1.84120    1.15450    1.23380   -9.08960   -8.82990    1.84120    4.60480
 5450.00000    8.40300    8.40300    -999.25    0.23870  419.35750    2.47760    0.10450    2.38460    -999.25   63.15570   63.15570    2.49400    -999.25    -999.25    0.23870    -999.25    0.10450    2.95650    2.38460    2.49400   -2.62780   -2.40320    2.95650    0.00000
 5500.00000    8.82910    8.82910    -999.25    0.31800  965.15780    2.33680    0.18980    1.03610    -999.25  103.46550  103.46550    1.10380    -999.25    -999.25    0.31800    -999.25    0.18980    1.79610    1.03610    1.10380   -4.29400   -4.10450    1.79610    0.64380
 5550.00000    8.48680    8.48680    -999.25    0.30000  823.65540    2.31270    0.20440    1.21410    -999.25   82.55480   82.55480    1.30900    -999.25    -999.25    0.30000    -999.25    0.20440    1.82320    1.21410    1.30900   -3.40860   -3.25420    1.82320    3.20250
 5600.00000    8.66240    8.66240    -999.25    0.28090  738.06180    2.36360    0.17360    1.35490    -999.25   73.84960   73.84960    1.42810    -999.25    -999.25    0.28090    -999.25    0.17360    2.11160    1.35490    1.42810   -5.98150   -5.86220    2.11160   16.49430
 5650.00000    8.85100    8.85100    -999.25    0.29340  830.90990    2.44590    0.12370    1.20350    -999.25   94.81280   94.81280    1.27490    -999.25    -999.25    0.29340    -999.25    0.12370    1.99790    1.20350    1.27490  -12.88350  -12.79930    1.99790    1.66660
 5700.00000   11.31250   11.31250    -999.25    0.34690  900.33310    2.40070    0.15110    1.11070    -999.25   84.31950   84.31950    1.23140    -999.25    -999.25    0.34690    -999.25    0.15110    1.70600    1.11070    1.23140   -3.13490   -3.08580    1.70600    0.00000
 5750.00000   11.29760   11.29760    -999.25    0.32080  804.56990    2.42430    0.13680    1.24290    -999.25   95.62900   95.62900    1.32200    -999.25    -999.25    0.32080    -999.25    0.13680    1.81010    1.24290    1.32200   -3.16670   -3.15260    1.81010    0.85130
 5800.00000   11.23250   11.23250    -999.25    0.36820 1006.44120    2.32170    0.19900    0.99360    -999.25  102.12590  102.12590    1.07350    -999.25    -999.25    0.36820    -999.25    0.19900    1.74690    0.99360    1.07350   -3.53920   -3.56020    1.74690    0.00000
 5850.00000   10.37680   10.37680    -999.25    -999.25 1211.53380    -999.25    -999.25    0.82540    -999.25  101.88040  101.88040    0.88010    -999.25    -999.25    -999.25    -999.25    -999.25    1.48180    0.82540    0.88010   -2.99330   -3.04940    1.48180    0.00000
 5900.00000    9.15610    9.15610    -999.25    -999.25  748.67110    -999.25    -999.25    1.33570    -999.25  116.95690  116.95690    1.44960    -999.25    -999.25    -999.25    -999.25    -999.25    1.87390    1.33570    1.44960   -5.42040   -5.51160    1.87390    3.02310
 5950.00000    8.91080    8.91080    -999.25    -999.25  636.45620    -999.25    -999.25    1.57120    -999.25   92.78290   92.78290    1.66030    -999.25    -999.25    -999.25    -999.25    -999.25    2.15490    1.57120    1.66030   -2.96130   -3.08760    2.15490   13.46220
 6000.00000    8.81820    8.81820    -999.25    -999.25  640.28690    -999.25    -999.25    1.56180    -999.25   81.38080   81.38080    1.65750    -999.25    -999.25    -999.25    -999.25    -999.25    2.14360    1.56180    1.65750   -4.27900   -4.44040    2.14360    2.36670
 6050.00000    9.66690    9.66690    -999.25    -999.25  648.92930    -999.25    -999.25    1.54100    -999.25   85.94400   85.94400    1.64400    -999.25    -999.25    -999.25    -999.25    -999.25    2.14080    1.54100    1.64400   -4.57460   -4.77110    2.14080    0.70490
 6100.00000   10.33960   10.33960    -999.25    -999.25  854.92000    -999.25    -999.25    1.16970    -999.25   88.42450   88.42450    1.22260    -999.25    -999.25    -999.25    -999.25    -999.25    1.82770    1.16970    1.22260   -3.75270   -3.98430    1.82770    4.78210
 6150.00000   10.27080   10.27080    -999.25    -999.25  763.35880    -999.25    -999.25    1.31000    -999.25   89.74990   89.74990    1.37830    -999.25    -999.25    -999.25    -999.25    -999.25    1.98730    1.31000    1.37830   -5.16590   -5.43260    1.98730    5.21530
 6200.00000    9.73740    9.73740    -999.25    -999.25  694.20340    -999.25    -999.25    1.44050    -999.25   78.43470   78.43470    1.53200    -999.25    -999.25    -999.25    -999.25    -999.25    2.11710    1.44050    1.53200   -4.43910   -4.74090    2.11710    0.00000
 6250.00000   10.11730   10.11730    -999.25    -999.25  975.13400    -999.25    -999.25    1.02550    -999.25   95.96870   95.96870    1.11170    -999.25    -999.25    -999.25    -999.25    -999.25    1.71200    1.02550    1.11170  -10.69200  -11.02890    1.71200    0.00000
