~Version ---------------------------------------------------
VERS. 2.0 : CWLS log ASCII Standard -VERSION 2.0
WRAP.  NO : ONE LINE PER DEPTH STEP
~Well ------------------------------------------------------
STRT.F                    3500.0 : START DEPTH
STOP.F                    7750.0 : STOP DEPTH
STEP.F                  50.00000 : STEP LENGTH
NULL.                    -999.25 : NULL VALUE
COMP. CHAMPLIN PETROLEUM COMPANY : COMPANY
WELL.        MILDRED CRNKOVIC #1 : WELL
FLD .                   GIDDINGS : FIELD
LOC .                            : LOCATION
CNTY.                   BURLESON : COUNTY
STAT.                      TEXAS : STATE
CTRY.   UNITED STATES OF AMERICA : COUNTRY
SRVC.               Schlumberger : SERVICE COMPANY
DATE.                04-Jan-1981 : LOGDATE
API .             42051312330000 : API NUMBER
UWI .             42051312330000 : UNIQUE WELL ID
SLAT.WGS84         30.6103503993 : SURFACE LATITUDE
SLON.WGS84        -96.6065886863 : SURFACE LONGITUDE
~Curve Information -----------------------------------------
DEPT.F                 : 
GRR .GAPI 07 310 01 00 : GAMMA RAY FROM RES. LOG.
ILD .OHMM 07 120 46 00 : INDUCTION LOG DEEP
ILM .OHMM 07 120 44 00 : INDUCTION LOG MEDIUM
SFLU.OHMM 07 220 01 00 : SPHERICALLY FOCUSED LOG UNAVERAGED RESISTIVITY
SPR .MV   07 010 01 00 : SPONTANEOUS POTENTIAL FROM RES.
CALR.IN   07 280 01 00 : CALIPER FROM RESISTIVITY
DT  .US/F 60 520 00 00 : INTERVAL TRANSIT TIME
~Params ----------------------------------------------------
PD  .                     GL : PERMANENT DATUM
EPD .FT                  368 : ELEVATION PERMANENT DATUM
LMF .                     KB : LOG MEASURED FROM
DAPD.FT                   14 : FEET ABOVE PERMANENT DATUM
DMF .                     KB : DRILLING MEASURED FROM
EKB .FT                  382 : KELLY BUSHING
EDF .FT                  381 : DRILLING FLOOR
EGL .FT                  368 : GROUND LEVEL
DATE.               01/04/81 : RUN DATE
RUN .                      1 : RUN NUMBER
DD  .FT                 7770 : DEPTH DRILLER
DL  .FT                 7774 : DEPTH LOGGER
BLI .FT                 7771 : BOTTOM LOG INTERVAL
TLI .FT                 3514 : TOP LOG INTERVAL
CS  .IN                9.625 : CASING SIZE
CBD .FT                 3511 : CASING BOTTOM DRILLER
CBL .FT                 3514 : CASING BOTTOM LOGGER
BS  .IN                 8.75 : BIT SIZE
BSD .FT                 7770 : BIT SIZE AT DEPTH
DFT .                  BENEX : DRILLING FLUID TYPE
DFD .                    9.6 : DRILLING FLUID DENSITY
DFV .                     37 : DRILLING FLUID VISCOSITY
DFPH.                    8.5 : DRILLING FLUID PH
DFL .                    9.6 : DRILLING FLUID LOSS
MSS .                    PIT : MUD SAMPLE SOURCE
RMS .OHMM                  3 : RESISTIVITY MUD SAMPLE
MST .DEGF                 80 : MUD SAMPLE TEMPERATURE
RMF .OHMM                2.2 : RESISTIVITY MUD FILTRATE SAMPLE
MFST.DEGF                 80 : MUD FILTRATE SAMPLE TEMPERATURE
RMC .OHMM                4.4 : RESISTIVITY MUD CAKE
MCST.DEGF                 80 : MUD CAKE SAMPLE TEMPERATURE
MFSS.                      M : MUD FILTRATE SAMPLE SOURCE
MCSS.                      C : MUD CAKE SAMPLE SOURCE
RMB .OHMM                1.5 : RESISTIVITY MUD AT BHT
TCS .HRS                 800 : TIME CIRCULATED STOPPED
TLAB.HRS                2300 : TIME LOGGER AT BOTTOM
LUN .                   8138 : LOGGING UNIT NUMBER
LUL .                BRENHAM : LOGGING UNIT LOCATION
ENGI.               MITCHELL : RECORDING ENGINEER
WITN.                 KRAUHS : WITNESSED BY
CLNT.                A2DTECH : CLIENT CODE
ORIG.            2" 5" PRINT : ORIGIN OF DATA
UWI .         42051312330000 : UNIQUE WELL ID
DICO. A2D Technologies, Inc. : DIGITIZING COMPANY
~Other -----------------------------------------------------
~ASCII -----------------------------------------------------
 3500.00000   40.15540    -999.25    -999.25    -999.25    -999.25    -999.25    -999.25
 3550.00000   80.04230    2.64690    2.70060    2.85400  -23.34550    8.03780  107.21790
 3600.00000   74.35320    1.97310    2.03480    2.27300  -13.68620    8.89560  108.64380
 3650.00000   74.20280    2.00680    2.07040    2.32180  -16.30080    9.08830  107.48280
 3700.00000   66.12150    2.53060    2.60890    3.23880  -19.74130    8.39060  102.16290
 3750.00000   72.46730    2.36310    2.43700    2.75950  -17.26270    8.45930  102.75400
 3800.00000   71.61260    2.40000    2.47470    2.74040  -15.93100    8.60910  103.15760
 3850.00000   74.19650    1.92300    1.98310    2.02180  -13.97170    8.88540  104.65850
 3900.00000   78.98110    1.59210    1.64210    1.81500  -13.53190    8.92620  109.46630
 3950.00000   67.42380    2.20650    2.24610    2.43050  -13.42060    8.68890   97.31300
 4000.00000   77.36800    1.62640    1.67710    1.90030  -14.53660    8.69360  107.55900
 4050.00000   75.74540    1.50440    1.55020    1.81350  -15.08810    8.61100  106.82570
 4100.00000   78.01340    1.36930    1.41200    1.67410  -11.78050    8.50640  108.32840
 4150.00000   74.51820    1.19870    1.23600    1.51720  -13.39440    8.64450  113.49430
 4200.00000   86.83300    1.55240    1.60240    1.76700  -14.32550    8.65130  108.71460
 4250.00000   96.12650    1.77450    1.83010    2.15130  -19.38540    8.62310  101.90640
 4300.00000   80.81210    1.27100    1.31090    1.54750  -14.08860    8.86450  104.15750
 4350.00000   76.99860    0.96400    0.99410    1.00750  -10.68690    8.54190  121.37000
 4400.00000   69.62460    2.24180    2.31210    2.46680  -14.25610    8.23440   95.84960
 4450.00000   69.77560    1.59020    1.64150    1.90280  -15.69000    8.28740  103.58520
 4500.00000   75.20240    1.42330    1.46770    1.76060  -12.87980    8.46950  113.33980
 4550.00000   80.11780    1.11620    1.15310    1.33850  -13.18050    8.44780  111.60690
 4600.00000   74.43430    1.27740    1.31720    1.61500  -13.02430    8.51690  107.92230
 4650.00000   75.01590    1.31270    1.35400    1.31880  -21.40630    8.44890  113.07460
 4700.00000   74.96680    0.94790    0.97750    1.27960  -15.56510    8.39140  115.71470
 4750.00000   72.40820    1.14710    1.18820    1.39430  -15.83030    8.71360  111.34590
 4800.00000   68.71560    1.22000    1.25800    1.59800  -14.93230    8.49280  105.60530
 4850.00000   76.06890    0.96460    0.99610    1.28140  -14.36130    8.13470  114.55420
 4900.00000   71.91690    1.54100    1.59370    1.71910  -19.26620    8.19680  106.50110
 4950.00000   55.66200    2.80000    2.92600    3.50490  -12.77150    7.48440   86.35370
 5000.00000   68.60930    1.13980    1.18210    1.39290  -15.60420    8.37470  101.71220
 5050.00000   76.27860    0.99570    1.03290    1.29850  -15.28310    8.50520  107.17060
 5100.00000   94.51330    1.03230    1.08260    1.14790  -11.55920    7.91640  107.13680
 5150.00000   75.50110    1.32510    1.37460    1.45360  -13.80760    8.04350  100.25000
 5200.00000   82.01400    1.11930    1.16090    1.34030  -13.03780    8.52200  103.31860
 5250.00000   93.62450    0.82930    0.86070    0.85950  -10.14500    7.95840  114.67290
 5300.00000   78.74570    1.50850    1.56510    1.79260  -12.85110    8.51990   93.86230
 5350.00000   94.23370    1.18880    1.24400    1.43200   -9.71410    8.51840  100.06780
 5400.00000   80.84510    1.47070    1.52540    1.75090  -12.51810    8.59240   96.94190
 5450.00000   77.86120    1.19310    1.23820    1.45460   -9.80840    8.50410  102.75820
 5500.00000   72.58650    1.45560    1.50960    1.77310  -12.40880    8.63590   98.34480
 5550.00000   77.24520    1.26590    1.31350    1.52570  -12.23450    8.75480  103.18250
 5600.00000   71.06520    1.20530    1.25090    1.56340  -11.94480    8.82040  100.69170
 5650.00000   98.69890    0.98350    1.03760    1.02330  -15.27570    8.79510  107.43050
 5700.00000   76.35980    1.11350    1.18330    1.54480  -15.74100    8.94840  104.31520
 5750.00000   61.82080    1.34530    1.39810    1.79380  -16.12720    8.32280   98.95080
 5800.00000   55.13800    2.17160    2.25220    2.68150  -11.04460    8.47960   85.76300
 5850.00000   54.96640    2.25010    2.33700    2.52630  -15.25940    8.66560   85.50000
 5900.00000   47.85810    3.00600    3.11750    3.30150  -15.23580    8.68450   81.12270
 5950.00000   69.45290    2.33370    2.42420    2.91760  -15.67460    8.99760   82.90340
 6000.00000   67.76570    1.91130    1.98500    2.29610  -15.00950    9.14170   89.30950
 6050.00000   65.47540    2.11210    2.19220    2.60890  -10.70270    8.80370   86.14240
 6100.00000   57.64990    2.58100    2.67690    2.96730  -12.74900    8.99560   82.77730
 6150.00000   63.46980    2.32540    2.41200    2.72890  -12.05840    8.79180   84.05610
 6200.00000   70.95150    1.88760    1.95760    2.35600   -7.96940    7.97530   93.16350
 6250.00000   73.63010    1.60530    1.67080    2.21000  -10.11540    8.73330   91.37690
 6300.00000   75.53080    1.62910    1.71290    2.12500  -13.99750    8.30940   94.68530
 6350.00000   81.01040    1.54650    1.61020    2.02340  -13.68490    8.56470   95.29540
 6400.00000   72.05440    1.62770    1.69890    2.25750  -11.17360    8.21740   92.74740
 6450.00000   73.10930    1.49640    1.55500    2.34230  -13.57290    9.03680   94.74160
 6500.00000   76.01120    1.47770    1.53530    2.01140  -12.15720    9.03130   94.88550
 6550.00000   78.21070    1.43520    1.51490    1.94720  -13.20090    9.11670   95.94850
 6600.00000   65.31160    1.37100    1.45140    1.86240  -16.32220    9.18600   97.24730
 6650.00000   74.23470    1.31840    1.40640    1.81330  -15.31570    9.20050   99.63190
 6700.00000   63.57820    1.26790    1.37200    1.76780  -11.02700    9.23120   99.06480
 6750.00000   67.63410    1.48760    1.58770    2.09290   -9.84400    8.92690   95.10950
 6800.00000   67.13770    1.57790    1.66460    2.20930   -9.69080    9.00970   94.02580
 6850.00000   65.30750    1.58200    1.66280    2.16390   -9.77510    8.90270   93.84690
 6900.00000   65.66820    1.47490    1.56320    2.08950  -14.10170    9.00510   95.02710
 6950.00000   64.82070    2.07180    2.20900    2.88200  -15.89820    8.59950   86.31640
 7000.00000   73.59680    1.68530    1.76630    2.28840  -28.78860    8.72110   96.40550
 7050.00000   44.39890    8.24380    8.06070    7.56510  -42.25580    8.35320   72.63010
 7100.00000   37.19460   13.80540   13.34470   16.42300  -44.24290    8.25980   66.88550
 7150.00000   65.32900    1.32400    1.20570    2.41200  -37.80990    9.17190  103.61450
 7200.00000   74.41060    2.00440    1.74820    1.86560  -25.04400    9.20870  103.17500
 7250.00000   78.22730    2.35580    2.52440    4.14590  -18.62850    8.86650   95.22880
 7300.00000   77.51040    5.37940    5.81390   14.37120  -12.73340    8.56610   94.55110
 7350.00000  116.46090    5.28660    5.29390   10.21770  -12.43410    8.73630   91.94130
 7400.00000   75.97960    3.72440    4.00930    4.94230  -25.25260    9.20770   97.21400
 7450.00000   40.29590    4.53320    4.91980    9.66780  -18.75020    8.93980   64.29260
 7500.00000   20.08510   14.92240   15.88560   26.66780  -31.34210    8.47060   56.98500
 7550.00000   49.48900    7.50940    7.95060    9.40990  -15.19690    8.65730   63.08660
 7600.00000   12.10650   29.79500   26.24890   42.94040  -60.19430    8.40420   52.10810
 7650.00000   26.07510    8.45180    7.31970    7.92030  -33.67800    8.06320   59.30650
 7700.00000   21.06920   25.25300   24.12920   36.59470  -29.46370    8.01470   53.85870
 7750.00000    -999.25   22.21820   21.82330   37.56730  -12.25110    7.99300    -999.25
