~Version ---------------------------------------------------
VERS. 2.0 : CWLS log ASCII Standard -VERSION 2.0
WRAP.  NO : ONE LINE PER DEPTH STEP
~Well ------------------------------------------------------
STRT.F                      3900.0 : START DEPTH
STOP.F                     12600.0 : STOP DEPTH
STEP.F                    50.00000 : STEP LENGTH
NULL.                      -999.25 : NULL VALUE
COMP.       KIMBALL PRODUCTION CO. : COMPANY
WELL. CLAY GAS UNIT NO. 1       #1 : WELL
FLD .              JERRYS QUARTERS : FIELD
LOC .                              : LOCATION
CNTY.                   WASHINGTON : COUNTY
STAT.                        TEXAS : STATE
CTRY.     UNITED STATES OF AMERICA : COUNTRY
SRVC.                 Schlumberger : SERVICE COMPANY
DATE.                  12-Mar-1982 : LOGDATE
API .               42477304680000 : API NUMBER
UWI .               42477304680000 : UNIQUE WELL ID
SLAT.WGS84           30.3797480443 : SURFACE LATITUDE
SLON.WGS84          -96.3148004385 : SURFACE LONGITUDE
~Curve Information -----------------------------------------
DEPT.F                 : 
CALD.IN   45 280 60 00 : CALIPER FROM DENSITY LOG
DPHI.DEC  45 890 10 00 : DENSITY POROSITY LIMESTONE
DRHO.G/C3 45 356 01 00 : DENSITY CORRECTION
NPHI.DEC  42 890 01 00 : NEUTRON POROSITY LIMESTONE
RHOB.G/C3 45 350 01 00 : BULK DENSITY
GRR .GAPI 07 310 01 00 : GAMMA RAY FROM RESISTIVITY
ILD .OHMM 07 120 46 00 : INDUCTION LOG DEEP
ILM .OHMM 07 120 44 00 : INDUCTION LOG MEDIUM
SFLU.OHMM 07 220 01 00 : SPHERICALLY FOCUSED LOG UNAVERAGED RESISTIVITY
SPR .MV   07 010 01 00 : SPONTANEOUS POTENTIAL FROM RES.
~Params ----------------------------------------------------
PD  .                     GL : PERMANENT DATUM
EPD .F                   200 : ELEVATION PERMANENT DATUM
LMF .                     KB : LOG MEASURED FROM
DAPD.F                    17 : FEET ABOVE PERMANENT DATUM
DMF .                     KB : DRILLING MEASURED FROM
EKB .F                   217 : KELLING BUSHING
EDF .F                   216 : DRILLING FLOOR
EGL .F                   200 : GROUND LEVEL
DATE.               03/12/82 : RUN DATE
RUN .                      1 : RUN NUMBER
DD  .F                 12615 : DEPTH DRILLER
DL  .F                 12618 : DEPTH LOGGER
BLI .F                 12618 : BOTTOM LOG INTERVAL
TLI .F                 10600 : TOP LOG INTERVAL
CS  .IN                8.625 : CASING SIZE
CBD .F                  3897 : CASING BOTTOM DRILLER
CBL .F                  3901 : CASING BOTTOM LOGGER
BS  .IN                 8.75 : BIT SIZE
BSD .F                 12615 : BIT SIZE AT DEPTH
DFT .                   BENE : DRILLING FLUID TYPE
DFD .                    9.9 : DRILLING FLUID DENSITY
DFV .                     40 : DRILLING FLUID VISCOSITY
DFPH.                    6.6 : DRILLING FLUID PH
DFL .                    7.6 : DRILLING FLUID LOSS
MSS .                   TANK : MUD SAMPLE SOURCE
RMS .OHMM               2.21 : RESISTIVITY MUD SAMPLE
MST .F                    95 : MUD SAMPLE TEMPERATURE
RMF .OHMM               1.66 : RESISTIVITY MUD FILTRATE SAMPLE
MFST.F                    97 : MUD FILTRATE SAMPLE TEMPERATURE
RMC .OHMM               3.31 : RESISTIVITY MUD CAKE
MCST.F                    97 : MUD CAKE SAMPLE TEMPERATURE
MFSS.                   CALC : MUD FILTRATE SAMPLE SOURCE
MCSS.                   CALC : MUD CAKE SAMPLE SOURCE
RMB .OHMM              1.366 : RESISTIVITY MUD AT BHT
TLAB.HRS                1100 : TIME LOGGER AT BOTTOM
LUN .                   8176 : LOGGING UNIT NUMBER
LUL .                BRENHAM : LOGGING UNIT LOCATION
ENGI.                CARON R : RECORDING ENGINEER
WITN.             BILDERBACK : WITNESSED BY
CLNT.                A2DTECH : CLIENT CODE
ORIG.               5" PRINT : ORIGIN OF DATA
UWI .         42477304680000 : UNIQUE WELL ID
DICO. A2D Technologies, Inc. : DIGITIZING COMPANY
~Other -----------------------------------------------------
~ASCII -----------------------------------------------------
# ...
 10500.00000    -999.25    -999.25    -999.25    -999.25    -999.25  100.73640    2.16440    2.22910    2.22920  -61.03230
 10550.00000    -999.25    -999.25    -999.25    -999.25    -999.25   97.20110    2.07690    2.10970    3.18950  -63.38590
 10600.00000   12.70610    0.23250    0.14690    0.25890    2.28620   83.28350    2.16430    2.21390    2.42130  -62.79820
 10650.00000   13.32640    0.16600    0.13800    0.24000    2.42560   83.50520    2.51700    2.54100    2.74100  -63.68280
 10700.00000   13.68100    0.16240    0.17060    0.22950    2.43040   95.21230    2.43210    2.45490    2.99780  -63.38920
 10750.00000   12.04720    0.18100    0.05490    0.22830    2.39420   71.35210    3.20040    3.46430    3.76290  -60.14730
 10800.00000   14.20060    0.17260    0.08900    0.24690    2.39710   81.95870    2.03460    2.08080    2.29140  -61.32920
 10850.00000   11.33920    0.10120    0.00000    0.16870    2.54030   76.43510    2.90720    2.91630    2.99770  -62.21010
 10900.00000   11.25070    0.04150    0.00300    0.04750    2.62920   42.85580    6.71600    7.19040    9.87130  -68.10070
 10950.00000   11.84240    0.06220   -0.00300    0.08110    2.60100   59.64650    5.65720    5.97000    6.01120  -66.62740
 11000.00000   12.23890    0.05290    0.00520    0.08750    2.61810   55.67010    6.57920    6.71170    7.54560  -65.74560
 11050.00000   11.17690    0.04870   -0.00070    0.05230    2.62640   44.62440   10.13800   10.07740   13.18340  -65.74380
 11100.00000   11.94390    0.06790    0.02300    0.12340    2.59360   76.21570    4.35850    4.43940    3.89480  -65.74370
 11150.00000   11.88490    0.06910    0.00670    0.07950    2.59390   65.38970    5.69620    5.68920    6.26530  -64.56630
 11200.00000   12.41590    0.06760    0.00220    0.10730    2.59350   72.68010    4.57320    4.59530    5.02550  -63.68190
 11250.00000   11.61950    0.05680    0.02230    0.08470    2.62100   68.48310    6.71640    6.85210    7.97340  -63.68190
 11300.00000   13.34510    0.12880    0.12690    0.25950    2.47380   89.24890    2.84810    2.91630    3.68580  -63.68210
 11350.00000   14.49550    0.11470    0.13280    0.22380    2.51240   86.59790    2.71440    2.72750    3.23380  -64.27100
 11400.00000   15.36580    0.09970    0.09760    0.23340    2.53180   81.07510    2.46570    2.44260    2.83710  -64.27100
 11450.00000   14.21540    0.11050    0.11320    0.23220    2.51890   90.35360    2.65910    2.69010    3.18950  -63.09280
 11500.00000   14.67260    0.11440    0.12720    0.24000    2.51300   92.56260    2.49980    2.55450    3.06030  -64.56600
 11550.00000   12.12090    0.07630    0.11090    0.16180    2.57760   91.23640    3.38110    3.35420    4.11560  -61.03190
 11600.00000   12.48970    0.07090    0.06880    0.19390    2.56480   84.38790    3.45140    3.56890    4.34860  -64.26910
 11650.00000   12.32740    0.07390    0.10310    0.22320    2.58020   90.13250    3.02940    3.08780    3.68600  -66.92310
 11700.00000   11.02950    0.04710   -0.00150    0.10960    2.62990   64.94850    6.05900    6.82280    9.80370  -65.15460
 11750.00000   10.80830    0.04690   -0.00150    0.05350    2.62470   40.20580   18.54470   18.92650   21.20580  -65.74370
 11800.00000   10.85250    0.04900    0.05340    0.09910    2.61070   43.35930   18.41870   18.15990   24.84680  -68.10020
 11850.00000   11.28020    0.09650    0.02820    0.13510    2.54920   51.91460    9.86330    9.30440   10.28780  -71.04750
 11900.00000   12.43070    0.13980    0.06170    0.07990    2.36860   50.36910   15.72930   16.37570   39.96710  -75.75850
 11950.00000   11.47190    0.06260    0.00850    0.03100    2.60990   53.01840   37.09250   24.76550   28.71520  -73.40400
 12000.00000   10.98530    0.08090    0.02180    0.00790    2.56920   26.95140   49.14700   36.68660  168.64890  -81.35300
 12050.00000   10.44440    0.06100    0.00960    0.00940    2.60250   24.07710   56.37730   47.34660  184.45320  -79.88340
 12100.00000   11.28890    0.08090    0.04750    0.16710    2.55220   85.93430    4.76510    4.96870    6.61990  -56.90630
 12150.00000   12.94820    0.10890    0.08460    0.24230    2.50700   92.78350    3.57180    3.82350    5.16590  -58.96910
 12200.00000   16.28150    0.24420    0.16210    0.31640    2.28500   82.17970    3.02940    3.13070    3.97610  -60.14630
 12250.00000   15.86670    0.28030    0.15320    0.32760    2.23690   79.08830    2.75190    2.67160    3.94880  -55.43450
 12300.00000   10.61650    0.02290    0.00480    0.00580    2.67390   23.19310   49.48330   37.45290  131.60650  -58.08540
 12350.00000   10.91160    0.01130    0.01740    0.00220    2.69410   28.71690    -999.25   30.24600  126.27630  -53.07880
 12400.00000   10.88190    0.00800    0.03950   -0.00040    2.69280   16.56850  128.46350   40.96420  174.56200  -81.64950
 12450.00000    9.84960    0.01630    0.00550    0.00250    2.68100   22.97350   86.27860   38.76640  322.26280  -44.53610
 12500.00000    9.67250    0.00850    0.03360    0.04500    2.69420   64.06430    8.89860   10.24770   22.10140  -38.35120
 12550.00000    9.58410   -0.00400    0.00630   -0.00400    2.70540   21.87150   89.29220   45.42840 1507.88220 -161.76680
 12600.00000    8.90550    0.09190    0.02920    0.02950    2.55220   17.89400    4.89760    5.90330   26.61880 -190.63280
