~Version ---------------------------------------------------
VERS.      2.0 : CWLS log ASCII Standard -VERSION 2.0
WRAP.      YES : Multiple lines per depth step
CREA. 01/04/18 : LAS Creation Date
~Well ------------------------------------------------------
STRT.FT                         3450.0 : START DEPTH
STOP.FT                        13850.0 : STOP DEPTH
STEP.FT                       50.00000 : STEP LENGTH
NULL.                          -999.25 : NULL VALUE
COMP.          TORCH OPERATING COMPANY : COMPANY
WELL.           CAROLYN WARMKE UNIT #1 : WELL
FLD .                          WILDCAT : FIELD
LOC .                                  : LOCATION
CNTY.                          FAYETTE : COUNTY
STAT.                            TEXAS : STATE
CTRY.         UNITED STATES OF AMERICA : COUNTRY
SRVC. HALLIBURTON LOGGING SERVICES INC : SERVICE COMPANY
DATE.                      31-Dec-1991 : LOGDATE
API .                   42149325050000 : API NUMBER
UWI .                   42149325050000 : UNIQUE WELL ID
SLAT.WGS84               30.0718798257 : SURFACE LATITUDE
SLON.WGS84              -96.6577022662 : SURFACE LONGITUDE
~Curve Information -----------------------------------------
DEPT    .FT    : DEPTH FEET
CALRED  .IN    : CALIPER FROM DIL/SDL/DSN LOG
CALWS   .IN    : CALIPER [TOP DCALRD+BIT 13316' CALRED]
CONDWS  .MMHO  : DEEP CONDUCTIVITY [1000/DRESWS]
CORRED  .G/C3  : DENSITY CORRECTION FROM DIL/SDL/DSN LOG
DCALED  .IN    : DIFFERENTIAL CALIPER FROM DENSITY LOG
DENWS   .G/C3  : BULK DENSITY [CALC. FROM DPOLSWS]
DPHILSED.V/V   : DENSITY POROSITY (LS) [M=2.71 F=1.0] FROM DIL/SDL/DSN LOG
DPOLSWS .V/V   : DENSITY POROSITY LIMESTONE [M=2.71 F=1.0] [DPHILSED]
DRESWS  .OHMM  : DEEP RESISTIVITY [ILDED]
DTED    .US/F  : DELTA TIME FROM DIL/LSS LOG
DTWS    .US/F  : DELTA TIME COMPRESSIONAL [DTED]
GRRED   .GAPI  : GAMMA RAY FROM RESISTIVITY LOG
GRWS    .GAPI  : GAMMA RAY [GRRED]
ILDED   .OHMM  : INDUCTION LOG DEEP RESISTIVITY
ILMED   .OHMM  : INDUCTION LOG MEDIUM RESISTIVITY
MRESWS  .OHMM  : MEDIUM RESISTIVITY [ILMED]
NPHILSED.V/V   : NEUTRON POROSITY LIMESTONE FROM DIL/SDL/DSN LOG
NPOLSWS .V/V   : NEUTRON POROSITY LIMESTONE [NPHILSED]
SGUARDED.OHMM  : SHORT GUARD RESISTIVITY
SNED    .OHMM  : 16 INCH SHORT NORMAL RESISTIVITY FROM IEL LOG
SPRED   .MV    : SPONTANEOUS POTENTIAL FROM RESISTIVITY LOG
SPWS    .MV    : SPONTANEOUS POTENTIAL [BASELINE 0 MV] [SPRED]
SRESWS  .OHMM  : SHALLOW RESISTIVITY [TOP SGUARDED 13320' SNED]
TENRED  .LBF   : TENSION FROM RESISTIVITY LOG
~Params ----------------------------------------------------
PD  .                     GL : PERMANENT DATUM
EPD .FT                  387 : ELEVATION PERMANENT DATUM
LMF .                    TKB : LOG MEASURED FROM
DAPD.FT                 22.1 : FEET ABOVE PERMANENT DATUM
DMF .                    TKB : DRILLING MEASURED FROM
EKB .FT                409.1 : KELLY BUSHING
EDF .FT                407.8 : DRILLING FLOOR
EGL .FT                  387 : GROUND LEVEL
DATE.             12/31/1991 : RUN DATE
RUN .                      2 : RUN NUMBER
DD  .FT                13866 : DEPTH DRILLER
DL  .FT                13790 : DEPTH LOGGER
BLI .FT                13788 : BOTTOM LOG INTERVAL
TLI .FT                13316 : TOP LOG INTERVAL
CS  .IN                  6.5 : CASING SIZE
CBD .FT                13316 : CASING BOTTOM DRILLER
CBL .FT                13316 : CASING BOTTOM LOGGER
BS  .IN                 4.75 : BIT SIZE
BSD .FT                13866 : BIT SIZE AT DEPTH
DFT .                    CLS : DRILLING FLUID TYPE
DFD .                   10.6 : DRILLING FLUID DENSITY
DFV .                     45 : DRILLING FLUID VISCOSITY
DFPH.                    9.9 : DRILLING FLUID PH
DFL .                    6.2 : DRILLING FLUID LOSS
MSS .               FLOWLINE : MUD SAMPLE SOURCE
RMS .OHMM               0.86 : RESISTIVITY MUD SAMPLE
MST .DEGF                 75 : MUD SAMPLE TEMPERATURE
RMF .OHMM               0.72 : RESISTIVITY MUD FILTRATE SAMPLE
MFST.DEGF                 75 : MUD FILTRATE SAMPLE TEMPERATURE
RMC .OHMM                1.1 : RESISTIVITY MUD CAKE
MCST.DEGF                 75 : MUD CAKE SAMPLE TEMPERATURE
MFSS.                   MEAS : MUD FILTRATE SAMPLE SOURCE
MCSS.                   MEAS : MUD CAKE SAMPLE SOURCE
RMB .OHMM              0.241 : RESISTIVITY MUD AT BHT
TCS .HRS                1630 : TIME CIRCULATED STOPPED
TLAB.HRS                2324 : TIME LOGGER AT BOTTOM
LUN .                   7678 : LOGGING UNIT NUMBER
LUL .                   VICT : LOGGING UNIT LOCATION
ENGI.         STAPP ROBINSON : RECORDING ENGINEER
WITN.                HOLLIER : WITNESSED BY
CLNT.                A2DTECH : CLIENT CODE
ORIG.               5" PRINT : ORIGIN OF DATA
UWI .         42149325050000 : UNIQUE WELL ID
DICO. A2D Technologies, Inc. : DIGITIZING COMPANY
~Other -----------------------------------------------------
DIL/SDL/DSN PRESENTD FROM TD TO 10600'; DIL/LSS FROM 10600' TO CASING.
ALL POROSITY LOGS RAN ON LIMESTONE MATRIX.
DID NOT RACH TO TD WITH IEL.
LOGS WERE RAN SEPARATELY THEN MURGED TOGETHER.
~ASCII -----------------------------------------------------
 3450.00000    -999.25    9.83500    -999.25    -999.25   -0.04000    -999.25    -999.25    -999.25    -999.25    -999.25    -999.25   39.95450   39.95450    -999.25    -999.25    -999.25    -999.25    -999.25    -999.25    -999.25    -999.25    -999.25    -999.25    -999.25
 3500.00000    -999.25    9.64500  982.31830    -999.25   -0.23000    -999.25    -999.25    -999.25    1.01800  131.94600  131.94600   68.51010   68.51010    1.01800    1.01800    1.01800    -999.25    -999.25    1.41600    -999.25  -59.40300   -6.08630    1.41600 1817.74480
 3550.00000    -999.25   12.55800 1037.34440    -999.25    2.68300    -999.25    -999.25    -999.25    0.96400  141.88900  141.88900   67.82410   67.82410    0.96400    0.92500    0.92500    -999.25    -999.25    1.27400    -999.25  -56.64100   -3.28110    1.27400 1864.42590
 3600.00000    -999.25   11.17800  482.39270    -999.25    1.30300    -999.25    -999.25    -999.25    2.07300  107.08900  107.08900   49.40270   49.40270    2.07300    2.41800    2.41800    -999.25    -999.25    2.45000    -999.25  -72.05300  -18.47740    2.45000 1804.01710
 3650.00000    -999.25   11.86000  368.32410    -999.25    1.98500    -999.25    -999.25    -999.25    2.71500  103.95900  103.95900   54.47860   54.47860    2.71500    2.97100    2.97100    -999.25    -999.25    3.09700    -999.25  -67.46200  -13.67060    3.09700 1830.17020
 3700.00000    -999.25   12.69400  419.28720    -999.25    2.81900    -999.25    -999.25    -999.25    2.38500  105.63700  105.63700   63.61730   63.61730    2.38500    2.50700    2.50700    -999.25    -999.25    2.66200    -999.25  -64.04900  -10.04180    2.66200 1802.99800
 3750.00000    -999.25   10.28900  874.12590    -999.25    0.41400    -999.25    -999.25    -999.25    1.14400  142.68400  142.68400   61.58840   61.58840    1.14400    1.06100    1.06100    -999.25    -999.25    1.43500    -999.25  -60.91600   -6.69310    1.43500 1872.76070
 3800.00000    -999.25   10.75100  632.91140    -999.25    0.87600    -999.25    -999.25    -999.25    1.58000  104.21500  104.21500   58.13060   58.13060    1.58000    1.59700    1.59700    -999.25    -999.25    1.90400    -999.25  -59.86000   -5.42130    1.90400 1926.10620
 3850.00000    -999.25    9.79200  355.49240    -999.25   -0.08300    -999.25    -999.25    -999.25    2.81300  115.85300  115.85300   39.77920   39.77920    2.81300    3.05400    3.05400    -999.25    -999.25    3.25000    -999.25  -73.38000  -18.72550    3.25000 1855.62700
 3900.00000    -999.25    9.86700  409.50040    -999.25   -0.00800    -999.25    -999.25    -999.25    2.44200  100.35700  100.35700   70.65050   70.65050    2.44200    2.70500    2.70500    -999.25    -999.25    3.33800    -999.25  -69.10500  -14.23480    3.33800 1843.62590
 3950.00000    -999.25    9.75600  677.96610    -999.25   -0.11900    -999.25    -999.25    -999.25    1.47500  123.62300  123.62300   76.80120   76.80120    1.47500    1.39600    1.39600    -999.25    -999.25    1.62400    -999.25  -67.59000  -12.50400    1.62400 1837.41740
 4000.00000    -999.25   11.20300  422.65430    -999.25    1.32800    -999.25    -999.25    -999.25    2.36600  112.86300  112.86300   62.60420   62.60420    2.36600    2.57600    2.57600    -999.25    -999.25    2.73000    -999.25  -69.81900  -14.51720    2.73000 1870.41780
 4050.00000    -999.25   12.92800  624.21970    -999.25    3.05300    -999.25    -999.25    -999.25    1.60200  139.70200  139.70200   68.00480   68.00480    1.60200    1.59000    1.59000    -999.25    -999.25    1.66900    -999.25  -67.51900  -12.00140    1.66900 1895.14270
 4100.00000    -999.25   12.08400  710.73210    -999.25    2.20900    -999.25    -999.25    -999.25    1.40700  115.44700  115.44700   67.72740   67.72740    1.40700    1.38700    1.38700    -999.25    -999.25    1.71400    -999.25  -60.88600   -5.15270    1.71400 1917.53890
 4150.00000    -999.25   12.89300 1364.25650    -999.25    3.01800    -999.25    -999.25    -999.25    0.73300  143.67800  143.67800   71.13970   71.13970    0.73300    0.72200    0.72200    -999.25    -999.25    1.11500    -999.25  -59.53900   -3.58990    1.11500 1990.76770
 4200.00000    -999.25   12.74400  576.03690    -999.25    2.86900    -999.25    -999.25    -999.25    1.73600  109.68200  109.68200   33.22980   33.22980    1.73600    1.49900    1.49900    -999.25    -999.25    1.70900    -999.25  -57.81200   -1.64710    1.70900 1921.18910
 4250.00000    -999.25   10.98500  706.21470    -999.25    1.11000    -999.25    -999.25    -999.25    1.41600  102.52500  102.52500   69.39570   69.39570    1.41600    1.37700    1.37700    -999.25    -999.25    1.88900    -999.25  -62.82600   -6.44540    1.88900 2017.62570
 4300.00000    -999.25   11.90200 1190.47620    -999.25    2.02700    -999.25    -999.25    -999.25    0.84000  119.66100  119.66100   63.27540   63.27540    0.84000    0.85200    0.85200    -999.25    -999.25    1.15200    -999.25  -60.00100   -3.40460    1.15200 2044.98120
 4350.00000    -999.25    9.64400 1310.61600    -999.25   -0.23100    -999.25    -999.25    -999.25    0.76300  133.93600  133.93600   67.25920   67.25920    0.76300    0.73200    0.73200    -999.25    -999.25    1.04600    -999.25  -59.20600   -2.39380    1.04600 2043.73120
 4400.00000    -999.25   11.38100  929.36800    -999.25    1.50600    -999.25    -999.25    -999.25    1.07600  123.82300  123.82300   70.63930   70.63930    1.07600    1.05400    1.05400    -999.25    -999.25    1.35800    -999.25  -60.47000   -3.44210    1.35800 2038.34030
 4450.00000    -999.25   10.15200  745.71220    -999.25    0.27700    -999.25    -999.25    -999.25    1.34100  115.24900  115.24900   61.55180   61.55180    1.34100    1.33100    1.33100    -999.25    -999.25    1.68300    -999.25  -61.92500   -4.68130    1.68300 2107.07890
 4500.00000    -999.25    9.62400  591.01650    -999.25   -0.25100    -999.25    -999.25    -999.25    1.69200  108.29000  108.29000   82.24350   82.24350    1.69200    1.69500    1.69500    -999.25    -999.25    2.11100    -999.25  -62.38700   -4.93980    2.11100 2112.14620
 4550.00000    -999.25    9.39400  474.38330    -999.25   -0.48100    -999.25    -999.25    -999.25    2.10800  101.92800  101.92800   65.18900   65.18900    2.10800    2.67900    2.67900    -999.25    -999.25    3.01300    -999.25  -84.04400  -26.62690    3.01300 2099.63500
 4600.00000    -999.25    9.47900  399.20160    -999.25   -0.39600    -999.25    -999.25    -999.25    2.50500   95.26800   95.26800   77.02830   77.02830    2.50500    3.40900    3.40900    -999.25    -999.25    4.07500    -999.25  -85.40300  -28.01590    4.07500 2128.66110
 4650.00000    -999.25    9.90000  481.00050    -999.25    0.02500    -999.25    -999.25    -999.25    2.07900   97.75300   97.75300   71.26690   71.26690    2.07900    2.67200    2.67200    -999.25    -999.25    3.61400    -999.25  -78.89100  -21.53400    3.61400 2133.85280
 4700.00000    -999.25    9.48200  632.91140    -999.25   -0.39300    -999.25    -999.25    -999.25    1.58000  100.26200  100.26200   65.83100   65.83100    1.58000    2.02300    2.02300    -999.25    -999.25    3.17000    -999.25  -90.31400  -32.98710    3.17000 2127.14160
 4750.00000    -999.25    9.39900  551.57200    -999.25   -0.47600    -999.25    -999.25    -999.25    1.81300  103.80000  103.80000   76.33360   76.33360    1.81300    2.73700    2.73700    -999.25    -999.25    3.31800    -999.25  -99.03500  -41.73810    3.31800 2183.39090
 4800.00000    -999.25    9.27900  510.98620    -999.25   -0.59600    -999.25    -999.25    -999.25    1.95700  107.10900  107.10900   88.85350   88.85350    1.95700    2.32100    2.32100    -999.25    -999.25    2.41400    -999.25  -74.59000  -17.32320    2.41400 2169.60570
 4850.00000    -999.25    9.04200  651.89050    -999.25   -0.83300    -999.25    -999.25    -999.25    1.53400   90.67600   90.67600   58.04160   58.04160    1.53400    2.69400    2.69400    -999.25    -999.25    4.48700    -999.25 -116.01100  -58.77430    4.48700 2184.68310
