~Version ---------------------------------------------------
VERS. 2.0 : CWLS log ASCII Standard -VERSION 2.0
WRAP.  NO : ONE LINE PER DEPTH STEP
~Well ------------------------------------------------------
STRT.FT                 3150.0 : START DEPTH
STOP.FT                 7450.0 : STOP DEPTH
STEP.FT               50.00000 : STEP LENGTH
NULL.                  -999.25 : NULL VALUE
COMP. CHAMPLIN EXPLORATION INC : COMPANY
WELL.         FONDREN HELEN #1 : WELL
FLD .                 GIDDINGS : FIELD
LOC .                          : LOCATION
CNTY.                  FAYETTE : COUNTY
STAT.                    TEXAS : STATE
CTRY. UNITED STATES OF AMERICA : COUNTRY
SRVC.             Schlumberger : SERVICE COMPANY
DATE.              18-Dec-1980 : LOGDATE
API .           42149308070000 : API NUMBER
UWI .           42149308070000 : UNIQUE WELL ID
SLAT.WGS84       29.9634726024 : SURFACE LATITUDE
SLON.WGS84      -97.1154941932 : SURFACE LONGITUDE
~Curve Information -----------------------------------------
DEPT  .FT    : DEPTH FEET
SPWS  .MV    : SPONTANEOUS POTENTIAL [BASELINE 0 MV] [SPRED]
DRHOED.G/C3  : DENSITY CORRECTION FROM DENSITY LOG
DPHIED.V/V   : DENSITY POROSITY [M=2.71 F=1.0] FROM DENSITY LOG
GRWS  .GAPI  : GAMMA RAY [GRRED]
GRRED .GAPI  : GAMMA RAY FROM RESISTIVITY LOG
SPRED .MV    : SPONTANEOUS POTENTIAL FROM RESISTIVITY LOG
SFLUED.OHMM  : SPHERICALLY FOCUSED LOG RESISTIVITY
ILDED .OHMM  : INDUCTION LOG DEEP RESISTIVITY
ILMED .OHMM  : INDUCTION LOG MEDIUM RESISTIVITY
DCALED.IN    : DIFFERENTIAL CALIPER FROM DENSITY LOG
CALWS .IN    : CALIPER [CALRED]
CALRED.IN    : CALIPER FROM RESISTIVITY LOG
NPHIED.V/V   : NEUTRON POROSITY LIMESTONE FROM DENSITY LOG
DCORWS.G/C3  : DENSITY CORRECTION [DRHOED]
DRESWS.OHMM  : DEEP RESISTIVITY [ILDED]
MRESWS.OHMM  : MEDIUM RESISTIVITY [ILMED]
SRESWS.OHMM  : SHALLOW RESISTIVITY [SFLUED]
CONDWS.MMHO  : CONDUCTIVITY [1000/DRESWS]
NPOWS .V/V   : NEUTRON POROSITY [NPHIED_LS]
DENWS .G/C3  : BULK DENSITY [M=2.71 F=1.0] [CALCULATED FROM DPHIED]
DPOWS .V/V   : DENSITY POROSITY [M=2.71 F=1] [CALCULATED FROM DENWS]
~Params ----------------------------------------------------
PD  .                     GL : PERMANENT DATUM
EPD .FT                  297 : ELEVATION PERMANENT DATUM
LMF .                     KB : LOG MEASURED FROM
DMF .                     KB : DRILLING MEASURED FROM
EKB .FT                  311 : KELLY BUSHING
EDF .FT                  310 : DRILLING FLOOR
EGL .FT                  297 : GROUND LEVEL
DATE.               12/18/80 : RUN DATE
RUN .                      1 : RUN NUMBER
DD  .FT                 7500 : DEPTH DRILLER
DL  .FT                 7490 : DEPTH LOGGER
BLI .FT                 7484 : BOTTOM LOG INTERVAL
TLI .FT                 3180 : TOP LOG INTERVAL
CS  .IN                8.625 : CASING SIZE
CBD .FT                 3190 : CASING BOTTOM DRILLER
CBL .FT                 3180 : CASING BOTTOM LOGGER
BS  .IN                7.875 : BIT SIZE
BSD .FT                 7500 : BIT SIZE AT DEPTH
DFT .          LIGNOSUFONATE : DRILLING FLUID TYPE
DFD .                    9.1 : DRILLING FLUID DENSITY
DFV .                     57 : DRILLING FLUID VISCOSITY
DFPH.                      9 : DRILLING FLUID PH
DFL .                      5 : DRILLING FLUID LOSS
MSS .              CIRC TANK : MUD SAMPLE SOURCE
RMS .OHMM               2.08 : RESISTIVITY MUD SAMPLE
MST .DEGF                 98 : MUD SAMPLE TEMPERATURE
RMF .OHMM               2.46 : RESISTIVITY MUD FILTRATE SAMPLE
MFST.DEGF                 75 : MUD FILTRATE SAMPLE TEMPERATURE
RMC .OHMM               3.12 : RESISTIVITY MUD CAKE
MCST.DEGF                 98 : MUD CAKE SAMPLE TEMPERATURE
MFSS.                      M : MUD FILTRATE SAMPLE SOURCE
MCSS.                      C : MUD CAKE SAMPLE SOURCE
RMB .OHMM               1.19 : RESISTIVITY MUD AT BHT
TCS .HRS                 500 : TIME CIRCULATED STOPPED
TLAB.HRS                 850 : TIME LOGGER AT BOTTOM
LUN .                   8011 : LOGGING UNIT NUMBER
LUL .               VICTORIA : LOGGING UNIT LOCATION
ENGI.                   SHEA : RECORDING ENGINEER
WITN.                BEAKHAM : WITNESSED BY
CLNT.                A2DTECH : CLIENT CODE
ORIG.            2" 5" PRINT : ORIGIN OF DATA
UWI .         42149308070000 : UNIQUE WELL ID
DICO. A2D Technologies, Inc. : DIGITIZING COMPANY
~Other -----------------------------------------------------
ALL LOGS RUN IN COMBO.
~ASCII -----------------------------------------------------
# ...
 6450.00000   -2.46290    -999.25    -999.25   62.71080   62.71080  -15.42000    4.01700    3.29790    3.49530    0.57580    8.45080    8.45080    -999.25    -999.25    3.29790    3.49530    4.01700  303.22330    -999.25    -999.25    -999.25
 6500.00000   -4.13980    -999.25    -999.25   52.62780   52.62780  -17.54390    4.34320    3.44410    3.71500    0.40730    8.28230    8.28230    -999.25    -999.25    3.44410    3.71500    4.34320  290.35160    -999.25    -999.25    -999.25
 6550.00000   -0.78320    -999.25    -999.25   69.88030   69.88030  -14.63420    2.39610    2.50440    2.29380    0.75250    8.62750    8.62750    -999.25    -999.25    2.50440    2.29380    2.39610  399.29720    -999.25    -999.25    -999.25
 6600.00000   -3.26020    0.00330    0.10620   82.70480   82.70480  -14.22570    2.11930    1.70180    1.83580    0.69110    8.56610    8.56610    0.24550    0.00330    1.70180    1.83580    2.11930  587.61310    0.24550    2.52840    0.10620
 6650.00000  -28.55900    0.00290    0.05540   31.42850   31.42850  -39.38770    5.46460    4.31370    4.68370    0.00580    7.88080    7.88080    0.09040    0.00290    4.31370    4.68370    5.46460  231.81950    0.09040    2.61530    0.05540
 6700.00000  -16.09520    0.00310    0.05470   31.22780   31.22780  -26.78710    6.13040    5.35410    5.74550    0.09030    7.96530    7.96530    0.08910    0.00310    5.35410    5.74550    6.13040  186.77280    0.08910    2.61650    0.05470
 6750.00000  -27.48280   -0.00400    0.05580   22.97490   22.97490  -38.03780    7.92560    5.82420    6.19850   -0.08090    7.79410    7.79410    0.07910   -0.00400    5.82420    6.19850    7.92560  171.69740    0.07910    2.61460    0.05580
 6800.00000  -24.93220    0.00770    0.03580   28.99070   28.99070  -35.35040    6.26810    6.19140    6.25970   -0.01440    7.86060    7.86060    0.07350    0.00770    6.19140    6.25970    6.26810  161.51440    0.07350    2.64880    0.03580
 6850.00000  -34.21070   -0.00250    0.04500   24.78380   24.78380  -44.49200    6.62760    6.19550    6.24560    0.05200    7.92700    7.92700    0.07990   -0.00250    6.19550    6.24560    6.62760  161.40750    0.07990    2.63300    0.04500
 6900.00000  -20.31400    0.04980    0.05930   63.44560   63.44560  -30.45850    4.78800    3.29470    3.27930    0.19580    8.07080    8.07080    0.14280    0.04980    3.29470    3.27930    4.78800  303.51780    0.14280    2.60860    0.05930
 6950.00000  -17.72520   -0.00430    0.04060   33.97560   33.97560  -27.73290    6.07890    5.11560    5.29840   -0.21220    7.66280    7.66280    0.09780   -0.00430    5.11560    5.29840    6.07890  195.48050    0.09780    2.64060    0.04060
 7000.00000   -9.47200   -0.00140    0.03950   45.83360   45.83360  -19.34280    5.58350    4.29470    4.44550   -0.08510    7.78990    7.78990    0.09700   -0.00140    4.29470    4.44550    5.58350  232.84510    0.09700    2.64250    0.03950
 7050.00000  -19.90580    0.04070    0.06790   59.38890   59.38890  -29.63980    3.55870    3.94800    4.16010   -0.39770    7.47730    7.47730    0.14190    0.04070    3.94800    4.16010    3.55870  253.29280    0.14190    2.59390    0.06790
 7100.00000  -16.56680   -0.00320    0.04960   46.74750   46.74750  -26.16390    6.18410    5.57160    5.88210   -0.64160    7.23340    7.23340    0.09610   -0.00320    5.57160    5.88210    6.18410  179.48170    0.09610    2.62520    0.04960
 7150.00000  -33.05390   -0.00200    0.04370   39.59270   39.59270  -42.51420    6.54140    6.10670    6.19410   -0.74460    7.13040    7.13040    0.09480   -0.00200    6.10670    6.19410    6.54140  163.75460    0.09480    2.63530    0.04370
 7200.00000  -22.55370   -0.00090    0.02890   37.98150   37.98150  -31.87720   19.77260   15.00610   15.45570   -0.99500    6.88000    6.88000    0.05000   -0.00090   15.00610   15.45570   19.77260   66.63960    0.05000    2.66060    0.02890
 7250.00000   -4.76020   -0.00580    0.07000   63.57710   63.57710  -13.01870   47.39330    9.75510   10.34270   -0.84020    7.03480    7.03480    0.09100   -0.00580    9.75510   10.34270   47.39330  102.51050    0.09100    2.59030    0.07000
 7300.00000   -3.65740    0.07530    0.05200   26.85790   26.85790  -15.72200   20.26720   14.51260   14.65580   -0.26390    7.61110    7.61110    0.05990    0.07530   14.51260   14.65580   20.26720   68.90560    0.05990    2.62110    0.05200
 7350.00000  -16.01120    0.00230    0.01860   18.84060   18.84060  -24.33710   35.34180   27.77120   27.30900   -1.20990    6.66510    6.66510    0.02740    0.00230   27.77120   27.30900   35.34180   36.00850    0.02740    2.67820    0.01860
 7400.00000  -15.27150    0.08950    0.04590   90.68040   90.68040  -20.55380    2.14690    2.53460    2.53120   -0.56300    7.31200    7.31200    0.26060    0.08950    2.53460    2.53120    2.14690  394.53960    0.26060    2.63150    0.04590
 7450.00000  -36.46690    0.00800    0.01010    -999.25    -999.25  -42.99160   32.87150   30.81680   49.88520   -1.40900    6.46600    6.46600    -999.25    0.00800   30.81680   49.88520   32.87150   32.44980    -999.25    2.69270    0.01010
