~Version ---------------------------------------------------
VERS. 2.0 : CWLS log ASCII Standard -VERSION 2.0
WRAP.  NO : One line per depth step
~Well ------------------------------------------------------
STRT.FT                       300.0 : START DEPTH
STOP.FT                     12600.0 : STOP DEPTH
STEP.FT                    50.00000 : STEP LENGTH
NULL.                       -999.25 : NULL VALUE
COMP. STANDARD OIL COMPANY OF TEXAS : COMPANY
WELL.               J T CALLIHAM #1 : WELL
FLD .                      CALLIHAM : FIELD
LOC .                               : LOCATION
CNTY.                     MC MULLEN : COUNTY
STAT.                         TEXAS : STATE
CTRY.      UNITED STATES OF AMERICA : COUNTRY
SRVC.                  Schlumberger : SERVICE COMPANY
DATE.                   25-Aug-1958 : LOGDATE
API .                42311006770000 : API NUMBER
UWI .                42311006770000 : UNIQUE WELL ID
SLAT.WGS84            28.4820300337 : SURFACE LATITUDE
SLON.WGS84           -98.3483794592 : SURFACE LONGITUDE
~Curve Information -----------------------------------------
DEPT  .FT    : DEPTH
ASNED .OHMM  : AMPLIFIED SHORT NORMAL 16 IN.
CILDED.MMHO  : CONDUCTIVITY FROM LOG
CONDWS.MMHO  : CONDUCTIVITY (1000/DRESWS)
DRESWS.OHMM  : DEEP RESISTIVITY (IF ILDED<1, THEN 1000/CILDED)
DTED  .US/F  : DELTA TIME  (ADJ TO RES.)
DTWS  .US/F  : DELTA TIME  (DTE)
ILDED .OHMM  : DEEP INDUCTION RESISTIVITY
SPWS  .MV    : SPONTANEOUS POTENTIAL BASELINE 0 MV (SPRED)
SPRED .MV    : SPONTANEOUS POTENTIAL FROM RESISTIVITY
SRESWS.OHMM  : SHALLOW RESISTIVITY (ASNED)
~Params ----------------------------------------------------
PD  .                     GL : PERMANENT DATUM
LMF .                     GL : LOG MEASURED FROM
DAPD.F                  16.0 : FEET ABOVE PERMANENT DATUM
DMF .                     GL : DRILLING MEASURED FROM
EKB .F                   244 : KELLING BUSHING
EGL .F                   228 : GROUND LEVEL
DATE.                8/25/58 : RUN DATE
RUN .                      2 : RUN NUMBER
DD  .F                 12605 : DEPTH DRILLER
DL  .F                 12632 : DEPTH LOGGER
BLI .F                 12628 : BOTTOM LOG INTERVAL
TLI .F                 12435 : TOP LOG INTERVAL
CBD .F                 12287 : CASING BOTTOM DRILLER
BS  .IN                6.125 : BIT SIZE
BSD .F                 12605 : BIT SIZE AT DEPTH
DFT .     L.B.-13% OIL  EMUL : DRILLING FLUID TYPE
DFD .                   10.3 : DRILLING FLUID DENSITY
DFV .                     71 : DRILLING FLUID VISCOSITY
DFPH.                      9 : DRILLING FLUID PH
DFL .                    3.4 : DRILLING FLUID LOSS
RMS .OHMM                0.6 : RESISTIVITY MUD SAMPLE
MST .F                   120 : MUD SAMPLE TEMPERATURE
RMF .OHMM               0.15 : RESISTIVITY MUD FILTRATE SAMPLE
MFST.F                   270 : MUD FILTRATE SAMPLE TEMPERATURE
RMB .OHMM               0.27 : RESISTIVITY MUD AT BHT
TCS .HRS                   2 : TIME CURCULATED STOPPED
LUN .                   2501 : LOGGING UNIT NUMBER
LUL .                  FREER : LOGGING UNIT LOCATION
ENGI.                  BRITT : RECORDING ENGINEER
WITN.               LINSCOMB : WITNESSED BY
CLNT.                A2DTECH : CLIENT CODE
ORIG.               5",PRINT : ORIGIN OF DATA
UWI .         42311006770000 : UNIQUE WELL ID
DICO. A2D Technologies, Inc. : DIGITIZING COMPANY
~Other -----------------------------------------------------
~ASCII -----------------------------------------------------
# ...
 3600.00000    1.93580  514.14340  476.91720    2.09680    -999.25    -999.25    2.09680   -2.17450  -22.88170    1.93580
 3650.00000    2.41620  462.74900  430.05200    2.32530    -999.25    -999.25    2.32530  -22.80960  -43.71600    2.41620
 3700.00000    3.31560  427.29170  413.35980    2.41920    -999.25    -999.25    2.41920  -46.59700  -67.70270    3.31560
 3750.00000    2.34490  461.55380  389.52940    2.56720    -999.25    -999.25    2.56720  -16.05970  -37.36460    2.34490
 3800.00000    2.83780  529.38240  380.61890    2.62730    -999.25    -999.25    2.62730  -54.71210  -76.21620    2.83780
 3850.00000    5.83240  560.43100  494.04670    2.02410    -999.25    -999.25    2.02410 -103.32360 -125.15770    5.83240
 3900.00000    2.46530  387.15140  376.77560    2.65410    -999.25    -999.25    2.65410  -25.26150  -47.61400    2.46530
 3950.00000    1.89570  539.24300  472.14350    2.11800    -999.25    -999.25    2.11800   -3.86350  -26.73430    1.89570
 4000.00000    2.29940  479.43310  405.43280    2.46650    -999.25    -999.25    2.46650  -23.63800  -47.02710    2.29940
 4050.00000    2.20680  445.56770  408.39660    2.44860    -999.25    -999.25    2.44860   -5.01120  -28.91860    2.20680
 4100.00000    2.55240  489.04380  360.97170    2.77030    -999.25    -999.25    2.77030  -30.16790  -54.59370    2.55240
 4150.00000    1.96250  567.92830  438.82750    2.27880    -999.25    -999.25    2.27880   -5.05590  -30.00000    1.96250
 4200.00000    2.04280  438.84460  391.42010    2.55480    -999.25    -999.25    2.55480   -8.01820  -33.33330    2.04280
 4250.00000    2.08740  532.07170  534.61640    1.87050    -999.25    -999.25    1.87050   -7.19500  -31.68920    2.08740
 4300.00000    2.23350  466.46370  465.00810    2.15050    -999.25    -999.25    2.15050   -8.12850  -31.80180    2.23350
 4350.00000    1.22910  937.25100  609.83050    1.63980    -999.25    -999.25    1.63980   -2.07990  -24.93230    1.22910
 4400.00000    2.11410  521.31480  457.37290    2.18640    -999.25    -999.25    2.18640   -7.42810  -29.45950    2.11410
 4450.00000    1.59450  628.88450  705.16890    1.41810    -999.25    -999.25    1.41810   -4.37520  -25.58570    1.59450
 4500.00000    1.80570  618.12750  531.43430    1.88170    -999.25    -999.25    1.88170   -5.15070  -25.54030    1.80570
 4550.00000    1.71920  612.39040  535.24600    1.86830    -999.25    -999.25    1.86830   -4.82310  -24.39180    1.71920
 4600.00000    1.25490  962.35060  929.97300    1.07530    -999.25    -999.25    1.07530   -3.17250  -21.92030    1.25490
 4650.00000    2.03740  514.14340  506.12410    1.97580    -999.25    -999.25    1.97580   -5.56510  -25.06770    2.03740
 4700.00000    4.18180  270.31870  254.79650    3.92470    -999.25    -999.25    3.92470   -7.48400  -29.03070    4.18180
 4750.00000    4.40080  306.68750  260.15920    3.84380    -999.25    -999.25    3.84380  -12.16320  -35.32640    4.40080
 4800.00000   17.45450   67.10440   57.07700   17.52020    -999.25    -999.25   17.52020  -38.26800  -60.96010   17.45450
 4850.00000   18.76320   56.97210   51.73140   19.33060    -999.25    -999.25   19.33060  -28.86620  -51.08720   18.76320
 4900.00000   20.90910   49.35260   46.31710   21.59030    -999.25    -999.25   21.59030  -27.16300  -48.91300   20.90910
 4950.00000    3.87700  263.32670  308.74680    3.23890    -999.25    -999.25    3.23890   -2.77050  -24.04940    3.87700
 5000.00000   15.94470   69.52190   56.38310   17.73580    -999.25    -999.25   17.73580  -26.70570  -48.00730   15.94470
 5050.00000   15.76220   73.10760   61.83340   16.17250    -999.25    -999.25   16.17250  -40.27770  -61.95940   15.76220
 5100.00000   12.45980   78.48610   78.27050   12.77620    -999.25    -999.25   12.77620  -39.55980  -61.62160   12.45980
 5150.00000   18.01250   58.76490   51.24320   19.51480    -999.25    -999.25   19.51480  -32.42290  -54.86480   18.01250
 5200.00000    4.02850  166.38770   90.04870   11.10510    -999.25    -999.25   11.10510   -2.58330  -25.40540    4.02850
 5250.00000   14.55880  105.37850   87.83720   11.38470    -999.25    -999.25   11.38470  -25.61580  -48.81800   14.55880
 5300.00000   15.52580   69.52190   64.17460   15.58250    -999.25    -999.25   15.58250  -33.51230  -57.09460   15.52580
 5350.00000   15.05340   73.10760   70.65590   14.15310    -999.25    -999.25   14.15310  -34.94890  -58.61490   15.05340
 5400.00000    5.52540  250.77590  184.16210    5.43000    -999.25    -999.25    5.43000  -10.23230  -33.64780    5.52540
 5450.00000    7.16040  123.30680  146.31430    6.83460    -999.25    -999.25    6.83460  -18.04010  -41.20500    7.16040
 5500.00000   10.74280  134.57600  110.54980    9.04570    -999.25    -999.25    9.04570  -38.90950  -61.82390   10.74280
 5550.00000   13.47820  100.71710   90.56580   11.04170    -999.25    -999.25   11.04170  -47.70770  -70.37160   13.47820
 5600.00000   12.33700  110.46710  104.20140    9.59680    -999.25    -999.25    9.59680  -43.62260  -66.03590   12.33700
 5650.00000   13.71400   95.69720   91.49380   10.92970    -999.25    -999.25   10.92970  -53.01730  -75.18010   13.71400
 5700.00000    5.21730  193.31820  201.25990    4.96870    -999.25    -999.25    4.96870   -7.00670  -28.91890    5.21730
 5750.00000    4.71470  248.80480  255.23230    3.91800    -999.25    -999.25    3.91800   -6.04100  -27.70270    4.71470
 5800.00000    8.36960  187.84860  174.92300    5.71680    -999.25    -999.25    5.71680  -33.97260  -55.13270    8.36960
 5850.00000    4.05610  238.04780  274.37100    3.64470    -999.25    -999.25    3.64470   -5.20020  -25.81080    4.05610
 5900.00000    2.87160  427.50720  362.92370    2.75540    -999.25    -999.25    2.75540   -3.99190  -24.05300    2.87160
 5950.00000    3.25000  263.32670  272.05700    3.67570    -999.25    -999.25    3.67570   -6.97480  -26.48650    3.25000
 6000.00000    8.87590  209.60510  212.64380    4.70270    -999.25    -999.25    4.70270  -66.26140  -85.22360    8.87590
 6050.00000    2.10420  523.10750  402.17170    2.48650    -999.25    -999.25    2.48650   -2.46620  -20.87890    2.10420
 6100.00000    2.18830  571.51390  443.99060    2.25230    -999.25    -999.25    2.25230   -2.36200  -20.22520    2.18830
 6150.00000    1.45650  785.30880  660.72020    1.51350    -999.25    -999.25    1.51350   -7.82130  -25.13510    1.45650
 6200.00000    4.16660  272.59110  235.17240    4.25220    -999.25    -999.25    4.25220  -16.03560  -36.93760    4.16660
 6250.00000    3.03260  361.57370  262.41900    3.81070    -999.25    -999.25    3.81070   -4.22290  -27.34230    3.03260
 6300.00000    7.52740  331.90880  236.17210    4.23420    -999.25    -999.25    4.23420  -47.48560  -70.27030    7.52740
 6350.00000    7.64500  245.21910  218.28820    4.58110    -999.25    -999.25    4.58110  -45.07260  -67.52260    7.64500
 6400.00000    2.63770  427.18340  420.45070    2.37840    -999.25    -999.25    2.37840   -3.56040  -25.67570    2.63770
 6450.00000    2.19200  558.36650  429.40570    2.32880    -999.25    -999.25    2.32880   -3.21940  -25.00000    2.19200
 6500.00000    4.45650  252.51320  206.70550    4.83780    -999.25    -999.25    4.83780  -12.33790  -33.78380    4.45650
 6550.00000    1.82250  653.44620  672.72110    1.48650    -999.25    -999.25    1.48650   -3.34820  -24.45940    1.82250
 6600.00000    2.81800  409.13490  303.27840    3.29730    -999.25    -999.25    3.29730   -5.61990  -26.39640    2.81800
 6650.00000    2.31170  550.00000  466.37440    2.14420    -999.25    -999.25    2.14420   -5.57170  -26.01350    2.31170
 6700.00000    2.42160  471.10220  370.00040    2.70270    -999.25    -999.25    2.70270   -5.74870  -25.85580    2.42160
 6750.00000    1.92070  589.95450  578.13490    1.72970    -999.25    -999.25    1.72970   -6.37630  -26.14870    1.92070
 6800.00000    3.98550  300.88200  278.90110    3.58550    -999.25    -999.25    3.58550   -9.21090  -28.64860    3.98550
 6850.00000    2.57610  450.39840  377.54370    2.64870    -999.25    -999.25    2.64870   -8.39700  -27.50000    2.57610
