~Version ---------------------------------------------------
VERS. 2.0 : CWLS log ASCII Standard -VERSION 2.0
WRAP.  NO : ONE LINE PER DEPTH STEP
~Well ------------------------------------------------------
STRT.F                    3400.0 : START DEPTH
STOP.F                    8650.0 : STOP DEPTH
STEP.F                  50.00000 : STEP LENGTH
NULL.                    -999.25 : NULL VALUE
COMP. CHAMPLIN PETROLEUM COMPANY : COMPANY
WELL.           GRANT PAULINE #1 : WELL
FLD .                     KURTEN : FIELD
LOC .                            : LOCATION
CNTY.                     BRAZOS : COUNTY
STAT.                      TEXAS : STATE
CTRY.   UNITED STATES OF AMERICA : COUNTRY
SRVC.              Dresser Atlas : SERVICE COMPANY
DATE.                19-Aug-1982 : LOGDATE
API .             42041307950000 : API NUMBER
UWI .             42041307950000 : UNIQUE WELL ID
SLAT.WGS84         30.7219159802 : SURFACE LATITUDE
SLON.WGS84        -96.3940815909 : SURFACE LONGITUDE
~Curve Information -----------------------------------------
DEPT   .F    0   1   0  0 : 1 MEASURED DEPTH
CN_SS  .DEC  42 890 03 00 : COMPENSATED NEUTRON POROSITY SANDSTONE
PORD_SS.DEC  45 890 12 00 : DENSITY POROSITY [SANDSTONE]
CN_LS  .DEC  42 890 01 00 : COMPENSATED NEUTRON POROSITY LIMESTONE
PORD_LS.DEC  45 890 10 00 : DENSITY POROSITY [LIMESTONE]
CORR   .G/C3 45 356 01 00 : DENSITY CORRECTION
DEN    .G/C3 45 350 01 00 : COMPENSATED BULK DENSITY
GRR    .GAPI 07 310 01 00 : GAMMA RAY FROM RESISTIVITY LOG
RFOC   .OHMM 07 220 01 00 : SHALLOW FOCUSED LOG RESISTIVITY
RILD   .OHMM 07 120 46 00 : INDUCTION DEEP RESISTIVITY
RILM   .OHMM 07 120 44 00 : INDUCTION MEDIUM RESISTIVITY
SPR    .MV   07 010 01 00 : SPONTANEOUS POTENTIAL FROM RESISTIVITY LOG
CALD   .IN   07 280 60 00 : CALIPER FROM DENSITY LOG
~Params ----------------------------------------------------
PD  .                     GL : PERMANENT DATUM
EPD .FT                  333 : ELEVATION PERMANENT DATUM
LMF .                     KB : LOG MEASURED FROM
DAPD.FT                   18 : FEET ABOVE PERMANENT DATUM
DMF .                     KB : DRILLING MEASURED FROM
EKB .FT                  351 : KELLY BUSHING
EDF .FT                  350 : DRILLING FLOOR
EGL .FT                  333 : GROUND LEVEL
DATE.               08/19/82 : RUN DATE
RUN .                      1 : RUN NUMBER
DD  .FT                 8681 : DEPTH DRILLER
DL  .FT                 8680 : DEPTH LOGGER
BLI .FT                 8678 : BOTTOM LOG INTERVAL
TLI .FT                 3402 : TOP LOG INTERVAL
CS  .IN                9.625 : CASING SIZE
CBD .FT                 3402 : CASING BOTTOM DRILLER
CBL .FT                 3402 : CASING BOTTOM LOGGER
BS  .IN                 8.75 : BIT SIZE
BSD .FT                 8681 : BIT SIZE AT DEPTH
DFT .                  BENEX : DRILLING FLUID TYPE
DFD .                    9.8 : DRILLING FLUID DENSITY
DFV .                     40 : DRILLING FLUID VISCOSITY
DFPH.                    9.5 : DRILLING FLUID PH
DFL .                      8 : DRILLING FLUID LOSS
MSS .                   TANK : MUD SAMPLE SOURCE
RMS .OHMM               3.21 : RESISTIVITY MUD SAMPLE
MST .DEGF                 75 : MUD SAMPLE TEMPERATURE
RMF .OHMM               2.41 : RESISTIVITY MUD FILTRATE SAMPLE
MFST.DEGF                 75 : MUD FILTRATE SAMPLE TEMPERATURE
RMC .OHMM               4.01 : RESISTIVITY MUD CAKE
MCST.DEGF                 75 : MUD CAKE SAMPLE TEMPERATURE
MFSS.                      C : MUD FILTRATE SAMPLE SOURCE
MCSS.                      C : MUD CAKE SAMPLE SOURCE
RMB .OHMM               1.24 : RESISTIVITY MUD AT BHT
TCS .HRS                   4 : TIME CIRCULATED STOPPED
LUN .                   6304 : LOGGING UNIT NUMBER
LUL .                  BRYAN : LOGGING UNIT LOCATION
ENGI.                 COOPER : RECORDING ENGINEER
WITN.                  VOOAK : WITNESSED BY
CLNT.                A2DTECH : CLIENT CODE
ORIG.            2" 5" PRINT : ORIGIN OF DATA
UWI .         42041307950000 : UNIQUE WELL ID
DICO. A2D Technologies, Inc. : DIGITIZING COMPANY
~Other -----------------------------------------------------
~ASCII -----------------------------------------------------
 3400.00000    0.27640    -999.25    -999.25    -999.25    0.05150    2.18780   37.17230    -999.25    -999.25    -999.25    -999.25    -999.25
 3450.00000    0.27850    0.37920    -999.25    -999.25    0.13640    2.04230   48.93650    8.89480    5.63540    7.87150  -76.64360   15.08180
 3500.00000    0.43980    0.45920    -999.25    -999.25    0.12410    1.98190   29.23130   15.15190    7.33150    9.08920  -35.56110   15.94590
 3550.00000    0.25640    0.18980    -999.25    -999.25    0.10890    2.35760   91.58520    6.76700    5.50370    6.07530  -52.40540   13.09320
 3600.00000    0.28490    0.25820    -999.25    -999.25    0.19550    2.24520   76.08220    7.84590    4.97530    7.42150  -70.07070   11.22810
 3650.00000    0.30400    0.23070    -999.25    -999.25    0.10980    2.29280   56.29940    7.44440    4.49180    6.95340  -70.90550   10.90040
 3700.00000    0.27400    0.22480    -999.25    -999.25    0.08830    2.30470   94.85680    3.85260    3.94710    4.34510  -38.39850   13.10830
 3750.00000    0.25190    0.31630    -999.25    -999.25    0.03120    2.15010   72.17180   10.53910    4.88800    8.95400  -65.61960   11.14210
 3800.00000    0.27740    0.20810    -999.25    -999.25    0.18360    2.33430   74.29190    3.91340    3.50370    4.48240  -49.83520   11.21040
 3850.00000    0.27080    0.30030    -999.25    -999.25    0.05370    2.17990   60.96090    6.86500    2.94660    4.42140  -82.68580   10.98960
 3900.00000    0.24630    0.25970    -999.25    -999.25    0.05510    2.23010   53.73880    7.30360    2.79910    4.34540  -83.33880   10.42810
 3950.00000    0.30890    0.27730    -999.25    -999.25    0.06630    2.21110  111.97200    6.58290    3.22270    4.38280  -78.95130    9.74600
 4000.00000    0.25910    0.23860    -999.25    -999.25    0.03510    2.27930   92.96960    3.64160    2.90880    3.73450  -44.20410    9.90000
 4050.00000    0.25120    0.18820    -999.25    -999.25    0.13610    2.36330  143.34070    3.50850    3.88700    4.16050  -37.24380   10.56550
 4100.00000    0.26950    0.26100    -999.25    -999.25    0.13550    2.24010   98.26810    3.23290    2.57760    3.06820  -38.89140   10.69800
 4150.00000    0.25770    0.23830    -999.25    -999.25    0.16660    2.28000  106.07820    2.15930    1.80060    1.89780  -24.48060   11.33750
 4200.00000    0.24530    0.21210    -999.25    -999.25    0.04440    2.32580   94.30280    1.86780    1.65280    1.74980  -27.87540   11.11710
 4250.00000    0.23810    0.24100    -999.25    -999.25    0.14850    2.27200   98.78670    2.08680    1.86480    2.01330  -26.67500   10.86360
 4300.00000    0.24430    0.21500    -999.25    -999.25    0.18620    2.31780  110.88420    2.49510    2.40150    2.59430  -28.39400   10.87020
 4350.00000    -999.25    -999.25    -999.25    -999.25    -999.25    -999.25  112.71350    2.13020    1.95630    2.02110  -26.99800   11.22860
 4400.00000    -999.25    -999.25    -999.25    -999.25    -999.25    -999.25  108.95420    1.95770    1.67750    1.79190  -26.00800   11.34900
 4450.00000    -999.25    -999.25    -999.25    -999.25    -999.25    -999.25   95.30640    1.83440    1.55260    1.63220  -27.34750   10.78010
 4500.00000    -999.25    -999.25    -999.25    -999.25    -999.25    -999.25   83.94410    1.74670    1.41250    1.45860  -27.04530   10.58930
 4550.00000    -999.25    -999.25    -999.25    -999.25    -999.25    -999.25   87.54510    1.64620    1.32050    1.36360  -29.21730   11.34810
 4600.00000    -999.25    -999.25    -999.25    -999.25    -999.25    -999.25  109.17080    1.57750    1.23510    1.27540  -29.52350   11.80300
 4650.00000    -999.25    -999.25    -999.25    -999.25    -999.25    -999.25  104.75050    1.67620    1.36240    1.45310  -28.28830   11.85300
 4700.00000    -999.25    -999.25    -999.25    -999.25    -999.25    -999.25   99.57920    1.86520    1.54890    1.66100  -30.52610   11.17270
 4750.00000    -999.25    -999.25    -999.25    -999.25    -999.25    -999.25  101.97740    1.91610    1.67810    1.80880  -29.50400   10.48710
 4800.00000    -999.25    -999.25    -999.25    -999.25    -999.25    -999.25   92.44280    1.39490    0.98290    1.03720  -28.08320   10.95840
 4850.00000    -999.25    -999.25    -999.25    -999.25    -999.25    -999.25  145.68250    1.54770    1.23120    1.29980  -27.32100   11.22130
 4900.00000    -999.25    -999.25    -999.25    -999.25    -999.25    -999.25  112.22440    1.37280    0.97130    1.00310  -25.53770   11.15350
 4950.00000    -999.25    -999.25    -999.25    -999.25    -999.25    -999.25   82.18280    1.51300    1.25360    1.29580  -26.59400   10.99570
 5000.00000    -999.25    -999.25    -999.25    -999.25    -999.25    -999.25   81.54010    1.59630    1.34220    1.38740  -26.25920   11.10980
 5050.00000    -999.25    -999.25    -999.25    -999.25    -999.25    -999.25   87.59700    1.33970    0.91500    0.95420  -27.13650   11.47620
 5100.00000    -999.25    -999.25    -999.25    -999.25    -999.25    -999.25  101.79810    1.96020    1.64340    1.73750  -29.70300   10.76170
 5150.00000    -999.25    -999.25    -999.25    -999.25    -999.25    -999.25   93.16800    1.63840    1.24980    1.31440  -29.04190   10.60340
 5200.00000    -999.25    -999.25    -999.25    -999.25    -999.25    -999.25  131.56660    1.50690    1.08680    1.16810  -30.35500   11.04470
 5250.00000    -999.25    -999.25    -999.25    -999.25    -999.25    -999.25  119.54320    1.50610    1.21310    1.25820  -27.74020   10.17920
 5300.00000    -999.25    -999.25    -999.25    -999.25    -999.25    -999.25  105.27990    1.39790    0.98510    1.04520  -26.83160   10.76540
 5350.00000    -999.25    -999.25    -999.25    -999.25    -999.25    -999.25  103.88660    1.46620    1.08160    1.15100  -27.73620   10.89570
 5400.00000    -999.25    -999.25    -999.25    -999.25    -999.25    -999.25   99.81370    1.39450    0.96820    1.00260  -28.38390   11.37650
 5450.00000    -999.25    -999.25    -999.25    -999.25    -999.25    -999.25   98.21080    1.53150    1.21790    1.30040  -26.20280   10.90560
 5500.00000    -999.25    -999.25    -999.25    -999.25    -999.25    -999.25   88.08300    1.81310    1.50750    1.62760  -27.67560   10.68840
 5550.00000    -999.25    -999.25    -999.25    -999.25    -999.25    -999.25   79.42510    2.01980    1.69650    1.84430  -26.08090   10.38280
 5600.00000    -999.25    -999.25    -999.25    -999.25    -999.25    -999.25   85.57560    2.00670    1.68280    1.80860  -25.27440   10.06420
 5650.00000    -999.25    -999.25    -999.25    -999.25    -999.25    -999.25   55.31890    2.97570    2.85100    3.21670  -25.47860   10.11200
 5700.00000    -999.25    -999.25    -999.25    -999.25    -999.25    -999.25  103.29900    1.63150    1.09310    1.15570  -21.44910   10.44910
 5750.00000    -999.25    -999.25    -999.25    -999.25    -999.25    -999.25   76.06290    1.60160    1.42150    1.46810  -23.02490   10.79300
 5800.00000    -999.25    -999.25    -999.25    -999.25    -999.25    -999.25   89.51610    1.39620    1.04010    1.07790  -22.03010   10.98660
 5850.00000    -999.25    -999.25    -999.25    -999.25    -999.25    -999.25   90.58600    1.45030    1.10030    1.13660  -20.56210   11.13810
 5900.00000    -999.25    -999.25    -999.25    -999.25    -999.25    -999.25   91.13630    1.40260    1.04200    1.09850  -21.15710   11.03120
 5950.00000    -999.25    -999.25    -999.25    -999.25    -999.25    -999.25   96.79210    1.50290    1.16060    1.19870  -22.44300   11.00180
 6000.00000    -999.25    -999.25    -999.25    -999.25    -999.25    -999.25   91.96540    1.49050    1.16280    1.20070  -22.87020   11.13390
 6050.00000    -999.25    -999.25    -999.25    -999.25    -999.25    -999.25  100.00540    1.30710    0.90030    0.92960  -24.18930   10.99380
 6100.00000    -999.25    -999.25    -999.25    -999.25    -999.25    -999.25   98.77100    1.70140    1.48920    1.53780  -23.09540   11.07040
 6150.00000    -999.25    -999.25    -999.25    -999.25    -999.25    -999.25   98.97170    1.70960    1.35830    1.40430  -25.68430   10.98940
