~Version ---------------------------------------------------
VERS. 2.0 : CWLS log ASCII Standard -VERSION 2.0
WRAP. YES : MULTIPLE LINES PER DEPTH STEP
~Well ------------------------------------------------------
STRT.FT                 2050.0 : START DEPTH
STOP.FT                15100.0 : STOP DEPTH
STEP.FT               50.00000 : STEP LENGTH
NULL.                  -999.25 : NULL VALUE
COMP. BUTTES RESOURCES COMPANY : COMPANY
WELL.             KING GAIL #1 : WELL
FLD .                  WILDCAT : FIELD
LOC .                          : LOCATION
CNTY.                     LEON : COUNTY
STAT.                    TEXAS : STATE
CTRY. UNITED STATES OF AMERICA : COUNTRY
SRVC.             Schlumberger : SERVICE COMPANY
DATE.              13-Apr-1977 : LOGDATE
API .           42289301060000 : API NUMBER
UWI .           42289301060000 : UNIQUE WELL ID
SLAT.WGS84        31.383896527 : SURFACE LATITUDE
SLON.WGS84      -96.2493859425 : SURFACE LONGITUDE
~Curve Information -----------------------------------------
DEPT    .FT    : DEPTH FEET
CALDED  .IN    : CALIPER FROM DENSITY LOG [AJD TO ILDED]
CALWS   .IN    : CALIPER [CALDED]
CONDWS  .MMHO  : CONDUCTIVITY [1000/DRESWS]
CORRED  .G/C3  : DENSITY CORRECTION FROM DENSITY LOG [AJD TO ILDED]
DCORWS  .G/C3  : DENSITY CORRECTION [CORRED]
DENWS   .G/C3  : BULK DENSITY [M=2.71 F=1.0] [CALCULATED FROM DPOWS]
DPHILSED.V/V   : DENSITY POROSITY [M=2.71 F=1.0] FROM DENSITY LOG [AJD TO ILDED]
DPOWS   .V/V   : DENSITY POROSITY [M=2.71 F=1.0] [DPHILSED]
DRESWS  .OHMM  : DEEP RESISTIVITY [ILDED]
DRHOED  .G/C3  : DENSITY CORRECTION FROM DENSITY LOG [AJD TO ILDED]
DTED    .US/F  : DELTA TIME FROM SONIC LOG [AJD TO RHOBED]
DTWS    .US/F  : DELTA TIME [DTED]
GRDED   .GAPI  : GAMMA RAY FROM DENSITY LOG [AJD TO ILDED]
GRWS    .GAPI  : GAMMA RAY [GRDED]
ILDED   .OHMM  : INDUCTION LOG DEEP RESISTIVITY
ILMED   .OHMM  : INDUCTION LOG MEDIUM RESISTIVITY
LL8ED   .OHMM  : 8 INCH LATEROLOG RESISTIVITY
MCALED  .IN    : CALIPER MICROLOG [AJD TO SPRED]
MRESWS  .OHMM  : MEDIUM RESISTIVITY [ILMED]
NPHILSED.V/V   : NEUTRON POROSITY LIMESTONE FROM DENSITY LOG [AJD TO ILDED]
NPOWS   .V/V   : NEUTRON POROSITY LIMESTONE [NPHILSED]
RHOBED  .G/C3  : BULK DENSITY FROM DENSITY LOG [AJD TO ILDED]
SFLED   .OHMM  : SPHERICALLY FOCUSED LOG RESISTIVITY [AJD TO ILDED]
SPMED   .MV    : SPONTANEOUS POTENTIAL FROM MICROLOGLOG [AJD TO SPRED]
SPRED   .MV    : SPONTANEOUS POTENTIAL FROM RESISTIVITY LOG
SPWS    .MV    : SPONTANEOUS POTENTIAL [BASELINE 0 MV] [SPRED]
SRESWS  .OHMM  : SHALLOW RESISTIVITY [SPL SFLED <14485> LL8ED]
TENDED  .LBF   : TENSION FROM DENSITY LOG
~Params ----------------------------------------------------
PD  .                     GL : PERMANENT DATUM
EPD .FT                  503 : ELEVATION PERMANENT DATUM
LMF .                     KB : LOG MEASURED FROM
DAPD.FT                   18 : FEET ABOVE PERMANENT DATUM
DMF .                     KB : DRILLING MEASURED FROM
EKB .FT                  521 : KELLY BUSHING
EDF .FT                  520 : DRILLING FLOOR
EGL .FT                  503 : GROUND LEVEL
DATE.               04/13/77 : RUN DATE
RUN .                      1 : RUN NUMBER
DD  .FT                15147 : DEPTH DRILLER
DL  .FT                15148 : DEPTH LOGGER
BLI .FT                15147 : BOTTOM LOG INTERVAL
TLI .FT                13098 : TOP LOG INTERVAL
CS  .IN                    7 : CASING SIZE
CBD .FT                13097 : CASING BOTTOM DRILLER
CBL .FT                13098 : CASING BOTTOM LOGGER
BS  .IN                    6 : BIT SIZE
BSD .FT                15147 : BIT SIZE AT DEPTH
DFT .               LOW LIME : DRILLING FLUID TYPE
DFD .                   15.7 : DRILLING FLUID DENSITY
DFV .                     48 : DRILLING FLUID VISCOSITY
DFPH.                   12.5 : DRILLING FLUID PH
DFL .                   10.8 : DRILLING FLUID LOSS
MSS .                    PIT : MUD SAMPLE SOURCE
RMS .OHMM               0.89 : RESISTIVITY MUD SAMPLE
MST .DEGF                 75 : MUD SAMPLE TEMPERATURE
RMF .OHMM               0.67 : RESISTIVITY MUD FILTRATE SAMPLE
MFST.DEGF                 75 : MUD FILTRATE SAMPLE TEMPERATURE
RMC .OHMM               0.34 : RESISTIVITY MUD CAKE
MCST.DEGF                 75 : MUD CAKE SAMPLE TEMPERATURE
MFSS.                      M : MUD FILTRATE SAMPLE SOURCE
MCSS.                      C : MUD CAKE SAMPLE SOURCE
RMB .OHMM               0.21 : RESISTIVITY MUD AT BHT
TCS .HRS                2000 : TIME CIRCULATED STOPPED
TLAB.HRS                 300 : TIME LOGGER AT BOTTOM
LUN .                   7659 : LOGGING UNIT NUMBER
LUL .                 DAYTON : LOGGING UNIT LOCATION
ENGI.          CHENAULT EAST : RECORDING ENGINEER
WITN.                  MILES : WITNESSED BY
CLNT.                A2DTECH : CLIENT CODE
ORIG.            2" 5" PRINT : ORIGIN OF DATA
UWI .         42289301060000 : UNIQUE WELL ID
DICO. A2D Technologies, Inc. : DIGITIZING COMPANY
~Other -----------------------------------------------------
~ASCII -----------------------------------------------------
# ...
 4550.00000    -999.25    -999.25  395.69490    -999.25    -999.25    -999.25    -999.25    -999.25    2.52720    -999.25    -999.25    -999.25    -999.25    -999.25    2.52720    2.65520    -999.25    -999.25    2.65520    -999.25    -999.25    -999.25    2.94480    -999.25  -64.82280   -4.49670    2.94480    -999.25
 4600.00000    -999.25    -999.25  315.30820    -999.25    -999.25    -999.25    -999.25    -999.25    3.17150    -999.25    -999.25    -999.25    -999.25    -999.25    3.17150    3.35860    -999.25    -999.25    3.35860    -999.25    -999.25    -999.25    3.59940    -999.25  -68.89100   -8.48070    3.59940    -999.25
 4650.00000    -999.25    -999.25  326.66930    -999.25    -999.25    -999.25    -999.25    -999.25    3.06120    -999.25    -999.25    -999.25    -999.25    -999.25    3.06120    3.26780    -999.25    -999.25    3.26780    -999.25    -999.25    -999.25    3.64930    -999.25  -63.93040   -3.43600    3.64930    -999.25
 4700.00000    9.48910    9.48910  300.95100    0.01790    -999.25    2.52980    0.10540    0.10540    3.32280    -999.25    -999.25    -999.25   57.62860   57.62860    3.32280    3.62920    -999.25    9.98200    3.62920    0.14380    0.14380    2.53070    3.95690    -999.25  -68.73190   -8.15340    3.95690  304.09490
 4750.00000    7.38720    7.38720  274.58190    0.01350    -999.25    2.50210    0.12160    0.12160    3.64190    -999.25    -999.25    -999.25   30.99590   30.99590    3.64190    3.85530    -999.25    9.64890    3.85530    0.14910    0.14910    2.50770    4.77180    -999.25  -82.21590  -21.55320    4.77180  269.29350
 4800.00000    7.22390    7.22390  279.28280    0.01370    -999.25    2.53560    0.10200    0.10200    3.58060    -999.25    -999.25    -999.25   62.29200   62.29200    3.58060    4.00190    -999.25    9.71580    4.00190    0.16110    0.16110    2.53050    4.28910  -76.11180  -75.88600  -15.13920    4.28910  282.73720
 4850.00000    7.26940    7.26940  332.92270    0.04530    -999.25    2.46290    0.14450    0.14450    3.00370    -999.25    -999.25    -999.25   30.93400   30.93400    3.00370    3.13880    -999.25    9.56440    3.13880    0.20480    0.20480    2.49350    4.56260  -84.50490  -86.37730  -25.54640    4.56260  286.01960
 4900.00000   12.62180   12.62180  384.92630    0.17480    -999.25    1.93400    0.45380    0.45380    2.59790    -999.25    -999.25    -999.25   97.07700   97.07700    2.59790    2.77430    -999.25   10.96200    2.77430    0.28780    0.28780    2.06390    3.01990  -66.68990  -66.61630   -5.75420    3.01990  347.26540
 4950.00000   11.54170   11.54170  716.94870    0.15030    -999.25    2.21240    0.29100    0.29100    1.39480    -999.25    -999.25    -999.25   86.46390   86.46390    1.39480    1.48400    -999.25   13.55700    1.48400    0.32230    0.32230    2.20930    1.90580  -63.51640  -64.93980   -4.11110    1.90580  286.50330
 5000.00000   15.38810   15.38810  737.08260    0.15180    -999.25    2.13940    0.33370    0.33370    1.35670    -999.25    -999.25    -999.25   82.55810   82.55810    1.35670    1.43500    -999.25   15.46850    1.43500    0.34460    0.34460    2.13510    1.85930  -67.26800  -68.33540   -7.54020    1.85930  268.64000
 5050.00000   15.18730   15.18730 1120.07180    0.10180    -999.25    2.08620    0.36480    0.36480    0.89280    -999.25    -999.25    -999.25   80.65810   80.65810    0.89280    0.94330    -999.25    -999.25    0.94330    0.34890    0.34890    2.08460    1.55760  -61.52030  -62.55950   -1.79770    1.55760  214.64520
 5100.00000   15.96190   15.96190  861.02980    0.09170    -999.25    2.21960    0.28680    0.28680    1.16140    -999.25    -999.25    -999.25   81.80670   81.80670    1.16140    1.24100    -999.25   15.98540    1.24100    0.33270    0.33270    2.20800    1.64870  -61.66300  -63.22610   -2.49780    1.64870  259.17660
 5150.00000   15.73810   15.73810  768.16720    0.14610    -999.25    2.08450    0.36580    0.36580    1.30180    -999.25    -999.25    -999.25   82.17530   82.17530    1.30180    1.36740    -999.25   15.25290    1.36740    0.35190    0.35190    2.08840    1.82660  -60.67820  -62.49350   -1.79860    1.82660  252.58940
 5200.00000   13.78460   13.78460  434.95280    0.12740    -999.25    2.20230    0.29690    0.29690    2.29910    -999.25    -999.25    -999.25   99.12540   99.12540    2.29910    2.49350    -999.25   12.26740    2.49350    0.31610    0.31610    2.20660    2.61430  -60.81990  -61.35280   -0.69140    2.61430  305.47990
 5250.00000   14.59810   14.59810  405.17000    0.10310    -999.25    2.38320    0.19110    0.19110    2.46810    -999.25    -999.25    -999.25  102.11210  102.11210    2.46810    2.75560    -999.25   10.66030    2.75560    0.30630    0.30630    2.33040    3.37520  -63.11130  -62.34710   -1.71910    3.37520  263.72710
 5300.00000   10.48400   10.48400  309.18590    0.10570    -999.25    2.54860    0.09440    0.09440    3.23430    -999.25    -999.25    -999.25   88.68840   88.68840    3.23430    3.41780    -999.25   10.53560    3.41780    0.20440    0.20440    2.52370    3.71070  -61.87630  -63.40900   -2.81450    3.71070  268.86710
 5350.00000   12.11790   12.11790  413.97580    0.08860    -999.25    2.00650    0.41140    0.41140    2.41560    -999.25    -999.25    -999.25   77.80700   77.80700    2.41560    2.68620    -999.25    9.62260    2.68620    0.27310    0.27310    2.10520    3.56570  -65.20530  -65.94340   -5.38240    3.56570  187.69490
 5400.00000   11.05860   11.05860  491.35220    0.09430    -999.25    2.12060    0.34470    0.34470    2.03520    -999.25    -999.25    -999.25   79.97810   79.97810    2.03520    2.18440    -999.25   12.52790    2.18440    0.31830    0.31830    2.08220    2.57690  -61.42190  -62.08380   -1.55620    2.57690  371.62790
 5450.00000   15.16570   15.16570  495.95790    0.17280    -999.25    2.18760    0.30550    0.30550    2.01630    -999.25    -999.25    -999.25   81.14930   81.14930    2.01630    2.14750    -999.25   12.74150    2.14750    0.30620    0.30620    2.20900    2.32470  -60.61530  -62.38740   -1.89330    2.32470  104.32960
 5500.00000   12.29630   12.29630  746.21300    0.08900    -999.25    2.22420    0.28410    0.28410    1.34010    -999.25    -999.25    -999.25   78.59830   78.59830    1.34010    1.47220    -999.25   12.65830    1.47220    0.28280    0.28280    -999.25    2.09730  -62.67090  -62.89100   -2.43030    2.09730 1474.79610
 5550.00000   15.62830   15.62830  668.09200    0.14110    -999.25    2.18140    0.30910    0.30910    1.49680    -999.25    -999.25    -999.25   72.51020   72.51020    1.49680    1.58180    -999.25   14.10760    1.58180    0.32030    0.32030    2.17660    2.16910  -61.25130  -61.76510   -1.33790    2.16910  291.88620
 5600.00000   15.27600   15.27600  738.27980    0.10230    -999.25    2.09990    0.35680    0.35680    1.35450    -999.25    -999.25    -999.25   79.61590   79.61590    1.35450    1.47220    -999.25   13.77200    1.47220    0.28740    0.28740    2.15300    2.06890  -63.86830  -62.22500   -1.83120    2.06890  268.89900
 5650.00000   11.70360   11.70360  369.71310    0.09150    -999.25    2.58230    0.07470    0.07470    2.70480    -999.25    -999.25    -999.25   66.86790   66.86790    2.70480    3.07910    -999.25   12.52800    3.07910    0.21930    0.21930    2.55670    3.23040  -63.27850  -62.33470   -1.97440    3.23040  170.42530
 5700.00000   10.17960   10.17960   73.50290    0.00210    -999.25    2.60420    0.06190    0.06190   13.60490    -999.25    -999.25    -999.25   19.42930   19.42930   13.60490   13.36690    -999.25   10.92540   13.36690    0.05700    0.05700    2.60460   12.11350  -76.28010  -75.48010  -15.15320   12.11350  311.67500
 5750.00000   11.67830   11.67830  154.21860    0.04840    -999.25    2.67020    0.02330    0.02330    6.48430    -999.25    -999.25    -999.25   41.44490   41.44490    6.48430    6.74740    -999.25   12.87100    6.74740    0.09640    0.09640    2.66800    7.52720  -64.77730  -64.22120   -3.92780    7.52720  327.32280
