~Version ---------------------------------------------------
VERS.      2.0 : CWLS log ASCII Standard -VERSION 2.0
WRAP.      YES : Multiple lines per depth step
CREA. 01/03/13 : LAS Creation Date
~Well ------------------------------------------------------
STRT.FT                   3950.0 : START DEPTH
STOP.FT                   8600.0 : STOP DEPTH
STEP.FT                 50.00000 : STEP LENGTH
NULL.                    -999.25 : NULL VALUE
COMP. CHAMPLIN PETROLEUM COMPANY : COMPANY
WELL.             L J KOCUREK #1 : WELL
FLD .                   GIDDINGS : FIELD
LOC .                            : LOCATION
CNTY.                   BURLESON : COUNTY
STAT.                      TEXAS : STATE
CTRY.   UNITED STATES OF AMERICA : COUNTRY
SRVC.               Schlumberger : SERVICE COMPANY
DATE.                18-Apr-1980 : LOGDATE
API .             42051306120000 : API NUMBER
UWI .             42051306120000 : UNIQUE WELL ID
SLAT.WGS84         30.3823793957 : SURFACE LATITUDE
SLON.WGS84        -96.7071432424 : SURFACE LONGITUDE
~Curve Information -----------------------------------------
DEPT    .FT    : DEPTH FEET
CALDED  .IN    : CALIPER FROM CNFD LOG [ADJ. TO GRRED]
CALWS   .IN    : CALIPER [CALDED]
CONDWS  .MMHO  : CONDUCTIVITY [1000/DRESWS]
DCORWS  .G/C3  : DENSITY CORRECTION [DRHOED]
DENWS   .G/C3  : FORMATION BULK DENSITY [RHOBED]
DPHILSED.V/V   : DENSITY POROSITY LIMESTONE [M=2.71, F=1.0] FROM CNFD LOG [ADJ. TO GRRED]
DPHISSED.V/V   : DENSITY POROSITY SANDSTONE [M=2.65, F=0.81] FROM CNFD LOG [ADJ. TO GRRED]
DPOWS   .V/V   : DENSITY POROSITY LIMESTONE [DPHISSED CONVERTED TO LIMESTONE (M=2.71, F=1.0), SPL. TO DPHILSED @ 6790.5']
DRESWS  .OHMM  : DEEP RESISTIVITY [ILDED]
DRHOED  .G/C3  : BULK DENSITY CORRECTION FROM CNFD LOG [ADJ. TO GRRED]
DTED    .US/F  : DELTA-T (INTERVAL TRANSIT TIME) FROM DIL-SONIC LOG
DTWS    .US/F  : COMPRESSIONAL  SONIC [DTED]
GRDED   .GAPI  : GAMMA RAY FROM CNFD LOG [ADJ. TO GRRED]
GRRED   .GAPI  : GAMMA RAY FROM DIL-SONIC LOG
GRWS    .GAPI  : GAMMA RAY [GRDED]
ILDED   .OHMM  : DEEP INDUCTION FROM DIL-SONIC LOG
ILMED   .OHMM  : MEDIUM INDUCTION FROM DIL-SONIC LOG
MRESWS  .OHMM  : MEDIUM RESISTIVITY [ILMED]
NPHILSED.V/V   : NEUTRON POROSITY LIMESTONE FROM CNFD LOG [ADJ. TO GRRED]
NPHISSED.V/V   : NEUTRON POROSITY SANDSTONE FROM CNFD LOG [ADJ. TO GRRED]
NPOWS   .V/V   : NEUTRON POROSITY LIMESTONE [NPHISSED MATRIX CONVERTED TO LIMESTONE, SPL. TO NPHILSED @ 6790.5']
RHOBED  .G/C3  : BULK DENSITY FROM CNFD LOG [ADJ. TO GRRED]
SFLUED  .OHMM  : SHALLOW FOCUSED INDUCTION (UNAVERAGED) FROM DIL-SONIC LOG
SPHIED  .V/V   : SONIC POROSITY [DTM=47.5, DTF=189.0] FROM FDC-SONIC LOG
SPOWS   .V/V   : SONIC POROSITY [SPHIED]
SPRED   .MV    : SPONTANEOUS POTENTIAL FROM DIL-SONIC LOG
SPWS    .MV    : SPONTANEOUS POTENTIAL [BASELINE 0 MV, SPRED]
SRESWS  .OHMM  : SHALLOW RESISTIVITY [SFLUED]
~Params ----------------------------------------------------
PD  .                     GL : PERMANENT DATUM
EPD .FT                  328 : ELEVATION PERMANENT DATUM
LMF .                     KB : LOG MEASURED FROM
DAPD.FT                   16 : FEET ABOVE PERMANENT DATUM
DMF .                     KB : DRILLING MEASURED FROM
EKB .FT                  344 : KELLY BUSHING
EDF .FT                  343 : DRILLING FLOOR
EGL .FT                  328 : GROUND LEVEL
DATE.               04/18/80 : RUN DATE
RUN .                      2 : RUN NUMBER
DD  .FT                 8660 : DEPTH DRILLER
DL  .FT                 8613 : DEPTH LOGGER
BLI .FT                 8606 : BOTTOM LOG INTERVAL
TLI .FT                 3932 : TOP LOG INTERVAL
CS  .IN                9.625 : CASING SIZE
CBD .FT                 3987 : CASING BOTTOM DRILLER
CBL .FT                 3932 : CASING BOTTOM LOGGER
BS  .IN                 8.75 : BIT SIZE
BSD .FT                 8660 : BIT SIZE AT DEPTH
DFT .                BENT EX : DRILLING FLUID TYPE
DFD .                    9.6 : DRILLING FLUID DENSITY
DFV .                     43 : DRILLING FLUID VISCOSITY
DFPH.                    8.5 : DRILLING FLUID PH
DFL .                    7.1 : DRILLING FLUID LOSS
MSS .               FLOWLINE : MUD SAMPLE SOURCE
RMS .OHMM               4.13 : RESISTIVITY MUD SAMPLE
MST .DEGF                 75 : MUD SAMPLE TEMPERATURE
RMF .OHMM               3.63 : RESISTIVITY MUD FILTRATE SAMPLE
MFST.DEGF                 75 : MUD FILTRATE SAMPLE TEMPERATURE
RMC .OHMM               6.19 : RESISTIVITY MUD CAKE
MCST.DEGF                 75 : MUD CAKE SAMPLE TEMPERATURE
MFSS.                      M : MUD FILTRATE SAMPLE SOURCE
MCSS.                      C : MUD CAKE SAMPLE SOURCE
RMB .OHMM               1.59 : RESISTIVITY MUD AT BHT
TCS .HRS                1930 : TIME CIRCULATED STOPPED
TLAB.HRS                 230 : TIME LOGGER AT BOTTOM
LUN .                   8176 : LOGGING UNIT NUMBER
LUL .                BRENHAM : LOGGING UNIT LOCATION
ENGI.                   CATE : RECORDING ENGINEER
WITN.           WESLEY DAVIS : WITNESSED BY
CLNT.                A2DTECH : CLIENT CODE
ORIG.            2" 5" PRINT : ORIGIN OF DATA
UWI .         42051306120000 : UNIQUE WELL ID
DICO. A2D Technologies, Inc. : DIGITIZING COMPANY
~Other -----------------------------------------------------
~ASCII -----------------------------------------------------
# ...
 7700.00000   10.47890   10.47890  273.63520    0.10460    2.52020    0.10530    -999.25    0.10530    3.65450    0.10460   65.63950   65.63950   32.17510   62.17100   32.17510    3.65450    4.17120    4.17120    0.12750    -999.25    0.12750    2.52020    9.60230    0.06990    0.06990  -30.54410  -19.66610    9.60230
 7750.00000   11.01380   11.01380  157.93800    0.24940    2.47370    0.14700    -999.25    0.14700    6.33160    0.24940   65.22090   65.22090   23.69900   53.24760   23.69900    6.33160    6.54760    6.54760    0.11800    -999.25    0.11800    2.47370    6.72130    0.06850    0.06850  -27.76630  -16.74740    6.72130
 7800.00000   10.52880   10.52880  169.28490    0.06000    2.61520    0.05600    -999.25    0.05600    5.90720    0.06000   65.56980   65.56980   45.17070   63.97680   45.17070    5.90720    6.21470    6.21470    0.13420    -999.25    0.13420    2.61520    7.58730    0.07210    0.07210  -18.39930   -7.23960    7.58730
 7850.00000   10.63880   10.63880  131.36120    0.02240    2.61710    0.05370    -999.25    0.05370    7.61260    0.02240   62.91340   62.91340   30.39770   48.96560   30.39770    7.61260    8.21660    8.21660    0.08550    -999.25    0.08550    2.61710    9.14310    0.05250    0.05250  -20.77860   -9.47810    9.14310
 7900.00000   10.68900   10.68900  159.08370    0.03530    2.63720    0.04150    -999.25    0.04150    6.28600    0.03530   65.47950   65.47950   44.04290   56.24460   44.04290    6.28600    6.54840    6.54840    0.10200    -999.25    0.10200    2.63720    6.90100    0.07280    0.07280  -17.67280   -6.13210    6.90100
 7950.00000   11.16510   11.16510  158.79820    0.24980    2.61210    0.06170    -999.25    0.06170    6.29730    0.24980   68.95840   68.95840   28.52310   61.13910   28.52310    6.29730    6.73180    6.73180    0.14250    -999.25    0.14250    2.61210    5.81470    0.09690    0.09690  -19.21030   -7.23680    5.81470
 8000.00000   10.32790   10.32790  107.47950    0.13760    2.65610    0.03060    -999.25    0.03060    9.30410    0.13760   60.25190   60.25190   37.61730   51.74780   37.61730    9.30410   10.91890   10.91890    0.10910    -999.25    0.10910    2.65610   23.47170    0.02950    0.02950  -24.12300  -11.71660   23.47170
 8050.00000    9.90520    9.90520   41.69530    0.05200    2.62750    0.04910    -999.25    0.04910   23.98350    0.05200   59.86880   59.86880   29.29430   58.60560   29.29430   23.98350   18.79230   18.79230    0.09100    -999.25    0.09100    2.62750   25.11680    0.02910    0.02910  -30.39520  -17.55600   25.11680
 8100.00000    9.80450    9.80450   73.07270    0.08350    2.64470    0.03730    -999.25    0.03730   13.68500    0.08350   62.93490   62.93490   29.72300   59.18460   29.72300   13.68500   12.92000   12.92000    0.09810    -999.25    0.09810    2.64470   19.50870    0.04800    0.04800  -33.63020  -20.35820   19.50870
 8150.00000    9.42180    9.42180   45.50250    0.03500    2.58560    0.06880    -999.25    0.06880   21.97680    0.03500   59.48440   59.48440   39.18950   53.11970   39.18950   21.97680   20.10950   20.10950    0.11210    -999.25    0.11210    2.58560   44.09160    0.02860    0.02860  -43.09280  -29.38790   44.09160
 8200.00000    9.38210    9.38210   50.89030    0.04850    2.62110    0.05150    -999.25    0.05150   19.65010    0.04850   63.42520   63.42520   28.32990   52.38610   28.32990   19.65010   17.77300   17.77300    0.10590    -999.25    0.10590    2.62110   17.90530    0.05890    0.05890  -36.37600  -22.23830   17.90530
 8250.00000   13.51560   13.51560  221.90170    0.17590    2.49600    0.12530    -999.25    0.12530    4.50650    0.17590   96.66320   96.66320   87.01860  100.13210   87.01860    4.50650    3.93010    3.93010    0.37910    -999.25    0.37910    2.49600    5.04670    0.30610    0.30610  -40.98680  -26.41620    5.04670
 8300.00000   12.87640   12.87640  265.65360    0.17700    2.59780    0.06830    -999.25    0.06830    3.76430    0.17700   95.42610   95.42610   91.63530  121.14000   91.63530    3.76430    3.01140    3.01140    0.37830    -999.25    0.37830    2.59780    4.74920    0.29670    0.29670  -40.05430  -25.05090    4.74920
 8350.00000   10.26500   10.26500  250.40690    0.12100    2.57400    0.07970    -999.25    0.07970    3.99350    0.12100   92.93850   92.93850  100.43350  121.92440  100.43350    3.99350    3.72400    3.72400    0.35100    -999.25    0.35100    2.57400    5.31220    0.27840    0.27840  -31.57440  -16.13810    5.31220
 8400.00000    9.64070    9.64070   93.31580    0.04240    2.54260    0.09430    -999.25    0.09430   10.71630    0.04240   76.87340   76.87340  144.31000  142.44540  144.31000   10.71630   11.39870   11.39870    0.26050    -999.25    0.26050    2.54260   22.44880    0.15730    0.15730  -23.69180   -7.82270   22.44880
 8450.00000   11.92690   11.92690  303.03030    0.16760    2.58420    0.07300    -999.25    0.07300    3.30000    0.16760   87.85080   87.85080   90.77790  100.57620   90.77790    3.30000    2.99840    2.99840    0.31570    -999.25    0.31570    2.58420    6.15310    0.23860    0.23860  -38.67870  -22.37670    6.15310
 8500.00000    9.38760    9.38760  104.53470    0.01790    2.76150   -0.02300    -999.25   -0.02300    9.56620    0.01790   63.09000   63.09000   47.98230   69.16090   47.98230    9.56620   10.23970   10.23970    0.16340    -999.25    0.16340    2.76150   10.17330    0.05530    0.05530  -31.21710  -14.48230   10.17330
 8550.00000    9.30220    9.30220   98.04310    0.04140    2.71200   -0.00140    -999.25   -0.00140   10.19960    0.04140   59.84120   59.84120   33.53380   62.10830   33.53380   10.19960    8.95000    8.95000    0.08890    -999.25    0.08890    2.71200   13.41930    0.02710    0.02710  -21.76130   -4.61530   13.41930
 8600.00000    8.70020    8.70020    7.45620    0.09820    2.72830   -0.01130    -999.25   -0.01130  134.11630    0.09820    -999.25    -999.25    -999.25    -999.25    -999.25  134.11630   55.62890   55.62890    -999.25    -999.25    -999.25    2.72830  124.58360    -999.25    -999.25  -55.48620  -38.34020  124.58360
