~Version ---------------------------------------------------
VERS. 2.0 : CWLS log ASCII Standard -VERSION 2.0
WRAP. YES : MULTIPLE LINES PER DEPTH STEP
~Well ------------------------------------------------------
STRT.FT                   4000.0 : START DEPTH
STOP.FT                   9350.0 : STOP DEPTH
STEP.FT                 50.00000 : STEP LENGTH
NULL.                    -999.25 : NULL VALUE
COMP. CHAMPLIN PETROLEUM COMPANY : COMPANY
WELL.            KNESEK LOUIS #1 : WELL
FLD .                   GIDDINGS : FIELD
LOC .                            : LOCATION
CNTY.                   BURLESON : COUNTY
STAT.                      TEXAS : STATE
CTRY.   UNITED STATES OF AMERICA : COUNTRY
SRVC.               Schlumberger : SERVICE COMPANY
DATE.                05-Nov-1980 : LOGDATE
API .             42051309430000 : API NUMBER
UWI .             42051309430000 : UNIQUE WELL ID
SLAT.WGS84         30.3835391031 : SURFACE LATITUDE
SLON.WGS84        -96.6414807303 : SURFACE LONGITUDE
~Curve Information -----------------------------------------
DEPT    .FT    : DEPTH FEET
CALWS   .IN    : CALIPER [DCALED+8.75]
CONDWS  .MMHO  : CONDUCTIVITY [1000/DRESWS]
DCALRED .IN    : DIFFERENTIAL CALIPER FROM RESISTIVITY LOG
DCORWS  .G/C3  : DENSITY CORRECTION [DRHOED]
DENWS   .G/C3  : BULK DENSITY [CALCULATED FROM SPL DPHISSED <7504F> DPHILSED]
DPHILSED.V/V   : DENSITY POROSITY [M=2.71 F=1.0] FROM DENSITY LOG
DPHISSED.V/V   : DENSITY POROSITY [M=2.65 F=1.0] FROM DENSITY LOG
DPOWS   .V/V   : DENSITY POROSITY [M=2.71 F=1.0] [CALCULATED FROM DENWS]
DRESWS  .OHMM  : DEEP RESISTIVITY [ILDED]
DRHOED  .G/C3  : DENSITY CORRECTION FROM DENSITY LOG
GRRED   .GAPI  : GAMMA RAY FROM RESISTIVITY LOG
GRWS    .GAPI  : GAMMA RAY [GRRED, CSG ABOVE 3971F]
ILDED   .OHMM  : INDUCTION LOG DEEP RESISTIVITY
ILMED   .OHMM  : INDUCTION LOG MEDIUM RESISTIVITY
MRESWS  .OHMM  : MEDIUM RESISTIVITY [ILMED]
NPHILSED.V/V   : NEUTRON POROSITY LIMESTONE FROM DENSITY LOG
NPHISSED.V/V   : NEUTRON POROSITY SANDSTONE FROM DENSITY LOG
NPOWS   .V/V   : NEUTRON POROSITY LIMESTONE [CONVERTED NPHISSED TO LIMESTONE SPL WITH NPHILSED @7504F, CSG ABOVE 3971F]
SFLUED  .OHMM  : SPHERICALLY FOCUSED LOG RESISTIVITY
SPRED   .MV    : SPONTANEOUS POTENTIAL FROM RESISTIVITY LOG
SPWS    .MV    : SPONTANEOUS POTENTIAL [BASELINE 0 MV] [SPRED]
SRESWS  .OHMM  : SHALLOW RESISTIVITY [SFLUED]
~Params ----------------------------------------------------
PD  .                     GL : PERMANENT DATUM
EPD .FT                  332 : ELEVATION PERMANENT DATUM
LMF .                     KB : LOG MEASURED FROM
DAPD.FT                   14 : FEET ABOVE PERMANENT DATUM
DMF .                     KB : DRILLING MEASURED FROM
EKB .FT                  346 : KELLY BUSHING
EDF .FT                  345 : DRILLING FLOOR
EGL .FT                  332 : GROUND LEVEL
DATE.               11/05/80 : RUN DATE
RUN .                      1 : RUN NUMBER
DD  .FT                 9351 : DEPTH DRILLER
DL  .FT                 9370 : DEPTH LOGGER
BLI .FT                 9364 : BOTTOM LOG INTERVAL
TLI .FT                 3971 : TOP LOG INTERVAL
CS  .IN                9.625 : CASING SIZE
CBD .FT                 3981 : CASING BOTTOM DRILLER
CBL .FT                 3971 : CASING BOTTOM LOGGER
BS  .IN                 8.75 : BIT SIZE
BSD .FT                 9351 : BIT SIZE AT DEPTH
DFT .                  BENEX : DRILLING FLUID TYPE
DFD .                    9.3 : DRILLING FLUID DENSITY
DFV .                     60 : DRILLING FLUID VISCOSITY
DFPH.                    8.5 : DRILLING FLUID PH
DFL .                    8.8 : DRILLING FLUID LOSS
MSS .               CIRC PIT : MUD SAMPLE SOURCE
RMS .OHMM               1.01 : RESISTIVITY MUD SAMPLE
MST .DEGF                116 : MUD SAMPLE TEMPERATURE
RMF .OHMM               1.72 : RESISTIVITY MUD FILTRATE SAMPLE
MFST.DEGF                 65 : MUD FILTRATE SAMPLE TEMPERATURE
RMC .OHMM                1.5 : RESISTIVITY MUD CAKE
MCST.DEGF                116 : MUD CAKE SAMPLE TEMPERATURE
MFSS.                      M : MUD FILTRATE SAMPLE SOURCE
MCSS.                      C : MUD CAKE SAMPLE SOURCE
RMB .OHMM               0.55 : RESISTIVITY MUD AT BHT
TCS .HRS                 100 : TIME CIRCULATED STOPPED
TLAB.HRS                 700 : TIME LOGGER AT BOTTOM
LUN .                   8176 : LOGGING UNIT NUMBER
LUL .                BRENHAM : LOGGING UNIT LOCATION
ENGI.           WRIGHT BRUCK : RECORDING ENGINEER
WITN.                 SCHELL : WITNESSED BY
CLNT.                A2DTECH : CLIENT CODE
ORIG.            2" 5" PRINT : ORIGIN OF DATA
UWI .         42051309430000 : UNIQUE WELL ID
DICO. A2D Technologies, Inc. : DIGITIZING COMPANY
~Other -----------------------------------------------------
~ASCII -----------------------------------------------------
 4000.00000   12.45590   55.42320    3.70590    0.07970    2.19360    -999.25    0.27660    0.30200   18.04300    0.07970   42.97350   42.97350   18.04300   12.60110   12.60110    -999.25    0.28440    0.24040   11.09610   -3.64020   -8.10510   11.09610
 4050.00000   12.72640   55.31190    3.97640    0.00840    2.14060    -999.25    0.30870    0.33300   18.07930    0.00840   43.92440   43.92440   18.07930   11.44830   11.44830    -999.25    0.29720    0.25320   10.82860    1.74500   -2.16420   10.82860
 4100.00000   11.57540   32.33240    2.82540    0.02690    2.32200    -999.25    0.19880    0.22690   30.92870    0.02690   62.62770   62.62770   30.92870   18.47800   18.47800    -999.25    0.29010    0.24610   17.57410   -6.87560  -10.22900   17.57410
 4150.00000   12.44890   61.14300    3.69890    0.08220    2.32330    -999.25    0.19800    0.22610   16.35510    0.08220   68.41090   68.41090   16.35510   12.07850   12.07850    -999.25    0.27650    0.23250   11.47740  -16.13010  -18.92780   11.47740
 4200.00000   14.16400   46.38500    5.41400    0.09920    2.13620    -999.25    0.31140    0.33560   21.55870    0.09920   46.81480   46.81480   21.55870   14.17950   14.17950    -999.25    0.30890    0.26500   12.63380    1.75120   -0.49070   12.63380
 4250.00000   12.99760   51.29860    4.24760    0.01320    2.23730    -999.25    0.25010    0.27640   19.49370    0.01320   60.39680   60.39680   19.49370   13.74800   13.74800    -999.25    0.32390    0.28000   13.13350   -6.78050   -8.15760   13.13350
 4300.00000   11.64640   44.61460    2.89640    0.03540    2.22120    -999.25    0.25990    0.28590   22.41420    0.03540   56.35550   56.35550   22.41420   15.10510   15.10510    -999.25    0.29960    0.25560   13.92220   -1.28520   -1.56440   13.92220
 4350.00000   15.09400  180.46630    6.34400   -0.15890    -999.25    -999.25    -999.25    -999.25    5.54120   -0.15890   50.98560   50.98560    5.54120    4.02230    4.02230    -999.25    0.60340    0.56170    8.64900  -22.69800  -21.87930    8.64900
 4400.00000   11.45200  194.64340    2.70200    0.03210    2.45780    -999.25    0.11650    0.14750    5.13760    0.03210  102.88570  102.88570    5.13760    4.60310    4.60310    -999.25    0.28820    0.24420    5.07560  -23.04030  -21.12370    5.07560
 4450.00000   10.93390  139.81320    2.18390    0.02200    2.29610    -999.25    0.21450    0.24210    7.15240    0.02200   41.89700   41.89700    7.15240    7.06640    7.06640    -999.25    0.28670    0.24270    8.21050  -33.78630  -30.77180    8.21050
 4500.00000   12.16320  157.53990    3.41320   -0.09990    1.67780    -999.25    0.58920    0.60360    6.34760   -0.09990   72.37850   72.37850    6.34760    5.89290    5.89290    -999.25    0.59060    0.54890    8.41330  -18.69760  -14.58510    8.41330
 4550.00000   10.35320  183.58730    1.60320    0.02260    2.20760    -999.25    0.26810    0.29380    5.44700    0.02260   55.03480   55.03480    5.44700    6.40280    6.40280    -999.25    0.30210    0.25810    8.16680  -37.21970  -32.00930    8.16680
 4600.00000    9.92830  204.65380    1.17830    0.02640    2.29310    -999.25    0.21630    0.24380    4.88630    0.02640   49.40280   49.40280    4.88630    5.97140    5.97140    -999.25    0.25660    0.21270    7.83570  -44.84690  -38.53860    7.83570
 4650.00000    9.98190  314.57420    1.23190    0.04330    2.29260    -999.25    0.21660    0.24410    3.17890    0.04330   60.52730   60.52730    3.17890    4.46160    4.46160    -999.25    0.30850    0.26460    6.73130  -58.53380  -51.12760    6.73130
 4700.00000   10.40100  253.97470    1.65100    0.06260    2.45100    -999.25    0.12060    0.15150    3.93740    0.06260  106.00590  106.00590    3.93740    4.18730    4.18730    -999.25    0.28780    0.24380    4.79450  -27.46320  -18.95910    4.79450
 4750.00000   10.29610  549.17900    1.54610    0.02730    2.19890    -999.25    0.27340    0.29890    1.82090    0.02730   49.83570   49.83570    1.82090    2.52110    2.52110    -999.25    0.28420    0.24020    4.56250  -61.20010  -51.59810    4.56250
 4800.00000    9.91580  322.04040    1.16580    0.05280    2.31540    -999.25    0.20280    0.23080    3.10520    0.05280   90.41610   90.41610    3.10520    4.18130    4.18130    -999.25    0.35900    0.31550    5.11700  -46.23170  -35.53170    5.11700
 4850.00000    9.98520  299.52680    1.23520    0.05380    2.36830    -999.25    0.17070    0.19980    3.33860    0.05380   85.10060   85.10060    3.33860    4.03230    4.03230    -999.25    0.29040    0.24640    5.88730  -39.95240  -28.15450    5.88730
 4900.00000    9.76920  382.37990    1.01920    0.05040    2.32590    -999.25    0.19640    0.22460    2.61520    0.05040   75.60210   75.60210    2.61520    3.53420    3.53420    -999.25    0.29480    0.25080    6.77570  -48.38870  -35.49290    6.77570
 4950.00000    9.90580  385.00040    1.15580    0.09640    2.48730    -999.25    0.09860    0.13020    2.59740    0.09640  120.58450  120.58450    2.59740    3.08300    3.08300    -999.25    0.31810    0.27420    3.23170  -28.62680  -14.63310    3.23170
 5000.00000    9.50940  393.77830    0.75940    0.01660    2.28700    -999.25    0.22000    0.24740    2.53950    0.01660   72.32440   72.32440    2.53950    3.83030    3.83030    -999.25    0.27820    0.23420    6.35140  -67.45950  -52.36790    6.35140
 5050.00000    9.77120  458.06420    1.02120    0.05670    2.34640    -999.25    0.18400    0.21260    2.18310    0.05670   71.63150   71.63150    2.18310    2.95290    2.95290    -999.25    0.32020    0.27630    3.58980  -58.80950  -42.61990    3.58980
 5100.00000   10.74600  408.31330    1.99600    0.07340    2.48090    -999.25    0.10250    0.13400    2.44910    0.07340  116.18440  116.18440    2.44910    2.55440    2.55440    -999.25    0.31230    0.26840    2.69140  -26.69530   -9.99730    2.69140
 5150.00000    9.48200  405.44920    0.73200    0.03520    2.30370    -999.25    0.20990    0.23760    2.46640    0.03520   74.80180   74.80180    2.46640    3.16050    3.16050    -999.25    0.29970    0.25570    5.45880  -62.73050  -46.40830    5.45880
 5200.00000   10.59820  418.74300    1.84820    0.08570    2.45000    -999.25    0.12120    0.15200    2.38810    0.08570  107.67960  107.67960    2.38810    2.33850    2.33850    -999.25    0.30870    0.26480    2.57640  -22.05980   -6.11340    2.57640
 5250.00000   11.14440  435.42630    2.39440    0.03540    2.40170    -999.25    0.15050    0.18030    2.29660    0.03540   92.24410   92.24410    2.29660    2.34010    2.34010    -999.25    0.27070    0.22670    3.44520  -39.16470  -23.59400    3.44520
 5300.00000   10.79870  402.83600    2.04870    0.07010    2.46240    -999.25    0.11370    0.14480    2.48240    0.07010  101.76910  101.76910    2.48240    2.57120    2.57120    -999.25    0.27740    0.23340    2.82300  -24.33430   -9.13940    2.82300
 5350.00000   11.05700  424.88100    2.30700    0.05580    2.46340    -999.25    0.11310    0.14420    2.35360    0.05580   96.22680   96.22680    2.35360    2.27300    2.27300    -999.25    0.28630    0.24230    2.37230  -25.08160  -10.26250    2.37230
 5400.00000   10.79480  400.41640    2.04480    0.07440    2.50480    -999.25    0.08800    0.12000    2.49740    0.07440  107.26990  107.26990    2.49740    2.35260    2.35260    -999.25    0.27170    0.22770    2.57760  -20.41820   -5.97490    2.57760
 5450.00000   10.28070  399.66430    1.53070    0.05610    2.48450    -999.25    0.10030    0.13190    2.50210    0.05610  102.95810  102.95810    2.50210    2.38540    2.38540    -999.25    0.28500    0.24100    2.65020  -18.94930   -4.88170    2.65020
 5500.00000    9.75580  353.16970    1.00580    0.10060    2.58650    -999.25    0.03850    0.07220    2.83150    0.10060   82.81550   82.81550    2.83150    2.96040    2.96040    -999.25    0.24370    0.19980    3.72010  -15.63970   -1.94790    3.72010
 5550.00000    9.61360  414.78280    0.86360    -999.25    2.53250    -999.25    0.07120    0.10380    2.41090    -999.25  105.44250  105.44250    2.41090    2.33470    2.33470    -999.25    0.28610    0.24210    2.56380  -16.83560   -3.51960    2.56380
