~Version ---------------------------------------------------
VERS. 2.0 : CWLS log ASCII Standard -VERSION 2.0
WRAP. YES : MULTIPLE LINES PER DEPTH STEP
~Well ------------------------------------------------------
STRT.FT                  300.0 : START DEPTH
STOP.FT                14400.0 : STOP DEPTH
STEP.FT               50.00000 : STEP LENGTH
NULL.                  -999.25 : NULL VALUE
COMP.              CONOCO INC. : COMPANY
WELL.       JACQUELYN WOODS #1 : WELL
FLD .                  WILDCAT : FIELD
LOC .                          : LOCATION
CNTY.                ROBERTSON : COUNTY
STAT.                    TEXAS : STATE
CTRY. UNITED STATES OF AMERICA : COUNTRY
SRVC.                          : SERVICE COMPANY
DATE.                          : LOGDATE
API .           42395302880000 : API NUMBER
UWI .           42395302880000 : UNIQUE WELL ID
SLAT.WGS84       31.0997639251 : SURFACE LATITUDE
SLON.WGS84      -96.4923364329 : SURFACE LONGITUDE
~Curve Information -----------------------------------------
DEPT  .FT    : DEPTH
ACED  .US/F  : DELTA TIME
CALRED.IN    : CALIPER FROM RESISTIVITY LOG
RILMED.OHMM  : MEDIUM INDUCTION RESISTIVITY
RFOCED.OHMM  : SHALLOW FOCUSED RESISTIVITY
RILDED.OHMM  : DEEP INDUCTION RESISTIVITY
GRRED .GAPI  : GAMMA RAY FROM RESISTIVITY LOG
TENRED.LBS   : TENSION FROM RESISTIVITY LOG
SFLUED.OHMM  : SPHERICALLY FOCUSED RESISTIVITY
GRDED .GAPI  : GAMMA RAY FROM DENSITY LOG
CALDED.IN    : CALIPER FROM DENSITY LOG
DRHOED.G/C3  : DENSITY CORRECTION
NPHIED.V/V   : NEUTRON POROSITY
RHOBED.G/C3  : BULK DENSITY
TENDED.LBS   : TENSION FROM DENSITY LOG
SRESWS.OHMM  : SHALLOW RESISTIVITY (RFOC+SFLU)
CALWS .IN    : CALIPER
SPED  .MV    : SPONTANEOUS POTENTIAL (BASELINE -10 MV)
SPWS  .MV    : SPONTANEOUS POTENTIAL (BASELINE -10 MV)
DCORWS.G/C3  : DENSITY CORRECTION
GRWS  .GAPI  : GAMMA RAY
DRESWS.OHMM  : DEEP RESISTIVITY (RILD)
MRESWS.OHMM  : MEDIUM RESISTIVITY (RILM)
CONDWS.MMHO  : CONDUCTIVITY FROM DEEP RESISTIVITY
DENWS .G/C3  : BULK DENSITY
DPOWS .V/V   : DENSITY POROSITY (M=2.71 F=1)
NPOWS .V/V   : NEUTRON POROSITY
DTWS  .V/V   : DELTA TIME
~Params ----------------------------------------------------
EKB .F                 513.38 : KELLY BUSHING
EGL .F                 483.38 : ELEVATION GROUND LEVEL
EDF .F                 512.38 : ELEVATION DERRICK FLOOR
EPD .F                 483.38 : ELEVATION PERMANENT DATUM
TD  .F                12197.0 : TOTAL DEPTH
DATE.             17-MAR-1984 : DATE LOGGED
CLNT.                 A2DTECH : CLIENT CODE
SL  . 3400' FNEL & 3500' FNWL : SURFACE LOCATION
PD  .                      GL : PERMANENT DATUM
LMF .                      KB : LOG MEASURED FROM
DMF .                      KB : DRILLING MEASURED FROM
DAPD.F                     30 : FEET ABOVE PERMANENT DATUM
DD  .F                  12195 : DEPTH DRILLER
DL  .F                  12197 : DEPTH LOGGER
BLI .F                  12195 : BOTTOM LOG INTERVAL
TLI .F                  11950 : TOP LOG INTERVAL
CS1 .IN                13.375 : CASING SIZE
CBD1.         13.375" @ 5096' : CASING DRILLER 1
BS1 .IN                 12.25 : BIT SIZE
BSD1.F                  12195 : DEPTH DRILLED WITH BIT1
DFT .             GEL/CAUSTIC : TYPE FLUID IN HOLE
DFD .                     9.8 : DENSITY
DFV .                      44 : VISCOSITY
DFPH.                      11 : PH
DFL .                    11.2 : FLUID LOSS
MSS .                    TANK : SOURCE OF SAMPLE
RMS .OHMM                1.95 : RM
RMF .OHMM                1.35 : RMF
RMC .OHMM                2.53 : RMC
MFSS.                    MEAS : SOURCE RMF.
MCSS.                    MEAS : SOURCE RMC.
RMB .OHMM                0.59 : RM. AT BHT
BHT .F                    246 : BHT.
TCS .HRS                    6 : TIME CIRC. STOPPED
TLAB.HRS                    - : TIME LOGGER AT BOTTOM
LUN .                 HL 6304 : LOGGING UNIT NUMBER
LUL .                   BRYAN : LOGGING UNIT LOCATION
ENGI.               R.R. KIRK : RECORDED BY
WITN.            GALE CLAYTOR : WITNESSED BY
ORIG.                5" PRINT : ORIGIN OF DATA
UWI .          42395302880000 : UNIQUE WELL ID
DICO.  A2D TECHNOLOGIES, INC. : DIGITIZING COMPANY
~Other -----------------------------------------------------
# NPHI 890 01 (LIMESTONE)
~ASCII -----------------------------------------------------
# ...
 8100.00000   65.54500   15.12700    2.95400    4.29200    2.43300   53.59900    0.00000    -999.25   75.21620   17.90050    0.02250    0.35500    2.09450    3.13850    4.29200   17.90050  -14.24510  -14.24510    0.02250   53.59900    2.43300    2.95400  411.01520    2.09450    0.35990    0.35500   65.54500
 8150.00000   57.36300   15.15600    5.10300    3.44100    3.39200   41.75300    0.00000    -999.25   62.10410   17.26450   -0.07510    0.49400    1.71850    3.21780    3.44100   17.26450  -15.16340  -15.16340   -0.07510   41.75300    3.39200    5.10300  294.81130    1.71850    0.57980    0.49400   57.36300
 8200.00000   75.27300   15.15500    2.94500    3.48400    3.62300   50.73100    0.00000    -999.25   67.76020   17.50750   -0.08250    0.38400    1.71100    3.29800    3.48400   17.50750  -16.88360  -16.88360   -0.08250   50.73100    3.62300    2.94500  276.01440    1.71100    0.58420    0.38400   75.27300
 8250.00000   53.42800   15.10300   26.20300   26.97500   21.86600   30.00600    0.00000    -999.25   44.00410   16.63140    0.09010    0.07300    2.69710    3.37820   26.97500   16.63140  -59.55790  -59.55790    0.09010   30.00600   21.86600   26.20300   45.73310    2.69710    0.00750    0.07300   53.42800
 8300.00000   50.49200   15.05200   38.78600   41.21400   36.61000   27.99500    0.00000    -999.25   39.70550   17.32600    0.18320    0.05900    2.60180    3.45830   41.21400   17.32600  -59.75910  -59.75910    0.18320   27.99500   36.61000   38.78600   27.31490    2.60180    0.06330    0.05900   50.49200
 8350.00000   51.40600   15.08200   32.39300   31.07500   28.15000   17.92700    0.00000    -999.25   27.62320   16.73400    0.09160    0.05300    2.64380    3.53850   31.07500   16.73400  -50.24730  -50.24730    0.09160   17.92700   28.15000   32.39300   35.52400    2.64380    0.03870    0.05300   51.40600
 8400.00000   50.44800   15.09700   24.05600   48.62500   51.21700   20.34100    0.00000    -999.25   27.48800   17.07300    0.10060    0.06300    2.63350    3.61860   48.62500   17.07300  -51.12450  -51.12450    0.10060   20.34100   51.21700   24.05600   19.52480    2.63350    0.04470    0.06300   50.44800
 8450.00000   55.73100   15.09500    9.72600   21.93400   10.33300   26.85800    0.00000    -999.25   40.56650   16.69700   -0.00750    0.07400    2.65390    3.69880   21.93400   16.69700  -20.13770  -20.13770   -0.00750   26.85800   10.33300    9.72600   96.77730    2.65390    0.03280    0.07400   55.73100
 8500.00000   67.99800   15.01700    5.13900    5.95400    5.13900   50.61900    0.00000    -999.25   67.30770   16.41900    0.01500    0.16500    2.64100    3.77890    5.95400   16.41900  -16.08790  -16.08790    0.01500   50.61900    5.13900    5.13900  194.59040    2.64100    0.04040    0.16500   67.99800
 8550.00000   67.95600   14.73400    5.43100    7.48200    4.99800   62.01500    0.00000    -999.25   85.17340   15.46700    0.12010    0.18400    2.53220    3.85830    7.48200   15.46700  -12.21120  -12.21120    0.12010   62.01500    4.99800    5.43100  200.08000    2.53220    0.10400    0.18400   67.95600
 8600.00000   67.22600   14.68600    4.03500    4.00500    3.49700   46.49800    0.00000    -999.25   61.43650   15.03900   -0.02860    0.13300    2.53150    3.93840    4.00500   15.03900  -40.57740  -40.57740   -0.02860   46.49800    3.49700    4.03500  285.95940    2.53150    0.10440    0.13300   67.22600
 8650.00000   68.18500   15.02100    6.30600    5.05100    5.37000   59.91400    4.34900    -999.25   84.28360   15.62800   -0.05710    0.16000    2.53670    4.01860    5.05100   15.62800  -17.09560  -17.09560   -0.05710   59.91400    5.37000    6.30600  186.21970    2.53670    0.10130    0.16000   68.18500
 8700.00000   61.23000   14.71500    8.88200    8.37400    7.63800   42.40000    0.00000    -999.25   63.22330   15.41400   -0.02110    0.07100    2.56670    4.09870    8.37400   15.41400  -24.97370  -24.97370   -0.02110   42.40000    7.63800    8.88200  130.92430    2.56670    0.08380    0.07100   61.23000
 8750.00000   60.81700   14.95500    7.90400    7.72900    8.34200   42.80000    0.00000    -999.25   63.68780   15.50500   -0.03910    0.11400    2.55480    4.17890    7.72900   15.50500  -34.81890  -34.81890   -0.03910   42.80000    8.34200    7.90400  119.87530    2.55480    0.09080    0.11400   60.81700
 8800.00000   65.82600   14.99200    5.90200    7.06500    5.62100   50.74700    0.00000    -999.25   77.49800   16.24000   -0.01400    0.14900    2.54800    4.25990    7.06500   16.24000  -22.47800  -22.47800   -0.01400   50.74700    5.62100    5.90200  177.90430    2.54800    0.09470    0.14900   65.82600
 8850.00000   61.94600   15.03900    7.47600    9.14300    6.78900   23.03800    0.00000    -999.25   36.46200   16.39000   -0.05100    0.06900    2.47400    4.34080    9.14300   16.39000  -60.15120  -60.15120   -0.05100   23.03800    6.78900    7.47600  147.29710    2.47400    0.13800    0.06900   61.94600
 8900.00000   66.83400   15.04600    5.74000    5.46900    5.35700   38.16300    0.00000    -999.25   51.06300   15.32400   -0.04900    0.09730    2.56300    4.42100    5.46900   15.32400  -51.75330  -51.75330   -0.04900   38.16300    5.35700    5.74000  186.67160    2.56300    0.08600    0.09730   66.83400
 8950.00000   61.36200   14.60500   12.97700   16.25500   13.06400   32.72500    0.00000    -999.25   45.17500   14.99300   -0.05100    0.06810    2.49200    4.50110   16.25500   14.99300  -44.16750  -44.16750   -0.05100   32.72500   13.06400   12.97700   76.54620    2.49200    0.12750    0.06810   61.36200
 9000.00000   59.15000   15.05900   10.63300   11.63300   11.23400   35.64300    0.00000    -999.25   51.55900   15.54200   -0.03800    0.08560    2.53200    4.58130   11.63300   15.54200  -37.71860  -37.71860   -0.03800   35.64300   11.23400   10.63300   89.01550    2.53200    0.10410    0.08560   59.15000
 9050.00000   68.25700   14.76700    3.63500    3.94000    3.03700   41.31900    0.00000    -999.25   60.98400   14.54100    0.02500    0.08840    2.51200    4.66140    3.94000   14.54100  -55.65980  -55.65980    0.02500   41.31900    3.03700    3.63500  329.27230    2.51200    0.11580    0.08840   68.25700
 9100.00000   63.36600   13.81200   13.71200   20.71400    8.99800   18.84700    0.00000    -999.25   27.59100   14.43400   -0.05100    0.06300    2.42700    4.74160   20.71400   14.43400  -83.22290  -83.22290   -0.05100   18.84700    8.99800   13.71200  111.13580    2.42700    0.16550    0.06300   63.36600
 9150.00000   75.51200   13.80300   14.43200   22.81200    9.13800   18.37300    0.00000    -999.25   27.59700   14.53900   -0.01000    0.05400    2.46300    4.82170   22.81200   14.53900  -56.60600  -56.60600   -0.01000   18.37300    9.13800   14.43200  109.43310    2.46300    0.14440    0.05400   75.51200
 9200.00000   61.72000   14.13800   13.48800   16.68900   11.54000   28.46700    0.00000    -999.25   40.65100   14.97000    0.02500    0.05400    2.50700    4.90190   16.68900   14.97000  -70.00620  -70.00620    0.02500   28.46700   11.54000   13.48800   86.65510    2.50700    0.11870    0.05400   61.72000
 9250.00000   60.67300   14.42200   10.42500   13.76200    8.45100   32.68300    0.00000    -999.25   52.19100   15.50700    0.01300    0.09700    2.55200    4.98200   13.76200   15.50700  -47.20530  -47.20530    0.01300   32.68300    8.45100   10.42500  118.32920    2.55200    0.09240    0.09700   60.67300
 9300.00000   64.08900   14.71500   12.56200   13.06600    9.59900   38.98600    0.00000    -999.25   57.86100   14.32800   -0.03900    0.10700    2.45000    5.06220   13.06600   14.32800  -64.81350  -64.81350   -0.03900   38.98600    9.59900   12.56200  104.17750    2.45000    0.15200    0.10700   64.08900
 9350.00000   65.07200   14.83500    8.94000    8.76200    7.80400   65.58500    0.00000    -999.25   73.05300   15.14500   -0.06900    0.31460    2.48100    5.14230    8.76200   15.14500  -40.01160  -40.01160   -0.06900   65.58500    7.80400    8.94000  128.13940    2.48100    0.13390    0.31460   65.07200
