~Version ---------------------------------------------------
VERS. 2.0 : CWLS log ASCII Standard -VERSION 2.0
WRAP. YES : Multiple lines per depth step
~Well ------------------------------------------------------
STRT.FT                 3750.0 : START DEPTH
STOP.FT                15800.0 : STOP DEPTH
STEP.FT               50.00000 : STEP LENGTH
NULL.                  -999.25 : NULL VALUE
COMP.        EOG RESOURCES INC : COMPANY
WELL.         JOHNSON A B  #1R : WELL
FLD .             BRANTON WEST : FIELD
LOC .                          : LOCATION
CNTY.                     LEON : COUNTY
STAT.                    TEXAS : STATE
CTRY. UNITED STATES OF AMERICA : COUNTRY
SRVC.             Schlumberger : SERVICE COMPANY
DATE.              24-Sep-2006 : LOGDATE
API .           42289315440000 : API NUMBER
UWI .           42289315440000 : UNIQUE WELL ID
SLAT.WGS84       31.3479375148 : SURFACE LATITUDE
SLON.WGS84      -96.2310147208 : SURFACE LONGITUDE
~Curve Information -----------------------------------------
DEPT    .FT        : DEPTH FEET
AT10ED  .OHMM      : 10 INCH RESISTIVITY TWO FOOT RESOLUTION FROM AIT LOG
AT20ED  .OHMM      : 20 INCH RESISTIVITY TWO FOOT RESOLUTION FROM AIT LOG
AT30ED  .OHMM      : 30 INCH RESISTIVITY TWO FOOT RESOLUTION FROM AIT LOG
AT60ED  .OHMM      : 60 INCH RESISTIVITY TWO FOOT RESOLUTION FROM AIT LOG
AT90ED  .OHMM      : 90 INCH RESISTIVITY TWO FOOT RESOLUTION FROM AIT LOG
CALWS   .IN        : CALIPER [DCALED+BITS]
CONDWS  .MMHO      : CONDUCTIVITY [1000/DRESWS]
DCALED  .IN        : DIFFERENTIAL CALIPER FROM AIT LOG
DCORWS  .G/C3      : DENSITY CORRECTION [HDRAED]
DENWS   .G/C3      : FORMATION BULK DENSITY [CALC FROM DPOWS, M=2.71,F=1.0]
DPHZLSED.V/V       : DENSITY POROSITY LIMESTONE [M=2.71, F=1.0] FROM DENSITY LOG
DPOWS   .V/V       : DENSITY POROSITY LIMESTONE [DPHZLSED]
DRESWS  .OHMM      : DEEP RESISTIVITY [AT90ED]
DTED    .US/F      : DELTA-T FROM SONIC LOG
GRED    .GAPI      : GAMMA RAY FROM CBL LOG [ADJ.TO AIT LOG <13840> SONIC LOG]
GRRED   .GAPI      : GAMMA RAY FROM AIT LOG
GRSED   .GAPI      : GAMMA RAY FROM SONIC LOG
GRTED   .GAPI      : THORIUM GAMMA RAY FROM RST LOG [ADJ.TO SONIC LOG]
GRWS    .GAPI      : GAMMA RAY [GRRED SPL.TO GRED 13840' TO TD.]
HDRAED  .G/C3      : DENSITY CORRECTION FROM DENSITY LOG
MRESWS  .OHMM      : MEDIUM RESISTIVITY [AT30ED]
NPHILSED.V/V       : NEUTRON POROSITY LIMESTONE FROM DENSITY LOG
NPOWS   .V/V       : NEUTRON POROSITY LIMESTONE [NPHILSED]
PEFWS   .B/E       : PHOTOELECTRIC FACTOR [PEFZED]
PEFZED  .B/E       : PHOTOELECTRIC FACTOR FROM DENSITY LOG
RATIOED .UNITLESS  : RATIO FROM RST LOG [ADJ.TO SONIC LOG]
SIGMED  .CU        : NEUTRON CAPTURE CROSS SECTION FROM RST LOG [ADJ.TO SONIC LOG]
SPHIED  .V/V       : SONIC POROSITY [DTM=47.6, DTF=189] FROM SONIC LOG
SPRED   .MV        : SPONTANEOUS POTENTIAL FROM AIT LOG
SPWS    .MV        : SPONTANEOUS POTENTIAL [BASELINE 0 MV,SPRED]
SRESWS  .OHMM      : SHALLOW RESISTIVITY [AT10ED]
TENRED  .LBF       : TENSION FROM AIT LOG
TENSED  .LBF       : TENSION FROM SONIC LOG
TPHILSED.V/V       : THERMAL POROSITY LIMESTONE FROM RST LOG [ADJ.TO SONIC LOG]
~Params ----------------------------------------------------
PD  .                     GL : PERMANENT DATUM
EPD .FT                  449 : ELEVATION PERMANENT DATUM
LMF .                     KB : LOG MEASURED FROM
DAPD.FT                   27 : FEET ABOVE PERMANENT DATUM
DMF .                     KB : DRILLING MEASURED FROM
EKB .FT                  476 : KELLY BUSHING
EDF .FT                  475 : DRILLING FLOOR
EGL .FT                  449 : GROUND LEVEL
DATE.               09/24/06 : RUN DATE
RUN .                      1 : RUN NUMBER
DD  .FT                13864 : DEPTH DRILLER
DL  .FT                13877 : DEPTH LOGGER
BLI .FT                13869 : BOTTOM LOG INTERVAL
TLI .FT                 3829 : TOP LOG INTERVAL
CS  .IN                10.75 : CASING SIZE
CBD .FT                 3825 : CASING BOTTOM DRILLER
CBL .FT                 3829 : CASING BOTTOM LOGGER
BS  .IN                9.875 : BIT SIZE
BSD .FT                13864 : BIT SIZE AT DEPTH
DFT .  WATER BASED DISPERSED : DRILLING FLUID TYPE
DFD .                   11.6 : DRILLING FLUID DENSITY
DFV .                     42 : DRILLING FLUID VISCOSITY
DFPH.                   10.2 : DRILLING FLUID PH
DFL .                     16 : DRILLING FLUID LOSS
MSS .       CIRCULATION TANK : MUD SAMPLE SOURCE
RMS .OHMM              0.873 : RESISTIVITY MUD SAMPLE
MST .DEGF                 82 : MUD SAMPLE TEMPERATURE
RMF .OHMM              0.698 : RESISTIVITY MUD FILTRATE SAMPLE
MFST.DEGF                 82 : MUD FILTRATE SAMPLE TEMPERATURE
RMC .OHMM              1.048 : RESISTIVITY MUD CAKE
MCST.DEGF                 82 : MUD CAKE SAMPLE TEMPERATURE
MFSS.             CALCULATED : MUD FILTRATE SAMPLE SOURCE
MCSS.             CALCULATED : MUD CAKE SAMPLE SOURCE
RMB .OHMM              0.251 : RESISTIVITY MUD AT BHT
TCS .HRS                2300 : TIME CIRCULATED STOPPED
TLAB.HRS                1015 : TIME LOGGER AT BOTTOM
LUN .                   2267 : LOGGING UNIT NUMBER
LUL .                  TYLER : LOGGING UNIT LOCATION
ENGI.        BELKNA[ MUSTATA : RECORDING ENGINEER
WITN.                  SMITH : WITNESSED BY
CLNT.                A2DTECH : CLIENT CODE
ORIG.         1" 2" 5" PRINT : ORIGIN OF DATA
UWI .         42289315440000 : UNIQUE WELL ID
DICO. A2D Technologies, Inc. : DIGITIZING COMPANY
~Other -----------------------------------------------------
AIT-CDL-CNL RUN IN COMBO & ARRAY SONIC & RST-CBL LOG RUN
GRED,GRSED,DTED,SPHIED,GRTED & TDT LOG RUN IN CSG.[NOT DELETED FROM WELL AS FOR THIS INTERVAL NO WIRELINE DATA FOUND FOR PROCESSING]
DENSITY AFFECTED BY HEAVY MUD & MUD CAKE BELOW 10,000'
SP AFFECTED AT 8400' DUE TO HIGH AC AUX USED TO CLOSE POWER POSITION CALIPER
~ASCII -----------------------------------------------------
# ...
 12150.00000   20.83820   27.88680   30.29240   33.85460   41.31690    9.90660   24.20320    0.03160    0.00450    2.61560    0.05520    0.05520   41.31690    -999.25    9.68230   29.86010    -999.25    -999.25   29.86010    0.00450   30.29240    0.00680    0.00680    2.75770    2.75770    -999.25    -999.25    -999.25  -37.36990  -55.32340   20.83820 5339.10890    -999.25    -999.25
 12200.00000   12.81660   13.07150   13.82610   14.69040   15.15380   10.04410   65.99000    0.16910    0.00110    2.64280    0.03930    0.03930   15.15380    -999.25   25.98340   56.01170    -999.25    -999.25   56.01170    0.00110   13.82610    0.06560    0.06560    3.92290    3.92290    -999.25    -999.25    -999.25  -13.15350  -33.05840   12.81660 5076.60550    -999.25    -999.25
 12250.00000    4.61150   23.57090   21.00870   27.84050   23.46880    9.85230   42.60980   -0.02270    0.05750    2.64280    0.03930    0.03930   23.46880    -999.25   24.88720   62.78320    -999.25    -999.25   62.78320    0.05750   21.00870    0.09700    0.09700    6.64160    6.64160    -999.25    -999.25    -999.25    3.43100  -18.42540    4.61150 5138.35640    -999.25    -999.25
 12300.00000   59.74610   60.35590   65.53990   71.92700   79.80520   10.03400   12.53050    0.15900    0.18020    2.68520    0.01450    0.01450   79.80520    -999.25   13.53310   25.01980    -999.25    -999.25   25.01980    0.18020   65.53990    0.01660    0.01660    3.20420    3.20420    -999.25    -999.25    -999.25  -16.24090  -40.04870   59.74610 5195.95750    -999.25    -999.25
 12350.00000    2.94190    9.22830   12.04410   14.90130   13.54000   10.50850   73.85520    0.63350    0.19840    2.92510   -0.12580   -0.12580   13.54000    -999.25   29.81870   47.54860    -999.25    -999.25   47.54860    0.19840   12.04410    0.18180    0.18180   10.00000   10.00000    -999.25    -999.25    -999.25   13.62480  -12.48140    2.94190 5098.26270    -999.25    -999.25
 12400.00000    2.01010    3.35250    4.95240    6.98210   12.11930   11.27250   82.51300    1.39750    0.00940    2.37480    0.19600    0.19600   12.11930    -999.25   28.20120   53.12200    -999.25    -999.25   53.12200    0.00940    4.95240    0.26570    0.26570    7.86500    7.86500    -999.25    -999.25    -999.25   15.95950  -12.06000    2.01010 5056.03660    -999.25    -999.25
 12450.00000    4.01420   19.08680   30.31460  186.84950  519.78890   11.89550    1.92390    2.02050    0.01900    2.41210    0.17420    0.17420  519.78890    -999.25   12.31170   21.15170    -999.25    -999.25   21.15170    0.01900   30.31460    0.03360    0.03360   10.00000   10.00000    -999.25    -999.25    -999.25  -26.40130  -55.75110    4.01420 5235.82810    -999.25    -999.25
 12500.00000    2.63510    3.00940    3.30190    3.45540    3.62430   14.14080  275.91530    4.26580    0.18770    2.43320    0.16190    0.16190    3.62430    -999.25   33.00650   67.48000    -999.25    -999.25   67.48000    0.18770    3.30190    0.26270    0.26270    9.82310    9.82310    -999.25    -999.25    -999.25   25.14560   -5.24070    2.63510 5289.02050    -999.25    -999.25
 12550.00000  108.73790  101.11370   92.59140   86.69990   81.17010   12.08060   12.31980    2.20560    0.05270    2.59010    0.07010    0.07010   81.17010    -999.25   12.34200   23.00780    -999.25    -999.25   23.00780    0.05270   92.59140    0.00210    0.00210    8.66470    8.66470    -999.25    -999.25    -999.25    4.06240  -22.75790  108.73790 5095.94580    -999.25    -999.25
 12600.00000   63.83620   74.98070   44.24020   47.74810   23.91860   12.80810   41.80850    2.93310    0.05790    2.39790    0.18250    0.18250   23.91860    -999.25   11.70570   20.51760    -999.25    -999.25   20.51760    0.05790   44.24020    0.00320    0.00320    8.28450    8.28450    -999.25    -999.25    -999.25  -19.91010  -43.16440   63.83620 5244.78520    -999.25    -999.25
 12650.00000  480.41740   87.21600  107.78500  132.21720  163.66100   13.15060    6.11020    3.27560    0.20000    2.42900    0.16430    0.16430  163.66100    -999.25   14.73920   24.54520    -999.25    -999.25   24.54520    0.20000  107.78500    0.01220    0.01220    4.52300    4.52300    -999.25    -999.25    -999.25  -24.72620  -47.77820  480.41740 5225.46000    -999.25    -999.25
 12700.00000   45.06760   40.81940   37.48390   34.19770   32.26450   10.15860   30.99380    0.28360   -0.00170    2.60230    0.06300    0.06300   32.26450    -999.25   11.24510   33.41440    -999.25    -999.25   33.41440   -0.00170   37.48390    0.01120    0.01120    2.82210    2.82210    -999.25    -999.25    -999.25   -8.59780  -32.08820   45.06760 5196.19040    -999.25    -999.25
 12750.00000   53.40570  116.43450  124.88720  245.24360  171.84360   13.92990    5.81920    4.05490    0.17590    2.40190    0.18020    0.18020  171.84360    -999.25    9.85180   19.63840    -999.25    -999.25   19.63840    0.17590  124.88720    0.00070    0.00070    5.69000    5.69000    -999.25    -999.25    -999.25  -11.05680  -34.98550   53.40570 5184.64010    -999.25    -999.25
 12800.00000   17.20900   17.66310   21.39200   24.08650   24.83050   11.96650   40.27310    2.09150    0.05490    2.70300    0.00410    0.00410   24.83050    -999.25   17.77200   30.35320    -999.25    -999.25   30.35320    0.05490   21.39200    0.04010    0.04010    6.05580    6.05580    -999.25    -999.25    -999.25   -7.67910  -35.39500   17.20900 5199.86910    -999.25    -999.25
 12850.00000    3.03770    3.42780    3.91770    4.01110    4.19100   14.47090  238.60650    4.59590    0.11220    2.27550    0.25410    0.25410    4.19100    -999.25   27.52900   65.55530    -999.25    -999.25   65.55530    0.11220    3.91770    0.26520    0.26520    6.52380    6.52380    -999.25    -999.25    -999.25   27.73700   -4.31010    3.03770 5195.44920    -999.25    -999.25
 12900.00000   34.77810   25.90990   30.89550   39.16270   46.08250   11.27340   21.70020    1.39840    0.04670    2.55010    0.09350    0.09350   46.08250    -999.25   16.25870   41.39490    -999.25    -999.25   41.39490    0.04670   30.89550    0.02600    0.02600    4.55960    4.55960    -999.25    -999.25    -999.25    1.36840  -25.17400   34.77810 5261.18600    -999.25    -999.25
 12950.00000  217.62100   69.14890   59.38580   63.35920   73.54360   10.12500   13.59740    0.25000    0.00160    2.60350    0.06230    0.06230   73.54360    -999.25   13.79260   16.45560    -999.25    -999.25   16.45560    0.00160   59.38580    0.00260    0.00260    2.64830    2.64830    -999.25    -999.25    -999.25  -17.86730  -31.14500  217.62100 5260.18210    -999.25    -999.25
 13000.00000    4.53810   17.73650   17.43040   20.63170   17.28370   13.19050   57.85800    3.31550    0.17890    2.51030    0.11680    0.11680   17.28370    -999.25   20.83780   42.65930    -999.25    -999.25   42.65930    0.17890   17.43040    0.03850    0.03850    0.21310    0.21310    -999.25    -999.25    -999.25  -29.77450  -29.78750    4.53810 5312.29390    -999.25    -999.25
 13050.00000   39.26920   36.24110   42.36310   45.62150   57.88230   10.18870   17.27640    0.31370   -0.00100    2.59240    0.06880    0.06880   57.88230    -999.25   15.39830   19.61400    -999.25    -999.25   19.61400   -0.00100   42.36310    0.01000    0.01000    2.78960    2.78960    -999.25    -999.25    -999.25  -55.29870  -42.04700   39.26920 5303.78420    -999.25    -999.25
 13100.00000   67.78280   66.94140   47.03000   37.34150   18.44820    9.98290   54.20580    0.10790    0.01250    2.56140    0.08690    0.08690   18.44820    -999.25    9.75510   17.30030    -999.25    -999.25   17.30030    0.01250   47.03000    0.01220    0.01220    3.36970    3.36970    -999.25    -999.25    -999.25  -56.17290  -29.65650   67.78280 5293.27690    -999.25    -999.25
 13150.00000    5.24750    5.68610    8.62760    9.95100   10.45440   11.54050   95.65350    1.66550    0.14090    2.57290    0.08020    0.08020   10.45440    -999.25   31.85630   74.58720    -999.25    -999.25   74.58720    0.14090    8.62760    0.18550    0.18550    9.97530    9.97530    -999.25    -999.25    -999.25  -48.37550   -8.59430    5.24750 5402.08450    -999.25    -999.25
