~Version ---------------------------------------------------
VERS. 2.0 : CWLS log ASCII Standard -VERSION 2.0
WRAP.  NO : ONE LINE PER DEPTH STEP
~Well ------------------------------------------------------
STRT.F                   300.0 : START DEPTH
STOP.F                 14600.0 : STOP DEPTH
STEP.F                50.00000 : STEP LENGTH
NULL.                  -999.25 : NULL VALUE
COMP.        SHELL OIL COMPANY : COMPANY
WELL. E D HAY ETAL GAS UNIT #1 : WELL
FLD .              BUCHEL AREA : FIELD
LOC .                          : LOCATION
CNTY.                  DE WITT : COUNTY
STAT.                    TEXAS : STATE
CTRY. UNITED STATES OF AMERICA : COUNTRY
SRVC.             Schlumberger : SERVICE COMPANY
DATE.              26-Dec-1976 : LOGDATE
API .           42123303590000 : API NUMBER
UWI .           42123303590000 : UNIQUE WELL ID
SLAT.WGS84       29.0604728181 : SURFACE LATITUDE
SLON.WGS84        -97.48437084 : SURFACE LONGITUDE
~Curve Information -----------------------------------------
DEPT.F                 : 
DT  .US/F 60 500 00 00 : DELTA-T (INTERVAL TRANSIT TIME)
GRD .GAPI 45 310 01 00 : GAMMA RAY FROM DENSITY LOG
CORR.G/C3 45 356 01 00 : DENSITY CORRECTION
CALD.IN   45 280 60 00 : CALIPER FROM DENSITY LOG
RHOB.G/C3 45 350 01 00 : BULK DENSITY
ILD .OHMM 07 120 46 00 : INDUCTION DEEP RESISTIVITY
ILM .OHMM 07 120 44 00 : INDUCTION MEDIUM RESISTIVITY
LL8 .OHMM 07 220 08 00 : LATEROLOG 8
SPR .MV   07 010 01 00 : SPONTANEOUS POTENTIAL FROM RESISTIVITY LOG
~Params ----------------------------------------------------
PD  .                     GL : PERMANENT DATUM
EPD .FT                  372 : ELEVATION PERMANENT DATUM
LMF .                     KB : LOG MEASURED FROM
DAPD.FT                   28 : FEET ABOVE PERMANENT DATUM
DMF .                     KB : DRILLING MEASURED FROM
EKB .FT                  400 : KELLY BUSHING
EDF .FT                  399 : DRILLING FLOOR
EGL .FT                  372 : GROUND LEVEL
DATE.               12/26/76 : RUN DATE
RUN .                      2 : RUN NUMBER
DD  .FT                14600 : DEPTH DRILLER
DL  .FT                14609 : DEPTH LOGGER
BLI .FT                14603 : BOTTOM LOG INTERVAL
TLI .FT                 2336 : TOP LOG INTERVAL
CS  .IN                10.75 : CASING SIZE
CBD .FT                 2332 : CASING BOTTOM DRILLER
CBL .FT                 2336 : CASING BOTTOM LOGGER
BS  .IN                 8.75 : BIT SIZE
BSD .FT                14600 : BIT SIZE AT DEPTH
DFT .             IMCO GELEX : DRILLING FLUID TYPE
DFD .                   10.5 : DRILLING FLUID DENSITY
DFV .                     38 : DRILLING FLUID VISCOSITY
DFPH.                      9 : DRILLING FLUID PH
DFL .                      6 : DRILLING FLUID LOSS
MSS .               CIRC PIT : MUD SAMPLE SOURCE
RMS .OHMM               2.13 : RESISTIVITY MUD SAMPLE
MST .DEGF                 73 : MUD SAMPLE TEMPERATURE
RMF .OHMM               1.53 : RESISTIVITY MUD FILTRATE SAMPLE
MFST.DEGF                 75 : MUD FILTRATE SAMPLE TEMPERATURE
RMC .OHMM               3.19 : RESISTIVITY MUD CAKE
MCST.DEGF                 73 : MUD CAKE SAMPLE TEMPERATURE
MFSS.                      M : MUD FILTRATE SAMPLE SOURCE
MCSS.                      C : MUD CAKE SAMPLE SOURCE
RMB .OHMM               0.58 : RESISTIVITY MUD AT BHT
TCS .HRS                   5 : TIME CIRCULATED STOPPED
TLAB.HRS                1200 : TIME LOGGER AT BOTTOM
LUN .                   7685 : LOGGING UNIT NUMBER
LUL .                   VICT : LOGGING UNIT LOCATION
CLNT.                A2DTECH : CLIENT CODE
ORIG.            2" 5" PRINT : ORIGIN OF DATA
UWI .         42123303590000 : UNIQUE WELL ID
DICO. A2D Technologies, Inc. : DIGITIZING COMPANY
~Other -----------------------------------------------------
~ASCII -----------------------------------------------------
# ...
 3950.00000  127.11360   78.40680    0.05240   10.01770    2.12400    0.77270    0.79800    1.04150  -40.10410
 4000.00000  125.64210   72.73760    0.10670    9.34530    2.25710    0.82490    0.86340    1.20970  -42.77600
 4050.00000  119.29320   63.02630    0.03500   10.02150    2.18020    0.91790    1.23260    1.66080  -79.87730
 4100.00000  113.78410   73.41450    0.09540   12.09490    2.27410    0.89610    0.96460    1.38060  -45.23050
 4150.00000  159.48140   87.26470    0.07460   11.31150    2.22020    0.66780    0.69250    1.10300  -36.46510
 4200.00000  127.87470   85.70320    0.06490   15.55730    2.28050    0.81710    0.86110    1.35840  -38.28180
 4250.00000  125.73860   84.23190    0.09300   14.34570    2.29730    0.71310    0.74140    1.05030  -34.70030
 4300.00000  156.54430   88.23820    0.06700   14.00890    2.27100    0.61660    0.63790    0.90130  -35.10180
 4350.00000  140.03590   77.90630    0.08680   12.96830    2.26780    0.51550    0.54280    0.93650  -34.52930
 4400.00000  133.68650   75.32790    0.09550   14.87490    2.29980    0.79020    0.81860    1.16280  -34.75280
 4450.00000  158.15510   81.08010    0.07590   12.59270    2.20800    0.50240    0.52310    0.84360  -34.53630
 4500.00000  150.86490   75.68170    0.09870   12.34450    2.23120    0.64170    0.66770    1.05060  -35.15640
 4550.00000  125.40000   78.94280    0.07060   12.04690    2.19050    0.64380    0.67270    0.98650  -35.31650
 4600.00000  155.65640   73.60940    0.07260   10.31730    2.21430    0.74200    0.76520    1.19590  -35.48800
 4650.00000  164.33930   70.37810    0.03370   10.62920    2.21620    0.80830    0.83550    1.52950  -35.11450
 4700.00000  126.48360   67.25500    0.03430   11.28820    2.34420    0.87750    0.86940    1.49980  -36.35200
 4750.00000  123.56900   79.72700    0.07510   12.29470    2.27150    0.88030    0.92200    1.28330  -33.12170
 4800.00000  131.42140   76.17200    0.10760   12.90960    2.33390    0.82280    0.85240    1.24390  -33.33660
 4850.00000   94.92540   69.35100    0.08000   14.25110    2.45200    1.49210    1.54980    2.00730  -35.87910
 4900.00000  111.12770   83.30700    0.09150   13.83910    2.33260    0.93130    0.96700    1.28170  -32.72950
 4950.00000  130.57540   97.03320    0.08960   14.71270    2.31350    0.69370    0.73270    1.15280  -32.57990
 5000.00000   91.54390   76.47170    0.05570   15.89100    2.53570    1.38150    1.43760    1.88840  -37.22020
 5050.00000   81.40000   76.98080    0.08310   13.83040    2.40330    1.35540    1.41520    1.74550  -39.22020
 5100.00000  124.22180   72.75480    0.05530   13.83840    2.33880    0.97470    1.01280    1.41700  -33.95900
 5150.00000   78.76580   65.06170    0.07460   13.05790    2.34310    1.30980    1.38490    1.79140  -37.34800
 5200.00000  153.40770   69.70250    0.06790   10.77610    2.19050    0.54120    0.59690    0.92930  -31.43130
 5250.00000   96.79010   55.79330    0.09610   12.63710    2.46390    1.87250    1.98960    3.15290  -35.42440
 5300.00000  104.91160   71.18500    0.05810   12.12700    2.40250    1.16240    1.21910    1.70450  -33.34280
 5350.00000  125.45990   75.24760    0.12050   11.61100    2.25840    0.87380    0.92670    1.34340  -31.62460
 5400.00000  105.97070   82.30410    0.09060   12.34130    2.35060    1.11580    1.15100    1.55810  -31.96450
 5450.00000  100.02680   73.09660    0.11860   12.42400    2.42400    1.05610    1.08440    1.42630  -31.66560
 5500.00000   89.10390   84.54590    0.07410   13.33340    2.40120    1.44800    1.49040    1.85570  -33.86260
 5550.00000  111.87450   74.18970    0.07100   11.60650    2.38930    1.12360    1.18020    1.67260  -34.29760
 5600.00000   95.01080   80.94510    0.09880   13.47860    2.40040    1.08140    1.12460    1.61420  -31.37280
 5650.00000  109.78120   82.02900    0.08240   12.53600    2.36200    1.01830    1.05880    1.60770  -29.22900
 5700.00000   99.88300   75.79190    0.09710   11.65090    2.29970    0.95700    1.00550    1.48450  -28.96830
 5750.00000   95.17980   62.71840    0.10220   10.49910    2.44710    0.86150    0.90020    1.89250  -28.39690
 5800.00000   93.62350   70.68590    0.13170   10.67390    2.26770    1.05990    1.08720    1.38950  -30.55150
 5850.00000  111.87270   73.13460    0.10600   10.51070    2.00210    0.81480    0.86330    1.20880  -29.09330
 5900.00000  116.83750   66.39760    0.01850   11.03010    1.78470    0.62520    0.63820    0.93690  -27.90080
 5950.00000  123.57720   68.88990    0.03150   12.12020    1.79250    0.68490    0.71120    1.10710  -27.53010
 6000.00000  130.05310   71.34750   -0.00600   12.32220    1.74170    0.65460    0.69210    1.20100  -29.00340
 6050.00000  119.58450   68.43810    0.13290   13.87470    2.04090    1.52840    1.34890    2.67170  -31.16730
 6100.00000   82.82370   62.39140    0.17440   13.59690    2.32180    1.27990    1.33780    1.75550  -29.67190
 6150.00000  106.22550   72.61150    0.06120   11.64260    1.91790    0.84390    0.87360    1.38280  -26.22840
 6200.00000   85.42850   83.50810    0.06610   10.42560    2.54160    1.47560    1.90860    2.54530  -73.22500
 6250.00000   88.13070   61.42020    0.04110    9.22580    2.35670    1.64270    2.06280    6.57850  -66.45220
 6300.00000   69.04100   54.29580    0.05090    8.98640    2.35100    1.43260    2.38540    7.45270 -154.99510
 6350.00000   80.53560   29.74620    0.02800    8.98930    2.24480    0.39090    0.49730    2.05460 -161.65530
 6400.00000   75.36430   37.59220    0.04600    8.81760    2.25770    0.77970    1.01050    3.55660 -137.51180
 6450.00000   79.25030   34.51070    0.02990    8.64100    2.23750    0.83580    1.27830    4.63650 -137.64750
 6500.00000   78.36500   31.34130    0.03020    8.74530    2.25140    0.45320    0.59250    2.06000 -146.71160
 6550.00000   92.21530   84.36550    0.15620    9.88080    2.38360    1.34110    1.37700    1.88020  -26.12440
 6600.00000   79.14130   47.10210    0.03340    8.89590    2.24920    0.58910    0.84380    3.88140 -144.99540
 6650.00000   73.67730   86.56960    0.05490    9.04060    2.29100    2.31420    2.82150    5.07680  -59.40340
 6700.00000   77.15140   71.55410    0.07360    8.72440    2.34870    1.30360    2.11470    6.37660 -113.42180
 6750.00000   75.80680   61.13410    0.02600    8.81890    2.26520    0.76170    1.20450    6.78200 -141.65420
 6800.00000   71.05850   72.21100    0.08060    8.89600    2.39190    1.35160    1.81890    5.83990 -126.91880
 6850.00000   75.12710   48.77260    0.03310    9.03070    2.33830    1.00930    1.17910    3.20920 -126.78480
 6900.00000   76.12420   61.43600    0.08020    8.84920    2.40060    0.96920    1.18980    3.86300 -126.76950
 6950.00000   80.30640   50.20360    0.01460    8.82670    2.23180    1.07420    1.62280    6.09510 -119.34200
 7000.00000   76.70030   64.36650    0.05050    8.77810    2.32260    1.31970    2.11700    6.08090 -110.33120
 7050.00000   76.63030   81.15150    0.13280    9.37120    2.49150    2.12130    2.34730    3.89250  -38.27480
 7100.00000   76.82990   81.31810    0.02920    9.10310    2.38230    1.95310    2.73060    5.53790  -76.04120
 7150.00000   81.63310   92.01100    0.10010   10.76210    2.46570    1.71120    1.79720    2.53420  -24.34160
 7200.00000   85.24320   77.68970    0.03970   11.22600    2.53740    1.87450    1.93570    2.72040  -28.48250
 7250.00000   75.35140   51.31420    0.00100    9.10340    2.27930    1.14170    1.91550    7.87690 -130.63100
 7300.00000   74.66510   82.60930    0.05110   10.87210    2.50370    2.18410    2.26640    3.32290  -30.48820
 7350.00000   83.83410   65.36600    0.06470   10.96600    2.43640    2.22250    2.92230    4.09940  -54.01280
 7400.00000   76.32350   88.70910    0.08880   11.30080    2.54340    2.18620    2.26050    2.81320  -26.84820
 7450.00000   76.66830   77.23460    0.09190   10.37330    2.48540    1.84580    2.16840    3.54540  -47.73420
 7500.00000   75.47660   79.23620    0.04770   11.12820    2.55940    2.80310    2.94960    5.54060  -27.77940
 7550.00000   70.80150   53.11490    0.02650    9.11290    2.38480    2.10470    3.33570    7.87300 -108.94120
