~Version ---------------------------------------------------
VERS. 2.0 : CWLS log ASCII Standard -VERSION 2.0
WRAP. YES : MULTIPLE LINES PER DEPTH STEP
~Well ------------------------------------------------------
STRT.FT                  300.0 : START DEPTH
STOP.FT                15250.0 : STOP DEPTH
STEP.FT               50.00000 : STEP LENGTH
NULL.                  -999.25 : NULL VALUE
COMP.  CONTINENTAL OIL COMPANY : COMPANY
WELL.    HALSELL FOUNDATION #1 : WELL
FLD .                  WILDCAT : FIELD
LOC .                          : LOCATION
CNTY.                 MAVERICK : COUNTY
STAT.                    TEXAS : STATE
CTRY. UNITED STATES OF AMERICA : COUNTRY
SRVC.             Schlumberger : SERVICE COMPANY
DATE.              02-Apr-1972 : LOGDATE
API .           42323300720000 : API NUMBER
UWI .           42323300720000 : UNIQUE WELL ID
SLAT.WGS84       28.6077848095 : SURFACE LATITUDE
SLON.WGS84     -100.3259081005 : SURFACE LONGITUDE
~Curve Information -----------------------------------------
DEPT    .FT    : DEPTH FEET
ALL8ED  .MV    : AMPLIFIED LATARLOG 8 FROM RES. LOG
ASNED   .OHMM  : 16 INCH AMPLIFIED SHORT NORMAL RESISTIVITY FROM IEL
CALDED  .IN    : CALIPER FROM DENSITY LOG, DEPTH ADJUSTED WITH [ILDED]
CALSED  .IN    : CALIPER FROM SONIC LOG, DEPTH ADJUSTED WITH [ILDED]
CALWS   .IN    : CALIPER [CALSED]
CILDED  .MMHO  : CONDUCTIVITY FROM RESISTIVITY LOG
CONDWS  .MMHO  : CONDUCTIVITY [1000/DRESWS]
DENWS   .G/C3  : BULK DENSITY [M=2.71 F=1.0] [CALCULATED FROM DPOWS]
DPHILSED.V/V   : DENSITY POROSITY [M=2.71 F=1.0] FROM DENSITY LOG, DEPTH ADJUSTED WITH [ILDED]
DPOWS   .V/V   : DENSITY POROSITY [DPHILSED]
DRESWS  .OHMM  : DEEP RESISTIVITY [ILDED] IF DRESWS<1;1000/CONDWS
DTED    .US/F  : DELTA TIME FROM SONIC LOG, DEPTH ADJUSTED WITH [ILDED]
DTWS    .US/F  : DELTA TIME [DTED]
GRDED   .GAPI  : GAMMA RAY FROM DENSITY LOG, DEPTH ADJUSTED WITH [ILDED]
GRRED   .GAPI  : GAMMA RAY FROM RESISTIVITY LOG
GRSED   .GAPI  : GAMMA RAY FROM SONIC LOG, DEPTH ADJUSTED WITH [ILDED]
GRWS    .GAPI  : GAMMA RAY [GRSED]
ILDED   .OHMM  : INDUCTION LOG DEEP RESISTIVITY
NPHILSED.V/V   : NEUTRON POROSITY LIMESTONE FROM DENSITY LOG, DEPTH ADJUSTED WITH [ILDED]
NPOWS   .V/V   : NEUTRON POROSITY SANDSTONE [NPHILSED]
SPRED   .MV    : SPONTANEOUS POTENTIAL FROM RESISTIVITY LOG
SPWS    .MV    : SPONTANEOUS POTENTIAL [BASELINE 0 MV] [SPRED]
SRESWS  .OHMM  : SHALLOW RESISTIVITY [ASNED], SPLICED WITH [ALL8ED] AT 8750'
~Params ----------------------------------------------------
PD  .                     GL : PERMANENT DATUM
EPD .F                 749.4 : ELEVATION PERMANENT DATUM
LMF .                     KB : LOG MEASURED FROM
DAPD.F                  25.2 : FEET ABOVE PERMANENT DATUM
DMF .                     KB : DRILLING MEASURED FROM
EKB .F                 775.4 : KELLING BUSHING
EDF .F                 774.6 : DRILLING FLOOR
EGL .F                 749.4 : GROUND LEVEL
DATE.               04/02/72 : RUN DATE
RUN .                      8 : RUN NUMBER
DD  .F                 15250 : DEPTH DRILLER
DL  .F                 15273 : DEPTH LOGGER
BLI .F                 15266 : BOTTOM LOG INTERVAL
TLI .F                 14800 : TOP LOG INTERVAL
CS  .IN                9.625 : CASING SIZE
CBD .F                  8736 : CASING BOTTOM DRILLER
CBL .F                  8748 : CASING BOTTOM LOGGER
BS  .IN                  8.5 : BIT SIZE
BSD .F                 15250 : BIT SIZE AT DEPTH
DFT .             LIGNO SULF : DRILLING FLUID TYPE
DFD .                   14.5 : DRILLING FLUID DENSITY
DFV .                     49 : DRILLING FLUID VISCOSITY
DFPH.                     12 : DRILLING FLUID PH
DFL .                    1.6 : DRILLING FLUID LOSS
MSS .               CIRC PIT : MUD SAMPLE SOURCE
RMS .OHMM               0.55 : RESISTIVITY MUD SAMPLE
MST .F                    75 : MUD SAMPLE TEMPERATURE
RMF .OHMM               0.17 : RESISTIVITY MUD FILTRATE SAMPLE
MFST.F                    75 : MUD FILTRATE SAMPLE TEMPERATURE
RMC .OHMM                1.1 : RESISTIVITY MUD CAKE
MCST.F                    75 : MUD CAKE SAMPLE TEMPERATURE
MFSS.                      M : MUD FILTRATE SAMPLE SOURCE
MCSS.                      C : MUD CAKE SAMPLE SOURCE
RMB .OHMM                0.1 : RESISTIVITY MUD AT BHT
TCS .HRS                 4.5 : TIME CURCULATED STOPPED
LUN .                   7029 : LOGGING UNIT NUMBER
LUL .                   VICT : LOGGING UNIT LOCATION
ENGI.               BRADFORD : RECORDING ENGINEER
CLNT.                A2DTECH : CLIENT CODE
ORIG.            2" 5" PRINT : ORIGIN OF DATA
UWI .         42323300720000 : UNIQUE WELL ID
DICO. A2D Technologies, Inc. : DIGITIZING COMPANY
~Other -----------------------------------------------------
~ASCII -----------------------------------------------------
# ...
 6500.00000    -999.25   24.85920    -999.25    -999.25    -999.25   -0.04000    0.99830    -999.25    -999.25    -999.25 1001.68300   55.39810   55.39810    -999.25    -999.25   12.20280   12.20280 1001.68300    -999.25    -999.25  -46.47050  -38.65420   24.85920
 6550.00000    -999.25   20.22140    -999.25    -999.25    -999.25   16.11590   16.08980    -999.25    -999.25    -999.25   62.15100   59.22150   59.22150    -999.25    -999.25   17.33760   17.33760   62.15100    -999.25    -999.25  -38.80030  -30.88620   20.22140
 6600.00000    -999.25   20.69400    -999.25    -999.25    -999.25   52.57930   52.18800    -999.25    -999.25    -999.25   19.16150   54.39530   54.39530    -999.25    -999.25   14.68600   14.68600   19.16150    -999.25    -999.25  -36.57140  -28.55950   20.69400
 6650.00000    -999.25   25.64330    -999.25    -999.25    -999.25   67.33890   71.26110    -999.25    -999.25    -999.25   14.03290   50.33080   50.33080    -999.25    -999.25   17.14810   17.14810   14.03290    -999.25    -999.25  -38.58540  -30.47580   25.64330
 6700.00000    -999.25   34.46900    -999.25    -999.25    -999.25    6.76860    1.76650    -999.25    -999.25    -999.25  566.09480   50.64060   50.64060    -999.25    -999.25   19.87130   19.87130  566.09480    -999.25    -999.25  -34.37250  -26.16510   34.46900
 6750.00000    -999.25   37.63640    -999.25    -999.25    -999.25   16.00540   16.40960    -999.25    -999.25    -999.25   60.93990   50.98450   50.98450    -999.25    -999.25   16.95460   16.95460   60.93990    -999.25    -999.25  -28.04210  -19.73690   37.63640
 6800.00000    -999.25   57.22920    -999.25    -999.25    -999.25   20.72250   20.90230    -999.25    -999.25    -999.25   47.84170   51.87300   51.87300    -999.25    -999.25   21.80990   21.80990   47.84170    -999.25    -999.25  -26.49150  -18.08860   57.22920
 6850.00000    -999.25   57.34600    -999.25    -999.25    -999.25   32.53760   34.19700    -999.25    -999.25    -999.25   29.24230   50.35370   50.35370    -999.25    -999.25   14.74750   14.74750   29.24230    -999.25    -999.25  -23.27350  -14.77280   57.34600
 6900.00000    -999.25   49.96230    -999.25    -999.25    -999.25   29.20110   30.33630    -999.25    -999.25    -999.25   32.96380   51.53610   51.53610    -999.25    -999.25   21.03040   21.03040   32.96380    -999.25    -999.25  -16.72890   -8.13040   49.96230
 6950.00000    -999.25   45.96990    -999.25    -999.25    -999.25   31.48820   31.22530    -999.25    -999.25    -999.25   32.02530   59.61080   59.61080    -999.25    -999.25   20.32280   20.32280   32.02530    -999.25    -999.25  -14.55440   -5.85820   45.96990
 7000.00000    -999.25   58.22960    -999.25    -999.25    -999.25   37.67230   40.83650    -999.25    -999.25    -999.25   24.48790   49.16550   49.16550    -999.25    -999.25   10.87040   10.87040   24.48790    -999.25    -999.25  -13.24110   -4.44710   58.22960
 7050.00000    -999.25   65.13350    -999.25    -999.25    -999.25   29.02490   26.51670    -999.25    -999.25    -999.25   37.71210   46.63470   46.63470    -999.25    -999.25    8.63270    8.63270   37.71210    -999.25    -999.25  -17.23310   -8.34140   65.13350
 7100.00000    -999.25   65.47440    -999.25    -999.25    -999.25   26.38440   26.80460    -999.25    -999.25    -999.25   37.30700   49.51730   49.51730    -999.25    -999.25    7.98780    7.98780   37.30700    -999.25    -999.25  -20.12330  -11.13380   65.47440
 7150.00000    -999.25   64.30740    -999.25    -999.25    -999.25   22.70330   24.89580    -999.25    -999.25    -999.25   40.16750   47.57230   47.57230    -999.25    -999.25    7.47930    7.47930   40.16750    -999.25    -999.25  -20.61960  -11.53230   64.30740
 7200.00000    -999.25   60.82150    -999.25    -999.25    -999.25   27.48010   27.48960    -999.25    -999.25    -999.25   36.37740   47.56740   47.56740    -999.25    -999.25    7.24200    7.24200   36.37740    -999.25    -999.25  -23.26990  -14.08490   60.82150
 7250.00000    -999.25   51.23440    -999.25    -999.25    -999.25   38.20690   38.83340    -999.25    -999.25    -999.25   25.75100   51.07130   51.07130    -999.25    -999.25    6.70200    6.70200   25.75100    -999.25    -999.25  -29.23950  -19.95670   51.23440
 7300.00000    -999.25   41.55790    -999.25    -999.25    -999.25   36.35590   36.46290    -999.25    -999.25    -999.25   27.42510   50.41050   50.41050    -999.25    -999.25   14.16320   14.16320   27.42510    -999.25    -999.25  -22.10920  -12.72860   41.55790
 7350.00000    -999.25   32.50690    -999.25    -999.25    -999.25   37.43500   37.52280    -999.25    -999.25    -999.25   26.65050   51.06690   51.06690    -999.25    -999.25   15.82410   15.82410   26.65050    -999.25    -999.25  -23.65000  -14.17170   32.50690
 7400.00000    -999.25   23.15950    -999.25    -999.25    -999.25   30.17440   30.87550    -999.25    -999.25    -999.25   32.38810   51.59660   51.59660    -999.25    -999.25   12.88900   12.88900   32.38810    -999.25    -999.25  -17.74760   -8.17150   23.15950
 7450.00000    -999.25   28.97430    -999.25    -999.25    -999.25   17.61220   17.74190    -999.25    -999.25    -999.25   56.36380   51.33650   51.33650    -999.25    -999.25   11.94150   11.94150   56.36380    -999.25    -999.25  -19.85070  -10.17680   28.97430
 7500.00000    -999.25   24.20130    -999.25    -999.25    -999.25   39.84080   40.09460    -999.25    -999.25    -999.25   24.94100   56.23470   56.23470    -999.25    -999.25   18.33250   18.33250   24.94100    -999.25    -999.25  -18.33870   -8.56710   24.20130
 7550.00000    -999.25   27.93100    -999.25    -999.25    -999.25    5.60690    5.24200    -999.25    -999.25    -999.25  190.76770   51.37030   51.37030    -999.25    -999.25   14.73690   14.73690  190.76770    -999.25    -999.25  -21.43800  -11.56860   27.93100
 7600.00000    -999.25   22.37200    -999.25    -999.25    -999.25   12.63450   14.24880    -999.25    -999.25    -999.25   70.18150   52.36580   52.36580    -999.25    -999.25   10.13020   10.13020   70.18150    -999.25    -999.25  -21.53730  -11.57010   22.37200
 7650.00000    -999.25   17.25370    -999.25    -999.25    -999.25   52.71650   57.60040    -999.25    -999.25    -999.25   17.36100   61.27310   61.27310    -999.25    -999.25   22.93870   22.93870   17.36100    -999.25    -999.25  -15.31980   -5.25490   17.25370
 7700.00000    -999.25   17.60130    -999.25    -999.25    -999.25   36.30900   35.25840    -999.25    -999.25    -999.25   28.36200   57.08030   57.08030    -999.25    -999.25   17.40870   17.40870   28.36200    -999.25    -999.25  -12.09970   -1.97350   17.60130
 7750.00000    -999.25    -999.25    -999.25    -999.25    -999.25    -999.25    -999.25    -999.25    -999.25    -999.25    -999.25    -999.25    -999.25    -999.25   12.94630   19.02620   19.02620    -999.25    -999.25    -999.25    -999.25    -999.25    -999.25
 7800.00000    -999.25    -999.25    -999.25   12.90620   12.90620   10.90450    5.54610    -999.25    -999.25    -999.25  180.30790   53.73870   53.73870    -999.25   22.92820   21.78320   21.78320  180.30790    -999.25    -999.25    -999.25    -999.25    -999.25
 7850.00000    -999.25    -999.25    -999.25   12.40600   12.40600   17.97730   11.12540    -999.25    -999.25    -999.25   89.88450   57.08910   57.08910    -999.25   21.16600   35.61820   35.61820   89.88450    -999.25    -999.25    -999.25    -999.25    -999.25
 7900.00000    -999.25    -999.25    -999.25   12.36520   12.36520   23.25760   17.78190    -999.25    -999.25    -999.25   56.23690   60.03810   60.03810    -999.25   22.50890   33.71170   33.71170   56.23690    -999.25    -999.25    -999.25    -999.25    -999.25
 7950.00000    -999.25    -999.25    -999.25   12.20050   12.20050   32.91240   27.00580    -999.25    -999.25    -999.25   37.02910   61.03270   61.03270    -999.25   23.82360   30.87600   30.87600   37.02910    -999.25    -999.25    -999.25    -999.25    -999.25
 8000.00000    -999.25    -999.25    -999.25   12.25650   12.25650   56.19960   46.61050    -999.25    -999.25    -999.25   21.45440   53.32950   53.32950    -999.25   23.28140   27.38150   27.38150   21.45440    -999.25    -999.25    -999.25    -999.25    -999.25
