~Version ---------------------------------------------------
VERS. 2.0 : CWLS log ASCII Standard -VERSION 2.0
WRAP. YES : Multiple lines per depth step
~Well ------------------------------------------------------
STRT.FT                 3500.0 : START DEPTH
STOP.FT                 8350.0 : STOP DEPTH
STEP.FT               50.00000 : STEP LENGTH
NULL.                  -999.25 : NULL VALUE
COMP.      SAGE ENERGY COMPANY : COMPANY
WELL.                  GOLD #1 : WELL
FLD .                 GIDDINGS : FIELD
LOC .                          : LOCATION
CNTY.                 BURLESON : COUNTY
STAT.                    TEXAS : STATE
CTRY. UNITED STATES OF AMERICA : COUNTRY
SRVC.            Dresser Atlas : SERVICE COMPANY
DATE.              03-Dec-1983 : LOGDATE
API .           42051326000000 : API NUMBER
UWI .           42051326000000 : UNIQUE WELL ID
SLAT.WGS84       30.5213843598 : SURFACE LATITUDE
SLON.WGS84      -96.6289898193 : SURFACE LONGITUDE
~Curve Information -----------------------------------------
DEPT    .FT                                                                : Depth Feet
CALRED  .IN                                                                : CALIPER FROM DIFL-CDL-CNL-GR LOG
CALWS   .IN                                                                : CALIPER [CALRED]
CNLSED  .V/V         :   COMPENSATED NEUTRON POROSITY LIMESTONE [M:2.71, F : 1.0] FROM DIFL-CDL-CNL-GR LOG
CNSSED  .V/V         :   COMPENSATED NEUTRON POROSITY SANDSTONE [M:2.65, F : 1.0] FROM DIFL-CDL-CNL-GR LOG
CONDWS  .MMHO                                                              : CONDUCTIVITY [1000/DRESWS]
CORRED  .G/C3                                                              : DENSITY CORRECTION FROM DIFL-CDL-CNL-GR LOG
DCORWS  .G/C3                                                              : DENSITY CORRECTION [CORRED]
DENWS   .G/C3 :   FORMATION BULK DENSITY [CALCULATED FROM DPOWS (M:2.71, F : 1.0)]
DPOWS   .V/V                                                               : DENSITY POROSITY LIMESTONE [PORDSSED CONVERTED TO LIMESTONE (M=2.71, F=1.0) & SPL. TO PORDLSED @ 5854']
DRESWS  .OHMM                                                              : DEEP RESISTIVITY [RILDED]
GRNED   .                                                                  : GAMMA FROM GAMMA-NEUTRON LOG [ADJ. TO GRRED]
GRRED   .GAPI                                                              : GAMMA RAY FROM DIFL-CDL-CNL-GR LOG
GRWS    .GAPI                                                              : GAMMA RAY [GRRED SPL. TO GRNED @ 8320.5']
MRESWS  .OHMM                                                              : MEDIUM RESISTIVITY [RILMED]
NEUTED  .NAPI                                                              : NEUTRON FROM GAMMA-NEUTRON LOG [ADJ. TO GRRED]
NEUTWS  .NAPI                                                              : NEUTRON [NEUTED]
NPOWS   .V/V                                                               : NEUTRON POROSITY LIMESTONE [CNSSED MATRIX CONVERTED TO LIMESTONE & SPL. TO CNLSED @ 5858.5']
PORDLSED.V/V                     :   DENSITY POROSITY LIMESTONE [M:2.71, F : 1.0] FROM DIFL-CDL-CNL-GR LOG
PORDSSED.V/V                     :   DENSITY POROSITY SANDSTONE [M:2.65, F : 1.0]  FROM DIFL-CDL-CNL-GR LOG
RFOCED  .OHMM                                                              : SHALLOW FOCUSED RESISTIVITY FROM DIFL-CDL-CNL-GR LOG
RILDED  .OHMM                                                              : DEEP INDUCTION RESISTIVITY FROM DIFL-CDL-CNL-GR LOG
RILMED  .OHMM                                                              : SPONTANEOUS POTENTIAL FROM RESISTIVITY FROM DIFL-CDL-CNL-GR LOG
SPRED   .MV                                                                : SPONTANEOUS POTENTIAL FROM DIFL-CDL-CNL-GR LOG
SPWS    .MV                                                                : SPONTANEOUS POTENTIAL [BASELINE 0 MV,SPRED]
SRESWS  .OHMM                                                              : SHALLOW RESISTIVITY [RFOCED]
TENRED  .LBF                                                               : TENSION FROM DIFL-CDL-CNL-GR LOG
~Params ----------------------------------------------------
PD  .                     GL : PERMANENT DATUM
EPD .FT                  402 : ELEVATION PERMANENT DATUM
LMF .                     KB : LOG MEASURED FROM
DAPD.FT                   16 : FEET ABOVE PERMANENT DATUM
DMF .                     KB : DRILLING MEASURED FROM
EKB .FT                  418 : KELLY BUSHING
EDF .FT                  417 : DRILLING FLOOR
EGL .FT                  402 : GROUND LEVEL
DATE.               12/03/83 : RUN DATE
RUN .                      1 : RUN NUMBER
DD  .FT                 8442 : DEPTH DRILLER
DL  .FT                 8380 : DEPTH LOGGER
BLI .FT                 8378 : BOTTOM LOG INTERVAL
TLI .FT                 3510 : TOP LOG INTERVAL
CS  .IN                8.625 : CASING SIZE
CBD .FT                 3515 : CASING BOTTOM DRILLER
CBL .FT                 3510 : CASING BOTTOM LOGGER
BS  .IN                7.875 : BIT SIZE
BSD .FT                 8442 : BIT SIZE AT DEPTH
DFT .                  LINGO : DRILLING FLUID TYPE
DFD .                    9.2 : DRILLING FLUID DENSITY
DFV .                     44 : DRILLING FLUID VISCOSITY
DFPH.                      9 : DRILLING FLUID PH
DFL .                      7 : DRILLING FLUID LOSS
MSS .                   FLOW : MUD SAMPLE SOURCE
RMS .OHMM               3.62 : RESISTIVITY MUD SAMPLE
MST .DEGF                 75 : MUD SAMPLE TEMPERATURE
RMF .OHMM               2.71 : RESISTIVITY MUD FILTRATE SAMPLE
MFST.DEGF                 75 : MUD FILTRATE SAMPLE TEMPERATURE
RMC .OHMM               4.52 : RESISTIVITY MUD CAKE
MCST.DEGF                 75 : MUD CAKE SAMPLE TEMPERATURE
MFSS.                      C : MUD FILTRATE SAMPLE SOURCE
MCSS.                      C : MUD CAKE SAMPLE SOURCE
RMB .OHMM              0.917 : RESISTIVITY MUD AT BHT
TCS .HRS                 4.5 : TIME CIRCULATED STOPPED
LUN .                HL 6304 : LOGGING UNIT NUMBER
LUL .                  BRYAN : LOGGING UNIT LOCATION
ENGI.                 POWELL : RECORDING ENGINEER
WITN.                  BOTTO : WITNESSED BY
CLNT.                A2DTECH : CLIENT CODE
ORIG.            2" 5" PRINT : ORIGIN OF DATA
UWI .         42051326000000 : UNIQUE WELL ID
DICO. A2D Technologies, Inc. : DIGITIZING COMPANY
~Other -----------------------------------------------------
~ASCII -----------------------------------------------------
# ...
 7550.00000    5.83380    5.83380    -999.25    -999.25  548.21560    -999.25    -999.25    -999.25    -999.25    1.82410   48.37970   95.76880   95.76880    1.90340  238.64940  238.64940    -999.25    -999.25    -999.25    2.65990    1.82410    1.90340  -34.35120   -9.11830    2.65990    7.56660
 7600.00000    5.85640    5.85640    0.20360    -999.25  453.18590    0.03630    0.03630    2.53640    0.10150    2.20660   50.25850   81.16320   81.16320    2.43140  284.73800  284.73800    0.20360    0.10150    -999.25    2.92690    2.20660    2.43140  -28.58710   -5.76500    2.92690    8.24490
 7650.00000    5.87930    5.87930    0.11050    -999.25  117.07550    0.03650    0.03650    2.58980    0.07030    8.54150   35.77490   52.03130   52.03130   10.03050  460.08030  460.08030    0.11050    0.07030    -999.25    6.83910    8.54150   10.03050  -53.56710  -30.28030    6.83910    7.56520
 7700.00000    7.93890    7.93890    0.10520    -999.25   82.70410   -0.02580   -0.02580    2.51560    0.11370   12.09130   23.19750   41.17570   41.17570   12.63070  472.88260  472.88260    0.10520    0.11370    -999.25   11.27770   12.09130   12.63070  -67.94170  -41.24190   11.27770    5.88270
 7750.00000    7.63060    7.63060    0.13680    -999.25   89.75450    0.05320    0.05320    2.53370    0.10310   11.14150   39.73360   46.43440   46.43440    9.88350  447.56980  447.56980    0.13680    0.10310    -999.25   13.13620   11.14150    9.88350  -84.04060  -53.92780   13.13620    4.74240
 7800.00000    8.31640    8.31640    0.38440    -999.25  683.43360    0.18520    0.18520    2.30950    0.23420    1.46320   33.19330   96.76350   96.76350    1.28510  111.74810  111.74810    0.38440    0.23420    -999.25    2.61410    1.46320    1.28510  -47.71220   -9.91700    2.61410    6.19580
 7850.00000   11.82450   11.82450    0.36340    -999.25  319.63180    0.18100    0.18100    2.43500    0.16080    3.12860   64.30790  101.83800  101.83800    3.01120   88.06980   88.06980    0.36340    0.16080    -999.25    2.93760    3.12860    3.01120  -51.82990  -12.88260    2.93760   65.28840
 7900.00000    5.86520    5.86520    0.26230    -999.25  429.46100    0.16280    0.16280    2.43810    0.15900    2.32850   64.80510   99.33110   99.33110    2.39510  180.90910  180.90910    0.26230    0.15900    -999.25    3.86050    2.32850    2.39510  -45.87920   -8.05040    3.86050    7.98860
 7950.00000    5.86280    5.86280    0.24040    -999.25  192.86400   -0.03420   -0.03420    2.44730    0.15360    5.18500   80.11890   99.57910   99.57910    5.60160  234.58600  234.58600    0.24040    0.15360    -999.25   11.26610    5.18500    5.60160  -40.59960   -2.88930   11.26610    6.72480
 8000.00000    8.64540    8.64540    0.25860    -999.25   89.48630    0.04930    0.04930    2.45780    0.14750   11.17490   84.84930  150.57330  150.57330    8.71180  313.96950  313.96950    0.25860    0.14750    -999.25   21.46360   11.17490    8.71180  -47.41650  -10.82480   21.46360    7.51620
 8050.00000   10.55310   10.55310    0.33750    -999.25  558.65920    0.19920    0.19920    2.31940    0.22840    1.79000   70.61370   86.50480   86.50480    1.68690  112.60100  112.60100    0.33750    0.22840    -999.25    4.00930    1.79000    1.68690  -47.22100  -11.74780    4.00930    9.72050
 8100.00000    8.25300    8.25300    0.16560    -999.25  282.36620    0.04240    0.04240    2.60960    0.05870    3.54150   37.65930   60.53980   60.53980    3.76150  314.78790  314.78790    0.16560    0.05870    -999.25    5.32830    3.54150    3.76150  -42.92980   -8.57510    5.32830   32.71620
 8150.00000    8.13800    8.13800    0.12290    -999.25  175.51560    0.01820    0.01820    2.61730    0.05420    5.69750   36.72720   51.96050   51.96050    6.21450  378.32010  378.32010    0.12290    0.05420    -999.25    8.42330    5.69750    6.21450  -43.09480   -4.93870    8.42330   11.41680
 8200.00000    7.67140    7.67140    0.02710    -999.25   24.63900    0.01440    0.01440    2.62330    0.05070   40.58600   11.49900   13.35850   13.35850   23.68180  781.33840  781.33840    0.02710    0.05070    -999.25   97.92290   40.58600   23.68180  -88.03590  -49.61420   97.92290   57.63970
 8250.00000    7.61250    7.61250    0.04720    -999.25   26.92110   -0.00500   -0.00500    2.62540    0.04950   37.14560   13.44460   24.21290   24.21290   22.94670  676.04050  676.04050    0.04720    0.04950    -999.25   33.24510   37.14560   22.94670  -66.76050  -28.07330   33.24510    9.86240
 8300.00000    7.53950    7.53950    0.01480    -999.25    5.05180    0.00450    0.00450    2.65370    0.03290  197.95110   13.71120   15.53240   15.53240   82.10050  768.71050  768.71050    0.01480    0.03290    -999.25  131.42210  197.95110   82.10050  -92.23690  -53.28410  131.42210   25.04730
 8350.00000    7.24520    7.24520    -999.25    -999.25   25.72880    -999.25    -999.25    -999.25    -999.25   38.86700   22.06320    -999.25   22.06320   30.28340  701.86240  701.86240    -999.25    -999.25    -999.25   52.32970   38.86700   30.28340  -76.47760  -37.36280   52.32970    8.68720
