~Version ---------------------------------------------------
VERS. 2.0 : CWLS log ASCII Standard -VERSION 2.0
WRAP. YES : Multiple lines per depth step
~Well ------------------------------------------------------
STRT.FT                     300.0 : START DEPTH
STOP.FT                   15250.0 : STOP DEPTH
STEP.FT                  50.00000 : STEP LENGTH
NULL.                     -999.25 : NULL VALUE
COMP. GRACE PETROLEUM CORPORATION : COMPANY
WELL.      WELDON COX GAS UNIT #1 : WELL
FLD .                  BEAR GRASS : FIELD
LOC .                             : LOCATION
CNTY.                        LEON : COUNTY
STAT.                       TEXAS : STATE
CTRY.    UNITED STATES OF AMERICA : COUNTRY
SRVC.                Schlumberger : SERVICE COMPANY
DATE.                 27-Jan-1980 : LOGDATE
API .              42289303540000 : API NUMBER
UWI .              42289303540000 : UNIQUE WELL ID
SLAT.WGS84           31.398216302 : SURFACE LATITUDE
SLON.WGS84         -96.2188853622 : SURFACE LONGITUDE
~Curve Information -----------------------------------------
DEPT    .FT    : DEPTH FEET
CALDED  .IN    : CALIPER FROM SIMULTANEOUS COMPENSATED NEUTRON-FORMATION DENSITY LOG [ADJ. TO CALRED]
CALRED  .IN    : CALIPER FROM DUAL INDUCTION-SFL-BOREHOLE COMPENSATED SONIC LOG
CALWS   .IN    : CALIPER [CALDED SPLICED FOR DEPTH 7900' TO 15268.5' WITH CALRED]
CONDWS  .MMHO  : CONDUCTIVITY [1000/DRESWS]
DCORWS  .G/C3  : DENSITY CORRECTION [DRHOED]
DENWS   .G/C3  : FORMATION BULK DENSITY [RHOBED]
DPHILSED.V/V   : DENSITY POROSITY LIMESTONE [M=2.71, F=1.0, CALCULATED FROM DENWS]]
DPOWS   .V/V   : DENSITY POROSITY LIMESTONE [DPHILSED]
DRESWS  .OHMM  : DEEP RESISTIVITY [ILDED]
DRHOED  .G/C3  : BULK DENSITY CORRECTION SIMULTANEOUS COMPENSATED NEUTRON-FORMATION DENSITY LOG [ADJ. TO ILDED]
DTED    .US/F  : DELTA-T (INTERVAL TRANSIT TIME) FROM DUAL INDUCTION-SFL-BOREHOLE COMPENSATED SONIC LOG
DTWS    .US/F  : COMPRESSIONAL SONIC [DTED]
GRDED   .GAPI  : GAMMA RAY SIMULTANEOUS COMPENSATED NEUTRON-FORMATION DENSITY LOG [ADJ. TO ILDED]
GRWS    .GAPI  : GAMMA RAY [GRDED]
ILDED   .OHMM  : DEEP INDUCTION FROM DUAL INDUCTION-SFL-BOREHOLE COMPENSATED SONIC LOG
ILMED   .OHMM  : MEDIUM INDUCTION FROM DUAL INDUCTION-SFL-BOREHOLE COMPENSATED SONIC LOG
MRESWS  .OHMM  : MEDIUM RESISTIVITY [ILMED]
NPHILSED.V/V   : NEUTRON POROSITY LIMESTONE SIMULTANEOUS COMPENSATED NEUTRON-FORMATION DENSITY LOG [ADJ. TO ILDED]
NPOWS   .V/V   : NEUTRON POROSITY LIMESTONE [NPHILSED]
RHOBED  .G/C3  : BULK DENSITY SIMULTANEOUS COMPENSATED NEUTRON-FORMATION DENSITY LOG [ADJ. TO ILDED]
SFLUED  .OHMM  : SHALLOW FOCUSED INDUCTION (UNAVERAGED) FROM DUAL INDUCTION-SFL-BOREHOLE COMPENSATED SONIC LOG
SPRED   .MV    : SPONTANEOUS POTENTIAL FROM DUAL INDUCTION-SFL-BOREHOLE COMPENSATED SONIC LOG
SPWS    .MV    : SPONTANEOUS POTENTIAL [BASELINE 0 MV, SPRED]
SRESWS  .OHMM  : SHALLOW RESISTIVITY [SFLUED]
~Params ----------------------------------------------------
PD  .                     GL : PERMANENT DATUM
EPD .F                   492 : ELEVATION PERMANENT DATUM
LMF .                     KB : LOG MEASURED FROM
DAPD.F                  22.4 : FEET ABOVE PERMANENT DATUM
DMF .                     KB : DRILLING MEASURED FROM
EKB .F                 514.4 : KELLING BUSHING
EDF .F                 513.4 : DRILLING FLOOR
EGL .F                   492 : GROUND LEVEL
DATE.              1-27-1980 : RUN DATE
RUN .                      4 : RUN NUMBER
DD  .F                 15300 : DEPTH DRILLER
DL  .F                 15299 : DEPTH LOGGER
BLI .F                 15293 : BOTTOM LOG INTERVAL
TLI .F                 13183 : TOP LOG INTERVAL
CS  .IN                 7.62 : CASING SIZE
CBD .F                  1320 : CASING BOTTOM DRILLER
CBL .F                  1318 : CASING BOTTOM LOGGER
BS  .IN                  6.2 : BIT SIZE
BSD .F                 15300 : BIT SIZE AT DEPTH
DFT .              LIME/CHEM : DRILLING FLUID TYPE
DFD .                   16.2 : DRILLING FLUID DENSITY
DFV .                     55 : DRILLING FLUID VISCOSITY
DFPH.                   11.5 : DRILLING FLUID PH
DFL .                      7 : DRILLING FLUID LOSS
MSS .                   TANK : MUD SAMPLE SOURCE
RMS .OHMM               1.18 : RESISTIVITY MUD SAMPLE
MST .F                    52 : MUD SAMPLE TEMPERATURE
RMF .OHMM               0.66 : RESISTIVITY MUD FILTRATE SAMPLE
MFST.F                    58 : MUD FILTRATE SAMPLE TEMPERATURE
RMC .OHMM                3.7 : RESISTIVITY MUD CAKE
MCST.F                    52 : MUD CAKE SAMPLE TEMPERATURE
MFSS.                      P : MUD FILTRATE SAMPLE SOURCE
MCSS.                      C : MUD CAKE SAMPLE SOURCE
RMB .OHMM               0.18 : RESISTIVITY MUD AT BHT
TCS .HRS                 900 : TIME CURCULATED STOPPED
TLAB.HRS                1730 : TIME LOGGER AT BOTTOM
LUN .                   8083 : LOGGING UNIT NUMBER
LUL .                  TYLER : LOGGING UNIT LOCATION
ENGI.                  HARSH : RECORDING ENGINEER
CLNT.                A2DTECH : CLIENT CODE
ORIG.            2",5" PRINT : ORIGIN OF DATA
UWI .         42289303540000 : UNIQUE WELL ID
DICO. A2D Technologies, Inc. : DIGITIZING COMPANY
~Other -----------------------------------------------------
CALIPER IS INVALID ABOVE 13192' AND IT WAS NULLED
~ASCII -----------------------------------------------------
# ...
 13350.00000    9.12090    7.80300    9.12090  189.94070   -0.24880    2.80450   -0.05820   -0.05530    5.26480   -0.24880   81.84730   81.84730   35.64310   35.64310    5.26480    4.58760    4.58760    0.06020    0.06020    2.80450    4.18880   17.70360    0.49010    4.18880
 13400.00000    9.29190    9.42250    9.29190  115.03910   -0.00130    2.67050    0.02350    0.02310    8.69270   -0.00130   71.62820   71.62820   53.58500   53.58500    8.69270    8.12600    8.12600    0.13730    0.13730    2.67050   11.09900   10.99090   -6.63420   11.09900
 13450.00000    7.18920    6.58850    7.18920  157.05240   -0.21490    2.63090    0.05470    0.04630    6.36730   -0.21490   74.92430   74.92430   53.69840   53.69840    6.36730    6.09330    6.09330    0.21620    0.21620    2.63090    9.20490    0.18770  -17.84910    9.20490
 13500.00000    9.50060    9.24120    9.50060  145.98970   -0.21360    2.44410    0.15430    0.15550    6.84980   -0.21360   83.15210   83.15210   60.13250   60.13250    6.84980    7.32720    7.32720    0.26600    0.26600    2.44410   10.29530   10.36180   -8.08670   10.29530
 13550.00000    9.85270    9.22940    9.85270   55.83940   -0.15020    2.48810    0.12520    0.12980   17.90850   -0.15020   75.33690   75.33690   63.48270   63.48270   17.90850   16.21980   16.21980    0.12370    0.12370    2.48810   20.06140    7.84090  -11.01930   20.06140
 13600.00000   12.39180   11.02490   12.39180   82.17060   -0.08760    2.55750    0.08800    0.08920   12.16980   -0.08760   79.48900   79.48900   56.77710   56.77710   12.16980    7.98090    7.98090    0.22530    0.22530    2.55750   12.98570    0.22750  -19.04440   12.98570
 13650.00000   13.64580   12.04530   13.64580   92.31820   -0.03400    2.55440    0.08910    0.09100   10.83210   -0.03400   86.79050   86.79050   64.58700   64.58700   10.83210   10.01720   10.01720    0.21510    0.21510    2.55440   16.25950   10.96400   -8.71960   16.25950
 13700.00000   13.59040   13.00570   13.59040  116.58820   -0.12360    2.52190    0.10740    0.11000    8.57720   -0.12360   88.67560   88.67560   46.25520   46.25520    8.57720    6.24530    6.24530    0.27830    0.27830    2.52190   11.38050   10.79320   -9.30210   11.38050
 13750.00000   13.44440   11.71870   13.44440  154.73170   -0.14620    2.53560    0.09840    0.10200    6.46280   -0.14620   92.79130   92.79130   50.70370   50.70370    6.46280    5.51780    5.51780    0.27480    0.27480    2.53560    7.97070   13.30900   -7.19800    7.97070
 13800.00000   12.85110   12.24980   12.85110  140.25640   -0.11180    2.57310    0.07630    0.08010    7.12980   -0.11180   94.85620   94.85620   56.83980   56.83980    7.12980    5.63620    5.63620    0.25600    0.25600    2.57310    7.69730   11.63610   -9.28250    7.69730
 13850.00000   11.39770    6.91970   11.39770  136.10630   -0.03360    2.54070    0.09770    0.09900    7.34720   -0.03360   93.84890   93.84890   82.73680   82.73680    7.34720    8.30490    8.30490    0.18040    0.18040    2.54070   13.35110   17.16300   -4.16730   13.35110
 13900.00000   10.34500    7.53550   10.34500  166.98110   -0.06000    2.52320    0.10750    0.10920    5.98870   -0.06000   97.10710   97.10710   88.97430   88.97430    5.98870    6.67950    6.67950    0.21630    0.21630    2.52320    9.09060   16.16770   -5.57430    9.09060
 13950.00000    9.74270    8.21850    9.74270  239.80820   -0.01230    2.59740    0.06650    0.06580    4.17000   -0.01230   91.05310   91.05310   78.56130   78.56130    4.17000    4.45610    4.45610    0.22180    0.22180    2.59740    7.47310   13.99680   -8.15690    7.47310
 14000.00000    7.85630    8.65470    7.85630  190.09240   -0.02270    2.64310    0.03810    0.03910    5.26060   -0.02270   86.30130   86.30130   92.28480   92.28480    5.26060    4.96560    4.96560    0.22000    0.22000    2.64310    9.08430   10.51840  -12.04700    9.08430
 14050.00000    7.69210    7.48760    7.69210  169.52890   -0.02400    2.60740    0.05940    0.06000    5.89870   -0.02400   84.86410   84.86410   93.48440   93.48440    5.89870    5.60470    5.60470    0.22100    0.22100    2.60740   10.74630   13.86580   -9.11130   10.74630
 14100.00000    8.78510    8.41370    8.78510  116.62900   -0.01580    2.60350    0.06100    0.06230    8.57420   -0.01580   87.80470   87.80470   94.89050   94.89050    8.57420    9.28870    9.28870    0.20430    0.20430    2.60350   11.86330   14.29270   -9.09610   11.86330
 14150.00000    8.77320    7.33400    8.77320  107.94710   -0.04530    2.61360    0.05330    0.05640    9.26380   -0.04530   89.30360   89.30360   89.80120   89.80120    9.26380    5.82970    5.82970    0.18360    0.18360    2.61360   11.75690    4.78860  -19.01190   11.75690
 14200.00000    8.55110    7.53310    8.55110  223.93910   -0.00830    2.59900    0.06370    0.06490    4.46550   -0.00830   89.97640   89.97640  113.74980  113.74980    4.46550    4.70970    4.70970    0.20490    0.20490    2.59900    7.13750   18.21770   -5.99440    7.13750
 14250.00000    7.96440    7.39900    7.96440   27.58980    0.00540    2.57800    0.07460    0.07720   36.24530    0.00540   79.07380   79.07380   81.63860   81.63860   36.24530   47.37550   47.37550    0.15820    0.15820    2.57800   80.57390   18.21610   -6.35010   80.57390
 14300.00000    8.19770    7.35520    8.19770    4.93300    0.01470    2.72190   -0.00890   -0.00700  202.71640    0.01470   50.50270   50.50270   30.10860   30.10860  202.71640  730.29640  730.29640   -0.00040   -0.00040    2.72190  403.61280  -35.78450  -60.35070  403.61280
 14350.00000    8.29050    7.52330    8.29050    7.73920   -0.00080    2.62460    0.04900    0.04990  129.21260   -0.00080   54.72260   54.72260   29.49790   29.49790  129.21260  135.48980  135.48980    0.00390    0.00390    2.62460  121.61230  -62.72550  -87.29170  121.61230
 14400.00000    7.81510    7.19690    7.81510    2.66750    0.01730    2.72180   -0.00810   -0.00690  374.87640    0.01730   50.06130   50.06130   26.49180   26.49180  374.87640 1880.45180 1880.45180    0.00090    0.00090    2.72180  661.29750  -31.62830  -56.19450  661.29750
 14450.00000    7.41060    6.99100    7.41060    3.42150    0.00750    2.72580   -0.01030   -0.00920  292.27260    0.00750   50.28650   50.28650   25.28400   25.28400  292.27260  621.46750  621.46750    0.00430    0.00430    2.72580  579.16540   -3.26100  -27.82720  579.16540
 14500.00000    7.40990    7.26990    7.40990    3.58390    0.00330    2.69380    0.00820    0.00950  279.02690    0.00330   49.73890   49.73890   23.87960   23.87960  279.02690 1346.92380 1346.92380    0.00560    0.00560    2.69380  653.47420  -36.03820  -60.60440  653.47420
 14550.00000    7.16030    6.88380    7.16030    5.58500   -0.02080    2.70140    0.00330    0.00500  179.05210   -0.02080   49.99080   49.99080   14.26280   14.26280  179.05210  265.61980  265.61980    0.00510    0.00510    2.70140  230.84300  -41.95210  -66.51830  230.84300
 14600.00000    7.17430    6.54200    7.17430    4.82020   -0.00270    2.70310    0.00390    0.00400  207.45870   -0.00270   50.58860   50.58860   16.64060   16.64060  207.45870  434.36790  434.36790    0.00610    0.00610    2.70310  602.80900   13.43810  -11.12810  602.80900
 14650.00000    7.08090    6.64470    7.08090    7.70880   -0.00450    2.70140    0.00360    0.00500  129.72230   -0.00450   51.81510   51.81510   25.49980   25.49980  129.72230  168.51510  168.51510    0.00730    0.00730    2.70140  188.92090   -1.64770  -26.21390  188.92090
 14700.00000    7.27420    6.88990    7.27420    4.77300    0.00340    2.70600    0.00150    0.00230  209.51030    0.00340   50.03580   50.03580   19.14270   19.14270  209.51030  326.82710  326.82710    0.00400    0.00400    2.70600  284.10640  -45.24030  -69.80650  284.10640
 14750.00000    7.01980    6.26670    7.01980   72.60740    0.00390    2.71870   -0.00480   -0.00510   13.77270    0.00390   51.05040   51.05040   14.03230   14.03230   13.77270   14.91770   14.91770    0.00850    0.00850    2.71870   29.73300  -56.90510  -81.47130   29.73300
