~Version ---------------------------------------------------
VERS. 2.0 : CWLS log ASCII Standard -VERSION 2.0
WRAP.  NO : ONE LINE PER DEPTH STEP
~Well ------------------------------------------------------
STRT.F                   300.0 : START DEPTH
STOP.F                 13200.0 : STOP DEPTH
STEP.F                50.00000 : STEP LENGTH
NULL.                  -999.25 : NULL VALUE
COMP.              TEXACO INC. : COMPANY
WELL.     M. D. BURNS TRUST #1 : WELL
FLD .                  WILDCAT : FIELD
LOC .                          : LOCATION
CNTY.                 LA SALLE : COUNTY
STAT.                    TEXAS : STATE
CTRY. UNITED STATES OF AMERICA : COUNTRY
SRVC.                  Unknown : SERVICE COMPANY
DATE.              05-Aug-1984 : LOGDATE
API .           42283310960000 : API NUMBER
UWI .           42283310960000 : UNIQUE WELL ID
SLAT.WGS84       28.6375495728 : SURFACE LATITUDE
SLON.WGS84      -99.1304898901 : SURFACE LONGITUDE
~Curve Information -----------------------------------------
DEPT.F                 : 
SP  .MV   07 010 01 00 : SPONTANEOUS POTENTIAL
SFL .OHMM 07 220 01 00 : SPHERICAL FOCUSED RESISTIVITY
ILD .OHMM 07 120 46 00 : DEEP INDUCTION RESISTIVITY
ILM .OHMM 07 120 44 00 : 
GR  .GAPI 07 310 01 00 : GAMMA RAY
CALI.IN   07 280 01 00 : CALIPER
DCAL.IN   07 280 30 00 : DIFFERENTIAL CALIPER
DT  .US/F 60 520 00 00 : NO SPACING
NEUT.NAPI 40 330 01 00 : 
~Params ----------------------------------------------------
EKB .F                  536.0 : KELLY BUSHING
EGL .F                    506 : ELEVATION GROUND LEVEL
EDF .F                    535 : ELEVATION DERRICK FLOOR
EPD .F                    506 : ELEVATION PERMANENT DATUM
TD  .F                13219.0 : TOTAL DEPTH
DATE.             15-NOV-1984 : DATE LOGGED
CLNT.                 A2DTECH : CLIENT CODE
SL  . 1780' FSWL & 1500' FNWL : SURFACE LOCATION
PD  .                      GL : PERMANENT DATUM
LMF .                      KB : LOG MEASURED FROM
DMF .                      KB : DRILLING MEASURED FROM
DAPD.F                     30 : FEET ABOVE PERMANENT DATUM
DD  .F                  13219 : DEPTH DRILLER
DL  .F                  13218 : DEPTH LOGGER
BLI .F                  13212 : BOTTOM LOG INTERVAL
TLI .F                  11650 : TOP LOG INTERVAL
CS1 .IN                 7.625 : CASING SIZE
CBD1.         7.625" @ 11049' : CASING DRILLER 1
CBL1.F                  11049 : CASING LOGGER 1
BS1 .IN                   6.5 : BIT SIZE
BSD1.F                  13219 : DEPTH DRILLED WITH BIT1
DFT .          LIGNOSULFONATE : TYPE FLUID IN HOLE
DFD .                    10.5 : DENSITY
DFV .                      49 : VISCOSITY
DFPH.                    11.5 : PH
DFL .                       9 : FLUID LOSS
MSS .              CIRC. TANK : SOURCE OF SAMPLE
RMS .OHMM                0.98 : RM
RMF .OHMM                0.92 : RMF
RMC .OHMM                1.64 : RMC
MFSS.                    MEAS : SOURCE RMF.
MCSS.                    CALC : SOURCE RMC.
RMB .OHMM                0.33 : RM. AT BHT
BHT .F                    264 : BHT.
TCS .HRS                  530 : TIME CIRC. STOPPED
TLAB.                    1600 : TIME LOGGER AT BOTTOM
LUN .                    8268 : LOGGING UNIT NUMBER
LUL .                  LAREDO : LOGGING UNIT LOCATION
ENGI.                JAY KING : RECORDED BY
WITN.      MIKATAVAGE/ FARREL : WITNESSED BY
ORIG.                5" PRINT : ORIGIN OF DATA
UWI .          42283310960000 : UNIQUE WELL ID
DICO.  A2D TECHNOLOGIES, INC. : DIGITIZING COMPANY
~Other -----------------------------------------------------
~ASCII -----------------------------------------------------
  300.00000  -51.66800    6.80800    7.15500    6.74000   53.62700    -999.25   -3.80100  142.19200    -999.25
  350.00000  -55.11800    9.20000    9.68300    8.33500   41.95200    -999.25   -3.79200  138.40700    -999.25
  400.00000  -61.12700   10.02200   14.67300   11.80500   44.25300    -999.25   -3.76200  124.55800    -999.25
  450.00000  -50.16300    5.55100    7.56500    6.74200   56.09600    -999.25   -3.76200  118.25600    -999.25
  500.00000  -43.16700    2.97800    3.19000    2.81300   68.05000    -999.25   -3.79200  136.44400    -999.25
  550.00000  -43.44000    2.20800    2.16500    2.02800   78.12300    -999.25   -3.82400  146.24600    -999.25
  600.00000  -43.91400    3.09100    3.29200    3.16700   66.66200    -999.25   -3.80100  127.92100    -999.25
  650.00000  -41.40500    3.88600    4.12200    3.69000   49.16500    -999.25   -3.85800  117.87800    -999.25
  700.00000  -37.63900    2.65100    2.28800    2.28600   62.29200    -999.25   -3.91800  123.37900    -999.25
  750.00000  -60.50900    5.28900    6.42500    6.36800   43.63300    -999.25   -3.91800  115.32500    -999.25
  800.00000  -60.92700    7.89800    7.34200    7.27000   45.64900    -999.25   -3.89700  110.70900    -999.25
  850.00000  -42.01100   12.71000   11.46400   10.91100   43.09300    -999.25   -3.86700  120.67100    -999.25
  900.00000  -56.73500    8.67900    7.96900    8.11400   51.76800    -999.25   -3.84800  118.66400    -999.25
  950.00000  -37.95800    4.79900    3.16100    2.99500   58.33800    -999.25   -3.87900  133.22700    -999.25
 1000.00000  -42.99300    7.22000    5.94100    6.39800   65.48300    -999.25   -3.95600  110.02000    -999.25
 1050.00000  -33.09900    4.19200    3.82200    3.61900   75.13100    -999.25   -3.91000  127.72700    -999.25
 1100.00000  -32.11700    2.59500    3.02300    2.81300   67.51800    -999.25   -3.90800  117.40000    -999.25
 1150.00000  -34.57400    4.31100    4.41100    4.34800   64.38300    -999.25   -3.85100  114.06300    -999.25
 1200.00000  -39.81800    7.50800    8.95300    8.02000   56.21400    -999.25   -3.84000  108.11800    -999.25
 1250.00000  -40.78200   12.37200   13.78000   12.37200   49.45900    -999.25   -3.84000  113.12400    -999.25
 1300.00000  -27.04600    2.69000    2.56100    2.45300   60.36400    -999.25   -3.88500  126.01300    -999.25
 1350.00000  -42.52000   16.57600   26.53600   20.45400   37.00500    -999.25   -3.87500  110.40100    -999.25
 1400.00000  -33.68000    3.92200    5.41600    4.56800   56.70500    -999.25   -3.84000  121.80100    -999.25
 1450.00000  -30.48100    6.43300    6.25400    5.93700   54.46100    -999.25   -3.84000  110.17100    -999.25
 1500.00000  -41.78600   10.36600   17.55900   12.82500   38.20900    -999.25   -3.84000  102.71000    -999.25
 1550.00000  -42.20900   20.46400   35.58600   24.43000   32.15900    -999.25   -3.85900  100.68500    -999.25
 1600.00000  -44.02200   15.94600   27.01700   20.09000   40.78200    -999.25   -3.85000  102.94700    -999.25
 1650.00000  -23.26000    5.04200    6.08800    5.11500   52.06500    -999.25   -3.87200  103.43800    -999.25
 1700.00000  -41.29900   15.29400   22.78000   18.08300   54.52400    -999.25   -3.81100   99.44500    -999.25
 1750.00000  -37.22900    8.87700   14.28300   10.71700   51.79400    -999.25   -3.86600  106.17600    -999.25
 1800.00000  -30.49000    9.62300   17.75900   13.34000   51.04400    -999.25   -3.80100  104.15400    -999.25
 1850.00000  -17.35800    6.09300    7.56900    6.51900   57.72100    -999.25   -3.80700  103.19300    -999.25
 1900.00000  -23.40300   10.86200   11.69600   10.81400   59.49500    -999.25   -3.83500  104.17400    -999.25
 1950.00000  -41.36000   21.34000   40.82900   23.60200   51.04100    -999.25   -3.85300  106.55200    -999.25
 2000.00000  -43.81200   23.36800   63.22400   21.22500   29.78000    -999.25   -3.84000  103.45000    -999.25
 2050.00000  -42.80300   23.63300   57.87200   20.82400   27.88700    -999.25   -3.82800  103.73100    -999.25
 2100.00000  -28.50400   16.13400   28.69900   15.87100   40.74400    -999.25   -3.84700  106.93100    -999.25
 2150.00000  -43.52600   21.63500   66.89500   18.53100   23.92300    -999.25   -3.87700  100.60700    -999.25
 2200.00000  -42.76100   26.77500   73.83800   21.87200   23.31400    -999.25   -3.85000  100.64300    -999.25
 2250.00000  -40.17800   26.95900   84.03800   23.09600   29.55700    -999.25   -3.84000   98.58300    -999.25
 2300.00000  -34.90500   24.58700   56.03400   23.82600   30.80000    -999.25   -3.82600  102.64000    -999.25
 2350.00000  -31.57800   19.91000   39.03700   24.04100   36.78500    -999.25   -3.80800  102.16100    -999.25
 2400.00000  -32.31000   23.29800   46.63500   26.29900   34.38600    -999.25   -3.83900  106.52600    -999.25
 2450.00000  -23.79500   15.34700   22.17600   16.64900   52.88600    -999.25   -3.78000  103.34000    -999.25
 2500.00000  -30.48800   17.75700   29.37400   21.01200   37.68500    -999.25   -3.80300  101.96500    -999.25
 2550.00000  -24.27900    7.95700    9.78100    8.49400   50.31700    -999.25   -3.95700   96.75200    -999.25
 2600.00000  -23.24700    8.36000    8.96400    8.42700   48.81600    -999.25   -3.87900   99.64800    -999.25
 2650.00000  -24.29200    7.09100    7.14700    6.73500   48.88600    -999.25   -3.84500   98.94800    -999.25
 2700.00000  -16.26600    2.26800    1.93600    1.88600   66.84100    -999.25   -3.78900  113.18700    -999.25
 2750.00000  -26.61300    6.90300    7.09300    6.88100   57.49300    -999.25   -3.83500   97.67900    -999.25
 2800.00000  -33.88400   11.97900   14.79700   12.83800   42.64600    -999.25   -3.91800  100.39300    -999.25
 2850.00000  -39.37400    9.93700   11.56700   11.01900   44.55800    -999.25   -3.90100   98.65900    -999.25
 2900.00000  -33.85300    7.89800    7.48400    7.41700   52.81600    -999.25   -3.84200   97.58200    -999.25
 2950.00000  -47.03900    7.96900    7.78400    7.82700   55.25900    -999.25   -4.62500   99.41100    -999.25
 3000.00000  -25.83000    6.18400    6.03300    5.99500   62.61100    -999.25   -3.30000   96.85700    -999.25
 3050.00000  -47.93600    8.71800    8.11400    8.18900   52.21500    -999.25   -3.28600   95.24700    -999.25
 3100.00000  -44.02300    8.33500    6.81400    7.45000   45.44000    -999.25   -3.33200   94.62500    -999.25
 3150.00000  -10.40700    2.30600    2.20400    2.22700   68.97300    -999.25   -3.26700  106.09000    -999.25
 3200.00000  -43.28600    6.35500    5.38300    5.85000   52.76000    -999.25   -3.28200   96.95200    -999.25
 3250.00000  -37.97200    6.18200    6.96500    7.22000   64.41100    -999.25   -3.29400   96.34900    -999.25
 3300.00000  -41.10800    6.95100    6.78000    7.09100   51.12300    -999.25   -3.28400   91.84800    -999.25
 3350.00000  -20.94800    4.14400    4.36700    4.19700   65.08100    -999.25   -3.25500   97.56200    -999.25
 3400.00000  -47.65500    9.02000    6.65400    7.53300   58.12200    -999.25   -3.25500   92.96100    -999.25
 3450.00000  -48.58700    8.10400    6.27200    7.35100   47.24900    -999.25   -3.25500   95.12200    -999.25
 3500.00000  -57.03100    7.92500    6.08800    7.09100   47.69800    -999.25   -3.20100   93.40300    -999.25
 3550.00000  -16.97900    5.90000    5.13300    5.17900   52.77600    -999.25   -3.25400   94.20500    -999.25
 3600.00000  -11.20300    3.85400    4.48600    4.10100   74.98300    -999.25   -3.27500   96.26700    -999.25
 3650.00000  -47.28300    8.26100    9.75300    9.79700   46.06600    -999.25   -3.25500   89.60200    -999.25
 3700.00000  -47.21600   10.94700   10.62100   10.52600   40.60400    -999.25   -3.21800   90.96300    -999.25
 3750.00000  -41.34400    9.53700   10.15500    9.86800   42.10300    -999.25   -3.25000   92.19500    -999.25
 3800.00000  -27.69700    6.10900    7.86100    7.21100   40.64900    -999.25   -3.22600   97.17000    -999.25
 3850.00000  -20.99500    6.37000    8.46700    7.65400   48.65200    -999.25   -3.29400   89.04400    -999.25
 3900.00000   -1.47900    3.76900    4.00900    4.05900   62.70100    -999.25   -3.29700   91.50300    -999.25
