~Version ---------------------------------------------------
VERS.      2.0 : CWLS log ASCII Standard -VERSION 2.0
WRAP.      YES : Multiple lines per depth step
CREA. 07/19/18 : LAS Creation Date
~Well ------------------------------------------------------
STRT.FT                           3800.0 : START DEPTH
STOP.FT                          13600.0 : STOP DEPTH
STEP.FT                         50.00000 : STEP LENGTH
NULL.                            -999.25 : NULL VALUE
COMP. TEXSTAR NORTH AMERICA INCORPORATED : COMPANY
WELL.                  BERRY GAS UNIT #1 : WELL
FLD .                 SW KENEDY PROSPECT : FIELD
LOC .                                    : LOCATION
CNTY.                             KARNES : COUNTY
STAT.                              TEXAS : STATE
CTRY.           UNITED STATES OF AMERICA : COUNTRY
SRVC.                       Schlumberger : SERVICE COMPANY
DATE.                        16-Mar-1988 : LOGDATE
API .                     42255311960000 : API NUMBER
UWI .                     42255311960000 : UNIQUE WELL ID
SLAT.WGS84                 28.7645998907 : SURFACE LATITUDE
SLON.WGS84                -97.8956197689 : SURFACE LONGITUDE
~Curve Information -----------------------------------------
DEPT    .FT    : DEPTH FEET
CALWS   .IN    : CALIPER [DCALDED+BIT]
CONDWS  .MMHO  : DEEP CONDUCTIVITY [1000/DRESWS]
DCALDED .IN    : DIFFERENTIAL CALIPER FROM LDT-CNT LOG [DSH. TO RESISTIVITY]
DCORWS  .G/C3  : DENSITY CORRECTION [DRHOED]
DENWS   .G/C3  : BULK DENSITY [CALC. FROM DPOLSWS]
DPHILSED.V/V   : DENSITY POROSITY (LS) [M=2.71 F=1.00] FROM LDT-CNT LOG [DSH. TO RESISTIVITY]
DPOLSWS .V/V   : DENSITY POROSITY (LS) [M=2.71 F=1.00] [DPHILSED]
DRESWS  .OHMM  : DEEP RESISTIVITY [ILDED]
DRHOED  .G/C3  : DENSITY CORRECTION FROM LDT-CNT LOG [DSH. TO RESISTIVITY]
DTED    .US/F  : DELTA TIME FROM DISFL-SONIC LOG [DSH. TO RES LOG]
DTLED   .US/F  : DELTA TIME LONG SPACING FROM DISFL-SONIC LOG [DSH. TO RESISTIVITY]
DTWS    .US/F  : DELTA TIME COMPRESSIONAL [DTED]
GRDED   .GAPI  : GAMMA RAY FROM LDT-CNT LOG [DSH. TO RESISTIVITY]
GRRED   .GAPI  : GAMMA RAY FROM DISFL-SONIC LOG [DSH. TO RESISTIVITY]
GRWS    .GAPI  : GAMMA RAY [GRRED]
ILDED   .OHMM  : DEEP INDUCTION RESISTIVITY
ILMED   .OHMM  : MEDIUM INDUCTION RESISTIVITY
MRESWS  .OHMM  : MEDIUM RESISTIVITY [ILMED]
NPHILSED.V/V   : NEUTRON POROSITY LIMESTONE FROM LDT-CNT LOG [DSH. TO RESISTIVITY]
NPOLSWS .V/V   : NEUTRON POROSITY LIMESTONE [NPHILSED]
PEFED   .B/E   : PHOTOELECTRIC FACTOR FROM LDT-CNT LOG [DSH. TO RESISTIVITY]
PEFWS   .B/E   : PHOTOELECTRIC FACTOR [PEFED]
SFLUED  .OHMM  : SPHERICALLY FOCUSED LOG RESISTIVITY
SPHILSED.V/V   : SONIC POROSITY (LS) FROM DISFL-SONIC LOG [DSH. TO RESISTIVITY]
SPOLSWS .V/V   : SONIC POROSITY (LS) [SPHILSED]
SPRED   .MV    : SPONTANEOUS POTENTIAL FROM DISFL-SONIC LOG
SPWS    .MV    : SPONTANEOUS POTENTIAL [BASELINE 0 MV] [SPRED]
SRESWS  .OHMM  : SHALLOW RESISTIVITY [SFLUED]
TENDED  .LBF   : TENSION FROM LDT-CNT LOG [DSH. TO RES LOG]
TENRED  .LBF   : TENSION FROM DISFL-SONIC LOG
~Params ----------------------------------------------------
PD  .                     GL : PERMANENT DATUM
EPD .FT                399.7 : ELEVATION PERMANENT DATUM
LMF .                     KB : LOG MEASURED FROM
DAPD.FT                   13 : FEET ABOVE PERMANENT DATUM
DMF .                     KB : DRILLING MEASURED FROM
EKB .FT                412.7 : KELLY BUSHING
EDF .FT                411.7 : DRILLING FLOOR
EGL .FT                399.7 : GROUND LEVEL
DATE.               03/16/88 : RUN DATE
RUN .                      1 : RUN NUMBER
DD  .FT                13841 : DEPTH DRILLER
DL  .FT                13632 : DEPTH LOGGER
BLI .FT                13626 : BOTTOM LOG INTERVAL
TLI .FT                 3814 : TOP LOG INTERVAL
CS  .IN                8.625 : CASING SIZE
CBD .FT                 3815 : CASING BOTTOM DRILLER
CBL .FT                 3814 : CASING BOTTOM LOGGER
BS  .IN                  8.5 : BIT SIZE
BSD .FT                13841 : BIT SIZE AT DEPTH
DFT .              DURA HOLE : DRILLING FLUID TYPE
DFD .                   11.1 : DRILLING FLUID DENSITY
DFV .                     46 : DRILLING FLUID VISCOSITY
DFPH.                   10.5 : DRILLING FLUID PH
DFL .                      6 : DRILLING FLUID LOSS
MSS .               MUD TNAK : MUD SAMPLE SOURCE
RMS .OHMM              0.601 : RESISTIVITY MUD SAMPLE
MST .DEGF                110 : MUD SAMPLE TEMPERATURE
RMF .OHMM               0.81 : RESISTIVITY MUD FILTRATE SAMPLE
MFST.DEGF                 89 : MUD FILTRATE SAMPLE TEMPERATURE
RMC .OHMM                0.9 : RESISTIVITY MUD CAKE
MCST.DEGF                110 : MUD CAKE SAMPLE TEMPERATURE
MFSS.                   MEAS : MUD FILTRATE SAMPLE SOURCE
MCSS.                   CALC : MUD CAKE SAMPLE SOURCE
RMB .OHMM              0.236 : RESISTIVITY MUD AT BHT
TCS .HRS                2100 : TIME CIRCULATED STOPPED
TLAB.HRS                 612 : TIME LOGGER AT BOTTOM
LUN .                   8268 : LOGGING UNIT NUMBER
LUL .             PLEASANTON : LOGGING UNIT LOCATION
ENGI.                  WILKE : RECORDING ENGINEER
WITN.  REQUAETH  NOVAK GIBBS : WITNESSED BY
CLNT.                A2DTECH : CLIENT CODE
ORIG.               5" PRINT : ORIGIN OF DATA
UWI .         42255311960000 : UNIQUE WELL ID
DICO. A2D Technologies, Inc. : DIGITIZING COMPANY
~Other -----------------------------------------------------
GRDED GAPS 12180-12250' DUE TO STICKING TOOL.
LDT-CNT PULLED TIGHT AT SEVERAL DEPTHS FROM AROUND 13000' UP. THIS MAY AFFECT LOG QUALITY.
~ASCII -----------------------------------------------------
 3800.00000    -999.25    -999.25    -999.25    -999.25    -999.25    -999.25    -999.25    -999.25    -999.25    -999.25    -999.25    -999.25    -999.25   51.81430   51.81430    -999.25    -999.25    -999.25    -999.25    -999.25    -999.25    -999.25    -999.25    -999.25    -999.25    -999.25    -999.25    -999.25    -999.25    -999.25
 3850.00000    -999.25 1311.64740    -999.25    -999.25    -999.25    -999.25    -999.25    0.76240    -999.25  136.75590    -999.25  136.75590    -999.25   66.19390   66.19390    0.76240    0.87080    0.87080    -999.25    -999.25    -999.25    -999.25    0.91980    0.38980    0.38980  -62.99930   -2.82040    0.91980    -999.25 1490.49180
 3900.00000    -999.25 1365.56060    -999.25    -999.25    -999.25    -999.25    -999.25    0.73230    -999.25  132.24770    -999.25  132.24770    -999.25   74.85750   74.85750    0.73230    0.80570    0.80570    -999.25    -999.25    -999.25    -999.25    0.81490    0.38120    0.38120  -62.93840   -5.91550    0.81490    -999.25 1537.09330
 3950.00000    -999.25 1441.75320    -999.25    -999.25    -999.25    -999.25    -999.25    0.69360    -999.25  131.80270    -999.25  131.80270    -999.25   84.15020   84.15020    0.69360    0.71480    0.71480    -999.25    -999.25    -999.25    -999.25    0.87460    0.37980    0.37980  -62.04130   -8.17430    0.87460    -999.25 1561.25510
 4000.00000    -999.25 1329.43370    -999.25    -999.25    -999.25    -999.25    -999.25    0.75220    -999.25  124.33910    -999.25  124.33910    -999.25   83.67660   83.67660    0.75220    0.81290    0.81290    -999.25    -999.25    -999.25    -999.25    0.98660    0.36910    0.36910  -56.93250   -5.59030    0.98660    -999.25 1643.51280
 4050.00000    -999.25 1115.57340    -999.25    -999.25    -999.25    -999.25    -999.25    0.89640    -999.25  110.87800    -999.25  110.87800    -999.25   71.01900   71.01900    0.89640    0.87990    0.87990    -999.25    -999.25    -999.25    -999.25    1.28920    0.32940    0.32940  -55.97820   -4.63600    1.28920    -999.25 1583.34720
 4100.00000    -999.25 1151.14540    -999.25    -999.25    -999.25    -999.25    -999.25    0.86870    -999.25  114.32260    -999.25  114.32260    -999.25   79.33740   79.33740    0.86870    0.93060    0.93060    -999.25    -999.25    -999.25    -999.25    1.03830    0.33890    0.33890  -54.71020   -3.62290    1.03830    -999.25 1621.09390
 4150.00000    -999.25 1353.36310    -999.25    -999.25    -999.25    -999.25    -999.25    0.73890    -999.25  119.38170    -999.25  119.38170    -999.25   77.44860   77.44860    0.73890    0.77950    0.77950    -999.25    -999.25    -999.25    -999.25    0.88240    0.35600    0.35600  -52.24060   -6.25140    0.88240    -999.25 1610.24600
 4200.00000    -999.25 1094.57090    -999.25    -999.25    -999.25    -999.25    -999.25    0.91360    -999.25  111.20500    -999.25  111.20500    -999.25   84.06000   84.06000    0.91360    0.98680    0.98680    -999.25    -999.25    -999.25    -999.25    1.10490    0.33690    0.33690  -47.47010   -6.90440    1.10490    -999.25 1715.50700
 4250.00000    -999.25  694.20340    -999.25    -999.25    -999.25    -999.25    -999.25    1.44050    -999.25  107.37070    -999.25  107.37070    -999.25   65.17050   65.17050    1.44050    1.51420    1.51420    -999.25    -999.25    -999.25    -999.25    1.62440    0.32790    0.32790  -45.18140   -6.54730    1.62440    -999.25 1733.87840
 4300.00000    -999.25 1062.69930    -999.25    -999.25    -999.25    -999.25    -999.25    0.94100    -999.25  117.15760    -999.25  117.15760    -999.25   80.02100   80.02100    0.94100    0.99950    0.99950    -999.25    -999.25    -999.25    -999.25    1.07780    0.35080    0.35080  -49.00030   -9.30980    1.07780    -999.25 1659.27530
 4350.00000    -999.25 1214.62410    -999.25    -999.25    -999.25    -999.25    -999.25    0.82330    -999.25  116.62380    -999.25  116.62380    -999.25   81.24340   81.24340    0.82330    0.84550    0.84550    -999.25    -999.25    -999.25    -999.25    1.01640    0.34290    0.34290  -49.64790   -8.90100    1.01640    -999.25 1738.67710
 4400.00000    -999.25 1151.27790    -999.25    -999.25    -999.25    -999.25    -999.25    0.86860    -999.25  109.42410    -999.25  109.42410    -999.25   88.06540   88.06540    0.86860    0.96920    0.96920    -999.25    -999.25    -999.25    -999.25    0.96600    0.32960    0.32960  -48.12630   -6.32310    0.96600    -999.25 1705.79280
 4450.00000    -999.25 1370.98990    -999.25    -999.25    -999.25    -999.25    -999.25    0.72940    -999.25  112.92320    -999.25  112.92320    -999.25   85.72530   85.72530    0.72940    0.76630    0.76630    -999.25    -999.25    -999.25    -999.25    0.84550    0.34290    0.34290  -49.54620   -8.96470    0.84550    -999.25 1723.83040
 4500.00000    -999.25 1146.13180    -999.25    -999.25    -999.25    -999.25    -999.25    0.87250    -999.25  104.31920    -999.25  104.31920    -999.25   80.21180   80.21180    0.87250    0.93140    0.93140    -999.25    -999.25    -999.25    -999.25    1.14530    0.32030    0.32030  -50.85550  -11.89770    1.14530    -999.25 1780.38530
 4550.00000    -999.25 1166.86110    -999.25    -999.25    -999.25    -999.25    -999.25    0.85700    -999.25  115.87480    -999.25  115.87480    -999.25   76.00470   76.00470    0.85700    0.88160    0.88160    -999.25    -999.25    -999.25    -999.25    1.00450    0.33370    0.33370  -51.74680  -14.41280    1.00450    -999.25 1791.85060
 4600.00000    -999.25  975.60980    -999.25    -999.25    -999.25    -999.25    -999.25    1.02500    -999.25  105.73910    -999.25  105.73910    -999.25   67.00230   67.00230    1.02500    1.04580    1.04580    -999.25    -999.25    -999.25    -999.25    1.11900    0.31690    0.31690  -47.51000  -11.14840    1.11900    -999.25 1783.14140
 4650.00000    -999.25  764.00030    -999.25    -999.25    -999.25    -999.25    -999.25    1.30890    -999.25  107.54340    -999.25  107.54340    -999.25   69.33260   69.33260    1.30890    1.28400    1.28400    -999.25    -999.25    -999.25    -999.25    1.45850    0.32540    0.32540  -46.75900  -10.66420    1.45850    -999.25 1790.38120
 4700.00000    -999.25 1012.86340    -999.25    -999.25    -999.25    -999.25    -999.25    0.98730    -999.25  113.78540    -999.25  113.78540    -999.25   76.81990   76.81990    0.98730    1.01900    1.01900    -999.25    -999.25    -999.25    -999.25    1.12780    0.34490    0.34490  -41.66150   -5.83340    1.12780    -999.25 1790.59060
 4750.00000    -999.25 1175.50250    -999.25    -999.25    -999.25    -999.25    -999.25    0.85070    -999.25  113.70850    -999.25  113.70850    -999.25   83.13540   83.13540    0.85070    0.86530    0.86530    -999.25    -999.25    -999.25    -999.25    0.99680    0.34250    0.34250  -49.33820  -14.75320    0.99680    -999.25 1818.13610
 4800.00000    -999.25 1029.01830    -999.25    -999.25    -999.25    -999.25    -999.25    0.97180    -999.25  110.86290    -999.25  110.86290    -999.25   75.34040   75.34040    0.97180    1.08130    1.08130    -999.25    -999.25    -999.25    -999.25    1.08980    0.32580    0.32580  -39.73500   -7.19180    1.08980    -999.25 1876.81670
 4850.00000    -999.25  664.18700    -999.25    -999.25    -999.25    -999.25    -999.25    1.50560    -999.25   83.10110    -999.25   83.10110    -999.25   64.98090   64.98090    1.50560    1.55070    1.55070    -999.25    -999.25    -999.25    -999.25    2.11550    0.24340    0.24340  -38.20940   -7.70800    2.11550    -999.25 1767.19600
 4900.00000    -999.25  673.58210    -999.25    -999.25    -999.25    -999.25    -999.25    1.48460    -999.25   99.46000    -999.25   99.46000    -999.25   76.97930   76.97930    1.48460    1.44830    1.44830    -999.25    -999.25    -999.25    -999.25    1.51190    0.30450    0.30450  -37.31490   -3.84040    1.51190    -999.25 1855.66550
 4950.00000    -999.25  703.63070    -999.25    -999.25    -999.25    -999.25    -999.25    1.42120    -999.25  103.20300    -999.25  103.20300    -999.25   69.90430   69.90430    1.42120    1.30700    1.30700    -999.25    -999.25    -999.25    -999.25    1.29980    0.32140    0.32140  -40.15270   -6.00820    1.29980    -999.25 1855.11490
