~Version ---------------------------------------------------
VERS. 2.0 : CWLS log ASCII Standard -VERSION 2.0
WRAP.  NO : ONE LINE PER DEPTH STEP
~Well ------------------------------------------------------
STRT.FT                           3600.0 : START DEPTH
STOP.FT                           8400.0 : STOP DEPTH
STEP.FT                         50.00000 : STEP LENGTH
NULL.                            -999.25 : NULL VALUE
COMP. SANTA FE-WINDSOR PRODUCING COMPANY : COMPANY
WELL.                        WERNECKE #1 : WELL
FLD .                           GIDDINGS : FIELD
LOC .                                    : LOCATION
CNTY.                                LEE : COUNTY
STAT.                              TEXAS : STATE
CTRY.           UNITED STATES OF AMERICA : COUNTRY
SRVC.                       Schlumberger : SERVICE COMPANY
DATE.                        11-Jun-1982 : LOGDATE
API .                     42287312500000 : API NUMBER
UWI .                     42287312500000 : UNIQUE WELL ID
SLAT.WGS84                 30.1197278777 : SURFACE LATITUDE
SLON.WGS84                -96.9728807092 : SURFACE LONGITUDE
~Curve Information -----------------------------------------
DEPT  .FT    : DEPTH FEET
GRRED .GAPI  : GAMMA RAY FROM RESISTIVITY LOG
SPRED .MV    : SPONTANEOUS POTENTIAL FROM RESISTIVITY LOG
ILDED .OHMM  : INDUCTION LOG DEEP RESISTIVITY
ILMED .OHMM  : INDUCTION LOG MEDIUM RESISTIVITY
SFLUED.OHMM  : SPHERICALLY FOCUSED LOG RESISTIVITY
DCALED.IN    : DIFFERENTIAL CALIPER FROM DENSITY LOG
DRHOED.G/C3  : DENSITY CORRECTION FROM DENSITY LOG
SPWS  .MV    : SPONTANEOUS POTENTIAL [BASELINE 0 MV] [SPRED]
DPHIED.V/V   : DENSITY POROSITY FROM DENSITY LOG
NEUTED.CU    : NEUTRON FROM NEUTRON LOG [DEPTH ADJ TO RES LOG]
CALWS .IN    : CALIPER [DCALED+BIT]
GRNED .GAPI  : GAMMA RAY FROM NEUTRON LOG [DEPTH ADJ TO RES LOG]
DCORWS.G/C3  : DENSITY CORRECTION [DRHOED]
GRWS  .GAPI  : GAMMA RAY [GRRED]
DRESWS.OHMM  : DEEP RESISTIVITY [ILDED]
MRESWS.OHMM  : MEDIUM RESISTIVITY [ILMED]
SRESWS.OHMM  : SHALLOW RESISTIVITY [SFLUED]
CONDWS.MMHO  : CONDUCTIVITY [1000/DRESWS]
NEUTWS.CU    : NEUTRON [NEUTED]
DENWS .G/C3  : BULK DENSITY[CALCULATED FROM DENWS]  CSG-6400(SS_2.65); 6400-TD(LS_2.71)
DPOWS .V/V   : DENSITY POROSITY [M=2.71 F=1] [CALCULATED FROM DENWS]
~Params ----------------------------------------------------
PD  .                     GL : PERMANENT DATUM
EPD .FT                  436 : ELEVATION PERMANENT DATUM
LMF .                    RKB : LOG MEASURED FROM
DAPD.FT                   14 : FEET ABOVE PERMANENT DATUM
DMF .                    RKB : DRILLING MEASURED FROM
EKB .FT                  450 : KELLY BUSHING
EDF .FT                  449 : DRILLING FLOOR
EGL .FT                  436 : GROUND LEVEL
DATE.               06/11/82 : RUN DATE
RUN .                      1 : RUN NUMBER
DD  .FT                 8435 : DEPTH DRILLER
DL  .FT                 8445 : DEPTH LOGGER
BLI .FT                 8439 : BOTTOM LOG INTERVAL
TLI .FT                 3619 : TOP LOG INTERVAL
CS  .IN                9.625 : CASING SIZE
CBD .FT                 3617 : CASING BOTTOM DRILLER
CBL .FT                 3619 : CASING BOTTOM LOGGER
BS  .IN                 8.75 : BIT SIZE
BSD .FT                 8435 : BIT SIZE AT DEPTH
DFT .                    LNS : DRILLING FLUID TYPE
DFD .                    9.6 : DRILLING FLUID DENSITY
DFV .                     43 : DRILLING FLUID VISCOSITY
DFPH.                    9.5 : DRILLING FLUID PH
DFL .                    7.4 : DRILLING FLUID LOSS
MSS .                   TANK : MUD SAMPLE SOURCE
RMS .OHMM                1.6 : RESISTIVITY MUD SAMPLE
MST .DEGF                107 : MUD SAMPLE TEMPERATURE
RMF .OHMM                1.2 : RESISTIVITY MUD FILTRATE SAMPLE
MFST.DEGF                107 : MUD FILTRATE SAMPLE TEMPERATURE
RMC .OHMM                2.4 : RESISTIVITY MUD CAKE
MCST.DEGF                107 : MUD CAKE SAMPLE TEMPERATURE
MFSS.                   MEAS : MUD FILTRATE SAMPLE SOURCE
MCSS.                   CALC : MUD CAKE SAMPLE SOURCE
RMB .OHMM              0.921 : RESISTIVITY MUD AT BHT
TCS .HRS                 230 : TIME CIRCULATED STOPPED
TLAB.HRS                 800 : TIME LOGGER AT BOTTOM
LUN .                   8262 : LOGGING UNIT NUMBER
LUL .                BRENHAM : LOGGING UNIT LOCATION
ENGI.                MARFICE : RECORDING ENGINEER
WITN.                 EBANKS : WITNESSED BY
CLNT.                A2DTECH : CLIENT CODE
ORIG.            2" 5" PRINT : ORIGIN OF DATA
UWI .         42287312500000 : UNIQUE WELL ID
DICO. A2D Technologies, Inc. : DIGITIZING COMPANY
~Other -----------------------------------------------------
~ASCII -----------------------------------------------------
# ...
 5250.00000   92.39810  -12.24010    1.48310    1.58180    1.71720    1.92060    -999.25   -1.42700    -999.25    -999.25   10.67060    -999.25    -999.25   92.39810    1.48310    1.58180    1.71720  674.26340    -999.25    -999.25    -999.25
 5300.00000   86.77410  -11.97270    1.65990    1.73050    1.93380    1.96280    -999.25   -1.82050    -999.25    -999.25   10.71280    -999.25    -999.25   86.77410    1.65990    1.73050    1.93380  602.44590    -999.25    -999.25    -999.25
 5350.00000   96.49220  -11.10510    1.56410    1.65790    1.82730    2.07440    -999.25   -1.61380    -999.25    -999.25   10.82440    -999.25    -999.25   96.49220    1.56410    1.65790    1.82730  639.34530    -999.25    -999.25    -999.25
 5400.00000   86.83820  -11.43040    1.45200    1.51570    1.70970    2.90560    -999.25   -2.60000    -999.25    -999.25   11.65560    -999.25    -999.25   86.83820    1.45200    1.51570    1.70970  688.70520    -999.25    -999.25    -999.25
 5450.00000   92.73710  -10.84740    1.17480    1.22520    1.42000    2.10950    -999.25   -2.67790    -999.25    -999.25   10.85950    -999.25    -999.25   92.73710    1.17480    1.22520    1.42000  851.20870    -999.25    -999.25    -999.25
 5500.00000   83.65110   -9.07090    1.40680    1.46850    1.61100    0.93840    -999.25   -1.56230    -999.25    -999.25    9.68840    -999.25    -999.25   83.65110    1.40680    1.46850    1.61100  710.83310    -999.25    -999.25    -999.25
 5550.00000  115.19170  -10.79070    0.67410    0.72150    0.89680    2.32340    -999.25   -3.94300    -999.25    -999.25   11.07340    -999.25    -999.25  115.19170    0.67410    0.72150    0.89680 1483.45950    -999.25    -999.25    -999.25
 5600.00000   85.38840   -8.28630    0.95590    1.00710    1.06450    2.53320    -999.25   -1.87260    -999.25    -999.25   11.28320    -999.25    -999.25   85.38840    0.95590    1.00710    1.06450 1046.13450    -999.25    -999.25    -999.25
 5650.00000   77.88770  -11.87490    1.39940    1.44620    1.52190    2.77790    0.06560   -3.60100    0.11040    -999.25   11.52790    -999.25    0.06560   77.88770    1.39940    1.44620    1.52190  714.59200    -999.25    2.46780    0.14160
 5700.00000   73.13490  -15.51110    1.19090    1.28360    1.64700    1.44130    0.10000   -5.37690    0.09570    -999.25   10.19130    -999.25    0.10000   73.13490    1.19090    1.28360    1.64700  839.70110    -999.25    2.49210    0.12740
 5750.00000   65.36970  -17.89240    1.41510    1.53340    1.60150    0.31610    0.10020   -8.07300    0.12440    -999.25    9.06610    -999.25    0.10020   65.36970    1.41510    1.53340    1.60150  706.66390    -999.25    2.44470    0.15510
 5800.00000   65.92260  -13.37300    2.05720    2.19410    2.51650    0.33530    0.03150   -4.31380    0.13910    -999.25    9.08530    -999.25    0.03150   65.92260    2.05720    2.19410    2.51650  486.09760    -999.25    2.42050    0.16930
 5850.00000   75.97870  -10.80040    1.70580    1.81170    1.98890    1.14390    0.10000   -2.50150    0.10230    -999.25    9.89390    -999.25    0.10000   75.97870    1.70580    1.81170    1.98890  586.23520    -999.25    2.48120    0.13380
 5900.00000   76.65620   -9.43840    1.04750    1.12980    1.24540    3.20120    0.07540   -1.89970    0.12940    -999.25   11.95120    -999.25    0.07540   76.65620    1.04750    1.12980    1.24540  954.65390    -999.25    2.43650    0.15990
 5950.00000   80.11150  -12.37160    1.39510    1.45490    1.57230    2.69000    0.06320   -4.32130    0.10270    -999.25   11.44000    -999.25    0.06320   80.11150    1.39510    1.45490    1.57230  716.79450    -999.25    2.48050    0.13420
 6000.00000   76.72780  -14.26250    1.28970    1.31580    1.55220    4.79820    0.10350   -5.52710    0.11100    -999.25   13.54820    -999.25    0.10350   76.72780    1.28970    1.31580    1.55220  775.37410    -999.25    2.46690    0.14220
 6050.00000   73.65740  -12.72640    0.93540    1.01070    1.23280    4.10190    0.10410   -3.80960    0.12570    -999.25   12.85190    -999.25    0.10410   73.65740    0.93540    1.01070    1.23280 1069.06140    -999.25    2.44260    0.15640
 6100.00000   75.65380  -10.97990    1.00510    1.08280    1.30990    4.11340    0.05320   -3.39280    0.13990    -999.25   12.86340    -999.25    0.05320   75.65380    1.00510    1.08280    1.30990  994.92580    -999.25    2.41920    0.17010
 6150.00000   79.16920   -7.98450    1.08840    1.17500    1.38010    3.39860    0.10000   -1.72720    0.14330    -999.25   12.14860    -999.25    0.10000   79.16920    1.08840    1.17500    1.38010  918.77980    -999.25    2.41360    0.17340
 6200.00000   84.11620   -8.02970    1.08430    1.16450    1.29440    2.89050    0.10000   -3.04430    0.13620    -999.25   11.64050    -999.25    0.10000   84.11620    1.08430    1.16450    1.29440  922.25400    -999.25    2.42530    0.16650
 6250.00000   81.70120   -9.05610    1.41890    1.51420    1.34700    1.43970    0.05840   -5.29330    0.15170    -999.25   10.18970    -999.25    0.05840   81.70120    1.41890    1.51420    1.34700  704.77130    -999.25    2.39970    0.18150
 6300.00000   73.06910   -9.80040    1.37540    1.42180    1.52560    3.16930    0.10000   -7.26010    0.14310    -999.25   11.91930    -999.25    0.10000   73.06910    1.37540    1.42180    1.52560  727.06120    -999.25    2.41390    0.17320
 6350.00000  105.67220   -1.55760    0.86610    0.94910    1.09880    3.19300    0.07810   -0.23990    0.18210    -999.25   11.94300    -999.25    0.07810  105.67220    0.86610    0.94910    1.09880 1154.60110    -999.25    2.34950    0.21080
 6400.00000   74.65180  -10.02470    1.59900    1.78410    2.13050    2.02010    0.10300   -9.01350    0.09580    -999.25   10.77010    -999.25    0.10300   74.65180    1.59900    1.78410    2.13050  625.39090    -999.25    2.54620    0.09580
 6450.00000   74.53260   -4.49250    1.61810    1.67190    1.76640    2.81280    -999.25   -3.20190    -999.25    -999.25   11.56280    -999.25    -999.25   74.53260    1.61810    1.67190    1.76640  618.00870    -999.25    -999.25    -999.25
 6500.00000   91.63230   -3.43120    1.35720    1.45010    1.58120    4.10280    -999.25   -2.62490    -999.25    -999.25   12.85280    -999.25    -999.25   91.63230    1.35720    1.45010    1.58120  736.81110    -999.25    -999.25    -999.25
 6550.00000   87.87360  -30.40030    1.19460    1.25520    1.35910    4.99300    -999.25    0.00000    -999.25    -999.25   13.74300    -999.25    -999.25   87.87360    1.19460    1.25520    1.35910  837.10030    -999.25    -999.25    -999.25
 6600.00000   83.13880  -32.58550    1.19330    1.27530    1.42980    4.67130    -999.25   -2.33010    -999.25    -999.25   13.42130    -999.25    -999.25   83.13880    1.19330    1.27530    1.42980  838.01220    -999.25    -999.25    -999.25
 6650.00000   87.14490  -30.92430    1.05410    1.15040    1.25330    4.92710    -999.25   -1.16420    -999.25    -999.25   13.67710    -999.25    -999.25   87.14490    1.05410    1.15040    1.25330  948.67660    -999.25    -999.25    -999.25
 6700.00000   85.92560  -29.58340    1.42320    1.48620    1.62340    3.69790    -999.25   -0.31870    -999.25    -999.25   12.44790    -999.25    -999.25   85.92560    1.42320    1.48620    1.62340  702.64190    -999.25    -999.25    -999.25
 6750.00000   86.91420  -31.57130    1.57810    1.68250    1.93030    2.88920    -999.25   -2.80190    -999.25    -999.25   11.63920    -999.25    -999.25   86.91420    1.57810    1.68250    1.93030  633.67340    -999.25    -999.25    -999.25
 6800.00000   93.19870  -32.76450    1.77260    1.86450    1.96080    2.84360    -999.25   -4.49050    -999.25    -999.25   11.59360    -999.25    -999.25   93.19870    1.77260    1.86450    1.96080  564.14310    -999.25    -999.25    -999.25
 6850.00000   84.85140  -35.70110    1.29730    1.37310    1.55150    4.89010    -999.25   -2.71230    -999.25    -999.25   13.64010    -999.25    -999.25   84.85140    1.29730    1.37310    1.55150  770.83170    -999.25    -999.25    -999.25
