~Version ---------------------------------------------------
VERS. 2.0 : CWLS log ASCII Standard -VERSION 2.0
WRAP. YES : MULTIPLE LINES PER DEPTH STEP
~Well ------------------------------------------------------
STRT.FT                  300.0 : START DEPTH
STOP.FT                14400.0 : STOP DEPTH
STEP.FT               50.00000 : STEP LENGTH
NULL.                  -999.25 : NULL VALUE
COMP.              CONOCO INC. : COMPANY
WELL.       JACQUELYN WOODS #1 : WELL
FLD .                  WILDCAT : FIELD
LOC .                          : LOCATION
CNTY.                ROBERTSON : COUNTY
STAT.                    TEXAS : STATE
CTRY. UNITED STATES OF AMERICA : COUNTRY
SRVC.                          : SERVICE COMPANY
DATE.                          : LOGDATE
API .           42395302880000 : API NUMBER
UWI .           42395302880000 : UNIQUE WELL ID
SLAT.WGS84       31.0997639251 : SURFACE LATITUDE
SLON.WGS84      -96.4923364329 : SURFACE LONGITUDE
~Curve Information -----------------------------------------
DEPT  .FT    : DEPTH
ACED  .US/F  : DELTA TIME
CALRED.IN    : CALIPER FROM RESISTIVITY LOG
RILMED.OHMM  : MEDIUM INDUCTION RESISTIVITY
RFOCED.OHMM  : SHALLOW FOCUSED RESISTIVITY
RILDED.OHMM  : DEEP INDUCTION RESISTIVITY
GRRED .GAPI  : GAMMA RAY FROM RESISTIVITY LOG
TENRED.LBS   : TENSION FROM RESISTIVITY LOG
SFLUED.OHMM  : SPHERICALLY FOCUSED RESISTIVITY
GRDED .GAPI  : GAMMA RAY FROM DENSITY LOG
CALDED.IN    : CALIPER FROM DENSITY LOG
DRHOED.G/C3  : DENSITY CORRECTION
NPHIED.V/V   : NEUTRON POROSITY
RHOBED.G/C3  : BULK DENSITY
TENDED.LBS   : TENSION FROM DENSITY LOG
SRESWS.OHMM  : SHALLOW RESISTIVITY (RFOC+SFLU)
CALWS .IN    : CALIPER
SPED  .MV    : SPONTANEOUS POTENTIAL (BASELINE -10 MV)
SPWS  .MV    : SPONTANEOUS POTENTIAL (BASELINE -10 MV)
DCORWS.G/C3  : DENSITY CORRECTION
GRWS  .GAPI  : GAMMA RAY
DRESWS.OHMM  : DEEP RESISTIVITY (RILD)
MRESWS.OHMM  : MEDIUM RESISTIVITY (RILM)
CONDWS.MMHO  : CONDUCTIVITY FROM DEEP RESISTIVITY
DENWS .G/C3  : BULK DENSITY
DPOWS .V/V   : DENSITY POROSITY (M=2.71 F=1)
NPOWS .V/V   : NEUTRON POROSITY
DTWS  .V/V   : DELTA TIME
~Params ----------------------------------------------------
EKB .F                 513.38 : KELLY BUSHING
EGL .F                 483.38 : ELEVATION GROUND LEVEL
EDF .F                 512.38 : ELEVATION DERRICK FLOOR
EPD .F                 483.38 : ELEVATION PERMANENT DATUM
TD  .F                12197.0 : TOTAL DEPTH
DATE.             17-MAR-1984 : DATE LOGGED
CLNT.                 A2DTECH : CLIENT CODE
SL  . 3400' FNEL & 3500' FNWL : SURFACE LOCATION
PD  .                      GL : PERMANENT DATUM
LMF .                      KB : LOG MEASURED FROM
DMF .                      KB : DRILLING MEASURED FROM
DAPD.F                     30 : FEET ABOVE PERMANENT DATUM
DD  .F                  12195 : DEPTH DRILLER
DL  .F                  12197 : DEPTH LOGGER
BLI .F                  12195 : BOTTOM LOG INTERVAL
TLI .F                  11950 : TOP LOG INTERVAL
CS1 .IN                13.375 : CASING SIZE
CBD1.         13.375" @ 5096' : CASING DRILLER 1
BS1 .IN                 12.25 : BIT SIZE
BSD1.F                  12195 : DEPTH DRILLED WITH BIT1
DFT .             GEL/CAUSTIC : TYPE FLUID IN HOLE
DFD .                     9.8 : DENSITY
DFV .                      44 : VISCOSITY
DFPH.                      11 : PH
DFL .                    11.2 : FLUID LOSS
MSS .                    TANK : SOURCE OF SAMPLE
RMS .OHMM                1.95 : RM
RMF .OHMM                1.35 : RMF
RMC .OHMM                2.53 : RMC
MFSS.                    MEAS : SOURCE RMF.
MCSS.                    MEAS : SOURCE RMC.
RMB .OHMM                0.59 : RM. AT BHT
BHT .F                    246 : BHT.
TCS .HRS                    6 : TIME CIRC. STOPPED
TLAB.HRS                    - : TIME LOGGER AT BOTTOM
LUN .                 HL 6304 : LOGGING UNIT NUMBER
LUL .                   BRYAN : LOGGING UNIT LOCATION
ENGI.               R.R. KIRK : RECORDED BY
WITN.            GALE CLAYTOR : WITNESSED BY
ORIG.                5" PRINT : ORIGIN OF DATA
UWI .          42395302880000 : UNIQUE WELL ID
DICO.  A2D TECHNOLOGIES, INC. : DIGITIZING COMPANY
~Other -----------------------------------------------------
# NPHI 890 01 (LIMESTONE)
~ASCII -----------------------------------------------------
# ...
 12000.00000   56.07600   13.68200   14.31700   21.21000   14.78600   31.16300    0.00000    -999.25   40.33800   15.85800   -0.10100    0.04500    2.33400    9.38810   21.21000   15.85800  -10.84730  -10.84730   -0.10100   31.16300   14.78600   14.31700   67.63150    2.33400    0.21990    0.04500   56.07600
 12050.00000   71.77300   13.94900    6.50200    7.63000    6.30400   75.14000    0.00000    -999.25  100.81200   16.51500    0.05400    0.24400    2.57600    9.46830    7.63000   16.51500   -9.62370   -9.62370    0.05400   75.14000    6.30400    6.50200  158.62940    2.57600    0.07840    0.24400   71.77300
 12100.00000   74.91200   13.83300   11.89900   13.48100    7.67700   82.07730    0.00000    -999.25   45.70800   15.03000   -0.03200    0.07600    2.37900    9.54920   13.48100   15.03000  -52.52390  -52.52390   -0.03200   82.07730    7.67700   11.89900  130.25920    2.37900    0.19360    0.07600   74.91200
 12150.00000   65.19700   13.70500    8.07300    8.34500    8.00300   59.24620    0.00000    -999.25   86.53600   13.58600    0.04100    0.16100    2.56400   12.16430    8.34500   13.58600  -14.19320  -14.19320    0.04100   59.24620    8.00300    8.07300  124.95310    2.56400    0.08540    0.16100   65.19700
 12200.00000    -999.25    -999.25    -999.25    -999.25    -999.25   46.80400  346.38600    -999.25   46.18100    -999.25   -0.20600    0.19300    1.41900 3453.32570    -999.25    -999.25  -87.40640  -87.40640   -0.20600   46.80400    -999.25    -999.25    -999.25    1.41900    0.75500    0.19300    -999.25
 12250.00000   64.63900    -999.25    7.20400    -999.25    6.95900   52.07500 3338.64500    7.70800   73.29100   12.10000   -0.18000    0.08600    2.46300 3494.87700    7.70800   12.10000  -49.05660  -49.05660   -0.18000   52.07500    6.95900    7.20400  143.69880    2.46300    0.14440    0.08600   64.63900
 12300.00000   74.82970    -999.25    4.88500    -999.25    4.58900   71.63800 3099.60210    6.59100   74.54900   12.16300   -0.02700    0.21000    2.65700 3375.86010    6.59100   12.16300  -32.43990  -32.43990   -0.02700   71.63800    4.58900    4.88500  217.91240    2.65700    0.03100    0.21000   74.82970
 12350.00000   70.86270    -999.25    9.79000    -999.25   11.37300   79.74100 3412.81490   17.27200   77.40400   10.61000   -0.02000    0.13300    2.66000 3581.57010   17.27200   10.61000  -35.51710  -35.51710   -0.02000   79.74100   11.37300    9.79000   87.92750    2.66000    0.02920    0.13300   70.86270
 12400.00000   67.86380    -999.25   12.35400    -999.25   12.67100   76.04600 3324.61690   15.74000   83.72800   11.24100   -0.01300    0.15300    2.67400 3537.40090   15.74000   11.24100  -36.29830  -36.29830   -0.01300   76.04600   12.67100   12.35400   78.92040    2.67400    0.02110    0.15300   67.86380
 12450.00000   69.25770    -999.25    6.74900    -999.25    9.10700   63.05100 3182.52490   11.35000   73.41000   10.00700   -0.00200    0.15000    2.64800 3368.44800   11.35000   10.00700  -35.66350  -35.66350   -0.00200   63.05100    9.10700    6.74900  109.80560    2.64800    0.03630    0.15000   69.25770
 12500.00000   72.97280    -999.25    4.61400    -999.25    6.19500   67.21600 3139.44190    8.75400   69.60500    9.55300   -0.00900    0.23200    2.64100 3345.07400    8.75400    9.55300  -34.46580  -34.46580   -0.00900   67.21600    6.19500    4.61400  161.42050    2.64100    0.04040    0.23200   72.97280
 12550.00000   76.99000    -999.25    7.69200    -999.25    7.10900   73.30100 3861.10400    9.66600   79.93300   10.37300   -0.00600    0.11500    2.66200 3380.74100    9.66600   10.37300  -32.53800  -32.53800   -0.00600   73.30100    7.10900    7.69200  140.66680    2.66200    0.02810    0.11500   76.99000
 12600.00000   74.98500    -999.25    8.30100    -999.25    6.00700   64.83800 3820.49900   13.04700   63.16300   11.98800   -0.09600    0.23500    2.48400 3919.56810   13.04700   11.98800  -32.21920  -32.21920   -0.09600   64.83800    6.00700    8.30100  166.47240    2.48400    0.13220    0.23500   74.98500
 12650.00000   62.91010    -999.25   13.15400    -999.25   13.38800   72.34100 3482.35400   17.87400   71.16200   10.62400    0.00500    0.07600    2.67800 3892.85690   17.87400   10.62400  -33.64440  -33.64440    0.00500   72.34100   13.38800   13.15400   74.69380    2.67800    0.01870    0.07600   62.91010
 12700.00000   73.74610    -999.25    8.36100    -999.25    9.31900   39.65000 3059.76100   11.19500   63.46300   13.90500   -0.03600    0.22200    2.62200 3530.52490   11.19500   13.90500  -29.86770  -29.86770   -0.03600   39.65000    9.31900    8.36100  107.30760    2.62200    0.05150    0.22200   73.74610
 12750.00000   68.79270    -999.25    7.32200    -999.25    7.61600   65.48700 4502.43120   13.02500   75.96800   10.90900   -0.03700    0.15100    2.63200 3469.45800   13.02500   10.90900  -29.03590  -29.03590   -0.03700   65.48700    7.61600    7.32200  131.30250    2.63200    0.04560    0.15100   68.79270
 12800.00000   76.02370    -999.25    4.57700    -999.25    4.71000   60.20200 2940.23900    7.89000   66.41800   13.07900   -0.03500    0.24400    2.66800 4163.04790    7.89000   13.07900  -27.78210  -27.78210   -0.03500   60.20200    4.71000    4.57700  212.31420    2.66800    0.02460    0.24400   76.02370
 12850.00000   81.02100    -999.25    5.04000    -999.25    4.33200   87.18600 3488.95290    5.65700   46.57000   14.61600   -0.03300    0.24400    2.68000 3457.40700    5.65700   14.61600  -24.66040  -24.66040   -0.03300   87.18600    4.33200    5.04000  230.84030    2.68000    0.01750    0.24400   81.02100
 12900.00000   69.49340    -999.25    7.05000    -999.25    5.72600   79.44200 3243.94900    8.81300   81.15600   11.50500   -0.00200    0.18300    2.69800 4585.79000    8.81300   11.50500  -27.74460  -27.74460   -0.00200   79.44200    5.72600    7.05000  174.64200    2.69800    0.00700    0.18300   69.49340
 12950.00000   59.65990    -999.25    9.36200    -999.25   42.70000   59.88800 3285.75000   42.46700   63.25500    9.86800    0.00500    0.02100    2.68400 3792.74190   42.46700    9.86800  -27.67880  -27.67880    0.00500   59.88800   42.70000    9.36200   23.41920    2.68400    0.01520    0.02100   59.65990
 13000.00000   63.67030    -999.25   36.68800    -999.25   34.47400   59.49000 3371.43990   41.79800   68.25800   10.65500    0.00900    0.05300    2.65600 3654.76200   41.79800   10.65500  -32.10100  -32.10100    0.00900   59.49000   34.47400   36.68800   29.00740    2.65600    0.03160    0.05300   63.67030
 13050.00000   63.21980    -999.25   31.95800    -999.25   28.14700   50.72300 3378.48610   35.56600   74.37700   10.37800    0.00400    0.05400    2.62800 3602.63500   35.56600   10.37800  -32.80830  -32.80830    0.00400   50.72300   28.14700   31.95800   35.52780    2.62800    0.04800    0.05400   63.21980
 13100.00000   59.59380    -999.25   49.19100    -999.25   50.38300   53.70000 4104.16310   54.96100   58.83100   10.61200    0.00300    0.04600    2.68000 3575.39700   54.96100   10.61200  -20.12550  -20.12550    0.00300   53.70000   50.38300   49.19100   19.84800    2.68000    0.01750    0.04600   59.59380
 13150.00000   61.82660    -999.25   73.63200    -999.25   30.99300   50.71200 3498.00810   73.18700   82.30500   10.36600    0.00400    0.07000    2.67300 3577.51390   73.18700   10.36600  -15.75670  -15.75670    0.00400   50.71200   30.99300   73.63200   32.26540    2.67300    0.02160    0.07000   61.82660
 13200.00000   55.83480    -999.25   46.42000    -999.25   60.80100   44.60900 3557.44310   80.09800   56.19200   10.52400   -0.00500    0.06300    2.71400 3512.27590   80.09800   10.52400  -13.35360  -13.35360   -0.00500   44.60900   60.80100   46.42000   16.44710    2.71400   -0.00230    0.06300   55.83480
 13250.00000   56.87310    -999.25   54.32100    -999.25   46.94700   48.93100 3498.00810   70.32200   52.29600   10.47700   -0.01200    0.03200    2.71400 3778.91700   70.32200   10.47700  -18.08250  -18.08250   -0.01200   48.93100   46.94700   54.32100   21.30060    2.71400   -0.00230    0.03200   56.87310
