~Version ---------------------------------------------------
VERS. 2.0 : CWLS log ASCII Standard -VERSION 2.0
WRAP. YES : MULTIPLE LINES PER DEPTH STEP
~Well ------------------------------------------------------
STRT.FT                       2050.0 : START DEPTH
STOP.FT                      10550.0 : STOP DEPTH
STEP.FT                     50.00000 : STEP LENGTH
NULL.                        -999.25 : NULL VALUE
COMP. QUINTANA PETROLEUM CORPORATION : COMPANY
WELL.                       HARLE #1 : WELL
FLD .                        BUCKLEY : FIELD
LOC .                                : LOCATION
CNTY.                       LA SALLE : COUNTY
STAT.                          TEXAS : STATE
CTRY.       UNITED STATES OF AMERICA : COUNTRY
SRVC.    HALLIBURTON Sperry Drilling : SERVICE COMPANY
DATE.                    12-Nov-1991 : LOGDATE
API .                 42283314640000 : API NUMBER
UWI .                 42283314640000 : UNIQUE WELL ID
SLAT.WGS84             28.3427642272 : SURFACE LATITUDE
SLON.WGS84            -99.0284847769 : SURFACE LONGITUDE
~Curve Information -----------------------------------------
DEPT    .FT    : DEPTH FEET
CALRED  .IN    : CALIPER FROM RESISTIVITY LOG
CALWS   .IN    : CALIPER [DCALRED+8.75]
CONDWS  .MMHO  : CONDUCTIVITY [1000/DRESWS]
DCALRED .IN    : DIFFERENTIAL CALIPER FROM RESISTIVITY LOG
DCORWS  .G/C3  : DENSITY CORRECTION [DRHOED]
DENWS   .G/C3  : BULK DENSITY  [CALCULATED FROM DPOWS][M=2.65 F=1.0]<9190>[M=2.71 F=1.0]
DFLED   .OHMM  : DIGITALLY FOCUSED LATEROLOG
DPHILSED.V/V   : DENSITY POROSITY [M=2.71 F=1.0] FROM DENSITY LOG
DPHISSED.V/V   : DENSITY POROSITY [M=2.65 F=1.0] FROM DENSITY LOG
DPOWS   .V/V   : DENSITY POROSITY [DPHISSED]<9190>DPHILSED
DRESWS  .OHMM  : DEEP RESISTIVITY [HDRSED]
DRHOED  .G/C3  : DENSITY CORRECTION FROM RES. LOG, DEPTH ADJUSTED WITH [GRRED]
DTED    .US/F  : DELTA TIME FROM SONIC LOG
DTWS    .US/F  : DELTA TIME [DTED]
GRKTED  .GAPI  : GAMMA RAY KT FROM SPECTRAL LOG, DEPTH ADJUSTED WITH [GRRED]
GRKUTED .GAPI  : GAMMA RAY KUT FROM SPECTRAL LOG, DEPTH ADJUSTED WITH [GRRED]
GRR1ED  .GAPI  : GAMMA RAY FROM INDUCTION [ILDED] LOG, DEPTH ADJUSTED WITH [GRRED]
GRRED   .GAPI  : GAMMA RAY FROM RESISTIVITY LOG
GRTHED  .GAPI  : GAMMA RAY TH FROM SPECTRAL LOG, DEPTH ADJUSTED WITH [GRRED]
GRWS    .GAPI  : GAMMA RAY [GRRED]
GUARDED .OHMM  : GUARD LOG RESISTIVITY
HDRSED  .OHMM  : HRI DEEP RESISTIVITY
HMRSED  .OHMM  : HRI MEDIUM RESISTIVITY
ILDED   .OHMM  : INDUCTION LOG DEEP RESISTIVITY , DEPTH ADJUSTED WITH [GRRED]
ILMED   .OHMM  : INDUCTION LOG MEDIUM RESISTIVITY, DEPTH ADJUSTED WITH [GRRED]
MRESWS  .OHMM  : MEDIUM RESISTIVITY [HMRSED]
NPHILSED.V/V   : NEUTRON POROSITY LIMESTONE FROM DENSITY LOG
NPHISSED.V/V   : NEUTRON POROSITY SANDSTONE FROM DENSITY LOG
NPOWS   .V/V   : NEUTRON POROSITY SANDSTONE [NPHISSED]<9190>LIMESTONE [NPHILSED]
SFLED   .OHMM  : SPHERICALLY FOCUSED LOG RESISTIVITY
SPRED   .MV    : SPONTANEOUS POTENTIAL FROM RESISTIVITY LOG
SPWS    .MV    : SPONTANEOUS POTENTIAL [BASELINE 0 MV] [SPRED]
SRESWS  .OHMM  : SHALLOW RESISTIVITY [DFLED]
TENRED  .LBF   : TENSION FROM RESISTIVITY LOG
~Params ----------------------------------------------------
PD  .                     GL : PERMANENT DATUM
EPD .F                 379.7 : ELEVATION PERMANENT DATUM
LMF .                    TKB : LOG MEASURED FROM
DAPD.F                    19 : FEET ABOVE PERMANENT DATUM
DMF .                    TKB : DRILLING MEASURED FROM
EKB .F                 398.7 : KELLING BUSHING
EDF .F                 397.7 : DRILLING FLOOR
EGL .F                 379.7 : GROUND LEVEL
DATE.             11-12-1991 : RUN DATE
RUN .                      1 : RUN NUMBER
DD  .F                 10615 : DEPTH DRILLER
DL  .F                 10568 : DEPTH LOGGER
BLI .F                 10566 : BOTTOM LOG INTERVAL
TLI .F                  2010 : TOP LOG INTERVAL
CS  .IN                9.625 : CASING SIZE
CBD .F                  2012 : CASING BOTTOM DRILLER
CBL .F                  2010 : CASING BOTTOM LOGGER
BS  .IN                 8.75 : BIT SIZE
BSD .F                 10615 : BIT SIZE AT DEPTH
DFT .              LIGNO-HFI : DRILLING FLUID TYPE
DFD .                   10.3 : DRILLING FLUID DENSITY
DFV .                     42 : DRILLING FLUID VISCOSITY
DFPH.                   10.5 : DRILLING FLUID PH
DFL .                    5.7 : DRILLING FLUID LOSS
MSS .               FLOWLINE : MUD SAMPLE SOURCE
RMS .OHMM               1.31 : RESISTIVITY MUD SAMPLE
MST .F                    75 : MUD SAMPLE TEMPERATURE
RMF .OHMM               1.04 : RESISTIVITY MUD FILTRATE SAMPLE
MFST.F                    75 : MUD FILTRATE SAMPLE TEMPERATURE
RMC .OHMM                2.6 : RESISTIVITY MUD CAKE
MCST.F                    75 : MUD CAKE SAMPLE TEMPERATURE
MFSS.                   MEAS : MUD FILTRATE SAMPLE SOURCE
MCSS.                   MEAS : MUD CAKE SAMPLE SOURCE
RMB .OHMM               0.43 : RESISTIVITY MUD AT BHT
TCS .HRS                16.5 : TIME CURCULATED STOPPED
TLAB.HRS                1200 : TIME LOGGER AT BOTTOM
LUN .                  51561 : LOGGING UNIT NUMBER
LUL .                  ALICE : LOGGING UNIT LOCATION
ENGI.                MERRELL : RECORDING ENGINEER
WITN.  MR. EVANS/MR. DUCKETT : WITNESSED BY
CLNT.                A2DTECH : CLIENT CODE
ORIG.               5" PRINT : ORIGIN OF DATA
UWI .         42283314640000 : UNIQUE WELL ID
DICO. A2D Technologies, Inc. : DIGITIZING COMPANY
~Other -----------------------------------------------------
~ASCII -----------------------------------------------------
# ...
 5200.00000    -999.25    9.83820  404.54710    1.08820    0.07950    2.45080    2.56150    -999.25    0.12070    0.12070    2.47190    0.07950   92.40240   92.40240    -999.25    -999.25   93.72900  107.25120    -999.25  107.25120    3.26260    2.47190    2.60370    2.73340    3.19190    2.60370    -999.25    0.31880    0.31880    3.03740  -58.17090  -21.08790    2.56150 2601.71000
 5250.00000    -999.25    9.86980  339.37420    1.11980    0.10160    2.34290    4.72240    -999.25    0.18610    0.18610    2.94660    0.10160   90.60000   90.60000    -999.25    -999.25   74.34690   91.65790    -999.25   91.65790    4.52290    2.94660    3.61870    2.35120    2.74800    3.61870    -999.25    0.34760    0.34760    3.27510  -44.36090   -7.19180    4.72240 2603.55570
 5300.00000    -999.25    8.82520  296.70950    0.07520    0.05540    2.32590    9.01080    -999.25    0.19640    0.19640    3.37030    0.05540   82.64250   82.64250    -999.25    -999.25   52.90000   52.74360    -999.25   52.74360    8.16370    3.37030    4.45860    3.07390    4.53230    4.45860    -999.25    0.26740    0.26740    8.14380  -90.55470  -53.29940    9.01080 2589.91940
 5350.00000    -999.25    9.09410  115.07350    0.34410    0.05840    2.57440   14.79760    -999.25    0.04580    0.04580    8.69010    0.05840   64.77490   64.77490    -999.25    -999.25   57.18890   56.83140    -999.25   56.83140   11.50560    8.69010    9.96870    5.69780    8.06340    9.96870    -999.25    0.14770    0.14770   11.21270  -65.06750  -27.72600   14.79760 2641.67140
 5400.00000    -999.25    8.79530  254.99150    0.04530    0.05240    2.29840   10.05820    -999.25    0.21310    0.21310    3.92170    0.05240   81.89290   81.89290    -999.25    -999.25   51.10820   55.16950    -999.25   55.16950    9.48540    3.92170    5.47710    3.93310    5.76200    5.47710    -999.25    0.26010    0.26010    9.22470  -96.13820  -58.71060   10.05820 2642.37180
 5450.00000    -999.25    9.66100  189.62020    0.91100    0.07940    2.37230    7.64040    -999.25    0.16830    0.16830    5.27370    0.07940   83.99390   83.99390    -999.25    -999.25   86.50350   82.95240    -999.25   82.95240    6.15850    5.27370    5.66420    3.77720    4.47000    5.66420    -999.25    0.29900    0.29900    6.47470  -52.77360  -15.25980    7.64040 2692.22290
 5500.00000    -999.25   10.61560  354.91200    1.86560    0.19160    2.37150    3.08390    -999.25    0.16880    0.16880    2.81760    0.19160   91.65120   91.65120    -999.25    -999.25  100.84460  113.67600    -999.25  113.67600    3.01520    2.81760    2.80370    2.41170    2.54300    2.80370    -999.25    0.35460    0.35460    3.08200  -40.69070   -3.09070    3.08390 2692.38160
 5550.00000    -999.25    9.15560  169.44270    0.40560    0.06170    2.55810    6.10640    -999.25    0.05570    0.05570    5.90170    0.06170   62.03780   62.03780    -999.25    -999.25   73.27350   66.48300    -999.25   66.48300    7.35890    5.90170    5.39730    3.66270    4.10580    5.39730    -999.25    0.22110    0.22110   15.60770  -43.24370   -5.55760    6.10640 2745.69090
 5600.00000    -999.25    9.54220  340.54140    0.79220    0.10980    2.47630    2.95920    -999.25    0.10530    0.10530    2.93650    0.10980   88.42580   88.42580    -999.25    -999.25   96.24560  101.26220    -999.25  101.26220    3.05530    2.93650    2.94220    2.67840    2.77020    2.94220    -999.25    0.31960    0.31960    3.29160  -42.04160   -4.26930    2.95920 2639.47000
 5650.00000    -999.25    9.68930  342.90020    0.93930    0.07380    2.49060    2.95930    -999.25    0.09660    0.09660    2.91630    0.07380   87.07560   87.07560    -999.25    -999.25   96.90720  100.02870    -999.25  100.02870    3.01400    2.91630    2.80100    2.56930    2.58810    2.80100    -999.25    0.29520    0.29520    3.03420  -42.10840   -4.24990    2.95930 2770.35350
 5700.00000    -999.25   10.58660  317.89430    1.83660    0.08560    2.49410    3.14800    -999.25    0.09450    0.09450    3.14570    0.08560   85.79580   85.79580    -999.25    -999.25   94.48010   95.71740    -999.25   95.71740    3.31950    3.14570    3.10920    2.74920    2.88690    3.10920    -999.25    0.32160    0.32160    3.24970  -42.34230   -4.39770    3.14800 2684.49710
 5750.00000    -999.25   10.34820  522.00240    1.59820    0.10980    2.39490    2.09060    -999.25    0.15460    0.15460    1.91570    0.10980   98.43390   98.43390    -999.25    -999.25  103.01120  110.90300    -999.25  110.90300    2.12390    1.91570    1.85530    1.70210    1.66760    1.85530    -999.25    0.38710    0.38710    2.28000  -39.38740   -1.35660    2.09060 2745.62840
 5800.00000    -999.25    9.62990  497.41340    0.87990    0.10990    2.42770    2.06990    -999.25    0.13470    0.13470    2.01040    0.10990   92.55260   92.55260    -999.25    -999.25   91.92440   99.22490    -999.25   99.22490    2.01010    2.01040    2.01680    1.84820    1.83560    2.01680    -999.25    0.35680    0.35680    2.08350  -40.84010   -2.72310    2.06990 2757.32180
 5850.00000    -999.25    9.72060  418.72540    0.97060    0.12480    2.43880    2.44110    -999.25    0.12800    0.12800    2.38820    0.12480   88.79880   88.79880    -999.25    -999.25   93.52130  100.01210    -999.25  100.01210    2.35450    2.38820    2.36700    1.96610    2.09140    2.36700    -999.25    0.34550    0.34550    2.41780  -40.54080   -2.33770    2.44110 2781.18240
 5900.00000    -999.25   10.40800  612.97050    1.65800    0.12170    2.36240    1.70760    -999.25    0.17430    0.17430    1.63140    0.12170   97.20720   97.20720    -999.25    -999.25  100.97180   99.04830    -999.25   99.04830    1.90280    1.63140    1.57250    1.48390    1.47390    1.57250    -999.25    0.37620    0.37620    1.92420  -39.93920   -1.64990    1.70760 2781.09770
 5950.00000    -999.25    9.60280  338.48970    0.85280    0.07970    2.48600    3.23590    -999.25    0.09940    0.09940    2.95430    0.07970   83.84380   83.84380    -999.25    -999.25   84.75090   88.64090    -999.25   88.64090    2.85340    2.95430    2.85530    2.33380    2.41500    2.85530    -999.25    0.27930    0.27930    2.92870  -39.93870   -1.56320    3.23590 2923.66940
 6000.00000    -999.25    9.33100  403.68160    0.58100    0.14290    2.45730    2.53820    -999.25    0.11680    0.11680    2.47720    0.14290   85.71430   85.71430    -999.25    -999.25   82.49970   91.82610    -999.25   91.82610    2.50450    2.47720    2.49200    2.16460    2.27090    2.49200    -999.25    0.28090    0.28090    2.58440  -41.14110   -2.67950    2.53820 2931.10740
 6050.00000    -999.25    9.92670  337.91780    1.17670    0.10380    2.48680    2.95920    -999.25    0.09890    0.09890    2.95930    0.10380   85.11280   85.11280    -999.25    -999.25   85.77900   84.94180    -999.25   84.94180    2.87330    2.95930    2.91880    2.43230    2.49990    2.91880    -999.25    0.26560    0.26560    2.94320  -40.84080   -2.29300    2.95920 2988.10790
 6100.00000    -999.25   10.64130  423.96230    1.89130    0.10380    2.46340    2.52640    -999.25    0.11310    0.11310    2.35870    0.10380   87.34290   87.34290    -999.25    -999.25   85.61910   84.32400    -999.25   84.32400    2.43630    2.35870    2.31060    1.92590    2.00690    2.31060    -999.25    0.28910    0.28910    2.44940  -39.93970   -1.30570    2.52640 2960.52780
 6150.00000    -999.25   10.88690  610.27700    2.13690    0.12190    2.39210    1.82120    -999.25    0.15630    0.15630    1.63860    0.12190   95.63930   95.63930    -999.25    -999.25   91.38610   94.67020    -999.25   94.67020    1.91600    1.63860    1.64990    1.49430    1.55710    1.64990    -999.25    0.32560    0.32560    1.95080  -39.87240   -1.15230    1.82120 2894.73710
 6200.00000    -999.25   10.55950  409.63460    1.80950    0.09470    2.46600    2.56150    -999.25    0.11150    0.11150    2.44120    0.09470   86.31580   86.31580    -999.25    -999.25   79.21560   84.58250    -999.25   84.58250    2.35580    2.44120    2.44120    2.02100    2.14970    2.44120    -999.25    0.27070    0.27070    2.53780  -40.54010   -1.73380    2.56150 2900.18970
