~Version ---------------------------------------------------
VERS. 2.0 : CWLS log ASCII Standard -VERSION 2.0
WRAP.  NO : ONE LINE PER DEPTH STEP
~Well ------------------------------------------------------
STRT.F                    3550.0 : START DEPTH
STOP.F                    9650.0 : STOP DEPTH
STEP.F                  50.00000 : STEP LENGTH
NULL.                    -999.25 : NULL VALUE
COMP. CHAMPLIN PETROLEUM COMPANY : COMPANY
WELL.           MARTIN KNESEK #1 : WELL
FLD .                   GIDDINGS : FIELD
LOC .                            : LOCATION
CNTY.                   BURLESON : COUNTY
STAT.                      TEXAS : STATE
CTRY.   UNITED STATES OF AMERICA : COUNTRY
SRVC.              Dresser Atlas : SERVICE COMPANY
DATE.                04-Sep-1981 : LOGDATE
API .             42051317410000 : API NUMBER
UWI .             42051317410000 : UNIQUE WELL ID
SLAT.WGS84         30.3822790376 : SURFACE LATITUDE
SLON.WGS84         -96.614289695 : SURFACE LONGITUDE
~Curve Information -----------------------------------------
DEPT.F                 : 
CALR.IN   07 280 01 00 : CALIPER FROM RESISTIVITY LOG
SPR .MV   07 010 01 00 : SPONTANEOUS POTENTIAL FROM RESISTIVITY LOG
ILD .OHMM 07 120 46 00 : INDUCTION DEEP RESISTIVITY
GRR .GAPI 07 310 01 00 : GAMMA RAY FROM RESISTIVITY LOG
ILM .OHMM 07 120 44 00 : INDUCTION MEDIUM RESISTIVITY
SFL .OHMM 07 220 01 00 : SPHERICALLY FOCUSED LOG
NPHI.DEC  42 890 01 00 : NEUTRON POROSITY
DPHI.DEC  45 890 10 00 : DENSITY POROSITY
CORR.G/C3 45 356 01 00 : DENSITY CORRECTION
GRN .CPS  35 310 30 00 : GAMMA RAY FROM GRN LOG
NEUT.CPS  35 330 30 00 : NEUTRON
~Params ----------------------------------------------------
PD  .                     GL : PERMANENT DATUM
EPD .FT                  309 : ELEVATION PERMANENT DATUM
LMF .                     KB : LOG MEASURED FROM
DAPD.FT                   18 : FEET ABOVE PERMANENT DATUM
DMF .                     KB : DRILLING MEASURED FROM
EKB .FT                  327 : KELLY BUSHING
EDF .FT                  326 : DRILLING FLOOR
EGL .FT                  309 : GROUND LEVEL
DATE.               09/04/81 : RUN DATE
RUN .                      1 : RUN NUMBER
DD  .FT                 9726 : DEPTH DRILLER
DL  .FT                 9630 : DEPTH LOGGER
BLI .FT                 9628 : BOTTOM LOG INTERVAL
TLI .FT                 3536 : TOP LOG INTERVAL
CS  .IN                9.625 : CASING SIZE
CBD .FT                 3536 : CASING BOTTOM DRILLER
CBL .FT                 3536 : CASING BOTTOM LOGGER
BS  .IN                 8.75 : BIT SIZE
BSD .FT                 9726 : BIT SIZE AT DEPTH
DFT .                  BENEX : DRILLING FLUID TYPE
DFD .                    9.1 : DRILLING FLUID DENSITY
DFV .                     35 : DRILLING FLUID VISCOSITY
DFPH.                      9 : DRILLING FLUID PH
DFL .                    8.6 : DRILLING FLUID LOSS
MSS .               FLOWLINE : MUD SAMPLE SOURCE
RMS .OHMM                1.7 : RESISTIVITY MUD SAMPLE
MST .DEGF                 80 : MUD SAMPLE TEMPERATURE
RMF .OHMM               1.23 : RESISTIVITY MUD FILTRATE SAMPLE
MFST.DEGF                 80 : MUD FILTRATE SAMPLE TEMPERATURE
RMC .OHMM               2.13 : RESISTIVITY MUD CAKE
MCST.DEGF                 80 : MUD CAKE SAMPLE TEMPERATURE
MFSS.                   CALC : MUD FILTRATE SAMPLE SOURCE
MCSS.                   CALC : MUD CAKE SAMPLE SOURCE
RMB .OHMM               0.75 : RESISTIVITY MUD AT BHT
TCS .HRS                   4 : TIME CIRCULATED STOPPED
LUN .                   6300 : LOGGING UNIT NUMBER
LUL .                  BRYAN : LOGGING UNIT LOCATION
ENGI.            BROWN DWYER : RECORDING ENGINEER
WITN.                  VODAK : WITNESSED BY
CLNT.                A2DTECH : CLIENT CODE
ORIG.            2" 5" PRINT : ORIGIN OF DATA
UWI .         42051317410000 : UNIQUE WELL ID
DICO. A2D Technologies, Inc. : DIGITIZING COMPANY
~Other -----------------------------------------------------
~ASCII -----------------------------------------------------
# ...
 6600.00000   13.96670  -57.38870    1.43260   69.30730    1.37980    1.40590    0.29180    0.13260   -0.01770    -999.25    -999.25
 6650.00000   13.77530  -54.56240    1.10500   73.70750    1.15090    1.14520    0.26130    0.14720   -0.00230    -999.25    -999.25
 6700.00000   12.87480  -53.45720    1.02370   83.88180    1.01180    1.09080    0.31670    0.16120   -0.00860    -999.25    -999.25
 6750.00000   11.00520  -55.27110    1.58870   65.12440    1.60530    1.57380    0.32690    0.08430   -0.00740    -999.25    -999.25
 6800.00000   11.44460  -56.82260    1.34380   69.98610    1.38280    1.42330    0.30010    0.21370   -0.00580    -999.25    -999.25
 6850.00000   10.59480  -81.18680    3.15980   43.84260    2.70790    2.12790    0.24480    0.23080   -0.03810    -999.25    -999.25
 6900.00000   10.99470  -57.95550    1.72690   72.75570    1.79860    1.56200    0.26800    0.08970   -0.02470    -999.25    -999.25
 6950.00000    9.86270  -53.91610    1.76080   77.29590    1.80340    1.55340    0.27800    0.11180   -0.01770    -999.25    -999.25
 7000.00000    9.81220  -57.80590    1.79660   71.48690    1.77300    1.65050    0.24970    0.07390   -0.02840    -999.25    -999.25
 7050.00000   10.24990  -53.94160    1.37000  114.33670    1.37250    1.37710    0.26330    0.10040    0.01330    -999.25    -999.25
 7100.00000   12.33850  -51.16730    1.59860   95.50700    1.55730    1.44620    0.30810    0.06900   -0.02440    -999.25    -999.25
 7150.00000   13.62450  -52.54060    1.41790   95.75100    1.43670    1.40880    0.27060    0.10800   -0.04390    -999.25    -999.25
 7200.00000   14.20820  -55.26530    1.66360   78.16030    1.63300    1.47360    -999.25    -999.25    -999.25    -999.25    -999.25
 7250.00000   15.90090  -58.47350    1.24940   84.96080    1.31560    1.27370    -999.25    -999.25    -999.25    -999.25    -999.25
 7300.00000   15.87280  -55.30610    1.23900   82.15270    1.25750    1.20630    -999.25    -999.25    -999.25    -999.25    -999.25
 7350.00000   11.87960  -52.44900    1.54100   79.43810    1.58880    1.36690    -999.25    -999.25    -999.25    -999.25    -999.25
 7400.00000   11.97230  -55.89530    2.06310   93.39670    2.04440    1.84940    -999.25    -999.25    -999.25    -999.25    -999.25
 7450.00000   13.49220  -56.41400    1.65720   76.98980    1.75970    1.62860    -999.25    -999.25    -999.25    -999.25    -999.25
 7500.00000   13.09410  -54.89800    1.70190   89.65030    1.67140    1.63770    -999.25    -999.25    -999.25    -999.25    -999.25
 7550.00000   12.75190  -55.50020    1.65820   80.23350    1.69980    1.67470    -999.25    -999.25    -999.25    -999.25    -999.25
 7600.00000   11.21560  -55.49170    1.77130   73.19770    1.83070    1.72680    -999.25    -999.25    -999.25    -999.25    -999.25
 7650.00000   12.75990  -57.34690    1.26280   96.86780    1.32940    1.60200    -999.25    -999.25    -999.25    -999.25    -999.25
 7700.00000   13.17940  -51.63610    1.34450   73.31190    1.31860    1.37780    -999.25    -999.25    -999.25    -999.25    -999.25
 7750.00000   11.65090  -50.96380    1.63410   66.08490    1.64950    1.61600    -999.25    -999.25    -999.25    -999.25    -999.25
 7800.00000   11.09340  -52.57310    3.49850   50.05550    3.53160    3.06070    -999.25    -999.25    -999.25    -999.25    -999.25
 7850.00000   11.20290  -55.40820    4.04830   43.62240    4.29140    3.18470    -999.25    -999.25    -999.25    -999.25    -999.25
 7900.00000   11.08690  -57.91510    4.63810   38.34100    4.90710    3.80730    -999.25    -999.25    -999.25    -999.25    -999.25
 7950.00000   13.53980  -51.88090    2.66010   66.83390    2.70610    2.68910    -999.25    -999.25    -999.25    -999.25    -999.25
 8000.00000   12.79780  -48.86410    2.03820   79.43880    2.15250    2.02230    -999.25    -999.25    -999.25    -999.25    -999.25
 8050.00000   11.59310  -49.23670    2.78000   73.82530    2.83290    2.58990    -999.25    -999.25    -999.25    -999.25    -999.25
 8100.00000   11.53330  -49.61380    3.03850   65.99760    3.13970    2.68510    -999.25    -999.25    -999.25    -999.25    -999.25
 8150.00000   11.26010  -46.56240    2.56870   80.14820    2.51790    2.46810    -999.25    -999.25    -999.25    -999.25    -999.25
 8200.00000   11.41840  -44.76100    1.99060   74.72110    2.01810    1.94290    -999.25    -999.25    -999.25    -999.25    -999.25
 8250.00000   10.66330  -47.81900    4.10460   59.62190    3.98770    3.27580    -999.25    -999.25    -999.25    -999.25    -999.25
 8300.00000   13.12760  -45.32920    1.85410   76.45410    1.85160    1.91580    -999.25    -999.25    -999.25    -999.25    -999.25
 8350.00000   12.96810  -45.12700    1.76620   77.02810    1.80140    1.78930    -999.25    -999.25    -999.25    -999.25    -999.25
 8400.00000   12.23900  -43.64030    1.98860   79.21940    2.01790    1.95640    -999.25    -999.25    -999.25    -999.25    -999.25
 8450.00000   13.01850  -43.02450    1.69670   79.49510    1.78000    1.75450    -999.25    -999.25    -999.25    -999.25    -999.25
 8500.00000   12.40760  -41.42860    2.00830   78.82650    1.97420    2.02880    -999.25    -999.25    -999.25    -999.25    -999.25
 8550.00000   12.38280  -42.24490    1.78510   77.71980    1.82260    1.78060    -999.25    -999.25    -999.25    -999.25    -999.25
 8600.00000   12.76530  -40.94210    1.77230   79.69390    1.86540    1.83500    -999.25    -999.25    -999.25    -999.25    -999.25
 8650.00000   12.59720  -41.00870    1.68080   79.40680    1.71420    1.75340    -999.25    -999.25    -999.25    -999.25    -999.25
 8700.00000   11.36240  -40.49700    2.02650   77.62840    2.14610    2.00940    -999.25    -999.25    -999.25   76.70000  782.75730
 8750.00000   12.62770  -40.20410    1.99550   76.73540    2.11290    1.94370    -999.25    -999.25    -999.25   75.50000  679.57470
 8800.00000   12.12290    -999.25    2.06220   74.09320    2.16640    1.96550    -999.25    -999.25    -999.25   75.15800  642.92570
 8850.00000   10.12930  -30.62820    8.08840   34.32530    8.78790    6.02510    0.09880    0.23110    0.01480   37.17810  911.90140
 8900.00000   10.21080  -42.75510   13.49890   35.66330   12.64740   10.10110    0.07740    0.02740   -0.04980   40.89370 1023.71630
 8950.00000   10.21750  -44.98370   13.19330   50.57720   15.15730    9.65170    0.10010    0.01730   -0.04650   40.10000  974.92500
 9000.00000   10.08770  -46.71210    9.89010   32.22690   10.18300   13.31160    0.08920    0.05690   -0.05510   36.82760  980.55940
 9050.00000   10.09440  -75.31980   18.77620   25.51540   18.36910   30.38520    0.06600    0.06530   -0.06380   31.15680  982.95700
 9100.00000    9.97860  -74.75030   16.01020   34.06210   18.37740    9.71700    0.14350    0.11380   -0.00740   32.19270  887.68660
 9150.00000   15.63690  -17.93070    3.95890   85.83910    2.51670    2.53590    0.29240    0.21930   -0.02090   69.52880  589.67130
 9200.00000   15.57460  -19.54780    2.15210   81.29650    1.71970    2.19240    0.32470    0.18020   -0.01630   76.30000  614.14110
 9250.00000   14.91240  -15.96470    3.65380   84.10710    2.45900    2.81010    0.27980    0.23740   -0.01190   71.30000  629.31070
 9300.00000   13.91020  -17.11440    2.54160   91.13380    2.48290    2.73370    0.20480    0.12070    0.00670   75.65160  623.31670
 9350.00000   11.15780  -16.34120    9.39780  126.00650    8.88130    8.46370    0.21500    0.09870   -0.03970  100.48360  732.40760
 9400.00000   14.07710   -7.67510    1.63270   93.50910    1.61660    1.93230    0.31070    0.24100   -0.01450   78.44830  631.10410
 9450.00000   11.22660  -37.76830   24.36630   24.12560   20.78450   21.76610    0.07140    0.02480   -0.07200   34.93430 1036.90310
 9500.00000   11.07250  -91.12250   58.11590   12.27660   44.90630   91.70080    0.03140    0.04700   -0.06890   24.53760 1404.80660
 9550.00000   10.01100  -76.18640   33.99370   21.37750   28.74930   34.23380    0.02310    0.02910   -0.07210   29.53370 1415.72420
 9600.00000    9.96940 -121.78430   79.04600   21.81340   56.73310  124.48510    0.00610    0.00740   -0.05070   29.89010 1177.17350
