~Version ---------------------------------------------------
VERS. 2.0 : CWLS log ASCII Standard -VERSION 2.0
WRAP. YES : Multiple lines per depth step
~Well ------------------------------------------------------
STRT.FT                         300.0 : START DEPTH
STOP.FT                       13900.0 : STOP DEPTH
STEP.FT                      50.00000 : STEP LENGTH
NULL.                         -999.25 : NULL VALUE
COMP. MOBIL PRODUCING TX. & N.M. INC. : COMPANY
WELL.               J. V. FORD JR. #1 : WELL
FLD .                         WILDCAT : FIELD
LOC .                                 : LOCATION
CNTY.                             BEE : COUNTY
STAT.                           TEXAS : STATE
CTRY.        UNITED STATES OF AMERICA : COUNTRY
SRVC.                    Schlumberger : SERVICE COMPANY
DATE.                     24-Oct-1988 : LOGDATE
API .                  42025324790000 : API NUMBER
UWI .                  42025324790000 : UNIQUE WELL ID
SLAT.WGS84              28.6662336968 : SURFACE LATITUDE
SLON.WGS84             -98.0215217404 : SURFACE LONGITUDE
~Curve Information -----------------------------------------
DEPT    .FT    : DEPTH FEET
CALMED  .IN    : CALIPER FROM MSFL [DEP ADJ TO SFLUED]
CALWS   .IN    : CALIPER [DCALED+BITED]
CONDWS  .MMHO  : CONDUCTIVITY [1000/DRESWS]
DCALED  .IN    : DIFFERENTIAL CALIPER FROM DENSITY LOG [DEP ADJ TO GRRED]
DCORWS  .G/C3  : DENSITY CORRECTION [DRHOED]
DENWS   .G/C3  : BULK DENSITY [M=2.71, F= 1] [CAL FROM DPOLSWS]
DPHILSED.V/V   : DENSITY POROSITY [M=2.71 F=1.0] FROM DENSITY LOG [DEP ADJ TO GRRED]
DPHISSED.V/V   : DENSITY POROSITY [M=2.68 F=1.0] FROM DENSITY LOG [DEP ADJ TO GRRED]
DPOLSWS .V/V   : DENSITY POROSITY [M=2.71, F= 1] [76 DPOLSCAL 12989 DPHILSED]
DRESWS  .OHMM  : DEEP RESISTIVITY [ILDED]
DRHOED  .G/C3  : DENSITY CORRECTION FROM DENSITY LOG [DEP ADJ TO GRRED]
DTED    .US/F  : DELTA TIME FROM SONIC LOG
DTLED   .US/F  : DELTA TIME LONG SPACING FROM SONIC LOG
DTWS    .US/F  : DELTA TIME [76 DTED 543.5 DTLED 1373.5 DTED 2134 DTLED 3009.5 DTED 3022 DTLED 3172 DTED 8805 DTLED 8815 DTED 9717.5 DTLED 9901 DTED 12984.5 DTLED 13003.5 DTED]
GRDED   .GAPI  : GAMMA RAY FROM DENSITY LOG [DEP ADJ TO GRRED]
GRMED   .GAPI  : GAMMA RAY FROM MSFL LOG [DEP ADJ TO GRRED]
GRRED   .GAPI  : GAMMA RAY FROM RESISTIVITY LOG
GRWS    .GAPI  : GAMMA RAY [76 GRRED 3494.5 GRDEDNRM 3506 GRDED 9027 GRRED 13030.5 GRDED]
ILDED   .OHMM  : INDUCTION LOG DEEP RESISTIVITY
ILMED   .OHMM  : INDUCTION LOG MEDIUM RESISTIVITY
MRESWS  .OHMM  : MEDIUM RESISTIVITY [ILMED]
MSFLED  .OHMM  : MICROSPHERICALLY FOCUSED LOG RESISTIVITY [DEP ADJ TO SFLUED]
NPHILSED.V/V   : NEUTRON POROSITY LIMESTONE FROM DENSITY LOG [DEP ADJ TO GRRED]
NPHISSED.V/V   : NEUTRON POROSITY SANDSTONE FROM DENSITY LOG [DEP ADJ TO GRRED]
NPOLSWS .V/V   : NEUTRON POROSITY LIMESTONE [76 NPOLSCAL 12989 NPHILSED]
SFLUED  .OHMM  : SPHERICALLY FOCUSED LOG RESISTIVITY
SPRED   .MV    : SPONTANEOUS POTENTIAL FROM RESISTIVITY LOG
SPWS    .MV    : SPONTANEOUS POTENTIAL [BASELINE 0 MV] [SPRED]
SRESWS  .OHMM  : SHALLOW RESISTIVITY [SFLUED]
TENDED  .LBF   : TENSION FROM DENSITY LOG [DEP ADJ TO GRRED]
TENMED  .LBF   : TENSION FROM MSFL LOG [DEP ADJ TO SFLUED]
TENRED  .LBF   : TENSION FROM RESISTIVITY LOG
~Params ----------------------------------------------------
PD  .                     GL : PERMANENT DATUM
EPD .FT                  350 : ELEVATION PERMANENT DATUM
LMF .                     KB : LOG MEASURED FROM
DAPD.FT                 26.5 : FEET ABOVE PERMANENT DATUM
DMF .                     KB : DRILLING MEASURED FROM
EKB .FT                376.5 : KELLY BUSHING
EDF .FT                375.5 : DRILLING FLOOR
EGL .FT                  350 : GROUND LEVEL
DATE.               10/14/88 : RUN DATE
RUN .                      2 : RUN NUMBER
DD  .FT                13900 : DEPTH DRILLER
DL  .FT                13881 : DEPTH LOGGER
BLI .FT                13881 : BOTTOM LOG INTERVAL
TLI .FT                 3505 : TOP LOG INTERVAL
CS  .IN                9.625 : CASING SIZE
CBD .FT                 3510 : CASING BOTTOM DRILLER
CBL .FT                 3505 : CASING BOTTOM LOGGER
BS  .IN                  8.5 : BIT SIZE
BSD .FT                13900 : BIT SIZE AT DEPTH
DFT .            LIGNITE CLS : DRILLING FLUID TYPE
DFD .                   11.6 : DRILLING FLUID DENSITY
DFV .                     23 : DRILLING FLUID VISCOSITY
DFPH.                     10 : DRILLING FLUID PH
DFL .                    5.9 : DRILLING FLUID LOSS
MSS .               MUD TANK : MUD SAMPLE SOURCE
RMS .OHMM               1.08 : RESISTIVITY MUD SAMPLE
MST .DEGF                 75 : MUD SAMPLE TEMPERATURE
RMF .OHMM               0.72 : RESISTIVITY MUD FILTRATE SAMPLE
MFST.DEGF                 75 : MUD FILTRATE SAMPLE TEMPERATURE
RMC .OHMM               1.59 : RESISTIVITY MUD CAKE
MCST.DEGF                 75 : MUD CAKE SAMPLE TEMPERATURE
MFSS.                   MEAS : MUD FILTRATE SAMPLE SOURCE
MCSS.                   CALC : MUD CAKE SAMPLE SOURCE
RMB .OHMM              0.289 : RESISTIVITY MUD AT BHT
TCS .HRS                1500 : TIME CIRCULATED STOPPED
TLAB.HRS                1500 : TIME LOGGER AT BOTTOM
LUN .                   8248 : LOGGING UNIT NUMBER
LUL .             PLEASANTON : LOGGING UNIT LOCATION
ENGI.                 HOOPER : RECORDING ENGINEER
WITN.           WEIMER CARAM : WITNESSED BY
CLNT.                A2DTECH : CLIENT CODE
ORIG.               5" PRINT : ORIGIN OF DATA
UWI .         42025324790000 : UNIQUE WELL ID
DICO. A2D Technologies, Inc. : DIGITIZING COMPANY
~Other -----------------------------------------------------
~ASCII -----------------------------------------------------
# ...
 11300.00000   14.00020   12.75960  336.53040    4.25960   -0.00110    2.56040    -999.25    0.08750    0.08750    2.97150   -0.00110   78.11640   80.13630   78.11640   68.65800   63.50710   51.82220   51.82220    2.97150    2.86550    2.86550    3.39220    -999.25    0.21080    0.16720    2.76530   -0.60730   -3.52890    2.76530 3786.75630 4249.62940 3853.29370
 11350.00000   14.57570   12.79770  283.27010    4.29770   -0.00480    2.59000    -999.25    0.07020    0.07020    3.53020   -0.00480   77.32960   78.41930   77.32960   61.39750   61.62180   55.73150   55.73150    3.53020    3.28510    3.28510    4.95010    -999.25    0.18770    0.14440    3.17880   -1.92230   -4.87510    3.17880 3811.79880 4247.41700 3893.31450
 11400.00000   15.46190   13.05430  317.56110    4.55430   -0.00410    2.58170    -999.25    0.07500    0.07500    3.14900   -0.00410   77.36400   78.35020   77.36400   68.35970   73.27870   63.83590   63.83590    3.14900    2.99040    2.99040    4.78320    -999.25    0.19390    0.15060    2.90770   -1.52710   -4.51110    2.90770 3788.60080 4264.70310 3880.90650
 11450.00000   17.46590   13.64830  437.73260    5.14830    0.09970    2.36710    -999.25    0.20050    0.20050    2.28450    0.09970   85.23920   87.06930   85.23920   74.22190   66.64190   58.04030   58.04030    2.28450    2.10930    2.10930    2.52800    -999.25    0.27550    0.23150    2.04840   -1.56770   -4.58290    2.04840 3820.68140 4301.27340 3937.21360
 11500.00000   16.89000   13.47710  452.05910    4.97710    0.09200    2.31770    -999.25    0.22940    0.22940    2.21210    0.09200   84.71440   86.00980   84.71440   73.33500   73.01210   71.34430   71.34430    2.21210    2.13750    2.13750    3.20020    -999.25    0.27960    0.23560    2.25350   -1.68550   -4.73190    2.25350 3957.28930 4341.32080 3928.53960
 11550.00000   15.18710   13.07120  295.12450    4.57120   -0.01870    2.54620    -999.25    0.09580    0.09580    3.38840   -0.01870   76.06090   76.84860   76.06090   66.27830   63.26690   57.92390   57.92390    3.38840    3.29370    3.29370    5.85990    -999.25    0.16920    0.12630    3.25210   -2.01190   -5.08950    3.25210 3812.08910 4674.94970 3948.47780
 11600.00000   16.06850   13.60960  453.78230    5.10960    0.05270    2.30230    -999.25    0.23840    0.23840    2.20370    0.05270   83.15210   85.22830   83.15210   82.76610   81.50630   78.96510   78.96510    2.20370    2.12910    2.12910    2.47660    -999.25    0.30210    0.25810    2.02510   -1.02060   -4.12940    2.02510 3895.75390 4362.85600 3968.59500
 11650.00000   14.99960   13.08280  328.17010    4.58280   -0.00200    2.48410    -999.25    0.13210    0.13210    3.04720   -0.00200   78.23750   78.95160   78.23750   79.65840   69.94860   60.39280   60.39280    3.04720    2.94320    2.94320    4.92310    -999.25    0.18550    0.14230    2.97810    0.10130   -2.95000    2.97810 4016.00150 4373.98930 3994.64650
 11700.00000   15.16410   13.05680  343.85530    4.55680   -0.00560    2.47090    -999.25    0.13980    0.13980    2.90820   -0.00560   77.04320   79.18770   77.04320   74.99360   75.03040   59.74990   59.74990    2.90820    2.72280    2.72280    4.76720    -999.25    0.20710    0.16360    2.53340   -1.00590   -3.97880    2.53340 3870.92600 4388.55470 4024.15650
 11750.00000   15.26490   13.20630  337.32500    4.70630   -0.00140    2.59490    -999.25    0.06730    0.06730    2.96450   -0.00140   79.52870   80.62090   79.52870   85.53260   73.35270   69.02950   69.02950    2.96450    2.94910    2.94910    5.80610    -999.25    0.20510    0.16160    3.00250   -0.53700   -3.43150    3.00250 3875.78490 4619.01220 4037.12040
 11800.00000   15.00920   12.87440  301.16850    4.37440    0.00480    2.58430    -999.25    0.07350    0.07350    3.32040    0.00480   76.57040   79.91620   76.57040   70.82650   69.19440   61.79480   61.79480    3.32040    3.12280    3.12280    5.88970    -999.25    0.19110    0.14780    3.63590   -1.67800   -4.49410    3.63590 3934.57620 4425.12450 3996.94040
 11850.00000   16.05750   13.68840  309.58800    5.18840    0.03990    2.52360    -999.25    0.10900    0.10900    3.23010    0.03990   78.91180   79.33760   78.91180   64.45300   62.34880   50.50440   50.50440    3.23010    2.96860    2.96860    4.21880    -999.25    0.21050    0.16690    3.13580   -1.29680   -4.03450    3.13580 3889.70240 4421.50730 4033.63040
 11900.00000   15.36940   13.19340  321.65720    4.69340    0.01780    2.57270    -999.25    0.08030    0.08030    3.10890    0.01780   77.88830   78.79260   77.88830   72.13780   68.86110   61.12620   61.12620    3.10890    3.02440    3.02440    4.13910    -999.25    0.20490    0.16140    3.28250   -1.22670   -3.88600    3.28250 3933.92680 4428.59960 4050.89360
 11950.00000   15.70040   13.29230  328.04100    4.79230    0.01570    2.49810    -999.25    0.12390    0.12390    3.04840    0.01570   79.43330   80.47600   79.43330   68.85820   74.35510   60.00520   60.00520    3.04840    2.88540    2.88540    3.59830    -999.25    0.21600    0.17240    3.18560   -1.18210   -3.76300    3.18560 3968.83690 4499.12840 4067.94850
 12000.00000   14.65510   12.83750  313.72550    4.33750    0.01220    2.54550    -999.25    0.09620    0.09620    3.18750    0.01220   79.49100   80.23810   79.49100   64.37490   72.93240   55.95990   55.95990    3.18750    3.12140    3.12140    5.26380    -999.25    0.20930    0.16580    3.31950   -1.02460   -3.52710    3.31950 4107.21090 4455.32760 4095.31570
 12050.00000   14.21850   12.49880  334.17990    3.99880    0.00360    2.55130    -999.25    0.09280    0.09280    2.99240    0.00360   80.28240   80.60440   80.28240   68.61930   67.82670   65.24480   65.24480    2.99240    2.90050    2.90050    3.77520    -999.25    0.22910    0.18530    3.19920   -0.58330   -3.00730    3.19920 3990.52440 4529.99800 4120.46880
 12100.00000   14.01730   12.61910  303.52700    4.11910    0.03280    2.56210    -999.25    0.08650    0.08650    3.29460    0.03280   77.34720   77.59900   77.34720   68.46570   69.25960   63.35430   63.35430    3.29460    3.26270    3.26270    5.91290    -999.25    0.22360    0.17990    3.71400   -0.43490   -2.78060    3.71400 4210.90280 4524.99410 4154.55570
 12150.00000   14.09600   12.62730  301.35910    4.12730    0.01410    2.51300    -999.25    0.11520    0.11520    3.31830    0.01410   77.20230   78.07780   77.20230   68.66830   72.01270   64.70480   64.70480    3.31830    3.27020    3.27020    4.27880    -999.25    0.21680    0.17320    3.57860   -0.38470   -2.65200    3.57860 4019.52250 4538.92920 4134.42090
 12200.00000   16.02090   13.67910  448.67190    5.17910    0.00660    2.48820    -999.25    0.12970    0.12970    2.22880    0.00660   85.10550   87.18390   85.10550   71.62530   75.27360   67.50970   67.50970    2.22880    2.08880    2.08880    3.17320    -999.25    0.31860    0.27470    2.30570   -0.20460   -2.39350    2.30570 4044.86250 4530.97610 4173.26610
 12250.00000   15.66600   13.49040  439.07790    4.99040    0.10090    2.51250    -999.25    0.11550    0.11550    2.27750    0.10090   86.06650   87.62010   86.06650   72.34560   74.59610   68.09370   68.09370    2.27750    2.17880    2.17880    3.25170    -999.25    0.30010    0.25610    2.46380   -0.24340   -2.35380    2.46380 3845.91040 4663.34810 4148.00930
 12300.00000   15.04830   13.05680  398.66050    4.55680    0.07520    2.49420    -999.25    0.12620    0.12620    2.50840    0.07520   84.14640   87.03300   84.14640   64.30680   72.49780   61.04140   61.04140    2.50840    2.25920    2.25920    5.05950    -999.25    0.28900    0.24500    2.73080   -0.13230   -2.16440    2.73080 4512.65870 4640.06250 4197.89450
 12350.00000   15.23140   13.03450  403.22580    4.53450    0.10040    2.46820    -999.25    0.14140    0.14140    2.48000    0.10040   82.25030   83.56260   82.25030   73.80280   76.79020   62.54620   62.54620    2.48000    2.38000    2.38000    2.83890    -999.25    0.28300    0.23900    2.86500   -0.24160   -2.16060    2.86500 4058.82200 4889.77440 4202.66890
