~Version ---------------------------------------------------
VERS. 2.0 : CWLS log ASCII Standard -VERSION 2.0
WRAP. YES : Multiple lines per depth step
~Well ------------------------------------------------------
STRT.FT                    300.0 : START DEPTH
STOP.FT                  19600.0 : STOP DEPTH
STEP.FT                 50.00000 : STEP LENGTH
NULL.                    -999.25 : NULL VALUE
COMP. CITIES SERVICE OIL COMPANY : COMPANY
WELL.          PEELER RANCH A #1 : WELL
FLD .                    WILDCAT : FIELD
LOC .                            : LOCATION
CNTY.                   ATASCOSA : COUNTY
STAT.                      TEXAS : STATE
CTRY.   UNITED STATES OF AMERICA : COUNTRY
SRVC.               Schlumberger : SERVICE COMPANY
DATE.                12-Feb-1972 : LOGDATE
API .             42013301410000 : API NUMBER
UWI .             42013301410000 : UNIQUE WELL ID
SLAT.WGS84         28.6903618688 : SURFACE LATITUDE
SLON.WGS84        -98.4697337546 : SURFACE LONGITUDE
~Curve Information -----------------------------------------
DEPT  .FT    : DEPTH
ALL8ED.OHMM  : LATEROLOG-8 RESISTIVITY AMPLIFIED
ASNED .OHMM  : AMPLIFIED SHORT NORMAL 16 IN.
CALWS .IN    : CALIPER (CALSED)
CALSED.IN    : CALIPER FROM SONIC LOG (ADJ TO RES.)
CILDED.MMHO  : CONDUCTIVITY FROM LOG
CONDWS.MMHO  : CONDUCTIVITY (1000/DRESws)
DCORWS.G/C3  : DENSITY CORRECTION (DRHOED)
DENWS .G/C3  : BULK DENSITY  (RHOBED LS)
DPOWS .V/V   : DENSITY POROSITY (M=2.71 F=1 FROM DENws)
DRESWS.OHMM  : DEEP RESISTIVITY (IF ILDED<1, THEN 1000/CILDED)
DRHOED.G/C3  : DENSITY CORRECTION (ADJ TO RES.)
DTED  .US/F  : DELTA TIME  (ADJ TO RES.)
DTWS  .US/F  : DELTA TIME  (DTED)
GRDED .GAPI  : GAMMA RAY FROM DENSITY LOG (ADJ TO RES.)
GRWS  .GAPI  : GAMMA RAY (GRSED/GRDED @ 8498)
GRSED .GAPI  : GAMMA RAY FROM SONIC LOG (ADJ TO RES.)
ILDED .OHMM  : DEEP INDUCTION RESISTIVITY
NEUTED.CU    : NEUTRON FROM GAMMA RAY NEUTRON LOG (ADJ TO RES.)
NEUTWS.CU    : NEUTRON FROM GAMMA RAY NEUTRON LOG (NEUTED)
NPOWS .V/V   : NEUTRON POROSITY LIMESTONE (SNPED)
RHOBED.G/C3  : BULK DENSITY (ADJ TO RES.)
SNPED .V/V   : SIDEWALL NEUTRON POROSITY (ADJ TO RES.)
SPWS  .MV    : SPONTANEOUS POTENTIAL BASELINE 0 MV (SPRED)
SPRED .MMHO  : SPONTANEOUS POTENTIAL FROM RESISTIVITY
SRESWS.OHMM  : SHALLOW RESISTIVITY (ASNED/ALL8ED @ 12329)
~Params ----------------------------------------------------
PD  .                     GL : PERMANENT DATUM
EPD .F                   297 : ELEVATION PERMANENT DATUM
LMF .                     KB : LOG MEASURED FROM
DAPD.F                  30.5 : FEET ABOVE PERMANENT DATUM
DMF .                     KB : DRILLING MEASURED FROM
EKB .F                 327.5 : KELLING BUSHING
EDF .F                 326.5 : DRILLING FLOOR
EGL .F                   297 : GROUND LEVEL
DATE.             02-12-1972 : RUN DATE
RUN .                      9 : RUN NUMBER
DD  .F                 19629 : DEPTH DRILLER
DL  .F                 19635 : DEPTH LOGGER
BLI .F                 19628 : BOTTOM LOG INTERVAL
TLI .F                 19127 : TOP LOG INTERVAL
BS  .IN                  4.4 : BIT SIZE
BSD .F                 19629 : BIT SIZE AT DEPTH
DFT .       INVERMUL 43% OIL : DRILLING FLUID TYPE
DFD .                   19.1 : DRILLING FLUID DENSITY
DFV .                     88 : DRILLING FLUID VISCOSITY
TCS .HRS                  12 : TIME CURCULATED STOPPED
LUN .                   7504 : LOGGING UNIT NUMBER
LUL .                  PLEAS : LOGGING UNIT LOCATION
ENGI.               CLEMENTS : RECORDING ENGINEER
WITN.         GRIGSBY THOMAS : WITNESSED BY
CLNT.                A2DTECH : CLIENT CODE
ORIG.            2" 5" PRINT : ORIGIN OF DATA
UWI .         42013301410000 : UNIQUE WELL ID
DICO. A2D Technologies, Inc. : DIGITIZING COMPANY
~Other -----------------------------------------------------
~ASCII -----------------------------------------------------
# ...
 17100.00000    -999.25    -999.25    6.72400    6.72400  323.90440  403.74680   -0.05670    2.66250    0.02780    2.47680   -0.05670   73.18500   73.18500  115.23100  115.23100  110.98700    2.47680  729.96700  729.96700    -999.25    2.66250    -999.25    -999.25    -999.25    -999.25
 17150.00000    -999.25    -999.25    6.71800    6.71800  156.89240  161.49870   -0.03760    2.77740   -0.03940    6.19200   -0.03760   60.06000   60.06000   71.03300   71.03300   80.32200    6.19200 1105.61270 1105.61270    -999.25    2.77740    -999.25    -999.25    -999.25    -999.25
 17200.00000    -999.25    -999.25    6.71100    6.71100  265.48850  316.90700   -0.05900    2.72950   -0.01140    3.15550   -0.05900   69.78100   69.78100  114.82800  114.82800  116.34600    3.15550  619.09470  619.09470    -999.25    2.72950    -999.25    -999.25    -999.25    -999.25
 17250.00000    -999.25    -999.25    6.72500    6.72500  244.77470  280.86730   -0.05670    2.65950    0.02950    3.56040   -0.05670   71.17500   71.17500  107.62700  107.62700  101.91400    3.56040  931.13400  931.13400    -999.25    2.65950    -999.25    -999.25    -999.25    -999.25
 17300.00000    -999.25    -999.25    6.69600    6.69600  122.15140  161.49870   -0.05340    2.73880   -0.01680    6.19200   -0.05340   66.07600   66.07600  107.29300  107.29300   90.73300    6.19200  841.13100  841.13100    -999.25    2.73880    -999.25    -999.25    -999.25    -999.25
 17350.00000    -999.25    -999.25    6.72100    6.72100  119.57880  131.83740   -0.04900    2.75960   -0.02900    7.58510   -0.04900   64.80100   64.80100   93.36100   93.36100   95.80400    7.58510  760.61410  760.61410    -999.25    2.75960    -999.25    -999.25    -999.25    -999.25
 17400.00000    -999.25    -999.25    6.71800    6.71800  110.27860  135.00380   -0.05120    2.76800   -0.03390    7.40720   -0.05120   64.17200   64.17200  101.90200  101.90200   84.10800    7.40720  841.94020  841.94020    -999.25    2.76800    -999.25    -999.25    -999.25    -999.25
 17450.00000    -999.25    -999.25    6.73900    6.73900  150.99600  189.99850   -0.03760    2.76200   -0.03040    5.26320   -0.03760   64.28300   64.28300  106.00200  106.00200   86.63900    5.26320  808.82850  808.82850    -999.25    2.76200    -999.25    -999.25    -999.25    -999.25
 17500.00000    -999.25    -999.25    6.75600    6.75600  169.14780  322.99740   -0.05820    2.77110   -0.03570    3.09600   -0.05820   62.33100   62.33100  104.65500  104.65500   79.25200    3.09600  807.66400  807.66400    -999.25    2.77110    -999.25    -999.25    -999.25    -999.25
 17550.00000    -999.25    -999.25    6.73000    6.73000  133.46610  161.49870   -0.04750    2.73190   -0.01280    6.19200   -0.04750   58.54600   58.54600  100.23100  100.23100   67.75600    6.19200  973.49890  973.49890    -999.25    2.73190    -999.25    -999.25    -999.25    -999.25
 17600.00000    -999.25    -999.25    6.76700    6.76700  147.47010  133.96390   -0.04920    2.77430   -0.03760    7.46470   -0.04920   63.08800   63.08800   82.25800   82.25800   73.36400    7.46470  987.49480  987.49480    -999.25    2.77430    -999.25    -999.25    -999.25    -999.25
 17650.00000    -999.25    -999.25    6.75100    6.75100  119.12350  138.92360   -0.04980    2.77430   -0.03760    7.19820   -0.04980   61.93300   61.93300   62.21000   62.21000   66.28100    7.19820 1407.17110 1407.17110    -999.25    2.77430    -999.25    -999.25    -999.25    -999.25
 17700.00000    -999.25    -999.25    6.77000    6.77000  146.84120  143.55650   -0.04840    2.78820   -0.04570    6.96590   -0.04840   61.55500   61.55500   66.75400   66.75400   66.26400    6.96590  857.72030  857.72030    -999.25    2.78820    -999.25    -999.25    -999.25    -999.25
 17750.00000    -999.25    -999.25    6.79000    6.79000  118.01700   59.81760   -0.05370    2.67880    0.01820   16.71750   -0.05370   64.44200   64.44200   44.98300   44.98300   81.97700   16.71750 1588.59380 1588.59380    -999.25    2.67880    -999.25    -999.25    -999.25    -999.25
 17800.00000    -999.25    -999.25    6.80700    6.80700  103.70080   70.21730   -0.04060    2.84130   -0.07680   14.24150   -0.04060   61.74800   61.74800   52.43700   52.43700   71.48300   14.24150 1314.29720 1314.29720    -999.25    2.84130    -999.25    -999.25    -999.25    -999.25
 17850.00000    -999.25    -999.25    6.71800    6.71800   29.08370   34.49640   -0.04300    2.80820   -0.05740   28.98850   -0.04300   51.14600   51.14600   36.56900   36.56900   31.56300   28.98850 2157.47830 2157.47830    -999.25    2.80820    -999.25    -999.25    -999.25    -999.25
 17900.00000    -999.25    -999.25    6.77200    6.77200   85.48400   85.00000   -0.05850    2.82730   -0.06860   11.76470   -0.05850   59.42200   59.42200   64.26700   64.26700   64.04200   11.76470  902.54400  902.54400    -999.25    2.82730    -999.25    -999.25    -999.25    -999.25
 17950.00000    -999.25    -999.25    6.74900    6.74900   57.65510   68.72570   -0.06410    2.79740   -0.05110   14.55060   -0.06410   58.00800   58.00800   46.18400   46.18400   50.68400   14.55060 1126.13670 1126.13670    -999.25    2.79740    -999.25    -999.25    -999.25    -999.25
 18000.00000    -999.25    -999.25    6.78200    6.78200    -999.25    8.25410   -0.04680    2.93220   -0.12990  121.15250   -0.04680   51.85300   51.85300   21.04100   21.04100   14.65100  121.15250 2580.16210 2580.16210    -999.25    2.93220    -999.25    -999.25    -999.25    -999.25
 18050.00000    -999.25    -999.25    6.79900    6.79900   23.73360   24.33170   -0.05820    2.90000   -0.11110   41.09860   -0.05820   52.72900   52.72900   23.52800   23.52800   16.01800   41.09860 2532.70210 2532.70210    -999.25    2.90000    -999.25    -999.25    -999.25    -999.25
 18100.00000    -999.25    -999.25    6.79900    6.79900   96.11620   63.33200   -0.05530    2.85050   -0.08220   15.78980   -0.05530   57.74900   57.74900   32.82200   32.82200   34.84200   15.78980 2157.65010 2157.65010    -999.25    2.85050    -999.25    -999.25    -999.25    -999.25
 18150.00000    -999.25    -999.25    6.79800    6.79800   19.40810    4.74390   -0.04900    2.86660   -0.09160  210.79480   -0.04900   55.59800   55.59800   23.44400   23.44400   53.84300  210.79480 3116.19920 3116.19920    -999.25    2.86660    -999.25    -999.25    -999.25    -999.25
 18200.00000    -999.25    -999.25    6.64700    6.64700   13.94420    8.32020   -0.04140    2.87900   -0.09880  120.18900   -0.04140   51.89200   51.89200   25.59400   25.59400   46.22400  120.18900 3277.00290 3277.00290    -999.25    2.87900    -999.25    -999.25    -999.25    -999.25
 18250.00000    -999.25    -999.25    6.64700    6.64700    -999.25    4.89760   -0.03380    2.93760   -0.13310  204.17960   -0.03380   52.53000   52.53000   25.93500   25.93500   53.66500  204.17960 2277.79570 2277.79570    -999.25    2.93760    -999.25    -999.25    -999.25    -999.25
 18300.00000    -999.25    -999.25    6.62500    6.62500    -999.25   20.19040   -0.04620    2.92010   -0.12290   49.52860   -0.04620   50.85700   50.85700   23.07600   23.07600   44.05800   49.52860 2581.96340 2581.96340    -999.25    2.92010    -999.25    -999.25    -999.25    -999.25
 18350.00000    -999.25    -999.25    6.61100    6.61100  199.60160  199.60160   -0.04850    2.75350   -0.02540    5.01000   -0.04850   55.12000   55.12000   49.90200   49.90200   50.45700    0.56730  987.07620  987.07620    -999.25    2.75350    -999.25    -999.25    -999.25    -999.25
 18400.00000    -999.25    -999.25    6.60300    6.60300   61.70860   58.57610   -0.06670    2.88610   -0.10300   17.07180   -0.06670   57.35100   57.35100   34.68700   34.68700   58.96700   17.07180 2140.18770 2140.18770    -999.25    2.88610    -999.25    -999.25    -999.25    -999.25
 18450.00000    -999.25    -999.25    6.62700    6.62700   46.54710   87.69240   -0.06450    2.81280   -0.06010   11.40350   -0.06450   51.85300   51.85300   33.01500   33.01500   42.78300   11.40350 1850.64550 1850.64550    -999.25    2.81280    -999.25    -999.25    -999.25    -999.25
